~Version
 VERS              .         2.0                           : CWLS LOG ASCII STANDARD - VERSION 2.0
 WRAP              .         NO                            : ONE LINE PER DEPTH STEP
 DLM               .         SPACE                         : DELIMITING CHARACTER(SPACE TAB OR COMMA)
~Well Information
#_______________________________________________________________________________
#
#PARAMETER_NAME    .UNIT     VALUE                         : DESCRIPTION
#_______________________________________________________________________________
STRT               .M        860.8                         : First reference value
STOP               .M        1220.6                        : Last reference value
STEP               .M        0.2                           : Step increment
NULL               .         -9999                         : Missing value
COMP               .                                       : Company
WELL               .         1673                          : Well name
FLD                .         Узень                         : Field
LOC                .                                       : Location
CNTY               .                                       : County
STAT               .                                       : State
CTRY               .                                       : Country
SRVC               .                                       : Service Company
DATE               .                                       : Date
UWI                .                                       : Unique Well ID
Block              .         6а                            : 
Category           .         Нефтяная                      : 
Condition          .         Ликвидированная               : 
Date               .         18.04.1980                    : 
EREF               .m        84                            : 100.8
Gorizont           .         15                            : 14
Interpretator      .         Бекбулатова А.А.              : 
Kupol              .         Основной                      : osnovnoi
Mud                .         0                             : 
Mud_density        .         0                             : 
Mud_resistivity    .         0                             : 
NGDU               .         НГДУ-2                        : 
ORIGINALWELLNAME   .         1673                          : 
Spud_date          .         1980                          : 1961
Viscosity          .         0                             : 
X                  .m        44584.4                       : 46154
Y                  .m        85188.63                      : 85761.93
YEAR               .         2018                          : 
~Parameter Information Block
#_______________________________________________________________________________
#
#PARAMETER_NAME    .UNIT     VALUE                         : DESCRIPTION
#_______________________________________________________________________________
SET                .         LQC_KAZNIPI_Petrel            : 
TLFamily_CALI      .         Caliper                       : 
TLFamily_CILD      .         Conductivity                  : 
TLFamily_COLL      .         Net Reservoir Flag            : 
TLFamily_CSAT      .         Fluid Code                    : 
TLFamily_DEPT      .         Measured Depth                : 
TLFamily_GR        .         Russian Gamma Ray             : 
TLFamily_LLS       .         Lateral Log Resistivity       : 
TLFamily_MINV      .         Micro Gradient Resistivity    : 
TLFamily_MNOR      .         Micro Resistivity             : 
TLFamily_NGLD      .         Neutron Gamma                 : 
TLFamily_PHIE      .         Effective Porosity            : 
TLFamily_PHIEN     .         Effective Porosity            : 
TLFamily_PHIT      .         Porosity                      : 
TLFamily_PRMB      .         Permeability                  : 
TLFamily_PRMB_DGR  .         Permeability                  : 
TLFamily_RT        .         Formation Resistivity         : 
TLFamily_SOIL_ARCHIE .         Oil Saturation                : 
TLFamily_SOIL_DW   .         Oil Saturation                : 
TLFamily_SP        .         Spontaneous Potential         : 
TLFamily_VSH_FIN   .         Shale Volume                  : 
TLFamily_VSH_GR    .         Shale Volume                  : 
TLFamily_VSH_SP    .         Shale Volume                  : 
~Curve Information
#_______________________________________________________________________________
#
#LOGNAME           .UNIT     LOG_ID                        : DESCRIPTION
#_______________________________________________________________________________
DEPT               .M                                      : Колонка глубины 
CALI               .м                                      : Каверномер 
CILD               .мСм/м                                  : Индукционный каротаж 
COLL               .unitless                               : Описание 
CSAT               .unitless                               : Описание 
GR                 .uR/h                                   : Гамма каротаж 
LLS                .Ohmm                                   : Боковой каротаж 
MINV               .Ohmm                                   : Микро-градиент зонд 
MNOR               .Ohmm                                   : Микро-потенциал зонд 
NGLD               .у.е.                                   : Показания зонда НГК-60 аппаратуры ДРСТ-3-90 
PHIE               .д.ед.                                  : Описание 
PHIEN              .д.ед.                                  :  
PHIT               .д.ед.                                  : Описание 
PRMB               .mD                                     :  
PRMB_DGR           .mD                                     :  
RT                 .ohmm                                   : УЭС пласта 
SOIL_ARCHIE        .д.ед.                                  :  
SOIL_DW            .д.ед.                                  :  
SP                 .мВ                                     : Потенциал самополяризации 
VSH_FIN            .д.ед.                                  : Описание 
VSH_GR             .д.ед.                                  : Shale volume 
VSH_SP             .д.ед.                                  : Shale Volume 
~Ascii
# ...
1019.8     0.251      450        -9999      -9999      6.393      2.376      3.154      1.544      1.014      0.1271543  0.1271543  0.3260968  0.6344012  1.280799   2.222      0.0734152  0.4465128  94.088     0.602856   0.5864433  0.6192687 
1020       0.26       451        -9999      -9999      6.181      2.339      1.737      1.167      1.001      0.142485   0.142485   0.3329712  1.219904   1.6023     2.217      0.159987   0.4754554  94.088     0.5772309  0.535193   0.6192687 
1020.2     0.265      452        -9999      -9999      6.029      2.215      1.175      0.722      1.023      0.1379092  0.1379092  0.3213376  1.003622   1.881393   2.212      0.1348472  0.4564392  93.92      0.5558438  0.5012276  0.61046   
1020.4     0.254      450        -9999      -9999      5.97       1.893      1.678      1.133      1.009      0.1459372  0.1459372  0.3287408  1.413412   2.002386   2.222      0.1781894  0.4764988  94.088     0.5539504  0.4886322  0.6192687 
1020.6     0.252      445        -9999      -9999      6.122      1.904      2.458      1.619      1.001      0.1447041  0.1447041  0.3329712  1.341      1.705344   2.247      0.1764287  0.4819451  94.088     0.5705063  0.5217441  0.6192687 
1020.8     0.246      444        -9999      -9999      6.368      2.227      3.146      1.787      1.004      0.1334802  0.1334802  0.3313848  0.8308753  1.315076   2.252      0.1173528  0.4653136  94.088     0.5997109  0.580153   0.6192687 
1021       0.25       444        -9999      -9999      6.139      2.413      2.492      1.242      1.018      0.1350809  0.1350809  0.3239816  0.8895776  1.674993   2.252      0.1264691  0.4599557  94.088     0.5724264  0.5255841  0.6192687 
1021.2     0.253      444        -9999      -9999      6.139      2.263      2.827      1.519      1.032      0.1276777  0.1276777  0.3165784  0.6487229  1.674993   2.252      0.08251677 0.4405639  94.088     0.5724264  0.5255841  0.6192687 
1021.4     0.253      442        -9999      -9999      6.368      2.141      2.752      1.67       1.032      0.1186738  0.1186738  0.3165784  0.4418608  1.315076   2.262      0.02420914 0.4268901  94.088     0.5997109  0.580153   0.6192687 
1021.6     0.247      437        -9999      -9999      6.376      2.091      3.028      1.502      1.033      0.1170808  0.1170808  0.3160496  0.4128368  1.304009   2.288      0.01793664 0.4267893  94.172     0.6029358  0.5821585  0.6237131 
1021.8     0.245      430        -9999      -9999      6.257      2.128      2.534      1.46       1.049      0.1126885  0.1126885  0.3075888  0.3423129  1.478687   2.326      0          0.4135461  94.256     0.5906068  0.5530292  0.6281844 
1022       0.257      422        -9999      -9999      5.817      2.091      1.854      1.116      1.066      0.1172427  0.1172427  0.2985992  0.4156969  2.353652   2.37       0.03519225 0.4161849  94.507     0.5495653  0.4574245  0.641706  
1022.2     0.268      413        -9999      -9999      6.232      1.966      1.821      2.651      1.058      0.106677   0.106677   0.3028296  0.2648962  1.518259   2.421      0          0.4080059  94.507     0.5944017  0.5470973  0.641706  
1022.4     0.226      400        -9999      -9999      5.995      1.966      3.263      2.24       1.092      0.1019015  0.1019015  0.2848504  0.2160834  1.950195   2.5        0          0.3840059  94.004     0.5543905  0.4939302  0.614851  
1022.6     0.224      390        -9999      -9999      5.809      2.537      3.414      2.215      1.114      0.1022173  0.1022173  0.2732168  0.2190129  2.373626   2.564      0          0.3758273  93.333     0.5181805  0.4558487  0.5805123 
1022.8     0.224      382        -9999      -9999      5.589      2.958      4.009      2.441      1.134      0.1150057  0.1150057  0.2626408  0.3778706  2.994646   2.618      0.06363491 0.3932408  91.153     0.4473791  0.4145782  0.48018   
1023       0.224      374        -9999      -9999      5.343      2.933      4.114      2.861      1.143      0.1280532  0.1280532  0.2578816  0.6591952  3.883354   2.674      0.1557256  0.4169329  89.476     0.3934194  0.372839   0.4139998 
1023.2     0.224      369        -9999      -9999      5.165      3.33       4.454      3.558      1.152      0.1332216  0.1332216  0.2531224  0.821761   4.68674    2.71       0.1894281  0.4230466  88.553     0.3633358  0.345283   0.3813886 
1023.4     0.224      380        -9999      -9999      5.275      4.395      4.827      4.324      1.144      0.1356113  0.1356113  0.2573528  0.9099306  4.172578   2.632      0.1908694  0.4244529  88.386     0.3689136  0.3620615  0.3757657 
1023.6     0.224      414        -9999      -9999      5.267      6          6.253      6.253      1.164      0.122887   0.122887   0.2467768  0.5288395  4.207989   2.415      0.082043   0.3595519  88.805     0.3754235  0.3608142  0.3900328 
1023.8     0.227      463        -9999      -9999      5.597      5.768      2.766      3.057      1.16       0.1134523  0.1134523  0.248892   0.3536476  2.969444   2.16       0          0.3056151  89.224     0.4104232  0.4160113  0.4048352 
1024       0.238      507        -9999      -9999      5.919      3.268      1.418      1.948      1.125      0.1207277  0.1207277  0.2674     0.4823124  2.113225   1.972      0          0.3211339  89.392     0.4444614  0.478      0.4109229 
1024.2     0.255      537        -9999      -9999      6.249      2.128      1.016      0.664      1.053      0.1457168  0.1457168  0.3054736  1.40019    1.491235   1.862      0.1059412  0.4010167  89.56      0.4841115  0.5511241  0.4170989 
1024.4     0.269      562        -9999      -9999      6.495      1.483      1.041      0.504      0.996      0.1646507  0.1646507  0.3356152  3.139699   1.149966   1.779      0.1787945  0.4481754  89.727     0.5180743  0.6128222  0.4233265 
1024.6     0.265      577        -9999      -9999      6.665      1.285      1.041      0.378      0.961      0.1749427  0.1749427  0.3541232  4.869911   0.9609287  1.733      0.2114002  0.4715296  89.811     0.5429712  0.6594501  0.4264924 
1024.8     0.264      591        -9999      -9999      6.744      1.149      1.192      0.546      0.93       0.1859741  0.1859741  0.370516   7.795613   0.8839893  1.692      0.2438526  0.4919388  90.063     0.5592178  0.6823097  0.4361257 
1025       0.266      577        -9999      -9999      6.622      1.274      1.049      0.261      0.969      0.1700441  0.1700441  0.3498928  3.951725   1.005585   1.733      0.1916503  0.4617776  90.231     0.5449962  0.647331   0.4426614 
1025.2     0.262      562        -9999      -9999      6.757      1.347      0.932      0.529      0.98       0.1561833  0.1561833  0.344076   2.18802    0.8719324  1.779      0.1401516  0.4456545  90.482     0.5693719  0.6861467  0.4525971 
1025.4     0.25       548        -9999      -9999      6.926      1.274      1.133      0.68       0.994      0.1385382  0.1385382  0.3366728  1.030912   0.7293699  1.825      0.05688347 0.4199178  90.734     0.6004078  0.7380353  0.4627804 
1025.6     0.249      529        -9999      -9999      6.588      1.545      2.106      1.183      1.008      0.1447853  0.1447853  0.3292696  1.345656   1.04236    1.89       0.1072088  0.4312718  91.153     0.5590432  0.6379063  0.48018   
1025.8     0.254      502        -9999      -9999      6.283      1.805      1.334      1.645      1.015      0.1504834  0.1504834  0.325568   1.715837   1.438625   1.992      0.1577576  0.4501103  91.656     0.5305594  0.5592666  0.5018522 
1026       0.246      473        -9999      -9999      5.953      1.743      1.175      0.697      1.028      0.1527642  0.1527642  0.3186936  1.891132   2.038671   2.114      0.1915879  0.4621651  92.075     0.5028163  0.4850622  0.5205705 
1026.2     0.242      445        -9999      -9999      6.012      1.52       1.561      0.764      1.06       0.1337796  0.1337796  0.301772   0.8415506  1.915485   2.247      0.1181538  0.4326025  92.075     0.5090681  0.4975656  0.5205705 
1026.4     0.23       421        -9999      -9999      5.885      2.289      2.349      1.091      1.098      0.1217574  0.1217574  0.2816776  0.5039641  2.190506   2.375      0.06734851 0.40315    91.572     0.4846067  0.4710407  0.4981728 
