~Version
 VERS              .         2.0                           : CWLS LOG ASCII STANDARD - VERSION 2.0
 WRAP              .         NO                            : ONE LINE PER DEPTH STEP
 DLM               .         SPACE                         : DELIMITING CHARACTER(SPACE TAB OR COMMA)
~Well Information
#_______________________________________________________________________________
#
#PARAMETER_NAME    .UNIT     VALUE                         : DESCRIPTION
#_______________________________________________________________________________
STRT               .M        860.8                         : First reference value
STOP               .M        1220.6                        : Last reference value
STEP               .M        0.2                           : Step increment
NULL               .         -9999                         : Missing value
COMP               .                                       : Company
WELL               .         1673                          : Well name
FLD                .         Узень                         : Field
LOC                .                                       : Location
CNTY               .                                       : County
STAT               .                                       : State
CTRY               .                                       : Country
SRVC               .                                       : Service Company
DATE               .                                       : Date
UWI                .                                       : Unique Well ID
Block              .         6а                            : 
Category           .         Нефтяная                      : 
Condition          .         Ликвидированная               : 
Date               .         18.04.1980                    : 
EREF               .m        84                            : 100.8
Gorizont           .         15                            : 14
Interpretator      .         Бекбулатова А.А.              : 
Kupol              .         Основной                      : osnovnoi
Mud                .         0                             : 
Mud_density        .         0                             : 
Mud_resistivity    .         0                             : 
NGDU               .         НГДУ-2                        : 
ORIGINALWELLNAME   .         1673                          : 
Spud_date          .         1980                          : 1961
Viscosity          .         0                             : 
X                  .m        44584.4                       : 46154
Y                  .m        85188.63                      : 85761.93
YEAR               .         2018                          : 
~Parameter Information Block
#_______________________________________________________________________________
#
#PARAMETER_NAME    .UNIT     VALUE                         : DESCRIPTION
#_______________________________________________________________________________
SET                .         LQC_KAZNIPI_Petrel            : 
TLFamily_CALI      .         Caliper                       : 
TLFamily_CILD      .         Conductivity                  : 
TLFamily_COLL      .         Net Reservoir Flag            : 
TLFamily_CSAT      .         Fluid Code                    : 
TLFamily_DEPT      .         Measured Depth                : 
TLFamily_GR        .         Russian Gamma Ray             : 
TLFamily_LLS       .         Lateral Log Resistivity       : 
TLFamily_MINV      .         Micro Gradient Resistivity    : 
TLFamily_MNOR      .         Micro Resistivity             : 
TLFamily_NGLD      .         Neutron Gamma                 : 
TLFamily_PHIE      .         Effective Porosity            : 
TLFamily_PHIEN     .         Effective Porosity            : 
TLFamily_PHIT      .         Porosity                      : 
TLFamily_PRMB      .         Permeability                  : 
TLFamily_PRMB_DGR  .         Permeability                  : 
TLFamily_RT        .         Formation Resistivity         : 
TLFamily_SOIL_ARCHIE .         Oil Saturation                : 
TLFamily_SOIL_DW   .         Oil Saturation                : 
TLFamily_SP        .         Spontaneous Potential         : 
TLFamily_VSH_FIN   .         Shale Volume                  : 
TLFamily_VSH_GR    .         Shale Volume                  : 
TLFamily_VSH_SP    .         Shale Volume                  : 
~Curve Information
#_______________________________________________________________________________
#
#LOGNAME           .UNIT     LOG_ID                        : DESCRIPTION
#_______________________________________________________________________________
DEPT               .M                                      : Колонка глубины 
CALI               .м                                      : Каверномер 
CILD               .мСм/м                                  : Индукционный каротаж 
COLL               .unitless                               : Описание 
CSAT               .unitless                               : Описание 
GR                 .uR/h                                   : Гамма каротаж 
LLS                .Ohmm                                   : Боковой каротаж 
MINV               .Ohmm                                   : Микро-градиент зонд 
MNOR               .Ohmm                                   : Микро-потенциал зонд 
NGLD               .у.е.                                   : Показания зонда НГК-60 аппаратуры ДРСТ-3-90 
PHIE               .д.ед.                                  : Описание 
PHIEN              .д.ед.                                  :  
PHIT               .д.ед.                                  : Описание 
PRMB               .mD                                     :  
PRMB_DGR           .mD                                     :  
RT                 .ohmm                                   : УЭС пласта 
SOIL_ARCHIE        .д.ед.                                  :  
SOIL_DW            .д.ед.                                  :  
SP                 .мВ                                     : Потенциал самополяризации 
VSH_FIN            .д.ед.                                  : Описание 
VSH_GR             .д.ед.                                  : Shale volume 
VSH_SP             .д.ед.                                  : Shale Volume 
~Ascii
# ...
933.4      0.208      269        1          3          -9999      4.506      2.5        4.035      -9999      -9999      -9999      -9999      -9999      -9999      3.717      -9999      -9999      81.929     0.215993   -9999      0.2159925 
933.6      0.208      282        1          3          -9999      4.828      2.919      3.456      -9999      -9999      -9999      -9999      -9999      -9999      3.546      -9999      -9999      81.845     0.214568   -9999      0.2145681 
933.8      0.208      307        1          3          -9999      4.443      2.248      2.466      -9999      -9999      -9999      -9999      -9999      -9999      3.257      -9999      -9999      81.761     0.213158   -9999      0.2131584 
934        0.208      334        1          3          -9999      3.379      2.458      3.062      -9999      -9999      -9999      -9999      -9999      -9999      2.994      -9999      -9999      81.593     0.210382   -9999      0.2103823 
934.2000000000001 0.209      362        1          3          -9999      2.388      2.408      2.601      -9999      -9999      -9999      -9999      -9999      -9999      2.762      -9999      -9999      81.593     0.210382   -9999      0.2103823 
934.4      0.21       388        1          3          -9999      2.141      2.609      2.106      -9999      -9999      -9999      -9999      -9999      -9999      2.577      -9999      -9999      81.593     0.210382   -9999      0.2103823 
934.6      0.21       414        1          3          -9999      2.102      2.097      1.519      -9999      -9999      -9999      -9999      -9999      -9999      2.415      -9999      -9999      81.593     0.210382   -9999      0.2103823 
934.8      0.214      440        1          3          -9999      1.966      2.047      1.754      -9999      -9999      -9999      -9999      -9999      -9999      2.273      -9999      -9999      81.593     0.210382   -9999      0.2103823 
935        0.214      466        1          3          -9999      1.856      2.223      1.829      -9999      -9999      -9999      -9999      -9999      -9999      2.146      -9999      -9999      81.593     0.210382   -9999      0.2103823 
935.2000000000001 0.21       484        1          3          -9999      1.831      2.056      1.561      -9999      -9999      -9999      -9999      -9999      -9999      2.066      -9999      -9999      81.593     0.210382   -9999      0.2103823 
935.4      0.207      498        1          3          -9999      1.868      2.19       1.385      -9999      -9999      -9999      -9999      -9999      -9999      2.008      -9999      -9999      81.845     0.214568   -9999      0.2145681 
935.6      0.207      511        1          3          -9999      1.98       1.98       1.502      -9999      -9999      -9999      -9999      -9999      -9999      1.957      -9999      -9999      82.096     0.218868   -9999      0.218868  
935.8      0.207      524        1          3          -9999      2.054      1.846      1.192      -9999      -9999      -9999      -9999      -9999      -9999      1.908      -9999      -9999      82.348     0.223319   -9999      0.2233186 
936        0.209      538        1          3          -9999      2.091      1.997      1.401      -9999      -9999      -9999      -9999      -9999      -9999      1.859      -9999      -9999      82.516     0.226361   -9999      0.226361  
936.2000000000001 0.216      550        1          3          -9999      2.102      2.039      1.619      -9999      -9999      -9999      -9999      -9999      -9999      1.818      -9999      -9999      82.767     0.231021   -9999      0.2310206 
936.4      0.211      558        1          3          -9999      1.868      2.458      2.391      -9999      -9999      -9999      -9999      -9999      -9999      1.792      -9999      -9999      83.019     0.235838   -9999      0.2358382 
936.6      0.213      560        1          3          -9999      1.732      1.821      1.133      -9999      -9999      -9999      -9999      -9999      -9999      1.786      -9999      -9999      83.27      0.240778   -9999      0.2407778 
936.8      0.208      555        1          3          -9999      1.819      2.794      1.871      -9999      -9999      -9999      -9999      -9999      -9999      1.802      -9999      -9999      83.522     0.245881   -9999      0.2458812 
937        0.207      548        1          3          -9999      1.769      1.888      1.242      -9999      -9999      -9999      -9999      -9999      -9999      1.825      -9999      -9999      83.774     0.251131   -9999      0.2511309 
937.2000000000001 0.207      540        1          3          -9999      1.743      1.242      1.2        -9999      -9999      -9999      -9999      -9999      -9999      1.852      -9999      -9999      83.941     0.254692   -9999      0.2546917 
937.4      0.208      532        1          3          -9999      1.805      1.947      1.116      -9999      -9999      -9999      -9999      -9999      -9999      1.88       -9999      -9999      83.941     0.254692   -9999      0.2546917 
937.6      0.208      524        1          3          -9999      1.93       1.653      1.041      -9999      -9999      -9999      -9999      -9999      -9999      1.908      -9999      -9999      83.941     0.254692   -9999      0.2546917 
937.8      0.209      521        1          3          -9999      2.029      1.292      2.274      -9999      -9999      -9999      -9999      -9999      -9999      1.919      -9999      -9999      83.941     0.254692   -9999      0.2546917 
938        0.211      521        1          3          -9999      2.102      2.114      1.754      -9999      -9999      -9999      -9999      -9999      -9999      1.919      -9999      -9999      83.857     0.252893   -9999      0.2528925 
938.2000000000001 0.217      519        1          3          -9999      2.252      1.963      1.318      -9999      -9999      -9999      -9999      -9999      -9999      1.927      -9999      -9999      83.857     0.252893   -9999      0.2528925 
938.4      0.215      513        1          3          -9999      2.017      1.905      1.561      -9999      -9999      -9999      -9999      -9999      -9999      1.949      -9999      -9999      83.857     0.252893   -9999      0.2528925 
938.6      0.217      504        1          3          -9999      1.856      1.829      1.452      -9999      -9999      -9999      -9999      -9999      -9999      1.984      -9999      -9999      83.941     0.254692   -9999      0.2546917 
938.8      0.218      492        1          3          -9999      1.633      1.276      1.418      -9999      -9999      -9999      -9999      -9999      -9999      2.033      -9999      -9999      84.109     0.25834    -9999      0.2583404 
939        0.212      477        1          3          -9999      2.042      1.544      0.722      -9999      -9999      -9999      -9999      -9999      -9999      2.096      -9999      -9999      84.109     0.25834    -9999      0.2583404 
939.2000000000001 0.208      462        1          3          -9999      2.549      1.955      1.091      -9999      -9999      -9999      -9999      -9999      -9999      2.165      -9999      -9999      84.109     0.25834    -9999      0.2583404 
939.4      0.208      447        1          3          -9999      3.119      1.745      1.452      -9999      -9999      -9999      -9999      -9999      -9999      2.237      -9999      -9999      84.025     0.256508   -9999      0.2565076 
939.6      0.208      432        1          3          -9999      2.772      2.894      2.768      -9999      -9999      -9999      -9999      -9999      -9999      2.315      -9999      -9999      84.109     0.25834    -9999      0.2583404 
939.8      0.208      422        1          3          -9999      2.5        2.274      2.123      -9999      -9999      -9999      -9999      -9999      -9999      2.37       -9999      -9999      84.444     0.265818   -9999      0.2658179 
