~Version
 VERS              .         2.0                           : CWLS LOG ASCII STANDARD - VERSION 2.0
 WRAP              .         NO                            : ONE LINE PER DEPTH STEP
 DLM               .         SPACE                         : DELIMITING CHARACTER(SPACE TAB OR COMMA)
~Well Information
#_______________________________________________________________________________
#
#PARAMETER_NAME    .UNIT     VALUE                         : DESCRIPTION
#_______________________________________________________________________________
STRT               .M        860.8                         : First reference value
STOP               .M        1220.6                        : Last reference value
STEP               .M        0.2                           : Step increment
NULL               .         -9999                         : Missing value
COMP               .                                       : Company
WELL               .         1673                          : Well name
FLD                .         Узень                         : Field
LOC                .                                       : Location
CNTY               .                                       : County
STAT               .                                       : State
CTRY               .                                       : Country
SRVC               .                                       : Service Company
DATE               .                                       : Date
UWI                .                                       : Unique Well ID
Block              .         6а                            : 
Category           .         Нефтяная                      : 
Condition          .         Ликвидированная               : 
Date               .         18.04.1980                    : 
EREF               .m        84                            : 100.8
Gorizont           .         15                            : 14
Interpretator      .         Бекбулатова А.А.              : 
Kupol              .         Основной                      : osnovnoi
Mud                .         0                             : 
Mud_density        .         0                             : 
Mud_resistivity    .         0                             : 
NGDU               .         НГДУ-2                        : 
ORIGINALWELLNAME   .         1673                          : 
Spud_date          .         1980                          : 1961
Viscosity          .         0                             : 
X                  .m        44584.4                       : 46154
Y                  .m        85188.63                      : 85761.93
YEAR               .         2018                          : 
~Parameter Information Block
#_______________________________________________________________________________
#
#PARAMETER_NAME    .UNIT     VALUE                         : DESCRIPTION
#_______________________________________________________________________________
SET                .         LQC_KAZNIPI_Petrel            : 
TLFamily_CALI      .         Caliper                       : 
TLFamily_CILD      .         Conductivity                  : 
TLFamily_COLL      .         Net Reservoir Flag            : 
TLFamily_CSAT      .         Fluid Code                    : 
TLFamily_DEPT      .         Measured Depth                : 
TLFamily_GR        .         Russian Gamma Ray             : 
TLFamily_LLS       .         Lateral Log Resistivity       : 
TLFamily_MINV      .         Micro Gradient Resistivity    : 
TLFamily_MNOR      .         Micro Resistivity             : 
TLFamily_NGLD      .         Neutron Gamma                 : 
TLFamily_PHIE      .         Effective Porosity            : 
TLFamily_PHIEN     .         Effective Porosity            : 
TLFamily_PHIT      .         Porosity                      : 
TLFamily_PRMB      .         Permeability                  : 
TLFamily_PRMB_DGR  .         Permeability                  : 
TLFamily_RT        .         Formation Resistivity         : 
TLFamily_SOIL_ARCHIE .         Oil Saturation                : 
TLFamily_SOIL_DW   .         Oil Saturation                : 
TLFamily_SP        .         Spontaneous Potential         : 
TLFamily_VSH_FIN   .         Shale Volume                  : 
TLFamily_VSH_GR    .         Shale Volume                  : 
TLFamily_VSH_SP    .         Shale Volume                  : 
~Curve Information
#_______________________________________________________________________________
#
#LOGNAME           .UNIT     LOG_ID                        : DESCRIPTION
#_______________________________________________________________________________
DEPT               .M                                      : Колонка глубины 
CALI               .м                                      : Каверномер 
CILD               .мСм/м                                  : Индукционный каротаж 
COLL               .unitless                               : Описание 
CSAT               .unitless                               : Описание 
GR                 .uR/h                                   : Гамма каротаж 
LLS                .Ohmm                                   : Боковой каротаж 
MINV               .Ohmm                                   : Микро-градиент зонд 
MNOR               .Ohmm                                   : Микро-потенциал зонд 
NGLD               .у.е.                                   : Показания зонда НГК-60 аппаратуры ДРСТ-3-90 
PHIE               .д.ед.                                  : Описание 
PHIEN              .д.ед.                                  :  
PHIT               .д.ед.                                  : Описание 
PRMB               .mD                                     :  
PRMB_DGR           .mD                                     :  
RT                 .ohmm                                   : УЭС пласта 
SOIL_ARCHIE        .д.ед.                                  :  
SOIL_DW            .д.ед.                                  :  
SP                 .мВ                                     : Потенциал самополяризации 
VSH_FIN            .д.ед.                                  : Описание 
VSH_GR             .д.ед.                                  : Shale volume 
VSH_SP             .д.ед.                                  : Shale Volume 
~Ascii
# ...
1053.8     0.247      515        -9999      -9999      7.638      1.794      1.36       0.689      0.996      0.1802366  0.1802366  0.3356152  6.103469   2.150732   1.942      0.2715916  0.4899921  87.296     0.4708443  0.4745785  0.4671102 
1054       0.246      513        -9999      -9999      7.595      1.819      1.578      0.513      0.993      0.1833114  0.1833114  0.3372016  6.958725   2.254223   1.949      0.2834555  0.4957158  87.296     0.466334   0.4655579  0.4671102 
1054.2     0.251      513        -9999      -9999      7.671      1.966      1.427      1.41       0.984      0.184278   0.184278   0.3419608  7.251606   2.074543   1.949      0.2867302  0.5010277  87.463     0.4778266  0.4816196  0.4740335 
1054.4     0.257      513        -9999      -9999      7.824      1.941      1.058      0.982      0.997      0.1706231  0.1706231  0.3350864  4.050529   1.755087   1.949      0.237263   0.4794556  87.631     0.4983737  0.5156545  0.4810929 
1054.6     0.258      514        -9999      -9999      7.841      1.706      0.747      0.747      0.983      0.1761977  0.1761977  0.3424896  5.137683   1.722778   1.946      0.2577878  0.4923392  87.799     0.5039148  0.5195817  0.4882479 
1054.8     0.254      519        -9999      -9999      7.925      1.545      0.957      0.84       0.984      0.1712047  0.1712047  0.3419608  4.152267   1.571655   1.927      0.2354585  0.4836652  87.966     0.5174425  0.5394297  0.4954554 
1055       0.255      514        -9999      -9999      7.494      1.596      0.68       0.68       0.976      0.1916027  0.1916027  0.3461912  9.910716   2.517318   1.946      0.3100395  0.5118779  87.883     0.46845    0.4450387  0.4918613 
1055.2     0.255      513        -9999      -9999      7.621      1.757      1.091      1.049      0.973      0.1900954  0.1900954  0.3477776  9.293643   2.191067   1.949      0.3057791  0.5120957  87.715     0.4778249  0.4709915  0.4846583 
1055.4     0.258      513        -9999      -9999      7.214      1.98       1.234      0.907      0.972      0.20294    0.20294    0.3483064  16.07309   3.418568   1.949      0.3442081  0.5249648  87.799     0.4405042  0.3927605  0.4882479 
1055.6     0.255      516        -9999      -9999      7.231      1.743      1.133      0.705      0.959      0.2081317  0.2081317  0.3551808  20.05678   3.355638   1.938      0.3567722  0.5338994  87.966     0.4456035  0.3957516  0.4954554 
1055.8     0.255      513        -9999      -9999      7.57       1.497      0.814      0.664      0.964      0.1936096  0.1936096  0.3525368  10.79638   2.316667   1.949      0.3167669  0.5195739  88.134     0.4815975  0.4603925  0.5028024 
1056       0.259      508        -9999      -9999      7.688      1.706      0.89       0.814      0.965      0.1871246  0.1871246  0.352008   8.187655   2.036352   1.969      0.2995535  0.5151656  88.386     0.4996467  0.4852876  0.5140059 
1056.2     0.253      504        -9999      -9999      7.578      1.757      1.041      0.756      0.981      0.1806222  0.1806222  0.3435472  6.204682   2.296498   1.984      0.2802098  0.5029759  88.637     0.4937121  0.4620391  0.525385  
1056.4     0.246      499        -9999      -9999      7.417      1.904      1.51       0.865      0.987      0.1808132  0.1808132  0.3403744  6.255424   2.73834    2.004      0.2842488  0.5028563  88.889     0.4835189  0.430005   0.5370328 
1056.6     0.245      494        -9999      -9999      7.578      2.079      1.032      1.158      0.994      0.170524   0.170524   0.3366728  4.033441   2.296498   2.024      0.2502796  0.4905568  89.057     0.5034813  0.4620391  0.5449234 
1056.8     0.25       493        -9999      -9999      7.502      1.893      1.653      1.611      0.997      0.1701693  0.1701693  0.3350864  3.97289    2.495404   2.028      0.2496145  0.4891706  89.224     0.4997488  0.4466304  0.5528671 
1057       0.246      499        -9999      -9999      7.307      1.695      1.276      0.898      0.987      0.180934   0.180934   0.3403744  6.287729   3.088163   2.004      0.284665   0.5029857  89.308     0.4831529  0.409405   0.5569008 
1057.2     0.244      507        -9999      -9999      7.35       1.508      0.705      0.596      0.989      0.1785675  0.1785675  0.3393168  5.684088   2.946387   1.972      0.2709289  0.4954368  89.308     0.4871192  0.4173375  0.5569008 
1057.4     0.242      498        -9999      -9999      7.231      1.732      1.091      0.521      0.982      0.1858308  0.1858308  0.3430184  7.748088   3.355638   2.008      0.301764   0.5109439  89.308     0.4763262  0.3957516  0.5569008 
1057.6     0.246      492        -9999      -9999      7.384      1.966      1.477      0.89       0.979      0.1860809  0.1860809  0.3446048  7.831176   2.838907   2.033      0.3066192  0.5155786  88.889     0.4803756  0.4237185  0.5370328 
1057.8     0.246      493        -9999      -9999      7.451      2.153      1.049      1.536      0.971      0.1926088  0.1926088  0.3488352  10.34524   2.638448   2.028      0.3263542  0.5250298  88.302     0.4734133  0.4365796  0.5102469 
1058       0.251      502        -9999      -9999      7.756      2.091      1.1        1.225      0.974      0.1841482  0.1841482  0.3472488  7.211562   1.890496   1.992      0.2935637  0.5109051  87.799     0.4942443  0.5002407  0.4882479 
1058.2     0.246      513        -9999      -9999      7.705      1.918      0.722      0.865      0.962      0.1946966  0.1946966  0.3535944  11.30867   1.998867   1.949      0.3200902  0.5215001  87.463     0.4815085  0.4889834  0.4740335 
1058.4     0.25       524        -9999      -9999      7.773      1.706      0.622      0.965      0.955      0.1956017  0.1956017  0.357296   11.75373   1.855695   1.908      0.3160412  0.5203104  87.508     0.4899828  0.5040503  0.4759154 
1058.6     0.253      535        -9999      -9999      8.112      1.52       0.773      0.798      0.942      0.1868567  0.1868567  0.3641704  8.094645   1.281135   1.869      0.2813138  0.5123284  87.799     0.5373142  0.5863805  0.4882479 
1058.8     0.251      544        -9999      -9999      8.425      1.322      0.613      0.664      0.969      0.1544445  0.1544445  0.3498928  2.031633   0.9099657  1.838      0.144919   0.4580501  88.302     0.5922676  0.6742883  0.5102469 
1059       0.246      553        -9999      -9999      8.755      1.409      0.672      0.496      0.976      0.129955   0.129955   0.3461912  0.7148905  0.6344329  1.808      0          0.4140844  88.721     0.6552613  0.7812799  0.5292426 
1059.2     0.251      556        -9999      -9999      8.476      1.497      0.605      0.697      0.977      0.1419312  0.1419312  0.3456624  1.191427   0.8606317  1.799      0.0703114  0.4304867  89.057     0.6173674  0.6898115  0.5449234 
1059.4     0.255      555        -9999      -9999      8.891      1.483      0.814      0.974      0.967      0.125718   0.125718   0.3509504  0.5967063  0.5468035  1.802      0          0.4113824  89.476     0.6825224  0.8        0.5650447 
1059.6     0.248      549        -9999      -9999      8.247      1.483      0.571      0.513      0.978      0.1471008  0.1471008  0.3451336  1.485324   1.10539    1.821      0.1039583  0.4407949  89.727     0.6000995  0.6227952  0.5774037 
1059.8     0.249      539        -9999      -9999      8.01       1.571      0.705      0.714      0.986      0.1531844  0.1531844  0.3409032  1.925329   1.432224   1.855      0.1425087  0.4499922  89.727     0.5688448  0.5602859  0.5774037 
1060       0.247      529        -9999      -9999      8.019      1.769      0.739      0.756      0.989      0.1512259  0.1512259  0.3393168  1.771044   1.418205   1.89       0.1404178  0.4508781  89.727     0.5699723  0.5625408  0.5774037 
1060.2     0.246      518        -9999      -9999      8.222      1.98       1.091      0.957      0.994      0.14449    0.14449    0.3366728  1.328811   1.13601    1.931      0.1145816  0.4447306  89.14      0.5823721  0.6158853  0.5488589 
1060.4     0.246      508        -9999      -9999      7.553      2.091      1.209      0.923      1.002      0.1697268  0.1697268  0.3324424  3.898612   2.360114   1.969      0.2374183  0.4785219  88.721     0.4930777  0.4569127  0.5292426 
