~Version
 VERS              .         2.0                           : CWLS LOG ASCII STANDARD - VERSION 2.0
 WRAP              .         NO                            : ONE LINE PER DEPTH STEP
 DLM               .         SPACE                         : DELIMITING CHARACTER(SPACE TAB OR COMMA)
~Well Information
#_______________________________________________________________________________
#
#PARAMETER_NAME    .UNIT     VALUE                         : DESCRIPTION
#_______________________________________________________________________________
STRT               .M        860.8                         : First reference value
STOP               .M        1220.6                        : Last reference value
STEP               .M        0.2                           : Step increment
NULL               .         -9999                         : Missing value
COMP               .                                       : Company
WELL               .         1673                          : Well name
FLD                .         Узень                         : Field
LOC                .                                       : Location
CNTY               .                                       : County
STAT               .                                       : State
CTRY               .                                       : Country
SRVC               .                                       : Service Company
DATE               .                                       : Date
UWI                .                                       : Unique Well ID
Block              .         6а                            : 
Category           .         Нефтяная                      : 
Condition          .         Ликвидированная               : 
Date               .         18.04.1980                    : 
EREF               .m        84                            : 100.8
Gorizont           .         15                            : 14
Interpretator      .         Бекбулатова А.А.              : 
Kupol              .         Основной                      : osnovnoi
Mud                .         0                             : 
Mud_density        .         0                             : 
Mud_resistivity    .         0                             : 
NGDU               .         НГДУ-2                        : 
ORIGINALWELLNAME   .         1673                          : 
Spud_date          .         1980                          : 1961
Viscosity          .         0                             : 
X                  .m        44584.4                       : 46154
Y                  .m        85188.63                      : 85761.93
YEAR               .         2018                          : 
~Parameter Information Block
#_______________________________________________________________________________
#
#PARAMETER_NAME    .UNIT     VALUE                         : DESCRIPTION
#_______________________________________________________________________________
SET                .         LQC_KAZNIPI_Petrel            : 
TLFamily_CALI      .         Caliper                       : 
TLFamily_CILD      .         Conductivity                  : 
TLFamily_COLL      .         Net Reservoir Flag            : 
TLFamily_CSAT      .         Fluid Code                    : 
TLFamily_DEPT      .         Measured Depth                : 
TLFamily_GR        .         Russian Gamma Ray             : 
TLFamily_LLS       .         Lateral Log Resistivity       : 
TLFamily_MINV      .         Micro Gradient Resistivity    : 
TLFamily_MNOR      .         Micro Resistivity             : 
TLFamily_NGLD      .         Neutron Gamma                 : 
TLFamily_PHIE      .         Effective Porosity            : 
TLFamily_PHIEN     .         Effective Porosity            : 
TLFamily_PHIT      .         Porosity                      : 
TLFamily_PRMB      .         Permeability                  : 
TLFamily_PRMB_DGR  .         Permeability                  : 
TLFamily_RT        .         Formation Resistivity         : 
TLFamily_SOIL_ARCHIE .         Oil Saturation                : 
TLFamily_SOIL_DW   .         Oil Saturation                : 
TLFamily_SP        .         Spontaneous Potential         : 
TLFamily_VSH_FIN   .         Shale Volume                  : 
TLFamily_VSH_GR    .         Shale Volume                  : 
TLFamily_VSH_SP    .         Shale Volume                  : 
~Curve Information
#_______________________________________________________________________________
#
#LOGNAME           .UNIT     LOG_ID                        : DESCRIPTION
#_______________________________________________________________________________
DEPT               .M                                      : Колонка глубины 
CALI               .м                                      : Каверномер 
CILD               .мСм/м                                  : Индукционный каротаж 
COLL               .unitless                               : Описание 
CSAT               .unitless                               : Описание 
GR                 .uR/h                                   : Гамма каротаж 
LLS                .Ohmm                                   : Боковой каротаж 
MINV               .Ohmm                                   : Микро-градиент зонд 
MNOR               .Ohmm                                   : Микро-потенциал зонд 
NGLD               .у.е.                                   : Показания зонда НГК-60 аппаратуры ДРСТ-3-90 
PHIE               .д.ед.                                  : Описание 
PHIEN              .д.ед.                                  :  
PHIT               .д.ед.                                  : Описание 
PRMB               .mD                                     :  
PRMB_DGR           .mD                                     :  
RT                 .ohmm                                   : УЭС пласта 
SOIL_ARCHIE        .д.ед.                                  :  
SOIL_DW            .д.ед.                                  :  
SP                 .мВ                                     : Потенциал самополяризации 
VSH_FIN            .д.ед.                                  : Описание 
VSH_GR             .д.ед.                                  : Shale volume 
VSH_SP             .д.ед.                                  : Shale Volume 
~Ascii
# ...
1169.4     0.225      565        -9999      -9999      8.772      1.78       1.502      0.697      1.061      0.1287473  0.1287473  0.3012432  0.6790023  2.013779   1.77       0          0.3590266  85.786     0.5227147  0.4875016  0.5579278 
1169.6     0.221      563        -9999      -9999      8.772      1.743      1.309      1.066      1.054      0.132114   0.132114   0.3049448  0.7838457  2.013779   1.776      0.01828019 0.3710825  85.828     0.5237296  0.4875016  0.5599575 
1169.8     0.219      559        -9999      -9999      8.611      1.78       1.182      0.972      1.061      0.1360209  0.1360209  0.3012432  0.9259667  2.597836   1.789      0.04615498 0.3754673  85.87      0.5006736  0.4393537  0.5619935 
1170       0.227      555        -9999      -9999      8.256      1.819      1.049      0.873      1.059      0.1519326  0.1519326  0.3023008  1.825237   4.554928   1.802      0.1367095  0.4048325  85.87      0.4556611  0.3493286  0.5619935 
1170.2     0.22       552        -9999      -9999      8.433      1.842      1.125      0.89       1.066      0.1398958  0.1398958  0.2985992  1.092364   3.44263    1.812      0.07476997 0.3826652  86.038     0.4809195  0.3916372  0.5702018 
1170.4     0.217      551        -9999      -9999      8.518      1.757      1.108      0.882      1.063      0.1364721  0.1364721  0.3001856  0.9439589  3.009532   1.815      0.0553203  0.3793786  86.205     0.4961015  0.4137396  0.5784634 
1170.6     0.217      549        -9999      -9999      8.577      1.881      1.125      0.823      1.071      0.1282016  0.1282016  0.2959552  0.663381   2.741376   1.821      0.004001306 0.360003   86.373     0.5083442  0.4298105  0.586878  
1170.8     0.217      545        -9999      -9999      8.374      1.966      1.234      0.58       1.064      0.1392123  0.1392123  0.2996568  1.060981   3.779381   1.835      0.07629849 0.386743   86.541     0.4861954  0.3769936  0.5953971 
1171       0.217      541        -9999      -9999      8.01       1.93       1.401      1.175      1.055      0.1548715  0.1548715  0.304416   2.06897    6.721595   1.848      0.1609784  0.4191257  86.792     0.4531652  0.2980092  0.6083212 
1171.2     0.218      536        -9999      -9999      8.027      1.893      1.485      0.974      1.045      0.1581675  0.1581675  0.309704   2.381242   6.543255   1.866      0.1799652  0.4326518  86.96      0.4592016  0.3012994  0.6171039 
1171.4     0.218      531        -9999      -9999      7.934      1.856      1.343      0.949      1.031      0.1670022  0.1670022  0.3171072  3.470917   7.580208   1.883      0.2212015  0.454984   87.128     0.4548635  0.2837338  0.6259934 
1171.6     0.218      527        -9999      -9999      8.027      1.78       1.477      0.89       1.042      0.1568026  0.1568026  0.3112904  2.24658    6.543255   1.898      0.1803183  0.4373172  87.296     0.4681449  0.3012994  0.6349903 
1171.8     0.218      522        -9999      -9999      8.061      1.819      1.435      0.798      1.054      0.147102   0.147102   0.3049448  1.485402   6.20066    1.916      0.1372656  0.418682   87.547     0.4783115  0.3079891  0.6486339 
1172       0.22       515        -9999      -9999      8.34       1.868      1.469      0.873      1.067      0.1324441  0.1324441  0.2980704  0.7949593  3.988199   1.942      0.06063739 0.3905095  87.296     0.5018977  0.3688051  0.6349903 
1172.2     0.221      507        -9999      -9999      8.112      1.794      1.326      1.066      1.082      0.1357962  0.1357962  0.2901384  0.9171337  5.720088   1.972      0.08745337 0.3907503  86.96      0.4677037  0.3183035  0.6171039 
1172.4     0.218      497        -9999      -9999      7.756      1.695      1.443      0.89       1.091      0.1468128  0.1468128  0.2853792  1.467192   10.04522   2.012      0.1553867  0.4087369  86.373     0.4198983  0.2529186  0.586878  
1172.6     0.216      477        -9999      -9999      7.257      1.794      1.544      0.764      1.098      0.1567831  0.1567831  0.2816776  2.244715   22.11824   2.096      0.2175271  0.430989   86.109     0.3784682  0.1832347  0.5737016 
1172.8     0.214      452        -9999      -9999      7.434      1.819      1.41       0.814      1.116      0.1455348  0.1455348  0.2721592  1.389363   16.71703   2.212      0.1859494  0.4175968  85.87      0.3837102  0.205427   0.5619935 
1173       0.213      418        -9999      -9999      7.299      2.017      1.301      1.041      1.132      0.1470391  0.1470391  0.2636984  1.481424   20.69658   2.392      0.2222895  0.4314459  84.948     0.353513   0.1882734  0.5187526 
1173.2     0.213      388        -9999      -9999      7.062      2.302      2.5        2.257      1.155      0.1526455  0.1526455  0.251536   1.881583   30.10975   2.577      0.273088   0.444865   83.019     0.2996682  0.1615507  0.4377857 
1173.4     0.213      348        -9999      -9999      6.689      2.698      2.307      1.896      1.176      0.1629889  0.1629889  0.2404312  2.924883   54.31772   2.874      0.3476928  0.4743175  80.252     0.2346735  0.1269637  0.3423834 
1173.6     0.213      301        6          6          6.613      3.243      2.148      2.676      1.195      0.1667286  0.1667286  0.230384   3.430644   61.25624   3.322      0.4024849  0.50335    77.317     0.1928952  0.1208818  0.2649085 
1173.8     0.213      273        6          6          6.122      6.601      2.357      2.534      1.212      0.1683536  0.1683536  0.2213944  3.676844   133.1821   3.663      0.4340659  0.5179081  75.807     0.1607297  0.08803029 0.233429  
1174       0.213      244        6          6          5.919      8.596      2.542      3.649      1.227      0.1667831  0.1667831  0.2134624  3.438636   183.6106   4.098      0.4586959  0.532637   74.214     0.1414524  0.07721277 0.2056919 
1174.2     0.213      217        6          6          5.716      15.1       3.817      3.951      1.244      0.1627448  0.1627448  0.2044728  2.894586   253.1337   4.608      0.4766308  0.5434638  72.788     0.1264486  0.06772456 0.1851726 
1174.4     0.216      195        6          6          5.546      18.569     3.607      3.984      1.259      0.1557927  0.1557927  0.1965408  2.151875   331.2323   5.128      0.482952   0.5489846  72.872     0.1234791  0.06068201 0.1862762 
1174.6     0.216      188        6          6          5.944      12.127     3.188      3.691      1.25       0.1548457  0.1548457  0.2013     2.066692   176.4917   5.319      0.489043   0.5621194  74.046     0.1407707  0.07846966 0.2030717 
1174.8     0.216      184        6          6          6.308      8.967      3.481      3.339      1.239      0.1516868  0.1516868  0.2071168  1.806196   99.23661   5.435      0.4850278  0.5702353  75.975     0.1679699  0.09926735 0.2366725 
1175       0.216      185        6          6          6.732      7.729      3.599      3.875      1.223      0.1518618  0.1518618  0.2155776  1.819728   50.74611   5.405      0.4842067  0.5792086  76.897     0.1930782  0.1305393  0.2556171 
1175.2     0.216      191        6          6          6.977      8.348      3.959      3.515      1.216      0.1487375  0.1487375  0.2192792  1.592714   34.44277   5.236      0.4668952  0.5730715  77.736     0.2137627  0.1529205  0.274605  
1175.4     0.215      203        6          6          7.231      9.772      4.001      3.062      1.204      0.1462636  0.1462636  0.2256248  1.433225   23.04684   4.926      0.4433339  0.5642009  78.784     0.2404885  0.1801833  0.3007938 
1175.6     0.214      227        -9999      -9999      7.511      8.41       3.531      3.976      1.208      0.1334559  0.1334559  0.2235096  0.8300124  14.80007   4.405      0.3646114  0.5190244  79.832     0.2728902  0.2159019  0.3298784 
1175.8     0.213      257        -9999      -9999      7.079      4.494      3.179      3.498      1.194      0.1444466  0.1444466  0.2309128  1.326357   29.31087   3.891      0.3713758  0.5138758  80.839     0.2620187  0.1633343  0.360703  
1176       0.212      304        -9999      -9999      7.282      3.255      4.077      2.861      1.17       0.1482767  0.1482767  0.243604   1.56172    21.26065   3.289      0.335114   0.4932274  81.761     0.2888705  0.1862174  0.3915237 
