~Version
 VERS              .         2.0                           : CWLS LOG ASCII STANDARD - VERSION 2.0
 WRAP              .         NO                            : ONE LINE PER DEPTH STEP
 DLM               .         SPACE                         : DELIMITING CHARACTER(SPACE TAB OR COMMA)
~Well Information
#_______________________________________________________________________________
#
#PARAMETER_NAME    .UNIT     VALUE                         : DESCRIPTION
#_______________________________________________________________________________
STRT               .M        860.8                         : First reference value
STOP               .M        1220.6                        : Last reference value
STEP               .M        0.2                           : Step increment
NULL               .         -9999                         : Missing value
COMP               .                                       : Company
WELL               .         1673                          : Well name
FLD                .         Узень                         : Field
LOC                .                                       : Location
CNTY               .                                       : County
STAT               .                                       : State
CTRY               .                                       : Country
SRVC               .                                       : Service Company
DATE               .                                       : Date
UWI                .                                       : Unique Well ID
Block              .         6а                            : 
Category           .         Нефтяная                      : 
Condition          .         Ликвидированная               : 
Date               .         18.04.1980                    : 
EREF               .m        84                            : 100.8
Gorizont           .         15                            : 14
Interpretator      .         Бекбулатова А.А.              : 
Kupol              .         Основной                      : osnovnoi
Mud                .         0                             : 
Mud_density        .         0                             : 
Mud_resistivity    .         0                             : 
NGDU               .         НГДУ-2                        : 
ORIGINALWELLNAME   .         1673                          : 
Spud_date          .         1980                          : 1961
Viscosity          .         0                             : 
X                  .m        44584.4                       : 46154
Y                  .m        85188.63                      : 85761.93
YEAR               .         2018                          : 
~Parameter Information Block
#_______________________________________________________________________________
#
#PARAMETER_NAME    .UNIT     VALUE                         : DESCRIPTION
#_______________________________________________________________________________
SET                .         LQC_KAZNIPI_Petrel            : 
TLFamily_CALI      .         Caliper                       : 
TLFamily_CILD      .         Conductivity                  : 
TLFamily_COLL      .         Net Reservoir Flag            : 
TLFamily_CSAT      .         Fluid Code                    : 
TLFamily_DEPT      .         Measured Depth                : 
TLFamily_GR        .         Russian Gamma Ray             : 
TLFamily_LLS       .         Lateral Log Resistivity       : 
TLFamily_MINV      .         Micro Gradient Resistivity    : 
TLFamily_MNOR      .         Micro Resistivity             : 
TLFamily_NGLD      .         Neutron Gamma                 : 
TLFamily_PHIE      .         Effective Porosity            : 
TLFamily_PHIEN     .         Effective Porosity            : 
TLFamily_PHIT      .         Porosity                      : 
TLFamily_PRMB      .         Permeability                  : 
TLFamily_PRMB_DGR  .         Permeability                  : 
TLFamily_RT        .         Formation Resistivity         : 
TLFamily_SOIL_ARCHIE .         Oil Saturation                : 
TLFamily_SOIL_DW   .         Oil Saturation                : 
TLFamily_SP        .         Spontaneous Potential         : 
TLFamily_VSH_FIN   .         Shale Volume                  : 
TLFamily_VSH_GR    .         Shale Volume                  : 
TLFamily_VSH_SP    .         Shale Volume                  : 
~Curve Information
#_______________________________________________________________________________
#
#LOGNAME           .UNIT     LOG_ID                        : DESCRIPTION
#_______________________________________________________________________________
DEPT               .M                                      : Колонка глубины 
CALI               .м                                      : Каверномер 
CILD               .мСм/м                                  : Индукционный каротаж 
COLL               .unitless                               : Описание 
CSAT               .unitless                               : Описание 
GR                 .uR/h                                   : Гамма каротаж 
LLS                .Ohmm                                   : Боковой каротаж 
MINV               .Ohmm                                   : Микро-градиент зонд 
MNOR               .Ohmm                                   : Микро-потенциал зонд 
NGLD               .у.е.                                   : Показания зонда НГК-60 аппаратуры ДРСТ-3-90 
PHIE               .д.ед.                                  : Описание 
PHIEN              .д.ед.                                  :  
PHIT               .д.ед.                                  : Описание 
PRMB               .mD                                     :  
PRMB_DGR           .mD                                     :  
RT                 .ohmm                                   : УЭС пласта 
SOIL_ARCHIE        .д.ед.                                  :  
SOIL_DW            .д.ед.                                  :  
SP                 .мВ                                     : Потенциал самополяризации 
VSH_FIN            .д.ед.                                  : Описание 
VSH_GR             .д.ед.                                  : Shale volume 
VSH_SP             .д.ед.                                  : Shale Volume 
~Ascii
# ...
1108.2     0.226      329        6          6          6.418      5.944      2.114      2.047      1.128      0.1746926  0.1746926  0.2658136  4.818248   50.22145   3.04       0.393456   0.5251588  85.535     0.2761242  0.1310945  0.4211539 
1108.4     0.228      335        6          6          6.655      3.181      1.209      1.36       1.101      0.1849716  0.1849716  0.2800912  7.469316   33.14968   2.985      0.4179544  0.5461288  85.535     0.2882413  0.1553287  0.4211539 
1108.6     0.238      351        -9999      -9999      6.952      2.289      0.949      0.982      1.076      0.1921213  0.1921213  0.2933112  10.13235   19.69682   2.849      0.424407   0.5548795  85.535     0.3066362  0.1921184  0.4211539 
1108.8     0.232      372        -9999      -9999      7.324      1.893      1.242      0.873      1.054      0.1935711  0.1935711  0.3049448  10.77866   10.26175   2.688      0.412339   0.5535824  85.618     0.337496   0.2507257  0.4242664 
1109       0.226      397        -9999      -9999      7.434      1.794      1.058      1.091      1.035      0.1970327  0.1970327  0.314992   12.49346   8.462264   2.519      0.4034373  0.5509043  86.122     0.3574523  0.2712629  0.4436418 
1109.2     0.233      420        -9999      -9999      7.739      1.941      1.091      1.343      1.026      0.1846698  0.1846698  0.3197512  7.373788   4.958083   2.381      0.3518892  0.5301936  87.044     0.4093376  0.3374383  0.4812368 
1109.4     0.237      439        -9999      -9999      7.849      1.893      1.729      1.251      1.023      0.1743854  0.1743854  0.3213376  4.755537   4.088641   2.278      0.3044378  0.5101912  88.05      0.4453095  0.3650783  0.5255408 
1109.6     0.247      456        -9999      -9999      7.722      1.98       1.251      0.84       1.017      0.178918   0.178918   0.3245104  5.769701   5.108041   2.193      0.3075631  0.5087299  88.553     0.4411892  0.3333576  0.5490208 
1109.8     0.255      473        -9999      -9999      7.604      1.78       0.835      0.479      1.024      0.1769996  0.1769996  0.3208088  5.316433   6.281722   2.114      0.2888932  0.4939989  88.889     0.4357853  0.30636    0.5652106 
1110       0.241      479        -9999      -9999      7.375      1.421      1.326      1.108      1.023      0.1831304  0.1831304  0.3213376  6.905212   9.384235   2.088      0.3056521  0.4981482  89.14      0.4188097  0.2600467  0.5775728 
1110.2     0.242      476        -9999      -9999      7.595      2.065      1.091      1.561      1.039      0.164562   0.164562   0.3128768  3.127853   6.381602   2.101      0.2401092  0.4697489  89.476     0.4494386  0.3043928  0.5944843 
1110.4     0.239      460        -9999      -9999      7.477      2.636      1.863      1.242      1.051      0.1601543  0.1601543  0.3065312  2.591816   7.847907   2.174      0.2342979  0.466558   89.727     0.4435664  0.2797411  0.6073917 
1110.6     0.239      441        -9999      -9999      7.587      3.193      0.949      0.739      1.067      0.1457352  0.1457352  0.2980704  1.401289   6.471717   2.268      0.1850712  0.4489957  89.979     0.4616218  0.302655   0.6205885 
1110.8     0.248      430        -9999      -9999      7.485      2.97       0.982      0.664      1.078      0.1412169  0.1412169  0.2922536  1.155679   7.73863    2.326      0.1722748  0.4425767  90.231     0.4576871  0.2813474  0.6340268 
1111       0.253      419        -9999      -9999      7.417      2.339      0.747      0.479      1.076      0.1399336  0.1399336  0.2933112  1.094129   8.718217   2.387      0.1757419  0.4490635  90.734     0.4647805  0.2679824  0.6615787 
1111.2     0.25       430        -9999      -9999      7.544      1.918      2.609      2.525      1.073      0.1301921  0.1301921  0.2948976  0.722157   6.978338   2.326      0.1115509  0.4284391  91.488     0.4991077  0.2934824  0.7047329 
1111.4     0.242      431        -9999      -9999      7.807      1.794      2.29       1.77       1.076      0.1119238  0.1119238  0.2933112  0.3313287  4.400988   2.32       0          0.3930802  92.159     0.5496587  0.3542673  0.7450501 
1111.6     0.232      414        -9999      -9999      7.841      2.45       2.341      1.138      1.098      0.09453177 0.09453177 0.2816776  0.1578032  4.146377   2.415      0          0.3519288  92.579     0.5671085  0.362994   0.7712231 
1111.8     0.235      394        -9999      -9999      7.795      4.322      3.448      3.431      1.107      0.09431787 0.09431787 0.2769184  0.1563701  4.494536   2.538      0          0.3602422  92.327     0.553335   0.3512377  0.7554322 
1112       0.234      373        -9999      -9999      7.748      3.788      2.928      2.324      1.122      0.09001601 0.09001601 0.2689864  0.1301586  4.880479   2.681      0          0.3552648  92.159     0.5423346  0.339619   0.7450501 
1112.2     0.225      355        -9999      -9999      7.172      5.777      3.926      2.944      1.145      0.1042398  0.1042398  0.256824   0.2387439  13.39452   2.817      0.01441994 0.3848523  91.405     0.4623764  0.2248807  0.699872  
1112.4     0.225      335        -9999      -9999      7.384      5.863      3.322      2.274      1.144      0.09208385 0.09208385 0.2573528  0.142159   9.23736    2.985      0          0.3760779  92.075     0.5008149  0.2617271  0.7399027 
1112.6     0.226      322        -9999      -9999      6.884      5.189      3.246      2.5        1.143      0.1097696  0.1097696  0.2578816  0.3022439  22.19012   3.106      0.100012   0.4266743  91.656     0.4488242  0.1829921  0.7146563 
1112.8     0.227      312        -9999      -9999      6.774      3.416      3.204      2.391      1.129      0.1305143  0.1305143  0.2652848  0.7321494  26.90878   3.205      0.2372758  0.4804399  90.482     0.4083955  0.1691379  0.6476532 
1113       0.224      304        -9999      -9999      6.579      3.119      3.062      2.752      1.132      0.1434354  0.1434354  0.2636984  1.270368   37.87324   3.289      0.3059553  0.5037118  89.224     0.3644334  0.1471053  0.5817616 
1113.2     0.223      299        1          2          6.791      3.243      3.138      2.719      1.129      0.1509538  0.1509538  0.2652848  1.750606   26.11881   3.344      0.3413067  0.5193592  87.966     0.3464577  0.1712083  0.5217071 
1113.4     0.224      301        1          2          7.011      3.317      3.221      2.684      1.118      0.1631911  0.1631911  0.2711016  2.950217   17.76168   3.322      0.3826315  0.538559   86.373     0.3270014  0.2004048  0.4535979 
1113.6     0.221      304        1          2          7.163      3.652      2.29       2.081      1.116      0.1776181  0.1776181  0.2721592  5.458529   13.6075    3.289      0.4238491  0.5528628  83.438     0.2864882  0.2234368  0.3495395 
1113.8     0.222      307        1          2          7.104      3.701      2.592      2.332      1.125      0.1884142  0.1884142  0.2674     8.650594   15.09004   3.257      0.4501942  0.5567958  80.252     0.2393509  0.2141981  0.2645038 
1114       0.219      309        1          2          6.926      3.404      2.215      2.19       1.118      0.2028144  0.2028144  0.2711016  15.98718   20.61522   3.236      0.4827862  0.5721778  78.323     0.206931   0.1885764  0.2252856 
1114.2     0.217      309        1          2          7.257      3.813      2.425      1.972      1.105      0.2050819  0.2050819  0.277976   17.61056   11.54046   3.236      0.4877706  0.5803354  76.981     0.2208911  0.2389863  0.2027958 
1114.4     0.217      315        1          2          7.409      4.26       3.121      2.852      1.087      0.2078206  0.2078206  0.2874944  19.79244   8.841322   3.175      0.4891126  0.5868704  77.82      0.2414358  0.2664524  0.2164192 
1114.6     0.217      325        1          2          7.655      4.543      2.827      1.921      1.066      0.2071771  0.2071771  0.2985992  19.25667   5.744553   3.077      0.4801384  0.5890602  78.91      0.2770366  0.3177493  0.236324  
1114.8     0.223      340        1          2          7.617      3.813      2.492      1.427      1.079      0.2000476  0.2000476  0.2917248  14.20776   6.140204   2.941      0.4525476  0.567685   79.413     0.2778096  0.3092238  0.2463954 
