~Version
 VERS              .         2.0                           : CWLS LOG ASCII STANDARD - VERSION 2.0
 WRAP              .         NO                            : ONE LINE PER DEPTH STEP
 DLM               .         SPACE                         : DELIMITING CHARACTER(SPACE TAB OR COMMA)
~Well Information
#_______________________________________________________________________________
#
#PARAMETER_NAME    .UNIT     VALUE                         : DESCRIPTION
#_______________________________________________________________________________
STRT               .M        860.8                         : First reference value
STOP               .M        1220.6                        : Last reference value
STEP               .M        0.2                           : Step increment
NULL               .         -9999                         : Missing value
COMP               .                                       : Company
WELL               .         1673                          : Well name
FLD                .         Узень                         : Field
LOC                .                                       : Location
CNTY               .                                       : County
STAT               .                                       : State
CTRY               .                                       : Country
SRVC               .                                       : Service Company
DATE               .                                       : Date
UWI                .                                       : Unique Well ID
Block              .         6а                            : 
Category           .         Нефтяная                      : 
Condition          .         Ликвидированная               : 
Date               .         18.04.1980                    : 
EREF               .m        84                            : 100.8
Gorizont           .         15                            : 14
Interpretator      .         Бекбулатова А.А.              : 
Kupol              .         Основной                      : osnovnoi
Mud                .         0                             : 
Mud_density        .         0                             : 
Mud_resistivity    .         0                             : 
NGDU               .         НГДУ-2                        : 
ORIGINALWELLNAME   .         1673                          : 
Spud_date          .         1980                          : 1961
Viscosity          .         0                             : 
X                  .m        44584.4                       : 46154
Y                  .m        85188.63                      : 85761.93
YEAR               .         2018                          : 
~Parameter Information Block
#_______________________________________________________________________________
#
#PARAMETER_NAME    .UNIT     VALUE                         : DESCRIPTION
#_______________________________________________________________________________
SET                .         LQC_KAZNIPI_Petrel            : 
TLFamily_CALI      .         Caliper                       : 
TLFamily_CILD      .         Conductivity                  : 
TLFamily_COLL      .         Net Reservoir Flag            : 
TLFamily_CSAT      .         Fluid Code                    : 
TLFamily_DEPT      .         Measured Depth                : 
TLFamily_GR        .         Russian Gamma Ray             : 
TLFamily_LLS       .         Lateral Log Resistivity       : 
TLFamily_MINV      .         Micro Gradient Resistivity    : 
TLFamily_MNOR      .         Micro Resistivity             : 
TLFamily_NGLD      .         Neutron Gamma                 : 
TLFamily_PHIE      .         Effective Porosity            : 
TLFamily_PHIEN     .         Effective Porosity            : 
TLFamily_PHIT      .         Porosity                      : 
TLFamily_PRMB      .         Permeability                  : 
TLFamily_PRMB_DGR  .         Permeability                  : 
TLFamily_RT        .         Formation Resistivity         : 
TLFamily_SOIL_ARCHIE .         Oil Saturation                : 
TLFamily_SOIL_DW   .         Oil Saturation                : 
TLFamily_SP        .         Spontaneous Potential         : 
TLFamily_VSH_FIN   .         Shale Volume                  : 
TLFamily_VSH_GR    .         Shale Volume                  : 
TLFamily_VSH_SP    .         Shale Volume                  : 
~Curve Information
#_______________________________________________________________________________
#
#LOGNAME           .UNIT     LOG_ID                        : DESCRIPTION
#_______________________________________________________________________________
DEPT               .M                                      : Колонка глубины 
CALI               .м                                      : Каверномер 
CILD               .мСм/м                                  : Индукционный каротаж 
COLL               .unitless                               : Описание 
CSAT               .unitless                               : Описание 
GR                 .uR/h                                   : Гамма каротаж 
LLS                .Ohmm                                   : Боковой каротаж 
MINV               .Ohmm                                   : Микро-градиент зонд 
MNOR               .Ohmm                                   : Микро-потенциал зонд 
NGLD               .у.е.                                   : Показания зонда НГК-60 аппаратуры ДРСТ-3-90 
PHIE               .д.ед.                                  : Описание 
PHIEN              .д.ед.                                  :  
PHIT               .д.ед.                                  : Описание 
PRMB               .mD                                     :  
PRMB_DGR           .mD                                     :  
RT                 .ohmm                                   : УЭС пласта 
SOIL_ARCHIE        .д.ед.                                  :  
SOIL_DW            .д.ед.                                  :  
SP                 .мВ                                     : Потенциал самополяризации 
VSH_FIN            .д.ед.                                  : Описание 
VSH_GR             .д.ед.                                  : Shale volume 
VSH_SP             .д.ед.                                  : Shale Volume 
~Ascii
# ...
999.4      0.27       468        -9999      -9999      6.097      1.98       1.829      1.125      1.017      0.1342157  0.1342157  0.3245104  0.8573499  1.750982   2.137      0.09969214 0.4448795  94.423     0.5766507  0.5161477  0.6371537 
999.6      0.268      471        -9999      -9999      6.368      1.856      2.089      0.865      1.013      0.1265077  0.1265077  0.3266256  0.6171463  1.315076   2.123      0.04917181 0.4333008  94.34      0.6064178  0.580153   0.6326825 
999.8      0.262      473        -9999      -9999      6.503      1.98       2.357      0.873      0.989      0.1342012  0.1342012  0.3393168  0.8568194  1.140288   2.114      0.09502357 0.457451   94.256     0.6215625  0.6149406  0.6281844 
1000       0.268      474        -9999      -9999      6.571      2.153      2.626      1.083      1.001      0.1248352  0.1248352  0.3329712  0.5746581  1.061249   2.11       0.0353099  0.4358464  94.256     0.630715   0.6332456  0.6281844 
1000.2     0.271      475        -9999      -9999      6.681      2.153      2.668      1.2        0.992      0.1259882  0.1259882  0.3377304  0.6036233  0.944823   2.105      0.04193771 0.4421428  94.088     0.6416429  0.6640173  0.6192687 
1000.4     0.268      480        -9999      -9999      6.368      1.955      1.636      0.806      0.996      0.1384396  0.1384396  0.3356152  1.026584   1.315076   2.083      0.1130754  0.4558037  94.004     0.597502   0.580153   0.614851  
1000.6     0.277      486        -9999      -9999      6.537      1.98       2.198      1.242      0.984      0.1389907  0.1389907  0.3419608  1.051003   1.100059   2.058      0.1111173  0.4597605  93.836     0.6150607  0.624026   0.6060955 
1000.8     0.277      492        -9999      -9999      6.867      1.893      2.114      1.158      0.981      0.1262445  0.1262445  0.3435472  0.6102558  0.7762759  2.033      0.02788408 0.4389686  93.669     0.6584931  0.719489   0.5974972 
1001       0.275      496        -9999      -9999      6.825      1.868      1.603      0.588      0.975      0.1322558  0.1322558  0.34672    0.7885994  0.8114944  2.016      0.06279615 0.449146   93.585     0.6498914  0.7065712  0.5932117 
1001.2     0.285      498        -9999      -9999      7.028      1.941      1.401      0.94       0.976      0.1224591  0.1224591  0.3461912  0.5192751  0.6548651  2.008      0          0.4322157  93.417     0.6779761  0.7712328  0.5847193 
1001.4     0.281      503        -9999      -9999      6.799      1.93       2.324      1.251      0.964      0.1386658  0.1386658  0.3525368  1.036536   0.834092   1.988      0.094721   0.4604299  93.669     0.6480941  0.698691   0.5974972 
1001.6     0.283      508        -9999      -9999      6.647      1.868      1.77       0.831      0.955      0.1486024  0.1486024  0.357296   1.583565   0.979376   1.969      0.1438268  0.4758229  93.92      0.6324047  0.6543495  0.61046   
1001.8     0.274      512        -9999      -9999      6.384      1.831      1.284      0.739      0.966      0.1529117  0.1529117  0.3514792  1.903062   1.293035   1.953      0.161676   0.4737891  94.088     0.6017198  0.5841709  0.6192687 
1002       0.279      515        -9999      -9999      6.13       1.819      1.611      0.756      0.961      0.1640874  0.1640874  0.3541232  3.065174   1.690993   1.942      0.2095368  0.4884622  94.256     0.575866   0.5235476  0.6281844 
1002.2     0.274      516        -9999      -9999      6.257      1.794      1.406      0.836      0.959      0.1588006  0.1588006  0.3551808  2.446419   1.478687   1.938      0.185878   0.4825577  94.423     0.5950915  0.5530292  0.6371537 
1002.4     0.274      514        -9999      -9999      6.114      1.78       1.51       0.873      0.954      0.1646365  0.1646365  0.3578248  3.137803   1.719819   1.946      0.2125941  0.4929266  94.675     0.5854191  0.5199466  0.6508915 
1002.6     0.275      511        -9999      -9999      6.097      1.794      1.368      0.798      0.958      0.1616145  0.1616145  0.3557096  2.758356   1.750982   1.957      0.2018997  0.4889306  94.843     0.588167   0.5161477  0.6601862 
1002.8     0.273      507        -9999      -9999      6.173      1.805      1.276      0.907      0.962      0.1551186  0.1551186  0.3535944  2.090884   1.615899   1.972      0.1758264  0.4810729  95.01      0.6014419  0.5333492  0.6695346 
1003       0.275      502        -9999      -9999      6.266      1.831      1.401      1.192      0.962      0.1491547  0.1491547  0.3535944  1.621303   1.464695   1.992      0.1512264  0.4761311  95.262     0.6195143  0.5551803  0.6838484 
1003.2     0.272      496        -9999      -9999      6.545      1.955      2.081      0.622      0.971      0.1310825  0.1310825  0.3488352  0.7501075  1.090801   2.016      0.05549392 0.449541   95.43      0.6598567  0.6261832  0.6935303 
1003.4     0.268      489        -9999      -9999      6.715      2.029      2.542      1.058      0.979      0.1205883  0.1205883  0.3446048  0.4794523  0.9114895  2.045      0          0.4326431  95.262     0.678838   0.6738276  0.6838484 
1003.6     0.274      483        -9999      -9999      7.036      2.079      2.106      1.158      0.991      0.09931    0.09931    0.3382592  0.193473   0.6493539  2.07       0          0.3901415  95.094     0.7240885  0.7738988  0.6742781 
1003.8     0.26       478        -9999      -9999      6.774      2.153      2.475      1.108      0.987      0.115071   0.115071   0.3403744  0.3789247  0.8564133  2.092      0          0.4252282  95.094     0.6827375  0.6911969  0.6742781 
1004       0.259      475        -9999      -9999      6.579      2.102      2.282      0.991      1.001      0.1168686  0.1168686  0.3329712  0.409117   1.052317   2.105      0          0.4218583  95.094     0.6548564  0.6354346  0.6742781 
1004.2     0.268      472        -9999      -9999      6.698      1.881      1.552      0.957      0.976      0.122987   0.122987   0.3461912  0.5310988  0.9280071  2.119      0.02464557 0.4481208  95.262     0.6763764  0.6689044  0.6838484 
1004.4     0.276      471        -9999      -9999      6.579      2.091      2.399      0.873      0.961      0.1364415  0.1364415  0.3541232  0.9427257  1.052317   2.123      0.1097557  0.4763187  95.262     0.6596415  0.6354346  0.6838484 
1004.6     0.279      471        -9999      -9999      6.427      2.128      1.846      0.949      0.958      0.1454737  0.1454737  0.3557096  1.385747   1.235613   2.123      0.158094   0.489805   95.178     0.6370785  0.5951076  0.6790494 
1004.8     0.272      471        -9999      -9999      6.579      1.992      1.863      0.496      0.952      0.1427798  0.1427798  0.3588824  1.235339   1.052317   2.123      0.1442758  0.4892124  95.094     0.6548564  0.6354346  0.6742781 
1005       0.278      471        -9999      -9999      6.706      1.904      2.232      1.066      0.963      0.1318416  0.1318416  0.3530656  0.7747921  0.9201973  2.123      0.08276412 0.4688307  95.01      0.6703756  0.6712167  0.6695346 
1005.2     0.265      470        -9999      -9999      6.495      1.904      2.408      1.343      0.977      0.135616   0.135616   0.3456624  0.9101139  1.149966   2.128      0.1060255  0.4676192  94.843     0.6365042  0.6128222  0.6601862 
1005.4     0.255      466        -9999      -9999      6.613      1.98       2.542      1.175      0.987      0.1273416  0.1273416  0.3403744  0.6394895  1.015192   2.146      0.05936531 0.4523531  94.591     0.6455539  0.6448227  0.6462851 
1005.6     0.251      463        -9999      -9999      6.461      2.054      2.76       1.2        0.992      0.1336943  0.1336943  0.3377304  0.8384954  1.19202    2.16       0.1011617  0.4609142  94.34      0.6182913  0.6039     0.6326825 
1005.8     0.264      461        -9999      -9999      6.393      2.065      2.433      1.066      1          0.1338242  0.1338242  0.3335     0.8431535  1.280799   2.169      0.1036721  0.4578878  94.172     0.6050782  0.5864433  0.6237131 
1006       0.265      461        -9999      -9999      6.393      2.042      2.232      0.882      1.003      0.1315     0.1315     0.3319136  0.7635856  1.280799   2.169      0.08989031 0.4527694  94.256     0.6073138  0.5864433  0.6281844 
