~Version
 VERS              .         2.0                           : CWLS LOG ASCII STANDARD - VERSION 2.0
 WRAP              .         NO                            : ONE LINE PER DEPTH STEP
 DLM               .         SPACE                         : DELIMITING CHARACTER(SPACE TAB OR COMMA)
~Well Information
#_______________________________________________________________________________
#
#PARAMETER_NAME    .UNIT     VALUE                         : DESCRIPTION
#_______________________________________________________________________________
STRT               .M        860.8                         : First reference value
STOP               .M        1220.6                        : Last reference value
STEP               .M        0.2                           : Step increment
NULL               .         -9999                         : Missing value
COMP               .                                       : Company
WELL               .         1673                          : Well name
FLD                .         Узень                         : Field
LOC                .                                       : Location
CNTY               .                                       : County
STAT               .                                       : State
CTRY               .                                       : Country
SRVC               .                                       : Service Company
DATE               .                                       : Date
UWI                .                                       : Unique Well ID
Block              .         6а                            : 
Category           .         Нефтяная                      : 
Condition          .         Ликвидированная               : 
Date               .         18.04.1980                    : 
EREF               .m        84                            : 100.8
Gorizont           .         15                            : 14
Interpretator      .         Бекбулатова А.А.              : 
Kupol              .         Основной                      : osnovnoi
Mud                .         0                             : 
Mud_density        .         0                             : 
Mud_resistivity    .         0                             : 
NGDU               .         НГДУ-2                        : 
ORIGINALWELLNAME   .         1673                          : 
Spud_date          .         1980                          : 1961
Viscosity          .         0                             : 
X                  .m        44584.4                       : 46154
Y                  .m        85188.63                      : 85761.93
YEAR               .         2018                          : 
~Parameter Information Block
#_______________________________________________________________________________
#
#PARAMETER_NAME    .UNIT     VALUE                         : DESCRIPTION
#_______________________________________________________________________________
SET                .         LQC_KAZNIPI_Petrel            : 
TLFamily_CALI      .         Caliper                       : 
TLFamily_CILD      .         Conductivity                  : 
TLFamily_COLL      .         Net Reservoir Flag            : 
TLFamily_CSAT      .         Fluid Code                    : 
TLFamily_DEPT      .         Measured Depth                : 
TLFamily_GR        .         Russian Gamma Ray             : 
TLFamily_LLS       .         Lateral Log Resistivity       : 
TLFamily_MINV      .         Micro Gradient Resistivity    : 
TLFamily_MNOR      .         Micro Resistivity             : 
TLFamily_NGLD      .         Neutron Gamma                 : 
TLFamily_PHIE      .         Effective Porosity            : 
TLFamily_PHIEN     .         Effective Porosity            : 
TLFamily_PHIT      .         Porosity                      : 
TLFamily_PRMB      .         Permeability                  : 
TLFamily_PRMB_DGR  .         Permeability                  : 
TLFamily_RT        .         Formation Resistivity         : 
TLFamily_SOIL_ARCHIE .         Oil Saturation                : 
TLFamily_SOIL_DW   .         Oil Saturation                : 
TLFamily_SP        .         Spontaneous Potential         : 
TLFamily_VSH_FIN   .         Shale Volume                  : 
TLFamily_VSH_GR    .         Shale Volume                  : 
TLFamily_VSH_SP    .         Shale Volume                  : 
~Curve Information
#_______________________________________________________________________________
#
#LOGNAME           .UNIT     LOG_ID                        : DESCRIPTION
#_______________________________________________________________________________
DEPT               .M                                      : Колонка глубины 
CALI               .м                                      : Каверномер 
CILD               .мСм/м                                  : Индукционный каротаж 
COLL               .unitless                               : Описание 
CSAT               .unitless                               : Описание 
GR                 .uR/h                                   : Гамма каротаж 
LLS                .Ohmm                                   : Боковой каротаж 
MINV               .Ohmm                                   : Микро-градиент зонд 
MNOR               .Ohmm                                   : Микро-потенциал зонд 
NGLD               .у.е.                                   : Показания зонда НГК-60 аппаратуры ДРСТ-3-90 
PHIE               .д.ед.                                  : Описание 
PHIEN              .д.ед.                                  :  
PHIT               .д.ед.                                  : Описание 
PRMB               .mD                                     :  
PRMB_DGR           .mD                                     :  
RT                 .ohmm                                   : УЭС пласта 
SOIL_ARCHIE        .д.ед.                                  :  
SOIL_DW            .д.ед.                                  :  
SP                 .мВ                                     : Потенциал самополяризации 
VSH_FIN            .д.ед.                                  : Описание 
VSH_GR             .д.ед.                                  : Shale volume 
VSH_SP             .д.ед.                                  : Shale Volume 
~Ascii
# ...
1074.2     0.229      408        -9999      -9999      7.621      2.302      1.552      1.536      1.023      0.1469661  0.1469661  0.3213376  1.47682    2.191067   2.451      0.2199473  0.4957355  89.895     0.5283983  0.4709915  0.5858052 
1074.4     0.23       405        -9999      -9999      7.765      2.673      2.165      2.366      1.028      0.1405501  0.1405501  0.3186936  1.123277   1.871992   2.469      0.1918032  0.4864596  89.727     0.5398288  0.5022539  0.5774037 
1074.6     0.226      408        -9999      -9999      7.959      2.351      1.2        1.217      1.032      0.1316186  0.1316186  0.3165784  0.7674563  1.514324   2.451      0.1412977  0.469683   89.644     0.5604843  0.5476773  0.5732914 
1074.8     0.225      409        -9999      -9999      7.629      2.054      1.116      1.561      1.031      0.1478925  0.1478925  0.3171072  1.536337   2.171992   2.445      0.2233119  0.4921374  89.224     0.5127717  0.4726762  0.5528671 
1075       0.226      409        -9999      -9999      7.341      2.45       2.483      2.718      1.035      0.1603512  0.1603512  0.314992   2.613675   2.975512   2.445      0.2761417  0.505549   88.553     0.4686085  0.4156646  0.5215523 
1075.2     0.237      408        -9999      -9999      7.079      2.661      1.871      1.519      1.035      0.1716215  0.1716215  0.314992   4.226723   3.962086   2.451      0.3185068  0.519029   88.05      0.4344562  0.3697957  0.4991167 
1075.4     0.241      418        -9999      -9999      7.257      2.611      0.965      0.915      1.022      0.1746482  0.1746482  0.3218664  4.809122   3.261623   2.392      0.3210861  0.5227649  87.883     0.4461159  0.4003705  0.4918613 
1075.6     0.246      427        -9999      -9999      7.367      2.351      1.167      1.1        1.012      0.175415   0.175415   0.3271544  4.96901    2.892147   2.342      0.3169341  0.5232778  88.05      0.4598163  0.4205159  0.4991167 
1075.8     0.247      437        -9999      -9999      7.18       2.164      1.586      1.066      1.007      0.1823943  0.1823943  0.3297984  6.691804   3.547995   2.288      0.3324884  0.527321   88.218     0.4466791  0.3868457  0.5065125 
1076       0.247      451        -9999      -9999      7.341      1.893      1.578      0.773      1.007      0.1757785  0.1757785  0.3297984  5.046638   2.975512   2.217      0.3003866  0.5128155  88.47      0.466727   0.4156646  0.5177895 
1076.2     0.247      465        -9999      -9999      7.502      1.819      0.949      1.032      1.004      0.1671291  0.1671291  0.3313848  3.489749   2.495404   2.151      0.2585137  0.4971111  89.14      0.4977447  0.4466304  0.5488589 
1076.4     0.25       480        -9999      -9999      7.46       1.966      1.032      0.915      1.004      0.1609979  0.1609979  0.3313848  2.686765   2.612622   2.083      0.2223449  0.4815918  90.063     0.516324   0.4383367  0.5943114 
1076.6     0.251      492        -9999      -9999      7.29       1.831      0.915      0.882      0.994      0.1635562  0.1635562  0.3366728  2.996512   3.146079   2.033      0.2241543  0.4834846  90.985     0.5245957  0.4063106  0.6428807 
1076.8     0.246      497        -9999      -9999      7.468      1.681      1.242      0.773      0.985      0.1566015  0.1566015  0.341432   2.227394   2.589879   2.012      0.1902939  0.4767512  91.656     0.5600925  0.4399045  0.6802806 
1077       0.25       497        -9999      -9999      7.494      1.607      1.116      1.108      0.988      0.151775   0.151775   0.3398456  1.813007   2.517318   2.012      0.1679135  0.4690255  91.908     0.5699109  0.4450387  0.6947831 
1077.2     0.25       492        -9999      -9999      7.528      1.794      1.401      0.789      1.001      0.1421691  0.1421691  0.3329712  1.203579   2.42549    2.033      0.1234369  0.4517823  92.075     0.5781881  0.4518431  0.7045331 
1077.4     0.248      482        -9999      -9999      7.265      2.017      1.51       0.831      1.006      0.144489   0.144489   0.3303272  1.328755   3.233227   2.075      0.1439615  0.4578946  92.411     0.563146   0.4018025  0.7244895 
1077.6     0.24       475        -9999      -9999      7.13       2.042      1.083      0.647      1.01       0.1411796  0.1411796  0.328212   1.153842   3.747279   2.105      0.1323746  0.4549245  92.914     0.566765   0.3783091  0.7552208 
1077.8     0.238      468        -9999      -9999      7.316      1.805      0.991      0.923      1.018      0.1263037  0.1263037  0.3239816  0.6117982  3.057935   2.137      0.05076627 0.4318859  93.417     0.5990241  0.4110527  0.7869954 
1078       0.237      457        -9999      -9999      6.986      1.904      1.594      1.2        1.026      0.1322489  0.1322489  0.3197512  0.7883679  4.38599    2.188      0.09807948 0.4432241  93.333     0.5681887  0.3547615  0.7816158 
1078.2     0.232      444        -9999      -9999      6.698      2.153      1.36       1.619      1.03       0.1457849  0.1457849  0.317636   1.404262   6.008571   2.252      0.1826021  0.4685005  92.495     0.520761   0.3119722  0.7295497 
1078.4     0.232      426        -9999      -9999      6.842      2.215      1.091      1.251      1.034      0.1475893  0.1475893  0.3155208  1.516598   5.133571   2.347      0.2068419  0.47962    91.74      0.5088832  0.3326796  0.6850868 
1078.6     0.222      411        -9999      -9999      7.121      2.091      1.209      0.764      1.044      0.1389328  0.1389328  0.3102328  1.04841    3.784323   2.433      0.177969   0.4716008  91.321     0.5190908  0.3767926  0.6613891 
1078.8     0.222      393        -9999      -9999      6.681      2.426      1.435      2.114      1.054      0.1454995  0.1454995  0.3049448  1.387272   6.121253   2.545      0.2268784  0.4868155  91.237     0.4831676  0.3096142  0.6567209 
1079       0.224      377        -9999      -9999      6.554      3.119      3.942      3.506      1.082      0.1335081  0.1335081  0.2901384  0.8318628  7.032716   2.653      0.1828321  0.4644238  91.237     0.4746373  0.2925537  0.6567209 
1079.2     0.224      361        -9999      -9999      6.266      2.958      2.374      1.552      1.103      0.1282255  0.1282255  0.2790336  0.6640568  9.634444   2.77       0.1705567  0.4547208  91.237     0.4569942  0.2572675  0.6567209 
1079.4     0.224      348        -9999      -9999      6.029      3.218      2.584      2.508      1.108      0.1321257  0.1321257  0.2763896  0.7842358  12.48309   2.874      0.2057786  0.4675734  90.985     0.4371633  0.2314458  0.6428807 
1079.6     0.225      337        -9999      -9999      5.944      3.577      3.389      3.766      1.113      0.1331377  0.1331377  0.2737456  0.8188244  13.69837   2.967      0.2227419  0.4743881  90.734     0.4260845  0.2228304  0.6293387 
1079.8     0.222      327        -9999      -9999      6.071      3.169      1.737      1.578      1.107      0.1349053  0.1349053  0.2769184  0.8829404  11.92301   3.058      0.2424353  0.4885252  90.65      0.4303428  0.235825   0.6248605 
1080       0.224      319        -9999      -9999      6.02       3.441      3.649      3.674      1.102      0.1441695  0.1441695  0.2795624  1.310772   12.60648   3.135      0.2933091  0.510456   89.979     0.4102815  0.230518   0.590045  
1080.2     0.225      314        -9999      -9999      5.876      3.912      3.573      3.548      1.103      0.1402636  0.1402636  0.2790336  1.109635   14.75523   3.185      0.2815544  0.5085667  90.65      0.4205151  0.2161696  0.6248605 
1080.4     0.225      315        -9999      -9999      6.181      3.515      1.544      1.149      1.103      0.1343237  0.1343237  0.2790336  0.8613077  10.57238   3.175      0.2528598  0.4995704  90.734     0.4385149  0.247691   0.6293387 
1080.6     0.223      319        -9999      -9999      6.359      3.045      2.215      1.963      1.101      0.1327412  0.1327412  0.2800912  0.8050939  8.70327    3.135      0.2406034  0.4952982  90.65      0.4465153  0.2681701  0.6248605 
1080.8     0.224      318        -9999      -9999      6.503      2.698      3.9        3.984      1.092      0.1367535  0.1367535  0.2848504  0.9553553  7.435857   3.145      0.261151   0.5069495  90.398     0.4487785  0.2859701  0.6115867 
