~Version
 VERS              .         2.0                           : CWLS LOG ASCII STANDARD - VERSION 2.0
 WRAP              .         NO                            : ONE LINE PER DEPTH STEP
 DLM               .         SPACE                         : DELIMITING CHARACTER(SPACE TAB OR COMMA)
~Well Information
#_______________________________________________________________________________
#
#PARAMETER_NAME    .UNIT     VALUE                         : DESCRIPTION
#_______________________________________________________________________________
STRT               .M        860.8                         : First reference value
STOP               .M        1220.6                        : Last reference value
STEP               .M        0.2                           : Step increment
NULL               .         -9999                         : Missing value
COMP               .                                       : Company
WELL               .         1673                          : Well name
FLD                .         Узень                         : Field
LOC                .                                       : Location
CNTY               .                                       : County
STAT               .                                       : State
CTRY               .                                       : Country
SRVC               .                                       : Service Company
DATE               .                                       : Date
UWI                .                                       : Unique Well ID
Block              .         6а                            : 
Category           .         Нефтяная                      : 
Condition          .         Ликвидированная               : 
Date               .         18.04.1980                    : 
EREF               .m        84                            : 100.8
Gorizont           .         15                            : 14
Interpretator      .         Бекбулатова А.А.              : 
Kupol              .         Основной                      : osnovnoi
Mud                .         0                             : 
Mud_density        .         0                             : 
Mud_resistivity    .         0                             : 
NGDU               .         НГДУ-2                        : 
ORIGINALWELLNAME   .         1673                          : 
Spud_date          .         1980                          : 1961
Viscosity          .         0                             : 
X                  .m        44584.4                       : 46154
Y                  .m        85188.63                      : 85761.93
YEAR               .         2018                          : 
~Parameter Information Block
#_______________________________________________________________________________
#
#PARAMETER_NAME    .UNIT     VALUE                         : DESCRIPTION
#_______________________________________________________________________________
SET                .         LQC_KAZNIPI_Petrel            : 
TLFamily_CALI      .         Caliper                       : 
TLFamily_CILD      .         Conductivity                  : 
TLFamily_COLL      .         Net Reservoir Flag            : 
TLFamily_CSAT      .         Fluid Code                    : 
TLFamily_DEPT      .         Measured Depth                : 
TLFamily_GR        .         Russian Gamma Ray             : 
TLFamily_LLS       .         Lateral Log Resistivity       : 
TLFamily_MINV      .         Micro Gradient Resistivity    : 
TLFamily_MNOR      .         Micro Resistivity             : 
TLFamily_NGLD      .         Neutron Gamma                 : 
TLFamily_PHIE      .         Effective Porosity            : 
TLFamily_PHIEN     .         Effective Porosity            : 
TLFamily_PHIT      .         Porosity                      : 
TLFamily_PRMB      .         Permeability                  : 
TLFamily_PRMB_DGR  .         Permeability                  : 
TLFamily_RT        .         Formation Resistivity         : 
TLFamily_SOIL_ARCHIE .         Oil Saturation                : 
TLFamily_SOIL_DW   .         Oil Saturation                : 
TLFamily_SP        .         Spontaneous Potential         : 
TLFamily_VSH_FIN   .         Shale Volume                  : 
TLFamily_VSH_GR    .         Shale Volume                  : 
TLFamily_VSH_SP    .         Shale Volume                  : 
~Curve Information
#_______________________________________________________________________________
#
#LOGNAME           .UNIT     LOG_ID                        : DESCRIPTION
#_______________________________________________________________________________
DEPT               .M                                      : Колонка глубины 
CALI               .м                                      : Каверномер 
CILD               .мСм/м                                  : Индукционный каротаж 
COLL               .unitless                               : Описание 
CSAT               .unitless                               : Описание 
GR                 .uR/h                                   : Гамма каротаж 
LLS                .Ohmm                                   : Боковой каротаж 
MINV               .Ohmm                                   : Микро-градиент зонд 
MNOR               .Ohmm                                   : Микро-потенциал зонд 
NGLD               .у.е.                                   : Показания зонда НГК-60 аппаратуры ДРСТ-3-90 
PHIE               .д.ед.                                  : Описание 
PHIEN              .д.ед.                                  :  
PHIT               .д.ед.                                  : Описание 
PRMB               .mD                                     :  
PRMB_DGR           .mD                                     :  
RT                 .ohmm                                   : УЭС пласта 
SOIL_ARCHIE        .д.ед.                                  :  
SOIL_DW            .д.ед.                                  :  
SP                 .мВ                                     : Потенциал самополяризации 
VSH_FIN            .д.ед.                                  : Описание 
VSH_GR             .д.ед.                                  : Shale volume 
VSH_SP             .д.ед.                                  : Shale Volume 
~Ascii
# ...
913.6      0.218      214        1          3          -9999      7.894      0.747      4.043      -9999      -9999      -9999      -9999      -9999      -9999      4.673      -9999      -9999      83.354     0.242463   -9999      0.2424628 
913.8      0.216      201        1          3          -9999      14.975     3.984      4.051      -9999      -9999      -9999      -9999      -9999      -9999      4.975      -9999      -9999      82.432     0.224832   -9999      0.2248322 
914        0.214      192        1          3          -9999      23.834     3.607      4.009      -9999      -9999      -9999      -9999      -9999      -9999      5.208      -9999      -9999      81.09      0.202411   -9999      0.2024115 
914.2000000000001 0.213      191        1          3          -9999      19.25      3.221      4.001      -9999      -9999      -9999      -9999      -9999      -9999      5.236      -9999      -9999      79.832     0.184614   -9999      0.1846139 
914.4      0.213      199        1          3          -9999      14.729     3.548      3.339      -9999      -9999      -9999      -9999      -9999      -9999      5.025      -9999      -9999      79.078     0.175321   -9999      0.1753208 
914.6      0.213      217        1          3          -9999      5.845      3.733      3.934      -9999      -9999      -9999      -9999      -9999      -9999      4.608      -9999      -9999      78.658     0.170563   -9999      0.1705628 
914.8      0.213      240        1          3          -9999      5.139      3.439      3.85       -9999      -9999      -9999      -9999      -9999      -9999      4.167      -9999      -9999      78.658     0.170563   -9999      0.1705628 
915        0.213      268        1          3          -9999      5.065      3.045      2.701      -9999      -9999      -9999      -9999      -9999      -9999      3.731      -9999      -9999      78.574     0.169646   -9999      0.1696459 
915.2000000000001 0.213      303        1          3          -9999      3.986      3.909      4.009      -9999      -9999      -9999      -9999      -9999      -9999      3.3        -9999      -9999      78.574     0.169646   -9999      0.1696459 
915.4      0.213      341        1          3          -9999      3.082      2.525      2.575      -9999      -9999      -9999      -9999      -9999      -9999      2.933      -9999      -9999      78.658     0.170563   -9999      0.1705628 
915.6      0.213      364        1          3          -9999      2.364      2.282      2.156      -9999      -9999      -9999      -9999      -9999      -9999      2.747      -9999      -9999      78.491     0.168751   -9999      0.1687511 
915.8      0.213      384        1          3          -9999      2.227      1.905      1.385      -9999      -9999      -9999      -9999      -9999      -9999      2.604      -9999      -9999      78.826     0.172431   -9999      0.172431  
916        0.213      403        1          3          -9999      1.941      1.695      1.527      -9999      -9999      -9999      -9999      -9999      -9999      2.481      -9999      -9999      78.994     0.174346   -9999      0.1743458 
916.2000000000001 0.213      420        1          3          -9999      2.339      1.972      1.292      -9999      -9999      -9999      -9999      -9999      -9999      2.381      -9999      -9999      79.078     0.175321   -9999      0.1753208 
916.4      0.213      437        1          3          -9999      2.413      1.393      1.318      -9999      -9999      -9999      -9999      -9999      -9999      2.288      -9999      -9999      79.245     0.177294   -9999      0.1772945 
916.6      0.213      447        1          3          -9999      1.918      1.938      1.267      -9999      -9999      -9999      -9999      -9999      -9999      2.237      -9999      -9999      79.413     0.179328   -9999      0.1793281 
916.8      0.213      446        1          3          -9999      1.67       1.913      1.242      -9999      -9999      -9999      -9999      -9999      -9999      2.242      -9999      -9999      79.581     0.18141    -9999      0.1814104 
917        0.213      439        1          3          -9999      2.116      1.77       0.923      -9999      -9999      -9999      -9999      -9999      -9999      2.278      -9999      -9999      79.916     0.185711   -9999      0.185711  
917.2000000000001 0.213      424        1          3          -9999      2.128      2.5        1.636      -9999      -9999      -9999      -9999      -9999      -9999      2.358      -9999      -9999      80.419     0.192549   -9999      0.1925493 
917.4      0.213      408        1          3          -9999      3.701      1.77       1.225      -9999      -9999      -9999      -9999      -9999      -9999      2.451      -9999      -9999      80.922     0.199861   -9999      0.1998609 
917.6      0.213      399        1          3          -9999      3.726      2.114      1.418      -9999      -9999      -9999      -9999      -9999      -9999      2.506      -9999      -9999      81.342     0.206342   -9999      0.2063416 
917.8      0.213      392        1          3          -9999      3.206      2.726      2.248      -9999      -9999      -9999      -9999      -9999      -9999      2.551      -9999      -9999      81.761     0.213158   -9999      0.2131584 
918        0.213      375        1          3          -9999      2.624      1.854      1.854      -9999      -9999      -9999      -9999      -9999      -9999      2.667      -9999      -9999      82.013     0.217432   -9999      0.2174316 
918.2000000000001 0.213      353        1          3          -9999      2.261      1.98       1.519      -9999      -9999      -9999      -9999      -9999      -9999      2.833      -9999      -9999      82.096     0.218868   -9999      0.218868  
918.4      0.213      331        1          3          -9999      6.291      1.879      1.334      -9999      -9999      -9999      -9999      -9999      -9999      3.021      -9999      -9999      82.096     0.218868   -9999      0.218868  
918.6      0.213      314        1          3          -9999      5.294      3.414      3.481      -9999      -9999      -9999      -9999      -9999      -9999      3.185      -9999      -9999      81.761     0.213158   -9999      0.2131584 
918.8      0.213      305        1          3          -9999      4.983      3.045      2.634      -9999      -9999      -9999      -9999      -9999      -9999      3.279      -9999      -9999      81.509     0.209016   -9999      0.2090159 
919        0.213      300        1          3          -9999      5.176      2.534      2.97       -9999      -9999      -9999      -9999      -9999      -9999      3.333      -9999      -9999      81.258     0.205018   -9999      0.2050176 
919.2000000000001 0.213      295        1          3          -9999      4.209      2.71       3.381      -9999      -9999      -9999      -9999      -9999      -9999      3.39       -9999      -9999      80.839     0.198621   -9999      0.1986211 
919.4      0.213      290        1          3          -9999      3.85       3.23       3.959      -9999      -9999      -9999      -9999      -9999      -9999      3.448      -9999      -9999      80.587     0.194938   -9999      0.1949378 
919.6      0.213      289        1          3          -9999      4.421      2.399      2.089      -9999      -9999      -9999      -9999      -9999      -9999      3.46       -9999      -9999      80         0.186821   -9999      0.1868208 
919.8      0.213      286        1          3          -9999      3.912      2.383      3.582      -9999      -9999      -9999      -9999      -9999      -9999      3.497      -9999      -9999      80.252     0.190227   -9999      0.1902273 
920        0.213      293        1          3          -9999      4.531      2.869      3.053      -9999      -9999      -9999      -9999      -9999      -9999      3.413      -9999      -9999      79.916     0.185711   -9999      0.185711  
