~Version
 VERS              .         2.0                           : CWLS LOG ASCII STANDARD - VERSION 2.0
 WRAP              .         NO                            : ONE LINE PER DEPTH STEP
 DLM               .         SPACE                         : DELIMITING CHARACTER(SPACE TAB OR COMMA)
~Well Information
#_______________________________________________________________________________
#
#PARAMETER_NAME    .UNIT     VALUE                         : DESCRIPTION
#_______________________________________________________________________________
STRT               .M        860.8                         : First reference value
STOP               .M        1220.6                        : Last reference value
STEP               .M        0.2                           : Step increment
NULL               .         -9999                         : Missing value
COMP               .                                       : Company
WELL               .         1673                          : Well name
FLD                .         Узень                         : Field
LOC                .                                       : Location
CNTY               .                                       : County
STAT               .                                       : State
CTRY               .                                       : Country
SRVC               .                                       : Service Company
DATE               .                                       : Date
UWI                .                                       : Unique Well ID
Block              .         6а                            : 
Category           .         Нефтяная                      : 
Condition          .         Ликвидированная               : 
Date               .         18.04.1980                    : 
EREF               .m        84                            : 100.8
Gorizont           .         15                            : 14
Interpretator      .         Бекбулатова А.А.              : 
Kupol              .         Основной                      : osnovnoi
Mud                .         0                             : 
Mud_density        .         0                             : 
Mud_resistivity    .         0                             : 
NGDU               .         НГДУ-2                        : 
ORIGINALWELLNAME   .         1673                          : 
Spud_date          .         1980                          : 1961
Viscosity          .         0                             : 
X                  .m        44584.4                       : 46154
Y                  .m        85188.63                      : 85761.93
YEAR               .         2018                          : 
~Parameter Information Block
#_______________________________________________________________________________
#
#PARAMETER_NAME    .UNIT     VALUE                         : DESCRIPTION
#_______________________________________________________________________________
SET                .         LQC_KAZNIPI_Petrel            : 
TLFamily_CALI      .         Caliper                       : 
TLFamily_CILD      .         Conductivity                  : 
TLFamily_COLL      .         Net Reservoir Flag            : 
TLFamily_CSAT      .         Fluid Code                    : 
TLFamily_DEPT      .         Measured Depth                : 
TLFamily_GR        .         Russian Gamma Ray             : 
TLFamily_LLS       .         Lateral Log Resistivity       : 
TLFamily_MINV      .         Micro Gradient Resistivity    : 
TLFamily_MNOR      .         Micro Resistivity             : 
TLFamily_NGLD      .         Neutron Gamma                 : 
TLFamily_PHIE      .         Effective Porosity            : 
TLFamily_PHIEN     .         Effective Porosity            : 
TLFamily_PHIT      .         Porosity                      : 
TLFamily_PRMB      .         Permeability                  : 
TLFamily_PRMB_DGR  .         Permeability                  : 
TLFamily_RT        .         Formation Resistivity         : 
TLFamily_SOIL_ARCHIE .         Oil Saturation                : 
TLFamily_SOIL_DW   .         Oil Saturation                : 
TLFamily_SP        .         Spontaneous Potential         : 
TLFamily_VSH_FIN   .         Shale Volume                  : 
TLFamily_VSH_GR    .         Shale Volume                  : 
TLFamily_VSH_SP    .         Shale Volume                  : 
~Curve Information
#_______________________________________________________________________________
#
#LOGNAME           .UNIT     LOG_ID                        : DESCRIPTION
#_______________________________________________________________________________
DEPT               .M                                      : Колонка глубины 
CALI               .м                                      : Каверномер 
CILD               .мСм/м                                  : Индукционный каротаж 
COLL               .unitless                               : Описание 
CSAT               .unitless                               : Описание 
GR                 .uR/h                                   : Гамма каротаж 
LLS                .Ohmm                                   : Боковой каротаж 
MINV               .Ohmm                                   : Микро-градиент зонд 
MNOR               .Ohmm                                   : Микро-потенциал зонд 
NGLD               .у.е.                                   : Показания зонда НГК-60 аппаратуры ДРСТ-3-90 
PHIE               .д.ед.                                  : Описание 
PHIEN              .д.ед.                                  :  
PHIT               .д.ед.                                  : Описание 
PRMB               .mD                                     :  
PRMB_DGR           .mD                                     :  
RT                 .ohmm                                   : УЭС пласта 
SOIL_ARCHIE        .д.ед.                                  :  
SOIL_DW            .д.ед.                                  :  
SP                 .мВ                                     : Потенциал самополяризации 
VSH_FIN            .д.ед.                                  : Описание 
VSH_GR             .д.ед.                                  : Shale volume 
VSH_SP             .д.ед.                                  : Shale Volume 
~Ascii
# ...
1203.4     0.22       354        1          2          7.223      2.871      2.844      2.701      1.073      0.243731   0.243731   0.2948976  91.54768   23.34033   2.825      0.536814   0.602125   66.08      0.1550504  0.1792547  0.1308461 
1203.6     0.219      356        1          2          7.587      3.094      3.288      3.188      1.084      0.2312881  0.2312881  0.2890808  53.84863   13.12366   2.809      0.513891   0.5873185  63.899     0.1751294  0.2267645  0.1234944 
1203.8     0.219      353        1          2          7.121      3.082      3.381      2.743      1.084      0.2415872  0.2415872  0.2890808  83.54867   27.4269    2.833      0.5338552  0.5966005  62.39      0.1439199  0.1678258  0.1200141 
1204       0.219      349        1          2          7.257      2.896      2.861      2.777      1.081      0.2406587  0.2406587  0.2906672  80.30477   22.11824   2.865      0.534748   0.5994627  62.306     0.1515409  0.1832347  0.1198471 
1204.2     0.219      348        1          2          7.434      2.735      2.458      2.626      1.067      0.2438345  0.2438345  0.2980704  91.95288   16.71703   2.874      0.5407066  0.6080225  63.816     0.164351   0.205427   0.1232752 
1204.4     0.219      348        1          2          7.57       2.896      2.835      2.835      1.048      0.2494619  0.2494619  0.3081176  116.8955   13.48134   2.874      0.5497436  0.619138   66.164     0.1777446  0.2242882  0.131201  
1204.6     0.219      343        1          2          7.739      2.847      3.221      2.777      1.035      0.2505881  0.2505881  0.314992   122.647    10.319     2.915      0.5544778  0.6273189  67.925     0.1951635  0.2501566  0.1401704 
1204.8     0.219      335        1          2          7.968      2.587      3.607      3.171      1.027      0.2476254  0.2476254  0.3192224  108.0888   7.183311   2.985      0.5548238  0.6327055  68.512     0.2169607  0.2900335  0.1438879 
1205       0.219      331        1          2          8.112      2.71       3.976      2.995      1.02       0.2483178  0.2483178  0.322924   111.3285   5.720088   3.021      0.5583965  0.6377563  66.751     0.2260794  0.3183035  0.1338553 
1205.2     0.22       331        1          2          8.078      3.379      2.827      2.584      1.024      0.24886    0.24886    0.3208088  113.933    6.036142   3.021      0.5592346  0.6367084  64.319     0.2180265  0.3113895  0.1246634 
1205.4     0.221      335        1          2          8.323      3.59       3.104      2.978      1.034      0.235295   0.235295   0.3155208  63.88403   4.0969     2.985      0.5345727  0.6221974  63.061     0.2431085  0.3647777  0.1214392 
1205.6     0.22       341        1          2          8.103      3.429      3.381      3.389      1.052      0.2338409  0.2338409  0.3060024  60.04258   5.802108   2.933      0.5281781  0.6110126  62.809     0.2186711  0.3164584  0.1208837 
1205.8     0.217      350        1          2          8.205      3.565      3.473      3.531      1.071      0.2196934  0.2196934  0.2959552  32.84074   4.937603   2.857      0.4956472  0.5875058  64.151     0.2310964  0.3380091  0.1241836 
1206       0.217      362        -9999      -9999      8.611      3.392      3.968      3.984      1.087      0.191705   0.191705   0.2874944  9.954062   2.597836   2.762      0.4230046  0.5484963  68.092     0.2902708  0.4393537  0.1411878 
1206.2     0.216      369        -9999      -9999      8.857      3.032      3.968      3.313      1.08       0.1794661  0.1794661  0.291196   5.906162   1.760437   2.71       0.3834056  0.5352985  70.756     0.3385754  0.5150142  0.1621367 
1206.4     0.216      393        -9999      -9999      9.085      2.735      3.716      3.49       1.071      0.1570641  0.1570641  0.2959552  2.271776   1.227424   2.545      0.2867615  0.4992017  76.394     0.4208823  0.5967256  0.2450389 
1206.6     0.216      412        -9999      -9999      9.424      2.339      4.009      2.953      1.068      0.1247989  0.1247989  0.2975416  0.5737693  0.7179872  2.427      0.1089778  0.4419184  78.91      0.5234627  0.7427908  0.3041345 
1206.8     0.217      430        -9999      -9999      9.759      1.992      4.018      2.29       1.074      0.1050322  0.1050322  0.2943688  0.2469505  0.422655   2.326      0          0.3889107  80.419     0.5737472  0.8        0.3474944 
1207       0.217      448        -9999      -9999      9.907      1.93       3.313      2.056      1.083      0.1063087  0.1063087  0.2896096  0.2607673  0.334439   2.232      0          0.3723107  79.161     0.5554574  0.8        0.3109147 
1207.2     0.217      466        -9999      -9999      8.967      1.918      2.752      1.947      1.101      0.1454591  0.1454591  0.2800912  1.384884   1.479297   2.146      0.1739211  0.4188305  77.233     0.4079761  0.552936   0.2630163 
1207.4     0.216      484        -9999      -9999      8.899      1.868      2.659      1.72       1.116      0.1567765  0.1567765  0.2721592  2.244082   1.647283   2.066      0.2121867  0.4148758  71.53      0.3496445  0.5291764  0.1701128 
1207.6     0.216      495        -9999      -9999      9.006      2.003      2.466      2.148      1.126      0.1481329  0.1481329  0.2668712  1.552166   1.390799   2.02       0.163505   0.3875569  69.686     0.3598131  0.567041   0.1525851 
1207.8     0.216      503        -9999      -9999      9.111      2.128      2.475      2.198      1.127      0.1418943  0.1418943  0.2663424  1.189558   1.177969   1.988      0.1250312  0.3713238  69.015     0.3771154  0.6068312  0.1473996 
1208       0.215      505        -9999      -9999      8.84       2.079      2.542      2.181      1.12       0.1019453  0.1019453  0.270044   0.2164872  1.808418   1.98       0          0.2924466  -9999      0.50939    0.5093901  -9999     
1208.2     0.214      507        -9999      -9999      8.781      1.893      2.592      2.349      1.128      0.1040001  0.1040001  0.2658136  0.2363152  1.985314   1.972      0          0.289009   -9999      0.490344   0.4903437  -9999     
1208.4     0.214      508        -9999      -9999      8.908      2.164      2.894      2.525      1.138      0.08487946 0.08487946 0.2605256  0.1045518  1.624      1.969      0          0.2252417  -9999      0.532261   0.5322613  -9999     
1208.6     0.214      512        -9999      -9999      8.73       2.24       2.617      2.492      1.147      0.09919628 0.09919628 0.2557664  0.1925368  2.152109   1.953      0          0.2551216  -9999      0.474455   0.4744545  -9999     
1208.8     0.214      518        -9999      -9999      8.594      2.302      2.718      2.097      1.133      0.1197661  0.1197661  0.2631696  0.4629317  2.668641   1.931      0          0.3139435  -9999      0.434556   0.4345559  -9999     
1209       0.214      526.5      -9999      -9999      8.764      2.5        2.517      2.483      1.128      0.1057672  0.1057672  0.2658136  0.2548142  2.039424   1.899      0          0.2799189  -9999      0.484989   0.484989   -9999     
1209.2     0.214      537        -9999      -9999      8.552      2.475      2.248      2.29       1.118      0.131536   0.131536   0.2711016  0.764758   2.851952   1.862      0.036151   0.3381741  -9999      0.422926   0.422926   -9999     
1209.4     0.214      548        -9999      -9999      8.696      2.364      2.123      2.349      1.118      0.1179324  0.1179324  0.2711016  0.4281072  2.271018   1.825      0          0.3031992  -9999      0.464149   0.464149   -9999     
1209.6     0.214      556        -9999      -9999      8.383      2.153      2.752      2.55       1.108      0.1512562  0.1512562  0.2763896  1.773333   3.725955   1.799      0.1326701  0.3698524  -9999      0.379192   0.3791917  -9999     
1209.8     0.214      560        -9999      -9999      7.917      1.706      2.316      2.022      1.101      0.1874817  0.1874817  0.2800912  8.3133     7.786811   1.786      0.2781451  0.4245831  -9999      0.280635   0.2806353  -9999     
1210       0.214      564        -9999      -9999      -9999      1.52       1.821      1.167      1.09       -9999      -9999      0.285908   -9999      -9999      1.773      -9999      -9999      -9999      -9999      -9999      -9999     
