~Version
 VERS              .         2.0                           : CWLS LOG ASCII STANDARD - VERSION 2.0
 WRAP              .         NO                            : ONE LINE PER DEPTH STEP
 DLM               .         SPACE                         : DELIMITING CHARACTER(SPACE TAB OR COMMA)
~Well Information
#_______________________________________________________________________________
#
#PARAMETER_NAME    .UNIT     VALUE                         : DESCRIPTION
#_______________________________________________________________________________
STRT               .M        860.8                         : First reference value
STOP               .M        1220.6                        : Last reference value
STEP               .M        0.2                           : Step increment
NULL               .         -9999                         : Missing value
COMP               .                                       : Company
WELL               .         1673                          : Well name
FLD                .         Узень                         : Field
LOC                .                                       : Location
CNTY               .                                       : County
STAT               .                                       : State
CTRY               .                                       : Country
SRVC               .                                       : Service Company
DATE               .                                       : Date
UWI                .                                       : Unique Well ID
Block              .         6а                            : 
Category           .         Нефтяная                      : 
Condition          .         Ликвидированная               : 
Date               .         18.04.1980                    : 
EREF               .m        84                            : 100.8
Gorizont           .         15                            : 14
Interpretator      .         Бекбулатова А.А.              : 
Kupol              .         Основной                      : osnovnoi
Mud                .         0                             : 
Mud_density        .         0                             : 
Mud_resistivity    .         0                             : 
NGDU               .         НГДУ-2                        : 
ORIGINALWELLNAME   .         1673                          : 
Spud_date          .         1980                          : 1961
Viscosity          .         0                             : 
X                  .m        44584.4                       : 46154
Y                  .m        85188.63                      : 85761.93
YEAR               .         2018                          : 
~Parameter Information Block
#_______________________________________________________________________________
#
#PARAMETER_NAME    .UNIT     VALUE                         : DESCRIPTION
#_______________________________________________________________________________
SET                .         LQC_KAZNIPI_Petrel            : 
TLFamily_CALI      .         Caliper                       : 
TLFamily_CILD      .         Conductivity                  : 
TLFamily_COLL      .         Net Reservoir Flag            : 
TLFamily_CSAT      .         Fluid Code                    : 
TLFamily_DEPT      .         Measured Depth                : 
TLFamily_GR        .         Russian Gamma Ray             : 
TLFamily_LLS       .         Lateral Log Resistivity       : 
TLFamily_MINV      .         Micro Gradient Resistivity    : 
TLFamily_MNOR      .         Micro Resistivity             : 
TLFamily_NGLD      .         Neutron Gamma                 : 
TLFamily_PHIE      .         Effective Porosity            : 
TLFamily_PHIEN     .         Effective Porosity            : 
TLFamily_PHIT      .         Porosity                      : 
TLFamily_PRMB      .         Permeability                  : 
TLFamily_PRMB_DGR  .         Permeability                  : 
TLFamily_RT        .         Formation Resistivity         : 
TLFamily_SOIL_ARCHIE .         Oil Saturation                : 
TLFamily_SOIL_DW   .         Oil Saturation                : 
TLFamily_SP        .         Spontaneous Potential         : 
TLFamily_VSH_FIN   .         Shale Volume                  : 
TLFamily_VSH_GR    .         Shale Volume                  : 
TLFamily_VSH_SP    .         Shale Volume                  : 
~Curve Information
#_______________________________________________________________________________
#
#LOGNAME           .UNIT     LOG_ID                        : DESCRIPTION
#_______________________________________________________________________________
DEPT               .M                                      : Колонка глубины 
CALI               .м                                      : Каверномер 
CILD               .мСм/м                                  : Индукционный каротаж 
COLL               .unitless                               : Описание 
CSAT               .unitless                               : Описание 
GR                 .uR/h                                   : Гамма каротаж 
LLS                .Ohmm                                   : Боковой каротаж 
MINV               .Ohmm                                   : Микро-градиент зонд 
MNOR               .Ohmm                                   : Микро-потенциал зонд 
NGLD               .у.е.                                   : Показания зонда НГК-60 аппаратуры ДРСТ-3-90 
PHIE               .д.ед.                                  : Описание 
PHIEN              .д.ед.                                  :  
PHIT               .д.ед.                                  : Описание 
PRMB               .mD                                     :  
PRMB_DGR           .mD                                     :  
RT                 .ohmm                                   : УЭС пласта 
SOIL_ARCHIE        .д.ед.                                  :  
SOIL_DW            .д.ед.                                  :  
SP                 .мВ                                     : Потенциал самополяризации 
VSH_FIN            .д.ед.                                  : Описание 
VSH_GR             .д.ед.                                  : Shale volume 
VSH_SP             .д.ед.                                  : Shale Volume 
~Ascii
# ...
1149       0.211      231        -9999      -9999      7.528      3.8        2.316      2.148      1.088      0.2273435  0.2273435  0.2869656  45.51043   7.176817   4.329      0.5915114  0.6588328  75.388     0.180673   0.2901407  0.1806735 
1149.2     0.211      236        -9999      -9999      7.773      3.478      2.508      2.936      1.094      0.2223996  0.2223996  0.2837928  36.85856   4.671239   4.237      0.5793954  0.6496986  75.807     0.18604    0.3457504  0.18604   
1149.4     0.212      239        -9999      -9999      7.316      3.788      2.206      2.651      1.091      0.2250592  0.2250592  0.2853792  41.28574   10.40665   4.184      0.5812615  0.650374   75.556     0.182788   0.2492942  0.1827878 
1149.6     0.212      236        -9999      -9999      7.104      3.899      2.651      2.894      1.097      0.2245768  0.2245768  0.2822064  40.44512   15.09004   4.237      0.5829491  0.6499927  74.885     0.174635   0.2141981  0.1746348 
1149.8     0.212      225        1          2          7.045      4.322      2.215      2.257      1.086      0.2342405  0.2342405  0.2880232  61.07454   16.73411   4.444      0.6068736  0.6681944  73.795     0.162978   0.2053414  0.1629781 
1150       0.212      215        1          2          6.833      4.904      1.821      2.056      1.087      0.2378532  0.2378532  0.2874944  71.24847   24.26508   4.651      0.620279   0.6774105  72.369     0.150428   0.1764331  0.1504282 
1150.2     0.211      204        1          2          6.605      7.588      2.508      2.559      1.097      0.236312   0.236312   0.2822064  66.71587   36.18602   4.902      0.6274268  0.6815212  70.692     0.139074   0.1498684  0.1390742 
1150.4     0.211      190        1          2          6.249      11.074     2.768      3.045      1.102      0.2362912  0.2362912  0.2795624  66.65665   67.53613   5.263      0.6396177  0.6909556  69.099     0.131125   0.1161592  0.1311248 
1150.6     0.211      176        1          2          6.054      13.117     2.71       3.708      1.11       0.2337035  0.2337035  0.275332   59.69164   95.05498   5.682      0.6489919  0.6985413  67.757     0.126147   0.1010278  0.126147  
1150.8     0.211      163        1          2          6.139      15.348     2.752      3.557      1.103      0.2382218  0.2382218  0.2790336  72.37756   81.89754   6.135      0.6670023  0.7144369  66.918     0.123672   0.1073648  0.1236718 
1151       0.211      145        1          2          6.401      14.418     2.928      3.749      1.109      0.2352672  0.2352672  0.2758608  63.80831   51.74047   6.897      0.6813588  0.7274548  66.667     0.123011   0.129509   0.1230109 
1151.2     0.211      131        1          2          6.325      14.851     2.936      3.699      1.104      0.2379818  0.2379818  0.2785048  71.6405    59.11307   7.634      0.6992041  0.7436148  66.583     0.122797   0.1226526  0.1227972 
1151.4     0.211      121        1          2          6.528      16.71      2.5        3.833      1.094      0.2432698  0.2432698  0.2837928  89.76458   41.41474   8.264      0.7156858  0.7584983  66.583     0.122797   0.1418325  0.1227972 
1151.6     0.211      116        1          2          6.766      16.896     3.246      4.278      1.085      0.248029   0.248029   0.288552   109.9654   27.28877   8.621      0.7259366  0.7677227  66.583     0.122797   0.1681721  0.1227972 
1151.8     0.211      114        1          2          6.96       15.286     3.02       3.708      1.093      0.2436563  0.2436563  0.2843216  91.25666   19.42256   8.772      0.7239166  0.7660041  66.751     0.123228   0.1932216  0.1232283 
1152       0.211      113        8          2          7.121      12.622     2.802      3.238      1.098      0.2409401  0.2409401  0.2816776  81.27419   14.64703   8.85       0.7223636  0.764664   66.834     0.123447   0.2168202  0.1234468 
1152.2     0.211      114        8          2          7.384      13.427     2.609      3.624      1.097      0.2411643  0.2411643  0.2822064  82.05517   9.23736    8.772      0.7214336  0.7639681  67.17      0.12437    0.2617271  0.1243704 
1152.4     0.211      115        8          2          7.155      19.498     2.903      3.917      1.086      0.2462132  0.2462132  0.2880232  101.771    13.79964   8.696      0.725296   0.7677579  67.925     0.126697   0.2221612  0.1266968 
1152.6     0.211      119        8          2          7.197      17.888     3.062      4.253      1.101      0.2378001  0.2378001  0.2800912  71.08736   12.82025   8.403      0.7122596  0.7563456  68.344     0.128155   0.2289407  0.1281553 
1152.8     0.211      123        8          2          7.333      13.303     3.146      3.33       1.106      0.234176   0.234176   0.2774472  60.90674   10.10113   8.13       0.7038301  0.7493036  69.099     0.131125   0.2523459  0.1311248 
1153       0.211      131        8          2          7.426      8.843      2.71       3.146      1.113      0.2286214  0.2286214  0.2737456  48.05965   8.58176    7.634      0.6885058  0.7366109  70.273     0.13674    0.2697142  0.1367397 
1153.2     0.211      139        8          2          7.714      5.292      2.559      2.978      1.108      0.2275879  0.2275879  0.2763896  45.98725   5.180169   7.194      0.6784399  0.7296579  72.034     0.147884   0.3314543  0.1478844 
1153.4     0.211      150        8          2          7.511      4.918      2.802      2.752      1.097      0.2302443  0.2302443  0.2822064  51.50394   7.393881   6.667      0.6701039  0.723891   73.208     0.157461   0.2866319  0.1574608 
1153.6     0.211      158        8          2          7.274      5.079      2.131      2.366      1.091      0.2321347  0.2321347  0.2853792  55.82853   11.20165   6.329      0.6643494  0.7194093  73.627     0.161347   0.2419119  0.1613468 
1153.8     0.211      164        1          2          7.096      4.941      3.573      3.188      1.088      0.2354942  0.2354942  0.2869656  64.42896   15.30312   6.098      0.6626893  0.7167817  73.04      0.155974   0.2129752  0.1559742 
1154       0.212      165        1          2          6.749      5.369      3.062      3.095      1.098      0.2332788  0.2332788  0.2816776  58.62017   28.11413   6.061      0.6589283  0.7117026  71.866     0.146663   0.1661384  0.1466629 
1154.2     0.212      159        1          2          6.571      6.171      2.349      2.433      1.108      0.2293882  0.2293882  0.2763896  49.65746   38.40805   6.289      0.6598414  0.7118222  70.608     0.1424284  0.1462654  0.1385913 
1154.4     0.212      152        1          2          6.342      6.923      2.248      2.441      1.124      0.2254378  0.2254378  0.2679288  41.95784   57.3776    6.579      0.6618847  0.7110324  69.601     0.1287607  0.1241541  0.1333672 
1154.6     0.212      144        1          2          6.02       10.453     2.391      3.339      1.113      0.2360686  0.2360686  0.2737456  66.02697   100.8919   6.944      0.683312   0.727569   68.763     0.1141727  0.09859906 0.1297463 
1154.8     0.212      138        1          2          6.461      16.153     2.265      2.953      1.107      0.2333116  0.2333116  0.2769184  58.70234   46.57542   7.246      0.6863834  0.733742   68.595     0.1321417  0.1351917  0.1290918 
1155       0.212      134        1          2          6.452      20.738     2.609      3.548      1.103      0.2356737  0.2356737  0.2790336  64.92429   47.31598   7.463      0.6933978  0.7399024  68.428     0.1313935  0.1343237  0.1284633 
1155.2     0.212      130        1          2          6.41       23.648     2.525      3.473      1.094      0.2409321  0.2409321  0.2837928  81.24645   50.93066   7.692      0.7034698  0.7486504  68.679     0.1298811  0.130346   0.1294162 
1155.4     0.212      130        1          2          6.596      18.569     2.383      3.003      1.103      0.2324577  0.2324577  0.2790336  56.60289   36.76136   7.692      0.6940765  0.7423066  69.602     0.141139   0.1489061  0.1333719 
1155.6     0.211      138        1          2          6.766      14.294     2.617      3.523      1.099      0.2304532  0.2304532  0.2811488  51.96486   27.28877   7.246      0.6829981  0.7346786  70.692     0.1536232  0.1681721  0.1390742 
