~Version
 VERS              .         2.0                           : CWLS LOG ASCII STANDARD - VERSION 2.0
 WRAP              .         NO                            : ONE LINE PER DEPTH STEP
 DLM               .         SPACE                         : DELIMITING CHARACTER(SPACE TAB OR COMMA)
~Well Information
#_______________________________________________________________________________
#
#PARAMETER_NAME    .UNIT     VALUE                         : DESCRIPTION
#_______________________________________________________________________________
STRT               .M        860.8                         : First reference value
STOP               .M        1220.6                        : Last reference value
STEP               .M        0.2                           : Step increment
NULL               .         -9999                         : Missing value
COMP               .                                       : Company
WELL               .         1673                          : Well name
FLD                .         Узень                         : Field
LOC                .                                       : Location
CNTY               .                                       : County
STAT               .                                       : State
CTRY               .                                       : Country
SRVC               .                                       : Service Company
DATE               .                                       : Date
UWI                .                                       : Unique Well ID
Block              .         6а                            : 
Category           .         Нефтяная                      : 
Condition          .         Ликвидированная               : 
Date               .         18.04.1980                    : 
EREF               .m        84                            : 100.8
Gorizont           .         15                            : 14
Interpretator      .         Бекбулатова А.А.              : 
Kupol              .         Основной                      : osnovnoi
Mud                .         0                             : 
Mud_density        .         0                             : 
Mud_resistivity    .         0                             : 
NGDU               .         НГДУ-2                        : 
ORIGINALWELLNAME   .         1673                          : 
Spud_date          .         1980                          : 1961
Viscosity          .         0                             : 
X                  .m        44584.4                       : 46154
Y                  .m        85188.63                      : 85761.93
YEAR               .         2018                          : 
~Parameter Information Block
#_______________________________________________________________________________
#
#PARAMETER_NAME    .UNIT     VALUE                         : DESCRIPTION
#_______________________________________________________________________________
SET                .         LQC_KAZNIPI_Petrel            : 
TLFamily_CALI      .         Caliper                       : 
TLFamily_CILD      .         Conductivity                  : 
TLFamily_COLL      .         Net Reservoir Flag            : 
TLFamily_CSAT      .         Fluid Code                    : 
TLFamily_DEPT      .         Measured Depth                : 
TLFamily_GR        .         Russian Gamma Ray             : 
TLFamily_LLS       .         Lateral Log Resistivity       : 
TLFamily_MINV      .         Micro Gradient Resistivity    : 
TLFamily_MNOR      .         Micro Resistivity             : 
TLFamily_NGLD      .         Neutron Gamma                 : 
TLFamily_PHIE      .         Effective Porosity            : 
TLFamily_PHIEN     .         Effective Porosity            : 
TLFamily_PHIT      .         Porosity                      : 
TLFamily_PRMB      .         Permeability                  : 
TLFamily_PRMB_DGR  .         Permeability                  : 
TLFamily_RT        .         Formation Resistivity         : 
TLFamily_SOIL_ARCHIE .         Oil Saturation                : 
TLFamily_SOIL_DW   .         Oil Saturation                : 
TLFamily_SP        .         Spontaneous Potential         : 
TLFamily_VSH_FIN   .         Shale Volume                  : 
TLFamily_VSH_GR    .         Shale Volume                  : 
TLFamily_VSH_SP    .         Shale Volume                  : 
~Curve Information
#_______________________________________________________________________________
#
#LOGNAME           .UNIT     LOG_ID                        : DESCRIPTION
#_______________________________________________________________________________
DEPT               .M                                      : Колонка глубины 
CALI               .м                                      : Каверномер 
CILD               .мСм/м                                  : Индукционный каротаж 
COLL               .unitless                               : Описание 
CSAT               .unitless                               : Описание 
GR                 .uR/h                                   : Гамма каротаж 
LLS                .Ohmm                                   : Боковой каротаж 
MINV               .Ohmm                                   : Микро-градиент зонд 
MNOR               .Ohmm                                   : Микро-потенциал зонд 
NGLD               .у.е.                                   : Показания зонда НГК-60 аппаратуры ДРСТ-3-90 
PHIE               .д.ед.                                  : Описание 
PHIEN              .д.ед.                                  :  
PHIT               .д.ед.                                  : Описание 
PRMB               .mD                                     :  
PRMB_DGR           .mD                                     :  
RT                 .ohmm                                   : УЭС пласта 
SOIL_ARCHIE        .д.ед.                                  :  
SOIL_DW            .д.ед.                                  :  
SP                 .мВ                                     : Потенциал самополяризации 
VSH_FIN            .д.ед.                                  : Описание 
VSH_GR             .д.ед.                                  : Shale volume 
VSH_SP             .д.ед.                                  : Shale Volume 
~Ascii
# ...
1033.4     0.225      317        -9999      -9999      4.937      2.487      2.773      1.179      1.135      0.1511872  0.1511872  0.262112   1.768123   5.963131   3.155      0.3239862  0.5018679  87.883     0.3361357  0.3129407  0.3593306 
1033.6     0.223      313        -9999      -9999      5.064      3.701      5.288      2.773      1.156      0.1353824  0.1353824  0.2510072  0.9010925  5.214447   3.195      0.2601348  0.4692513  88.218     0.350378   0.3305629  0.3701932 
1033.8     0.224      308        -9999      -9999      5.216      7.483      5.624      4.45       1.181      0.1175469  0.1175469  0.2377872  0.4211266  4.440918   3.247      0.1695831  0.4251735  88.386     0.3643644  0.3529632  0.3757657 
1034       0.224      302        -9999      -9999      5.165      3.788      5.246      2.877      1.201      0.1091576  0.1091576  0.2272112  0.2944574  4.68674    3.311      0.1223413  0.3977262  88.218     0.3577381  0.345283   0.3701932 
1034.2     0.225      296        -9999      -9999      5.03       2.735      2.856      2.311      1.213      0.1060349  0.1060349  0.2208656  0.2577402  5.405141   3.378      0.1082946  0.3864344  88.218     0.3479716  0.3257501  0.3701932 
1034.4     0.225      290        -9999      -9999      4.911      3.515      3.947      1.367      1.166      0.1317307  0.1317307  0.2457192  0.7711358  6.129185   3.448      0.2689208  0.476864   88.553     0.3454196  0.3094506  0.3813886 
1034.6     0.225      285        -9999      -9999      4.886      4.37       6.127      4.386      1.151      0.1383016  0.1383016  0.2536512  1.02056    6.29321    3.509      0.3050101  0.5009583  88.889     0.3495443  0.3061315  0.3929571 
1034.8     0.225      281        -9999      -9999      5.174      4.221      4.575      3.03       1.185      0.1121777  0.1121777  0.235672   0.3349361  4.642393   3.559      0.1715192  0.4379662  89.14      0.3742251  0.346626   0.4018242 
1035       0.226      279        -9999      -9999      5.03       2.661      2.94       2.356      1.203      0.1015075  0.1015075  0.2261536  0.2124827  5.405141   3.584      0.09912903 0.4032844  89.895     0.3777155  0.3257501  0.4296808 
1035.2     0.226      278        -9999      -9999      5.098      6.626      6.336      5.666      1.184      0.1056173  0.1056173  0.2362008  0.2531904  5.030481   3.597      0.1312153  0.4288929  90.566     0.3957075  0.3354467  0.4559682 
1035.4     0.226      280        -9999      -9999      5.089      4.667      3.988      3.183      1.175      0.109467   0.109467   0.24096    0.2983682  5.078536   3.571      0.1550151  0.4414675  90.734     0.3984637  0.334147   0.4627804 
1035.6     0.227      287        -9999      -9999      5.072      3.553      5.749      2.409      1.14       0.1300581  0.1300581  0.259468   0.718041   5.170567   3.484      0.2643331  0.4941427  90.482     0.3921513  0.3317056  0.4525971 
1035.8     0.227      297        -9999      -9999      5.309      3.268      4.156      3.597      1.116      0.1368579  0.1368579  0.2721592  0.9596179  4.025369   3.367      0.2849007  0.5100291  90.482     0.4100039  0.3674107  0.4525971 
1036       0.228      304        -9999      -9999      5.072      2.797      2.814      2.353      1.107      0.1452604  0.1452604  0.2769184  1.373199   5.170567   3.289      0.313556   0.5206692  90.818     0.3989636  0.3317056  0.4662216 
1036.2     0.226      304        -9999      -9999      5.089      3.416      4.617      2.856      1.118      0.137321   0.137321   0.2711016  0.978759   5.078536   3.289      0.279116   0.5037112  91.069     0.4053958  0.334147   0.4766446 
1036.4     0.227      308        -9999      -9999      5.165      4.209      4.911      3.695      1.109      0.1384809  0.1384809  0.2758608  1.028396   4.68674    3.247      0.2800489  0.5074264  91.321     0.4163027  0.345283   0.4873225 
1036.6     0.228      315        -9999      -9999      5.064      3.094      3.737      2.353      1.103      0.145261   0.145261   0.2790336  1.373232   5.214447   3.175      0.3021007  0.5144063  91.153     0.4053715  0.3305629  0.48018   
1036.8     0.236      324        -9999      -9999      5.14       2.772      3.485      2.65       1.091      0.1543401  0.1543401  0.2853792  2.022606   4.812167   3.086      0.3291041  0.5255083  90.482     0.3970882  0.3415794  0.4525971 
1037       0.235      332        -9999      -9999      5.284      2.5        3.108      2.102      1.076      0.1640023  0.1640023  0.2933112  3.054073   4.133096   3.012      0.3563741  0.5387738  89.644     0.3918451  0.3634698  0.4202203 
1037.2     0.225      329        -9999      -9999      5.487      2.042      1.934      0.926      1.099      0.1518115  0.1518115  0.2811488  1.815829   3.335353   3.04       0.3145683  0.5144376  88.721     0.3919313  0.3967327  0.38713   
1037.4     0.228      319        -9999      -9999      5.318      2.921      2.521      2.936      1.114      0.1530687  0.1530687  0.2732168  1.915852   3.98728    3.135      0.3292303  0.5150399  87.883     0.3640852  0.3688398  0.3593306 
1037.6     0.226      306        -9999      -9999      5.241      3.454      2.563      2.403      1.122      0.1546691  0.1546691  0.2689864  2.051187   4.325168   3.268      0.3481141  0.5224741  87.128     0.3464161  0.3567902  0.336042  
1037.8     0.224      296        -9999      -9999      5.343      3.899      3.15       2.377      1.137      0.1424173  0.1424173  0.2610544  1.216388   3.883354   3.378      0.3103316  0.5059057  87.463     0.3595064  0.372839   0.3461738 
1038       0.225      287        -9999      -9999      5.225      5.212      3.737      2.377      1.157      0.1295467  0.1295467  0.2504784  0.7025501  4.398896   3.484      0.2618045  0.4822841  88.47      0.3664598  0.3543361  0.3785835 
1038.2     0.226      281        -9999      -9999      5.284      5.907      6.127      4.282      1.173      0.1152473  0.1152473  0.2420176  0.3817837  4.133096   3.559      0.1907711  0.4527911  89.224     0.3841525  0.3634698  0.4048352 
1038.4     0.226      278        -9999      -9999      5.292      7.591      7.762      7.091      1.179      0.1093286  0.1093286  0.2388448  0.2966121  4.098313   3.597      0.1569583  0.4401531  89.644     0.3924733  0.3647263  0.4202203 
1038.6     0.232      289        -9999      -9999      5.368      5.065      8.475      8.014      1.174      0.108406   0.108406   0.2414888  0.2851678  3.782137   3.46       0.1350951  0.4312822  89.895     0.4032811  0.3768815  0.4296808 
1038.8     0.25       312        -9999      -9999      5.682      3.193      6.169      5.791      1.144      0.1152501  0.1152501  0.2573528  0.381829   2.714427   3.205      0.1500102  0.4450168  89.895     0.4306143  0.4315478  0.4296808 
1039       0.257      350        -9999      -9999      5.936      2.314      3.645      2.896      1.077      0.1601838  0.1601838  0.2927824  2.595081   13.81866   2.857      0.3265401  0.521498   89.811     0.4018138  0.2220362  0.5815914 
1039.2     0.253      372        -9999      -9999      6.3        2.029      1.016      1.267      1.016      0.1893826  0.1893826  0.3250392  9.015369   9.28299    2.688      0.4010352  0.5665455  89.392     0.4110805  0.2612011  0.5609599 
1039.4     0.255      390        -9999      -9999      6.444      1.904      0.999      0.689      0.978      0.2118497  0.2118497  0.3451336  23.5033    7.931151   2.564      0.4445797  0.5906408  88.721     0.4038906  0.2785385  0.5292426 
1039.6     0.255      399        -9999      -9999      6.368      1.769      1.854      1.175      0.974      0.2198603  0.2198603  0.3472488  33.07527   8.61808    2.506      0.4564418  0.5935606  88.134     0.3860259  0.2692494  0.5028024 
1039.8     0.252      407        -9999      -9999      6.664      2.102      2.282      1.619      0.982      0.2129378  0.2129378  0.3430184  24.61975   6.236052   2.457      0.4358802  0.5811457  87.631     0.3941835  0.3072741  0.4810929 
1040       0.244      419        -9999      -9999      6.511      2.252      2.517      0.991      0.977      0.2223691  0.2223691  0.3456624  36.81064   7.371121   2.387      0.4493583  0.5843285  87.128     0.3736161  0.286993   0.4602391 
