~Version
 VERS              .         2.0                           : CWLS LOG ASCII STANDARD - VERSION 2.0
 WRAP              .         NO                            : ONE LINE PER DEPTH STEP
 DLM               .         SPACE                         : DELIMITING CHARACTER(SPACE TAB OR COMMA)
~Well Information
#_______________________________________________________________________________
#
#PARAMETER_NAME    .UNIT     VALUE                         : DESCRIPTION
#_______________________________________________________________________________
STRT               .M        860.8                         : First reference value
STOP               .M        1220.6                        : Last reference value
STEP               .M        0.2                           : Step increment
NULL               .         -9999                         : Missing value
COMP               .                                       : Company
WELL               .         1673                          : Well name
FLD                .         Узень                         : Field
LOC                .                                       : Location
CNTY               .                                       : County
STAT               .                                       : State
CTRY               .                                       : Country
SRVC               .                                       : Service Company
DATE               .                                       : Date
UWI                .                                       : Unique Well ID
Block              .         6а                            : 
Category           .         Нефтяная                      : 
Condition          .         Ликвидированная               : 
Date               .         18.04.1980                    : 
EREF               .m        84                            : 100.8
Gorizont           .         15                            : 14
Interpretator      .         Бекбулатова А.А.              : 
Kupol              .         Основной                      : osnovnoi
Mud                .         0                             : 
Mud_density        .         0                             : 
Mud_resistivity    .         0                             : 
NGDU               .         НГДУ-2                        : 
ORIGINALWELLNAME   .         1673                          : 
Spud_date          .         1980                          : 1961
Viscosity          .         0                             : 
X                  .m        44584.4                       : 46154
Y                  .m        85188.63                      : 85761.93
YEAR               .         2018                          : 
~Parameter Information Block
#_______________________________________________________________________________
#
#PARAMETER_NAME    .UNIT     VALUE                         : DESCRIPTION
#_______________________________________________________________________________
SET                .         LQC_KAZNIPI_Petrel            : 
TLFamily_CALI      .         Caliper                       : 
TLFamily_CILD      .         Conductivity                  : 
TLFamily_COLL      .         Net Reservoir Flag            : 
TLFamily_CSAT      .         Fluid Code                    : 
TLFamily_DEPT      .         Measured Depth                : 
TLFamily_GR        .         Russian Gamma Ray             : 
TLFamily_LLS       .         Lateral Log Resistivity       : 
TLFamily_MINV      .         Micro Gradient Resistivity    : 
TLFamily_MNOR      .         Micro Resistivity             : 
TLFamily_NGLD      .         Neutron Gamma                 : 
TLFamily_PHIE      .         Effective Porosity            : 
TLFamily_PHIEN     .         Effective Porosity            : 
TLFamily_PHIT      .         Porosity                      : 
TLFamily_PRMB      .         Permeability                  : 
TLFamily_PRMB_DGR  .         Permeability                  : 
TLFamily_RT        .         Formation Resistivity         : 
TLFamily_SOIL_ARCHIE .         Oil Saturation                : 
TLFamily_SOIL_DW   .         Oil Saturation                : 
TLFamily_SP        .         Spontaneous Potential         : 
TLFamily_VSH_FIN   .         Shale Volume                  : 
TLFamily_VSH_GR    .         Shale Volume                  : 
TLFamily_VSH_SP    .         Shale Volume                  : 
~Curve Information
#_______________________________________________________________________________
#
#LOGNAME           .UNIT     LOG_ID                        : DESCRIPTION
#_______________________________________________________________________________
DEPT               .M                                      : Колонка глубины 
CALI               .м                                      : Каверномер 
CILD               .мСм/м                                  : Индукционный каротаж 
COLL               .unitless                               : Описание 
CSAT               .unitless                               : Описание 
GR                 .uR/h                                   : Гамма каротаж 
LLS                .Ohmm                                   : Боковой каротаж 
MINV               .Ohmm                                   : Микро-градиент зонд 
MNOR               .Ohmm                                   : Микро-потенциал зонд 
NGLD               .у.е.                                   : Показания зонда НГК-60 аппаратуры ДРСТ-3-90 
PHIE               .д.ед.                                  : Описание 
PHIEN              .д.ед.                                  :  
PHIT               .д.ед.                                  : Описание 
PRMB               .mD                                     :  
PRMB_DGR           .mD                                     :  
RT                 .ohmm                                   : УЭС пласта 
SOIL_ARCHIE        .д.ед.                                  :  
SOIL_DW            .д.ед.                                  :  
SP                 .мВ                                     : Потенциал самополяризации 
VSH_FIN            .д.ед.                                  : Описание 
VSH_GR             .д.ед.                                  : Shale volume 
VSH_SP             .д.ед.                                  : Shale Volume 
~Ascii
# ...
1094.6     0.234      365        -9999      -9999      6.918      2.537      1.351      1.108      1.052      0.1668622  0.1668622  0.3060024  3.450253   4.724382   2.74       0.3371988  0.5318894  88.05      0.4216369  0.344157   0.4991167 
1094.8     0.242      365        -9999      -9999      7.104      2.45       1.041      1.427      1.057      0.1593032  0.1593032  0.3033584  2.499427   3.855292   2.74       0.3098897  0.5208142  88.05      0.4365307  0.3739447  0.4991167 
1095       0.24       365        -9999      -9999      6.943      2.748      1.091      1.351      1.064      0.1610767  0.1610767  0.2996568  2.695805   4.597041   2.74       0.3165119  0.5192883  87.883     0.4199398  0.3480183  0.4918613 
1095.2     0.239      364        -9999      -9999      7.189      2.426      0.798      0.982      1.072      0.1519596  0.1519596  0.2954264  1.827338   3.513264   2.747      0.2817926  0.5046155  87.631     0.4347478  0.3884027  0.4810929 
1095.4     0.232      362        -9999      -9999      7.392      2.339      1.284      1.36       1.063      0.1529488  0.1529488  0.3001856  1.906081   2.814192   2.762      0.2876626  0.5120082  87.296     0.4461721  0.425234   0.4671102 
1095.6     0.234      353        -9999      -9999      7.35       2.413      0.831      1.142      1.075      0.1467637  0.1467637  0.29384    1.464127   2.946387   2.833      0.2703291  0.5039666  87.463     0.4456855  0.4173375  0.4740335 
1095.8     0.227      336        -9999      -9999      7.189      2.549      1.158      1.15       1.093      0.1402665  0.1402665  0.2843216  1.109774   3.513264   2.976      0.2583171  0.4974528  87.715     0.4365305  0.3884027  0.4846583 
1096       0.221      319        -9999      -9999      6.926      3.28       0.798      1.242      1.111      0.1360641  0.1360641  0.2748032  0.9276731  4.683254   3.135      0.2567815  0.4941079  87.966     0.4204217  0.345388   0.4954554 
1096.2     0.222      304        -9999      -9999      7.147      5.684      1.477      1.477      1.129      0.1200342  0.1200342  0.2652848  0.468255   3.678297   3.289      0.1894929  0.4705812  88.05      0.4401534  0.3811902  0.4991167 
1096.4     0.225      293        -9999      -9999      6.528      7.269      3.888      3.117      1.149      0.1234197  0.1234197  0.2547088  0.5409924  7.235431   3.413      0.2225118  0.4725579  88.218     0.3978455  0.2891786  0.5065125 
1096.6     0.222      283        -9999      -9999      6.13       4.444      1.594      1.586      1.162      0.1249227  0.1249227  0.2478344  0.5768064  11.17843   3.534      0.2431404  0.4752865  88.134     0.3724597  0.242117   0.5028024 
1096.8     0.226      278        -9999      -9999      6.376      6.332      3.699      3.666      1.17       0.1154444  0.1154444  0.243604   0.3850072  8.543057   3.597      0.1959918  0.4582423  88.218     0.3883624  0.2702124  0.5065125 
1097       0.228      282        -9999      -9999      6.461      7.698      2.165      2.592      1.157      0.1212072  0.1212072  0.2504784  0.4922763  7.785147   3.546      0.2242078  0.4735351  88.134     0.3917311  0.2806598  0.5028024 
1097.2     0.233      293        -9999      -9999      6.715      4.234      1.125      1.611      1.134      0.1284191  0.1284191  0.2626408  0.6695637  5.89796    3.413      0.2489408  0.4902507  88.05      0.4067324  0.3143481  0.4991167 
1097.4     0.232      306        -9999      -9999      6.833      3.305      1.217      0.991      1.093      0.1490886  0.1490886  0.2843216  1.616739   5.184316   3.268      0.3269128  0.531585   87.799     0.409797   0.3313461  0.4882479 
1097.6     0.23       315        -9999      -9999      6.977      2.859      1.183      1.318      1.051      0.16648    0.16648    0.3065312  3.394474   4.429346   3.175      0.3802438  0.5652037  87.966     0.4243974  0.3533394  0.4954554 
1097.8     0.231      320        -9999      -9999      7.113      2.772      1.183      2.089      1.034      0.1712173  0.1712173  0.3155208  4.154495   3.817556   3.125      0.3906836  0.5740846  88.05      0.4372832  0.3754497  0.4991167 
1098       0.231      329        -9999      -9999      6.969      3.193      1.678      1.779      1.043      0.1703141  0.1703141  0.3107616  3.997505   4.468246   3.04       0.3798974  0.5632573  88.05      0.4255984  0.3520801  0.4991167 
1098.2     0.238      346        -9999      -9999      6.884      3.094      1.276      1.536      1.03       0.17627    0.17627    0.317636   5.153547   4.903247   2.89       0.3837249  0.5639063  88.47      0.4283818  0.3389742  0.5177895 
1098.4     0.243      362        -9999      -9999      6.74       2.995      1.334      1.77       1.02       0.1850394  0.1850394  0.322924   7.490937   5.738989   2.762      0.3965486  0.5667346  88.47      0.4178322  0.317875   0.5177895 
1098.6     0.246      381        -9999      -9999      6.952      2.809      0.949      1.058      1.013      0.1847807  0.1847807  0.3266256  7.408755   4.552044   2.625      0.3812154  0.5583794  88.302     0.429833   0.349419   0.5102469 
1098.8     0.246      400        -9999      -9999      7.155      2.45       1.066      1.15       1.005      0.1847723  0.1847723  0.330856   7.406081   3.646275   2.5        0.3668594  0.5509782  88.134     0.442678   0.3825536  0.5028024 
1099       0.247      417        -9999      -9999      7.231      2.116      0.622      0.764      0.985      0.1943828  0.1943828  0.341432   11.15835   3.355638   2.398      0.3822537  0.5590904  87.966     0.4456035  0.3957516  0.4954554 
1099.2     0.249      432        -9999      -9999      7.409      1.918      0.907      0.806      0.962      0.2011463  0.2011463  0.3535944  14.88935   2.762388   2.315      0.3903904  0.5665542  87.966     0.4619639  0.4284725  0.4954554 
1099.4     0.246      448        -9999      -9999      7.299      1.955      0.731      0.462      0.959      0.2049073  0.2049073  0.3551808  17.4799    3.115284   2.232      0.3897812  0.5629784  88.134     0.4553742  0.4079459  0.5028024 
1099.6     0.239      460        -9999      -9999      7.18       1.992      0.915      0.907      0.964      0.2045165  0.2045165  0.3525368  17.19097   3.547995   2.174      0.3811669  0.5548498  88.302     0.4485463  0.3868457  0.5102469 
1099.8     0.235      470        -9999      -9999      7.46       1.918      1.175      0.437      0.967      0.1938139  0.1938139  0.3509504  10.89084   2.612622   2.128      0.344967   0.5391534  88.386     0.4761713  0.4383367  0.5140059 
1100       0.237      478        -9999      -9999      7.426      1.856      1.368      0.957      0.961      0.1974515  0.1974515  0.3541232  12.71861   2.711535   2.092      0.350309   0.5411047  88.47      0.4747626  0.4317357  0.5177895 
1100.2     0.236      482        -9999      -9999      7.519      1.881      1.158      0.722      0.95       0.1977191  0.1977191  0.35994    12.86457   2.449466   2.075      0.3485853  0.5440049  88.805     0.4915785  0.4500319  0.5331252 
1100.4     0.236      483        -9999      -9999      7.299      1.941      1.309      1.301      0.966      0.1949088  0.1949088  0.3514792  11.41149   3.115284   2.07       0.3396655  0.5342012  88.973     0.4744557  0.4079459  0.5409655 
1100.6     0.237      483        -9999      -9999      7.485      2.003      1.234      0.689      0.976      0.1824924  0.1824924  0.3461912  6.719867   2.542202   2.07       0.3007031  0.5176209  89.14      0.4960569  0.4432547  0.5488589 
1100.8     0.237      484        -9999      -9999      7.671      2.091      1.594      1.142      0.987      0.1690186  0.1690186  0.3403744  3.782611   2.074543   2.066      0.2517139  0.4974322  89.308     0.5192602  0.4816196  0.5569008 
1101       0.238      486        -9999      -9999      7.587      2.153      1.225      1.301      0.98       0.1756441  0.1756441  0.344076   5.017792   2.274021   2.058      0.2750398  0.5071447  89.308     0.5103997  0.4638987  0.5569008 
1101.2     0.239      488        -9999      -9999      7.578      2.215      1.091      0.898      0.982      0.1748933  0.1748933  0.3430184  4.859665   2.296498   2.049      0.2708319  0.50431    89.308     0.50947    0.4620391  0.5569008 
