~Version
 VERS              .         2.0                           : CWLS LOG ASCII STANDARD - VERSION 2.0
 WRAP              .         NO                            : ONE LINE PER DEPTH STEP
 DLM               .         SPACE                         : DELIMITING CHARACTER(SPACE TAB OR COMMA)
~Well Information
#_______________________________________________________________________________
#
#PARAMETER_NAME    .UNIT     VALUE                         : DESCRIPTION
#_______________________________________________________________________________
STRT               .M        860.8                         : First reference value
STOP               .M        1220.6                        : Last reference value
STEP               .M        0.2                           : Step increment
NULL               .         -9999                         : Missing value
COMP               .                                       : Company
WELL               .         1673                          : Well name
FLD                .         Узень                         : Field
LOC                .                                       : Location
CNTY               .                                       : County
STAT               .                                       : State
CTRY               .                                       : Country
SRVC               .                                       : Service Company
DATE               .                                       : Date
UWI                .                                       : Unique Well ID
Block              .         6а                            : 
Category           .         Нефтяная                      : 
Condition          .         Ликвидированная               : 
Date               .         18.04.1980                    : 
EREF               .m        84                            : 100.8
Gorizont           .         15                            : 14
Interpretator      .         Бекбулатова А.А.              : 
Kupol              .         Основной                      : osnovnoi
Mud                .         0                             : 
Mud_density        .         0                             : 
Mud_resistivity    .         0                             : 
NGDU               .         НГДУ-2                        : 
ORIGINALWELLNAME   .         1673                          : 
Spud_date          .         1980                          : 1961
Viscosity          .         0                             : 
X                  .m        44584.4                       : 46154
Y                  .m        85188.63                      : 85761.93
YEAR               .         2018                          : 
~Parameter Information Block
#_______________________________________________________________________________
#
#PARAMETER_NAME    .UNIT     VALUE                         : DESCRIPTION
#_______________________________________________________________________________
SET                .         LQC_KAZNIPI_Petrel            : 
TLFamily_CALI      .         Caliper                       : 
TLFamily_CILD      .         Conductivity                  : 
TLFamily_COLL      .         Net Reservoir Flag            : 
TLFamily_CSAT      .         Fluid Code                    : 
TLFamily_DEPT      .         Measured Depth                : 
TLFamily_GR        .         Russian Gamma Ray             : 
TLFamily_LLS       .         Lateral Log Resistivity       : 
TLFamily_MINV      .         Micro Gradient Resistivity    : 
TLFamily_MNOR      .         Micro Resistivity             : 
TLFamily_NGLD      .         Neutron Gamma                 : 
TLFamily_PHIE      .         Effective Porosity            : 
TLFamily_PHIEN     .         Effective Porosity            : 
TLFamily_PHIT      .         Porosity                      : 
TLFamily_PRMB      .         Permeability                  : 
TLFamily_PRMB_DGR  .         Permeability                  : 
TLFamily_RT        .         Formation Resistivity         : 
TLFamily_SOIL_ARCHIE .         Oil Saturation                : 
TLFamily_SOIL_DW   .         Oil Saturation                : 
TLFamily_SP        .         Spontaneous Potential         : 
TLFamily_VSH_FIN   .         Shale Volume                  : 
TLFamily_VSH_GR    .         Shale Volume                  : 
TLFamily_VSH_SP    .         Shale Volume                  : 
~Curve Information
#_______________________________________________________________________________
#
#LOGNAME           .UNIT     LOG_ID                        : DESCRIPTION
#_______________________________________________________________________________
DEPT               .M                                      : Колонка глубины 
CALI               .м                                      : Каверномер 
CILD               .мСм/м                                  : Индукционный каротаж 
COLL               .unitless                               : Описание 
CSAT               .unitless                               : Описание 
GR                 .uR/h                                   : Гамма каротаж 
LLS                .Ohmm                                   : Боковой каротаж 
MINV               .Ohmm                                   : Микро-градиент зонд 
MNOR               .Ohmm                                   : Микро-потенциал зонд 
NGLD               .у.е.                                   : Показания зонда НГК-60 аппаратуры ДРСТ-3-90 
PHIE               .д.ед.                                  : Описание 
PHIEN              .д.ед.                                  :  
PHIT               .д.ед.                                  : Описание 
PRMB               .mD                                     :  
PRMB_DGR           .mD                                     :  
RT                 .ohmm                                   : УЭС пласта 
SOIL_ARCHIE        .д.ед.                                  :  
SOIL_DW            .д.ед.                                  :  
SP                 .мВ                                     : Потенциал самополяризации 
VSH_FIN            .д.ед.                                  : Описание 
VSH_GR             .д.ед.                                  : Shale volume 
VSH_SP             .д.ед.                                  : Shale Volume 
~Ascii
# ...
1128.6     0.208      395        1          2          7.502      2.574      2.525      2.408      1.164      0.207818   0.207818   0.2467768  19.79024   7.511445   2.532      0.4318681  0.4944609  64.286     0.118057   0.2847915  0.1180574 
1128.8     0.207      382        8          2          8.01       3.503      3.053      3.297      1.172      0.2027731  0.2027731  0.2425464  15.9591    3.083343   2.618      0.4286036  0.4925977  65.593     0.120525   0.4096663  0.1205255 
1129       0.207      370        8          2          7.892      3.998      2.861      2.961      1.16       0.2084383  0.2084383  0.248892   20.32082   3.791807   2.703      0.4504554  0.5137274  66.499     0.122587   0.3764887  0.122587  
1129.2     0.207      356        8          2          8.12       4.421      2.785      2.575      1.155      0.2104939  0.2104939  0.251536   22.18278   2.542656   2.809      0.4648795  0.5278538  67.17      0.12437    0.4432224  0.1243704 
1129.4     0.207      345        1          2          7.858      3.763      2.575      3.028      1.154      0.2111775  0.2111775  0.2520648  22.83899   4.024651   2.899      0.4742273  0.53644    67.002     0.123901   0.3674375  0.1239006 
1129.6     0.207      334        1          2          7.46       3.342      2.634      3.288      1.146      0.2162335  0.2162335  0.2562952  28.33528   8.085273   2.994      0.4926856  0.5527158  65.996     0.121399   0.276358   0.1213989 
1129.8     0.207      324        1          2          7.697      3.392      2.81       2.894      1.143      0.2186073  0.2186073  0.2578816  31.3542    5.33685    3.086      0.5045733  0.5630252  64.822     0.119013   0.3274458  0.1190135 
1130       0.207      315        1          2          7.341      3.144      2.877      3.062      1.15       0.214642   0.214642   0.25418    26.47583   9.960481   3.175      0.503283   0.562205   65.241     0.119812   0.253795   0.1198119 
1130.2     0.207      311        1          2          7.163      5.113      2.936      3.397      1.156      0.2112448  0.2112448  0.2510072  22.90472   13.6075    3.215      0.4992833  0.558803   65.577     0.120492   0.2234368  0.1204921 
1130.4     0.207      314        1          2          7.367      4.655      2.659      2.869      1.165      0.2065995  0.2065995  0.246248   18.78807   9.516745   3.185      0.4872409  0.5475699  65.409     0.120147   0.258562   0.1201471 
1130.6     0.207      329        1          2          7.528      4.023      2.592      2.475      1.177      0.2005241  0.2005241  0.2399024  14.49945   7.176817   3.04       0.462103   0.5239022  64.99      0.119328   0.2901407  0.1193275 
1130.8     0.206      350        1          2          7.163      3.912      1.796      2.123      1.153      0.2126547  0.2126547  0.2525936  24.32422   13.6075    2.857      0.4738186  0.5349849  65.828     0.121027   0.2234368  0.1210269 
1131       0.206      368        -9999      -9999      7.087      3.342      2.173      1.309      1.14       0.2187305  0.2187305  0.259468   31.51937   15.54644   2.717      0.4743223  0.5360483  66.834     0.123447   0.2116077  0.1234468 
1131.2     0.206      379        -9999      -9999      7.401      2.735      2.316      2.156      1.134      0.2203497  0.2203497  0.2626408  33.77293   8.966171   2.639      0.4704998  0.5339852  68.344     0.128155   0.2649311  0.1281553 
1131.4     0.208      391        -9999      -9999      7.544      2.289      2.416      2.181      1.129      0.2205952  0.2205952  0.2652848  34.12849   6.978338   2.558      0.4632178  0.5296111  70.021     0.135423   0.2934824  0.135423  
1131.6     0.208      394        -9999      -9999      7.655      2.426      2.248      2.349      1.136      0.2145027  0.2145027  0.2615832  26.31899   5.744553   2.538      0.4479335  0.5182436  71.279     0.142668   0.3177493  0.1426675 
1131.8     0.208      394        -9999      -9999      7.9        2.537      2.114      2.534      1.127      0.2171282  0.2171282  0.2663424  29.43738   3.739008   2.538      0.453752   0.5256787  72.201     0.149134   0.3786505  0.1491343 
1132       0.208      386        -9999      -9999      8.104      2.463      2.123      2.123      1.117      0.2215499  0.2215499  0.2716304  35.5468    2.614971   2.591      0.46844    0.5397912  72.537     0.151759   0.4381759  0.1517593 
1132.2     0.209      374        -9999      -9999      7.968      2.263      2.307      1.729      1.112      0.2239586  0.2239586  0.2742744  39.39267   3.318896   2.674      0.4811569  0.5515702  72.625     0.152472   0.3975348  0.1524716 
1132.4     0.209      359        -9999      -9999      8.12       2.525      2.726      2.374      1.107      0.2263888  0.2263888  0.2769184  43.69463   2.542656   2.786      0.495813   0.5650911  72.704     0.15312    0.4432224  0.1531201 
1132.6     0.208      344        1          2          7.841      2.958      2.668      2.411      1.086      0.2374936  0.2374936  0.2880232  70.16428   4.146377   2.907      0.525961   0.5921334  72.704     0.15312    0.362994   0.1531201 
1132.8     0.208      329        1          2          7.773      3.33       2.609      2.45       1.094      0.2327986  0.2327986  0.2837928  57.43177   4.671239   3.04       0.5276657  0.5943242  72.872     0.154528   0.3457504  0.1545275 
1133       0.208      314        1          2          7.832      3.565      2.517      2.827      1.106      0.2257323  0.2257323  0.2774472  42.4881    4.212307   3.185      0.5253071  0.5931937  73.124     0.156712   0.3606632  0.1567124 
1133.2     0.208      304        1          2          7.333      3.515      2.668      2.575      1.101      0.2268467  0.2268467  0.2800912  44.55634   10.10113   3.289      0.5344122  0.6026925  73.627     0.161347   0.2523459  0.1613468 
1133.4     0.208      290        1          2          7.147      3.689      2.668      2.257      1.099      0.226817   0.226817   0.2811488  44.49982   13.99451   3.448      0.5445615  0.6127849  73.962     0.164642   0.2208927  0.1646423 
1133.6     0.208      283        1          2          7.079      4.06       2.508      2.886      1.094      0.2300101  0.2300101  0.2837928  50.99208   15.76598   3.534      0.5552447  0.6218259  73.795     0.162978   0.2103995  0.1629781 
1133.8     0.208      278        1          2          7.062      4.271      2.5        2.684      1.103      0.2263134  0.2263134  0.2790336  43.55441   16.24283   3.597      0.552649   0.6188731  73.459     0.159758   0.207855   0.1597577 
1134       0.208      273        1          2          7.197      3.887      2.466      2.76       1.107      0.2261581  0.2261581  0.2769184  43.26688   12.82025   3.663      0.5561844  0.6205476  72.788     0.153819   0.2289407  0.1538189 
1134.2     0.208      272        1          2          7.561      4.048      2.45       2.684      1.099      0.2323471  0.2323471  0.2811488  56.33649   6.773473   3.676      0.5672185  0.6287802  72.034     0.147884   0.297075   0.1478844 
1134.4     0.208      272        1          2          7.104      4.308      2.425      2.668      1.102      0.2326598  0.2326598  0.2795624  57.09297   15.09004   3.676      0.5677252  0.6277786  71.195     0.142129   0.2141981  0.1421293 
1134.6     0.208      278        1          2          7.341      4.147      2.466      3.003      1.093      0.2380057  0.2380057  0.2843216  71.71365   9.960481   3.597      0.5718514  0.6309257  70.908     0.140351   0.253795   0.1403514 
1134.8     0.208      287        1          2          7.612      4.06       2.559      2.55       1.103      0.2332985  0.2332985  0.2790336  58.66959   6.194252   3.484      0.5577626  0.6176865  70.608     0.138591   0.3081191  0.1385913 
1135       0.21       299        1          2          7.257      4.023      2.383      2.819      1.098      0.2367005  0.2367005  0.2816776  67.83073   11.54046   3.344      0.5548176  0.6142546  70.189     0.136294   0.2389863  0.1362937 
1135.2     0.211      313        1          2          7.248      3.268      2.114      2.701      1.096      0.2379031  0.2379031  0.2827352  71.40032   11.72395   3.195      0.5471957  0.6070586  70.105     0.135855   0.2374519  0.1358548 
