~Version
 VERS              .         2.0                           : CWLS LOG ASCII STANDARD - VERSION 2.0
 WRAP              .         NO                            : ONE LINE PER DEPTH STEP
 DLM               .         SPACE                         : DELIMITING CHARACTER(SPACE TAB OR COMMA)
~Well Information
#_______________________________________________________________________________
#
#PARAMETER_NAME    .UNIT     VALUE                         : DESCRIPTION
#_______________________________________________________________________________
STRT               .M        860.8                         : First reference value
STOP               .M        1220.6                        : Last reference value
STEP               .M        0.2                           : Step increment
NULL               .         -9999                         : Missing value
COMP               .                                       : Company
WELL               .         1673                          : Well name
FLD                .         Узень                         : Field
LOC                .                                       : Location
CNTY               .                                       : County
STAT               .                                       : State
CTRY               .                                       : Country
SRVC               .                                       : Service Company
DATE               .                                       : Date
UWI                .                                       : Unique Well ID
Block              .         6а                            : 
Category           .         Нефтяная                      : 
Condition          .         Ликвидированная               : 
Date               .         18.04.1980                    : 
EREF               .m        84                            : 100.8
Gorizont           .         15                            : 14
Interpretator      .         Бекбулатова А.А.              : 
Kupol              .         Основной                      : osnovnoi
Mud                .         0                             : 
Mud_density        .         0                             : 
Mud_resistivity    .         0                             : 
NGDU               .         НГДУ-2                        : 
ORIGINALWELLNAME   .         1673                          : 
Spud_date          .         1980                          : 1961
Viscosity          .         0                             : 
X                  .m        44584.4                       : 46154
Y                  .m        85188.63                      : 85761.93
YEAR               .         2018                          : 
~Parameter Information Block
#_______________________________________________________________________________
#
#PARAMETER_NAME    .UNIT     VALUE                         : DESCRIPTION
#_______________________________________________________________________________
SET                .         LQC_KAZNIPI_Petrel            : 
TLFamily_CALI      .         Caliper                       : 
TLFamily_CILD      .         Conductivity                  : 
TLFamily_COLL      .         Net Reservoir Flag            : 
TLFamily_CSAT      .         Fluid Code                    : 
TLFamily_DEPT      .         Measured Depth                : 
TLFamily_GR        .         Russian Gamma Ray             : 
TLFamily_LLS       .         Lateral Log Resistivity       : 
TLFamily_MINV      .         Micro Gradient Resistivity    : 
TLFamily_MNOR      .         Micro Resistivity             : 
TLFamily_NGLD      .         Neutron Gamma                 : 
TLFamily_PHIE      .         Effective Porosity            : 
TLFamily_PHIEN     .         Effective Porosity            : 
TLFamily_PHIT      .         Porosity                      : 
TLFamily_PRMB      .         Permeability                  : 
TLFamily_PRMB_DGR  .         Permeability                  : 
TLFamily_RT        .         Formation Resistivity         : 
TLFamily_SOIL_ARCHIE .         Oil Saturation                : 
TLFamily_SOIL_DW   .         Oil Saturation                : 
TLFamily_SP        .         Spontaneous Potential         : 
TLFamily_VSH_FIN   .         Shale Volume                  : 
TLFamily_VSH_GR    .         Shale Volume                  : 
TLFamily_VSH_SP    .         Shale Volume                  : 
~Curve Information
#_______________________________________________________________________________
#
#LOGNAME           .UNIT     LOG_ID                        : DESCRIPTION
#_______________________________________________________________________________
DEPT               .M                                      : Колонка глубины 
CALI               .м                                      : Каверномер 
CILD               .мСм/м                                  : Индукционный каротаж 
COLL               .unitless                               : Описание 
CSAT               .unitless                               : Описание 
GR                 .uR/h                                   : Гамма каротаж 
LLS                .Ohmm                                   : Боковой каротаж 
MINV               .Ohmm                                   : Микро-градиент зонд 
MNOR               .Ohmm                                   : Микро-потенциал зонд 
NGLD               .у.е.                                   : Показания зонда НГК-60 аппаратуры ДРСТ-3-90 
PHIE               .д.ед.                                  : Описание 
PHIEN              .д.ед.                                  :  
PHIT               .д.ед.                                  : Описание 
PRMB               .mD                                     :  
PRMB_DGR           .mD                                     :  
RT                 .ohmm                                   : УЭС пласта 
SOIL_ARCHIE        .д.ед.                                  :  
SOIL_DW            .д.ед.                                  :  
SP                 .мВ                                     : Потенциал самополяризации 
VSH_FIN            .д.ед.                                  : Описание 
VSH_GR             .д.ед.                                  : Shale volume 
VSH_SP             .д.ед.                                  : Shale Volume 
~Ascii
# ...
979.6      0.25       480        -9999      -9999      5.868      2.351      0.655      0.63       1.03       0.11865    0.11865    0.317636   0.4414127  2.230202   2.083      0          0.4040103  96.184     0.6029878  0.4675991  0.7383764 
979.8      0.253      468        -9999      -9999      5.766      2.326      0.764      0.764      1.043      0.1133962  0.1133962  0.3107616  0.3528015  2.483936   2.137      0          0.3935496  96.352     0.5980771  0.4474713  0.7486829 
980        0.244      458        -9999      -9999      5.902      2.512      0.898      0.789      1.056      0.1003411  0.1003411  0.3038872  0.2021707  2.15152    2.183      0          0.3646321  96.52      0.6168064  0.4745076  0.7591053 
980.2000000000001 0.25       451        -9999      -9999      5.919      2.487      0.814      1.15       1.05       0.1011986  0.1011986  0.30706    0.2097017  2.113225   2.217      0          0.3756354  96.688     0.6238225  0.478      0.7696448 
980.4      0.253      447        -9999      -9999      6.097      2.388      0.89       1.1        1.055      0.09139398 0.09139398 0.304416   0.1380373  1.750982   2.237      0          0.3529435  96.771     0.6455213  0.5161477  0.7748949 
980.6      0.242      446        -9999      -9999      6.249      2.203      0.764      0.773      1.057      0.08279734 0.08279734 0.3033584  0.09566777 1.491235   2.242      0          0.330834   96.939     0.6683668  0.5511241  0.7856094 
980.8      0.249      442        -9999      -9999      5.961      1.842      0.865      0.89       1.049      0.09586389 0.09586389 0.3075888  0.1670282  2.021514   2.262      0          0.3710954  97.107     0.6415906  0.4867389  0.7964423 
981        0.247      435        -9999      -9999      5.622      2.141      0.781      0.831      1.056      0.1025011  0.1025011  0.3038872  0.2216802  2.892047   2.299      0          0.3853968  97.191     0.610261   0.4205219  0.8       
981.2000000000001 0.24       426        -9999      -9999      5.91       2.562      1.485      0.814      1.072      0.08544901 0.08544901 0.2954264  0.1071226  2.133413   2.347      0          0.3409829  97.107     0.6362951  0.4761478  0.7964423 
981.4      0.23       414        -9999      -9999      5.648      2.648      1.401      1.007      1.092      0.08416491 0.08416491 0.2848504  0.1014136  2.813696   2.415      0          0.3309302  97.023     0.6081378  0.4252647  0.791011  
981.6      0.232      402        -9999      -9999      5.529      2.426      1.209      1.192      1.108      0.08274053 0.08274053 0.2763896  0.09543626 3.190602   2.488      0          0.323585   96.688     0.5868153  0.4039858  0.7696448 
981.8      0.228      392        -9999      -9999      5.267      2.785      2.643      1.854      1.127      0.08241794 0.08241794 0.2663424  0.09413222 4.207989   2.551      0          0.3144309  96.436     0.5573469  0.3608142  0.7538795 
982        0.226      381        -9999      -9999      4.877      2.896      3.221      1.596      1.134      0.0887922  0.0887922  0.2626408  0.1235392  6.353332   2.625      0          0.3350253  96.352     0.526814   0.3049452  0.7486829 
982.2000000000001 0.227      370        -9999      -9999      5.123      3.169      2.659      1.787      1.128      0.08547464 0.08547464 0.2658136  0.1072397  4.899368   2.703      0          0.341281   96.436     0.5464817  0.3390838  0.7538795 
982.4      0.239      361        -9999      -9999      4.86       3.813      4.035      2.24       1.134      0.08570109 0.08570109 0.2626408  0.1082805  6.468456   2.77       0          0.3447222  96.688     0.536181   0.3027172  0.7696448 
982.6      0.243      352        -9999      -9999      4.877      3.912      4.018      4.135      1.148      0.07618246 0.07618246 0.2552376  0.07215095 6.353332   2.841      0          0.3138682  96.855     0.5425913  0.3049452  0.7802374 
982.8      0.233      346        -9999      -9999      5.021      3.478      4.009      3.406      1.141      0.07488187 0.07488187 0.2589392  0.06825773 5.456779   2.89       0          0.3223869  97.023     0.5577495  0.3244879  0.791011  
983        0.23       342        -9999      -9999      5.013      3.107      3.993      3.045      1.121      0.08741993 0.08741993 0.2695152  0.1165164  5.503088   2.924      0          0.3772073  96.855     0.5518038  0.3233701  0.7802374 
983.2000000000001 0.227      341        -9999      -9999      5.038      2.785      3.64       2.458      1.093      0.1051346  0.1051346  0.2843216  0.2480313  5.359653   2.933      0.04008043 0.4368629  96.52      0.5429907  0.3268762  0.7591053 
983.4      0.227      343        -9999      -9999      4.945      2.599      3.322      1.745      1.092      0.1103567  0.1103567  0.2848504  0.3099068  5.912947   2.915      0.07710248 0.4455016  96.268     0.5287689  0.3140226  0.7435152 
983.6      0.227      347        -9999      -9999      5.326      2.909      3.875      2.148      1.107      0.09568893 0.09568893 0.2769184  0.1657865  3.953724   2.882      0          0.4026403  96.017     0.5491802  0.3701149  0.7282455 
983.8      0.227      351        -9999      -9999      5.14       3.131      4.009      2.248      1.104      0.1044708  0.1044708  0.2785048  0.241107   4.812167   2.849      0.02151805 0.4196584  95.765     0.5273759  0.3415794  0.7131724 
984        0.226      353        -9999      -9999      5.402      3.131      3.783      2.961      1.09       0.1075656  0.1075656  0.285908   0.2751273  3.648702   2.833      0.04355922 0.4336899  95.514     0.5404315  0.3824496  0.6984134 
984.2000000000001 0.226      356        -9999      -9999      5.707      2.896      3.54       2.475      1.097      0.09173123 0.09173123 0.2822064  0.140037   2.643679   2.809      0          0.3936026  95.849     0.5771975  0.4362267  0.7181683 
984.4      0.226      359        -9999      -9999      6.224      2.636      3.196      2.181      1.083      0.07781744 0.07781744 0.2896096  0.07736167 1.531144   2.786      0          0.3680413  96.184     0.6417945  0.5452126  0.7383764 
984.6      0.226      363        -9999      -9999      5.817      2.45       3.213      1.569      1.068      0.09853391 0.09853391 0.2975416  0.1871738  2.353652   2.755      0          0.4229426  96.352     0.6030537  0.4574245  0.7486829 
984.8      0.227      366        -9999      -9999      5.851      2.748      3.657      1.754      1.088      0.08684277 0.08684277 0.2869656  0.1136833  2.270615   2.732      0          0.3805295  96.352     0.6064327  0.4641826  0.7486829 
985        0.228      368        -9999      -9999      5.733      3.057      3.959      1.871      1.076      0.1003615  0.1003615  0.2933112  0.2023468  2.572055   2.717      0          0.4171633  96.017     0.5846961  0.4411467  0.7282455 
985.2000000000001 0.228      373        -9999      -9999      5.597      2.809      3.833      2.332      1.065      0.1152479  0.1152479  0.299128   0.3817936  2.969444   2.681      0.0757203  0.4483079  95.514     0.5572124  0.4160113  0.6984134 
985.4      0.232      378        -9999      -9999      5.656      2.537      3.372      2.357      1.055      0.1243004  0.1243004  0.304416   0.5616992  2.790015   2.646      0.1292777  0.4656889  94.927     0.5458048  0.4267348  0.6648748 
985.6      0.243      386        -9999      -9999      5.783      2.252      2.903      1.67       1.041      0.1337926  0.1337926  0.3118192  0.8420182  2.439724   2.591      0.1752442  0.4823889  94.256     0.5394745  0.4507647  0.6281844 
985.8      0.252      392        -9999      -9999      5.792      2.042      2.584      1.234      1.026      0.1479086  0.1479086  0.3197512  1.537387   2.416639   2.551      0.238699   0.5053836  93.501     0.5207353  0.4525181  0.5889524 
986        0.247      396        -9999      -9999      5.606      2.079      2.869      1.301      1.045      0.1490781  0.1490781  0.309704   1.616015   2.941346   2.525      0.2402597  0.4944025  92.83      0.4867454  0.4176295  0.5558613 
