~Version
 VERS              .         2.0                           : CWLS LOG ASCII STANDARD - VERSION 2.0
 WRAP              .         NO                            : ONE LINE PER DEPTH STEP
 DLM               .         SPACE                         : DELIMITING CHARACTER(SPACE TAB OR COMMA)
~Well Information
#_______________________________________________________________________________
#
#PARAMETER_NAME    .UNIT     VALUE                         : DESCRIPTION
#_______________________________________________________________________________
STRT               .M        860.8                         : First reference value
STOP               .M        1220.6                        : Last reference value
STEP               .M        0.2                           : Step increment
NULL               .         -9999                         : Missing value
COMP               .                                       : Company
WELL               .         1673                          : Well name
FLD                .         Узень                         : Field
LOC                .                                       : Location
CNTY               .                                       : County
STAT               .                                       : State
CTRY               .                                       : Country
SRVC               .                                       : Service Company
DATE               .                                       : Date
UWI                .                                       : Unique Well ID
Block              .         6а                            : 
Category           .         Нефтяная                      : 
Condition          .         Ликвидированная               : 
Date               .         18.04.1980                    : 
EREF               .m        84                            : 100.8
Gorizont           .         15                            : 14
Interpretator      .         Бекбулатова А.А.              : 
Kupol              .         Основной                      : osnovnoi
Mud                .         0                             : 
Mud_density        .         0                             : 
Mud_resistivity    .         0                             : 
NGDU               .         НГДУ-2                        : 
ORIGINALWELLNAME   .         1673                          : 
Spud_date          .         1980                          : 1961
Viscosity          .         0                             : 
X                  .m        44584.4                       : 46154
Y                  .m        85188.63                      : 85761.93
YEAR               .         2018                          : 
~Parameter Information Block
#_______________________________________________________________________________
#
#PARAMETER_NAME    .UNIT     VALUE                         : DESCRIPTION
#_______________________________________________________________________________
SET                .         LQC_KAZNIPI_Petrel            : 
TLFamily_CALI      .         Caliper                       : 
TLFamily_CILD      .         Conductivity                  : 
TLFamily_COLL      .         Net Reservoir Flag            : 
TLFamily_CSAT      .         Fluid Code                    : 
TLFamily_DEPT      .         Measured Depth                : 
TLFamily_GR        .         Russian Gamma Ray             : 
TLFamily_LLS       .         Lateral Log Resistivity       : 
TLFamily_MINV      .         Micro Gradient Resistivity    : 
TLFamily_MNOR      .         Micro Resistivity             : 
TLFamily_NGLD      .         Neutron Gamma                 : 
TLFamily_PHIE      .         Effective Porosity            : 
TLFamily_PHIEN     .         Effective Porosity            : 
TLFamily_PHIT      .         Porosity                      : 
TLFamily_PRMB      .         Permeability                  : 
TLFamily_PRMB_DGR  .         Permeability                  : 
TLFamily_RT        .         Formation Resistivity         : 
TLFamily_SOIL_ARCHIE .         Oil Saturation                : 
TLFamily_SOIL_DW   .         Oil Saturation                : 
TLFamily_SP        .         Spontaneous Potential         : 
TLFamily_VSH_FIN   .         Shale Volume                  : 
TLFamily_VSH_GR    .         Shale Volume                  : 
TLFamily_VSH_SP    .         Shale Volume                  : 
~Curve Information
#_______________________________________________________________________________
#
#LOGNAME           .UNIT     LOG_ID                        : DESCRIPTION
#_______________________________________________________________________________
DEPT               .M                                      : Колонка глубины 
CALI               .м                                      : Каверномер 
CILD               .мСм/м                                  : Индукционный каротаж 
COLL               .unitless                               : Описание 
CSAT               .unitless                               : Описание 
GR                 .uR/h                                   : Гамма каротаж 
LLS                .Ohmm                                   : Боковой каротаж 
MINV               .Ohmm                                   : Микро-градиент зонд 
MNOR               .Ohmm                                   : Микро-потенциал зонд 
NGLD               .у.е.                                   : Показания зонда НГК-60 аппаратуры ДРСТ-3-90 
PHIE               .д.ед.                                  : Описание 
PHIEN              .д.ед.                                  :  
PHIT               .д.ед.                                  : Описание 
PRMB               .mD                                     :  
PRMB_DGR           .mD                                     :  
RT                 .ohmm                                   : УЭС пласта 
SOIL_ARCHIE        .д.ед.                                  :  
SOIL_DW            .д.ед.                                  :  
SP                 .мВ                                     : Потенциал самополяризации 
VSH_FIN            .д.ед.                                  : Описание 
VSH_GR             .д.ед.                                  : Shale volume 
VSH_SP             .д.ед.                                  : Shale Volume 
~Ascii
# ...
959.8      0.233      387        -9999      -9999      6.325      2.153      3.666      2.173      1.053      0.1018032  0.1018032  0.3054736  0.2151795  1.376191   2.584      0          0.4208899  94.927     0.617183   0.5694912  0.6648748 
960        0.234      388        -9999      -9999      6.274      2.45       2.601      1.821      1.07       0.0948582  0.0948582  0.296484   0.1600155  1.452368   2.577      0          0.3941206  94.927     0.6109872  0.5570996  0.6648748 
960.2000000000001 0.223      390        -9999      -9999      6.08       2.76       1.016      2.005      1.064      0.1054103  0.1054103  0.2996568  0.2509649  1.782713   2.564      0          0.4183725  94.927     0.5886257  0.5123765  0.6648748 
960.4      0.226      395        -9999      -9999      5.8        2.599      1.401      2.332      1.061      0.1166153  0.1166153  0.3012432  0.4047207  2.396301   2.532      0.06028678 0.4372558  94.927     0.5594786  0.4540825  0.6648748 
960.6      0.23       395        -9999      -9999      6.029      2.426      1.77       2.45       1.049      0.1159555  0.1159555  0.3075888  0.3934913  1.881393   2.532      0.05563174 0.4435972  94.843     0.580707   0.5012276  0.6601862 
960.8      0.233      393        -9999      -9999      6.012      2.289      1.385      1.938      1.039      0.1218477  0.1218477  0.3128768  0.5059105  1.915485   2.545      0.0977031  0.4607331  94.843     0.5788759  0.4975656  0.6601862 
961        0.222      392        -9999      -9999      5.97       2.487      1.142      1.368      1.028      0.1306722  0.1306722  0.3186936  0.7370963  2.002386   2.551      0.1519481  0.4809989  94.675     0.5697618  0.4886322  0.6508915 
961.2000000000001 0.217      391        -9999      -9999      6.156      2.76       1.142      1.251      1.022      0.1286253  0.1286253  0.3218664  0.675476   1.64518    2.558      0.1413107  0.4819893  94.507     0.5855793  0.5294524  0.641706  
961.4      0.21       393        -9999      -9999      6.147      2.797      1.15       1.879      1.022      0.1297149  0.1297149  0.3218664  0.7076086  1.660896   2.545      0.1455562  0.4822588  94.423     0.5822773  0.5274009  0.6371537 
961.6      0.235      393        -9999      -9999      5.995      2.463      1.636      1.653      1.032      0.1329006  0.1329006  0.3165784  0.8105873  1.950195   2.545      0.1634223  0.48142    94.088     0.5565994  0.4939302  0.6192687 
961.8      0.227      386        -9999      -9999      6.012      2.277      1.142      1.242      1.029      0.1360607  0.1360607  0.3181648  0.9275393  1.915485   2.591      0.1872315  0.4920858  93.836     0.5518305  0.4975656  0.6060955 
962        0.23       377        -9999      -9999      6.037      2.326      0.923      1.343      1.041      0.128825   0.128825   0.3118192  0.6812542  1.865559   2.653      0.1570194  0.4812935  93.836     0.5545279  0.5029604  0.6060955 
962.2000000000001 0.217      369        -9999      -9999      5.817      2.512      0.789      1.326      1.034      0.1378664  0.1378664  0.3155208  1.001794   2.353652   2.71       0.213265   0.503184   94.088     0.5383466  0.4574245  0.6192687 
962.4      0.218      363        -9999      -9999      5.682      3.169      1.116      1.988      1.043      0.1351636  0.1351636  0.3107616  0.8927214  2.714427   2.755      0.2057427  0.4988557  94.34      0.5321152  0.4315478  0.6326825 
962.6      0.215      368        -9999      -9999      5.682      3.243      2.416      2.483      1.056      0.1245202  0.1245202  0.3038872  0.5669881  2.714427   2.717      0.141352   0.4724751  94.759     0.5435364  0.4315478  0.6555251 
962.8      0.212      371        -9999      -9999      6.122      2.748      2.03       4.068      1.07       0.09992298 0.09992298 0.296484   0.1985977  1.705344   2.695      0          0.418007   95.01      0.5956393  0.5217441  0.6695346 
963        0.228      368        -9999      -9999      5.885      2.438      2.567      3.045      1.073      0.1051328  0.1051328  0.2948976  0.2480115  2.190506   2.717      0.004980387 0.4285557  95.178     0.575045   0.4710407  0.6790494 
963.2000000000001 0.216      362        -9999      -9999      5.656      2.042      1.225      1.36       1.082      0.107684   0.107684   0.2901384  0.2765203  2.790015   2.762      0.03302654 0.4320757  95.178     0.5528921  0.4267348  0.6790494 
963.4      0.22       358        -9999      -9999      5.385      3.057      3.934      3.137      1.059      0.1284018  0.1284018  0.3023008  0.6690682  3.71482    2.793      0.174757   0.4838319  95.094     0.5269668  0.3796554  0.6742781 
963.6      0.216      357        -9999      -9999      5.428      3.293      2.014      3.339      1.047      0.1358997  0.1358997  0.3086464  0.9211936  3.54985    2.801      0.21561    0.5018595  94.843     0.5234746  0.3867631  0.6601862 
963.8      0.218      359        -9999      -9999      5.36       3.565      3.984      2.316      1.038      0.1447974  0.1447974  0.3134056  1.346345   3.814236   2.786      0.2558875  0.5168995  94.591     0.5109341  0.3755831  0.6462851 
964        0.227      364        -9999      -9999      5.174      3.032      1.762      1.997      1.035      0.1519172  0.1519172  0.314992   1.824036   4.642393   2.747      0.281618   0.5237519  94.507     0.494166   0.346626   0.641706  
964.2000000000001 0.217      369        -9999      -9999      5.377      2.71       0.823      0.923      1.035      0.1466832  0.1466832  0.314992   1.459105   3.746349   2.71       0.2546147  0.514089   94.507     0.5100268  0.3783474  0.641706  
964.4      0.221      375        -9999      -9999      5.512      2.401      3.381      3.112      1.039      0.139309   0.139309   0.3128768  1.065368   3.248419   2.667      0.2144919  0.498495   94.675     0.5259628  0.4010342  0.6508915 
964.6      0.234      378        -9999      -9999      5.622      2.153      1.871      1.787      1.062      0.1261979  0.1261979  0.3007144  0.609045   2.892047   2.646      0.1406912  0.4645164  94.423     0.5288378  0.4205219  0.6371537 
964.8      0.242      377        -9999      -9999      5.775      2.376      0.722      0.773      1.071      0.1159538  0.1159538  0.2959552  0.393462   2.460431   2.653      0.07608199 0.4428366  94.507     0.545459   0.4492119  0.641706  
965        0.235      374        -9999      -9999      5.749      2.003      0.957      1.125      1.076      0.1126208  0.1126208  0.2933112  0.3413251  2.528946   2.674      0.05581236 0.4359379  94.675     0.5475467  0.4442019  0.6508915 
965.2000000000001 0.213      370        -9999      -9999      5.597      2.029      0.798      0.831      1.065      0.1207818  0.1207818  0.299128   0.4834251  2.969444   2.703      0.1161104  0.4598057  94.927     0.5404431  0.4160113  0.6648748 
965.4      0.216      367        -9999      -9999      5.495      4.26       4.009      1.896      1.05       0.1293297  0.1293297  0.30706    0.6960782  3.307283   2.725      0.1703759  0.4839307  95.178     0.5385767  0.3981041  0.6790494 
965.6      0.216      371        -9999      -9999      5.665      3.268      4.001      3.137      1.054      0.1206282  0.1206282  0.3049448  0.4802699  2.763617   2.695      0.113899   0.4653514  95.346     0.558535   0.4283947  0.6886753 
965.8      0.216      374        -9999      -9999      5.8        2.326      3.33       2.139      1.063      0.1116306  0.1116306  0.3001856  0.3272106  2.396301   2.674      0.04852209 0.4425122  95.346     0.5713789  0.4540825  0.6886753 
966        0.226      374        -9999      -9999      5.529      2.042      2.617      1.821      1.079      0.1114357  0.1114357  0.2917248  0.3245023  3.190602   2.674      0.04707304 0.43182    95.346     0.5463306  0.4039858  0.6886753 
966.2000000000001 0.233      372        -9999      -9999      5.733      2.475      1.687      1.494      1.09       0.09948735 0.09948735 0.285908   0.1949419  2.572055   2.688      0          0.4023642  95.346     0.564911   0.4411467  0.6886753 
