~Version
 VERS              .         2.0                           : CWLS LOG ASCII STANDARD - VERSION 2.0
 WRAP              .         NO                            : ONE LINE PER DEPTH STEP
 DLM               .         SPACE                         : DELIMITING CHARACTER(SPACE TAB OR COMMA)
~Well Information
#_______________________________________________________________________________
#
#PARAMETER_NAME    .UNIT     VALUE                         : DESCRIPTION
#_______________________________________________________________________________
STRT               .M        860.8                         : First reference value
STOP               .M        1220.6                        : Last reference value
STEP               .M        0.2                           : Step increment
NULL               .         -9999                         : Missing value
COMP               .                                       : Company
WELL               .         1673                          : Well name
FLD                .         Узень                         : Field
LOC                .                                       : Location
CNTY               .                                       : County
STAT               .                                       : State
CTRY               .                                       : Country
SRVC               .                                       : Service Company
DATE               .                                       : Date
UWI                .                                       : Unique Well ID
Block              .         6а                            : 
Category           .         Нефтяная                      : 
Condition          .         Ликвидированная               : 
Date               .         18.04.1980                    : 
EREF               .m        84                            : 100.8
Gorizont           .         15                            : 14
Interpretator      .         Бекбулатова А.А.              : 
Kupol              .         Основной                      : osnovnoi
Mud                .         0                             : 
Mud_density        .         0                             : 
Mud_resistivity    .         0                             : 
NGDU               .         НГДУ-2                        : 
ORIGINALWELLNAME   .         1673                          : 
Spud_date          .         1980                          : 1961
Viscosity          .         0                             : 
X                  .m        44584.4                       : 46154
Y                  .m        85188.63                      : 85761.93
YEAR               .         2018                          : 
~Parameter Information Block
#_______________________________________________________________________________
#
#PARAMETER_NAME    .UNIT     VALUE                         : DESCRIPTION
#_______________________________________________________________________________
SET                .         LQC_KAZNIPI_Petrel            : 
TLFamily_CALI      .         Caliper                       : 
TLFamily_CILD      .         Conductivity                  : 
TLFamily_COLL      .         Net Reservoir Flag            : 
TLFamily_CSAT      .         Fluid Code                    : 
TLFamily_DEPT      .         Measured Depth                : 
TLFamily_GR        .         Russian Gamma Ray             : 
TLFamily_LLS       .         Lateral Log Resistivity       : 
TLFamily_MINV      .         Micro Gradient Resistivity    : 
TLFamily_MNOR      .         Micro Resistivity             : 
TLFamily_NGLD      .         Neutron Gamma                 : 
TLFamily_PHIE      .         Effective Porosity            : 
TLFamily_PHIEN     .         Effective Porosity            : 
TLFamily_PHIT      .         Porosity                      : 
TLFamily_PRMB      .         Permeability                  : 
TLFamily_PRMB_DGR  .         Permeability                  : 
TLFamily_RT        .         Formation Resistivity         : 
TLFamily_SOIL_ARCHIE .         Oil Saturation                : 
TLFamily_SOIL_DW   .         Oil Saturation                : 
TLFamily_SP        .         Spontaneous Potential         : 
TLFamily_VSH_FIN   .         Shale Volume                  : 
TLFamily_VSH_GR    .         Shale Volume                  : 
TLFamily_VSH_SP    .         Shale Volume                  : 
~Curve Information
#_______________________________________________________________________________
#
#LOGNAME           .UNIT     LOG_ID                        : DESCRIPTION
#_______________________________________________________________________________
DEPT               .M                                      : Колонка глубины 
CALI               .м                                      : Каверномер 
CILD               .мСм/м                                  : Индукционный каротаж 
COLL               .unitless                               : Описание 
CSAT               .unitless                               : Описание 
GR                 .uR/h                                   : Гамма каротаж 
LLS                .Ohmm                                   : Боковой каротаж 
MINV               .Ohmm                                   : Микро-градиент зонд 
MNOR               .Ohmm                                   : Микро-потенциал зонд 
NGLD               .у.е.                                   : Показания зонда НГК-60 аппаратуры ДРСТ-3-90 
PHIE               .д.ед.                                  : Описание 
PHIEN              .д.ед.                                  :  
PHIT               .д.ед.                                  : Описание 
PRMB               .mD                                     :  
PRMB_DGR           .mD                                     :  
RT                 .ohmm                                   : УЭС пласта 
SOIL_ARCHIE        .д.ед.                                  :  
SOIL_DW            .д.ед.                                  :  
SP                 .мВ                                     : Потенциал самополяризации 
VSH_FIN            .д.ед.                                  : Описание 
VSH_GR             .д.ед.                                  : Shale volume 
VSH_SP             .д.ед.                                  : Shale Volume 
~Ascii
# ...
1183       0.214      437        1          2          7.765      2.203      1.947      1.393      1.069      0.1968397  0.1968397  0.2970128  12.39102   9.903232   2.288      0.3840506  0.5186141  80.587     0.3035548  0.254393   0.3527166 
1183.2     0.214      425        1          2          7.773      2.5        1.427      0.831      1.081      0.2083255  0.2083255  0.2906672  20.22332   9.778705   2.353      0.4213917  0.5303789  76.31      0.2495202  0.2557109  0.2433295 
1183.4     0.214      413        1          2          7.925      3.28       1.846      1.527      1.092      0.209133   0.209133   0.2848504  20.93187   7.688892   2.421      0.430996   0.5322823  72.117     0.2294468  0.2820892  0.1768043 
1183.6     0.215      403        1          2          7.782      3.763      2.584      1.846      1.1        0.2127768  0.2127768  0.28062    24.45123   9.640475   2.481      0.4458945  0.5372914  69.853     0.2055854  0.2572018  0.1539691 
1183.8     0.214      398        1          2          7.705      3.429      2.416      2.265      1.104      0.2133896  0.2133896  0.2785048  25.09869   10.88916   2.513      0.4505947  0.5387819  69.35      0.1973189  0.244723   0.1499147 
1184       0.214      405        1          2          7.765      3.54       2.374      2.391      1.092      0.217114   0.217114   0.2848504  29.41952   9.903232   2.469      0.4543075  0.5440561  70.105     0.2052619  0.254393   0.1561307 
1184.2     0.214      413        1          2          7.925      2.946      2.609      2.534      1.088      0.206699   0.206699   0.2869656  18.86796   7.688892   2.421      0.4251648  0.532019   74.13      0.243232   0.2820892  0.2043748 
1184.4     0.216      424        1          2          8.222      2.45       2.693      2.542      1.081      0.1872981  0.1872981  0.2906672  8.248469   4.806597   2.358      0.3658412  0.5098617  78.155     0.3132397  0.341741   0.2847385 
1184.6     0.216      439        -9999      -9999      8.552      2.054      2.919      2.148      1.071      0.1670991  0.1670991  0.2959552  3.485283   2.851952   2.278      0.2881374  0.4834604  80.755     0.3904732  0.422926   0.3580204 
1184.8     0.218      453        -9999      -9999      8.713      1.918      2.718      1.863      1.063      0.1536716  0.1536716  0.3001856  1.96575    2.210763   2.208      0.2229614  0.4623982  82.516     0.443982   0.4692736  0.4186904 
1185       0.218      461        -9999      -9999      8.975      1.868      2.525      1.485      1.068      0.1239316  0.1239316  0.2975416  0.5529323  1.460695   2.169      0.05500092 0.4081299  84.444     0.526091   0.5558006  0.4963814 
1185.2     0.218      466        -9999      -9999      8.713      1.805      2.45       1.401      1.061      0.1276745  0.1276745  0.3012432  0.6486351  2.210763   2.146      0.07455777 0.4160628  86.289     0.5259656  0.4692736  0.5826577 
1185.4     0.218      466        -9999      -9999      8.586      1.842      2.357      1.393      1.055      0.12453    0.12453    0.304416   0.5672258  2.702623   2.146      0.05423769 0.4145146  87.715     0.5451092  0.4323165  0.6579018 
1185.6     0.218      466        -9999      -9999      8.831      2.029      2.223      1.334      1.049      0.1075721  0.1075721  0.3075888  0.2752033  1.834346   2.146      0          0.3868054  88.553     0.6061113  0.5064377  0.705785  
1185.8     0.218      467        -9999      -9999      8.772      2.141      2.19       1.653      1.044      0.108366   0.108366   0.3102328  0.2846816  2.013779   2.141      0          0.3910627  89.057     0.6117175  0.4875016  0.7359335 
1186       0.218      469.5      -9999      -9999      8.925      2.128      1.703      1.292      1.03       0.1074142  0.1074142  0.317636   0.2733572  1.580911   2.13       0          0.3968935  89.057     0.6370357  0.5381379  0.7359335 
1186.2     0.224      471        -9999      -9999      9.102      1.955      1.091      0.605      1.041      0.1014     0.1014     0.3118192  0.2115106  1.194857   2.123      0          0.3762019  87.966     0.6376339  0.603314   0.6719539 
1186.4     0.224      473        -9999      -9999      8.831      1.868      1.427      0.991      1.057      0.1243497  0.1243497  0.3033584  0.562881   1.834346   2.114      0.04634385 0.4084869  86.205     0.5424505  0.5064377  0.5784634 
1186.6     0.226      480        -9999      -9999      8.992      1.93       2.45       1.309      1.071      0.1151069  0.1151069  0.2959552  0.3795049  1.421942   2.083      0          0.3773209  85.283     0.5480251  0.5619367  0.5341135 
1186.8     0.224      495        -9999      -9999      9.085      2.003      2.005      1.301      1.086      0.1082546  0.1082546  0.2880232  0.283332   1.227424   2.02       0          0.3421701  84.361     0.5447534  0.5967256  0.4927813 
1187       0.218      512        -9999      -9999      9.085      1.918      1.552      1.041      1.1        0.1071981  0.1071981  0.28062    0.270849   1.227424   1.953      0          0.3173477  83.438     0.5255208  0.5967256  0.4543159 
1187.2     0.216      533        -9999      -9999      8.823      1.856      2.089      1.376      1.093      0.1326194  0.1326194  0.2843216  0.8009225  1.857706   1.876      0.04637019 0.3617452  82.432     0.4597037  0.5038275  0.4155799 
1187.4     0.216      552        -9999      -9999      8.925      1.794      1.804      1.2        1.093      0.1351227  0.1351227  0.2843216  0.8911642  1.580911   1.812      0.04636859 0.3551944  81.006     0.4521179  0.5381379  0.3660979 
1187.6     0.216      568        -9999      -9999      8.417      1.831      1.477      1.267      1.088      0.1665165  0.1665165  0.2869656  3.399759   3.530867   1.761      0.1942912  0.4006779  80.252     0.3649971  0.3876108  0.3423834 
1187.8     0.216      581        -9999      -9999      8.484      1.819      2.693      1.879      1.084      0.1666385  0.1666385  0.2890808  3.417488   3.175815   1.721      0.1860762  0.396597   80.084     0.3710373  0.4047529  0.3373218 
1188       0.216      591        -9999      -9999      8.383      1.644      2.383      1.569      1.087      0.1692697  0.1692697  0.2874944  3.82334    3.725955   1.692      0.1906781  0.3932514  80.084     0.3582567  0.3791917  0.3373218 
1188.2     0.217      597        -9999      -9999      8.4        1.534      2.131      1.41       1.084      0.1693302  0.1693302  0.2890808  3.83322    3.627103   1.675      0.187087   0.3922747  80.252     0.3628807  0.383378   0.3423834 
1188.4     0.217      600        -9999      -9999      8.112      1.458      2.274      1.452      1.085      0.1795387  0.1795387  0.288552   5.924469   5.720088   1.667      0.2257575  0.4043694  80.252     0.3303434  0.3183035  0.3423834 
1188.6     0.218      595        -9999      -9999      8.848      1.571      2.525      1.284      1.085      0.1488218  0.1488218  0.288552   1.598448   1.785679   1.681      0.09187046 0.3608837  80         0.4234248  0.5120288  0.3348209 
1188.8     0.218      590        -9999      -9999      8.34       1.658      2.206      1.125      1.081      0.1753844  0.1753844  0.2906672  4.962531   3.988199   1.695      0.2159618  0.4062844  79.832     0.3493418  0.3688051  0.3298784 
1189       0.218      587        -9999      -9999      8.357      1.72       2.089      1.334      1.075      0.1754045  0.1754045  0.29384    4.966784   3.882383   1.704      0.2179857  0.4117101  80.335     0.3588953  0.372877   0.3449136 
1189.2     0.215      585        -9999      -9999      8.281      1.607      2.483      1.678      1.062      0.1559208  0.1559208  0.3007144  2.163662   4.378317   1.709      0.1347229  0.3930372  85.031     0.4387684  0.3550152  0.5225217 
1189.4     0.215      583        -9999      -9999      8.408      1.472      2.072      1.183      1.05       0.1527931  0.1527931  0.30706    1.893461   3.581492   1.715      0.1207635  0.3970539  85.612     0.4674757  0.3853642  0.5495871 
1189.6     0.215      580        -9999      -9999      8.171      1.396      1.578      0.831      1.061      0.1604671  0.1604671  0.3012432  2.62662    5.210423   1.724      0.1595668  0.4030862  85.031     0.4265944  0.3306671  0.5225217 
