~Version information
VERS.                            2.00: CWLS LAS  -  VERSION 2.00
WRAP.                              NO: One line per depth step
~Well information
#MNEM.UNIT                  DATA TYPE  INFORMATION
#===.================================:==================
STRT.M                          1.000: First depth in file
STOP.M                       1195.450: Last depth in file
STEP.M                          0.100: Depth increment
NULL.                       -9999.00 : Null values
DATE.                       7/10/2004: LOG DATE
TIME.                               9: LOG TIME
WELL.                            7768: Well name
GRP.                             1111: Group name
FLD.                            ”«≈Õ‹: Field name
ISS.                              ¡ «: Well surveys
SRVC.                                : Service Company
~Curve information
#MNEM.UNIT                   API CODE   CURVE DESCRIPTION
#===.================================:==================
DEPT.M                               : Depth curve
GZ1.OMM                        : 
GZ2.OMM                        : 
GZ5.OMM                        : 
GZ4.OMM                        : 
LLS  .Ï/˜‡Ò                           : 
REZ .ŒÃÃ                             : 
GZ3.OMM                        : 
OGZ3.OMM                        : 
SP .Ã‚                              : 
CILD  .Ã—ËÏ                            : 
MIN .ŒÃÃ                             : 
MNO .ŒÃÃ                             : 
CALI.ÏÏ                     : 
GR .                                : 
NEUT.                              : 
#
~Other information
#------------------ REMARKS AREA -----------------------
#=======================================================
# The file is generated by the program EditKar v2003.01
#Number of Curves = 15
~A Log Data Section
# ...
1031.20    3.3525    4.0041    2.4088    2.8213    2.8559    0.5641    3.5224    2.7428  586.2303  937.2919    2.9970    3.4263  225.2818    4.6855    2.1199 
1031.30    3.6323    4.3688    2.3623    2.8992    2.9384    0.5643    3.6688    2.7260  586.1998  951.7090    3.2470    3.6595  225.9980    4.6066    2.5146 
1031.40    3.8856    4.7183    2.3091    2.9495    3.1724    0.5644    3.7929    2.6843  586.2303  966.8428    2.9601    3.7845  226.9778    4.4116    2.6754 
1031.50    3.9942    4.8999    2.2462    2.9589    3.5328    0.5644    3.8710    2.6279  586.2303  982.5333    2.9145    3.8998  228.1086    4.2604    2.8363 
1031.60    3.9422    4.8952    2.1826    2.9066    3.6883    0.5641    3.8854    2.5601  586.1998 1006.8633    3.7197    4.2558  229.3645    4.1705    2.9240 
1031.70    3.7080    4.7345    2.1195    2.7916    3.7294    0.5637    3.8045    2.4921  586.1692 1031.6436    4.0837    4.5197  230.6434    4.3064    2.7485 
1031.80    3.3168    4.3874    2.0506    2.6593    3.5032    0.5633    3.6568    2.4592  586.1387 1048.4603    3.9259    4.5900  231.4214    4.6746    2.5439 
1031.90    2.8785    3.9611    1.9856    2.5344    2.3949    0.5629    3.4952    2.4767  585.9861 1065.4271    3.3378    3.5491  231.9621    5.0690    2.2953 
1032.00    2.4839    3.6265    1.9332    2.4217    1.5522    0.5626    3.3227    2.5338  585.8335 1082.4167    1.7596    1.8955  232.3323    5.5665    1.9591 
1032.10    2.1802    3.3550    1.8939    2.3438    1.4425    0.5627    3.1579    2.6224  585.6809 1099.1898    0.8240    1.1725  232.6328    6.1560    1.9591 
1032.20    1.9565    3.0628    1.8689    2.3008    1.3743    0.5628    3.0350    2.7482  585.5588 1122.7018    1.1098    1.2156  232.6805    6.5352    1.7251 
1032.30    1.7924    2.8152    1.8571    2.2625    1.3482    0.5627    2.9398    2.9075  585.4978 1144.1410    1.2840    1.2657  232.4192    6.9779    1.5205 
1032.40    1.7087    2.6085    1.8538    2.2283    1.3496    0.5628    2.8531    3.0889  585.4673 1155.3727    1.2442    1.2756  231.8003    7.2496    1.4912 
1032.50    1.6970    2.4167    1.8532    2.2088    1.3692    0.5628    2.7908    3.2783  585.3147 1163.7166    1.1679    1.2732  231.0016    7.4753    1.4766 
1032.60    1.7226    2.2786    1.8512    2.2028    1.3732    0.5629    2.7560    3.4677  584.9790 1168.6647    1.2303    1.3029  229.6943    7.4907    1.5058 
1032.70    1.7731    2.1771    1.8466    2.2041    1.3835    0.5630    2.7323    3.6506  584.6432 1169.9829    1.2380    1.4119  228.5583    7.3680    1.5789 
1032.80    1.8271    2.0737    1.8492    2.2088    1.4196    0.5632    2.7054    3.8065  584.3381 1164.3767    1.2357    1.5004  227.7895    7.3504    1.4912 
1032.90    1.8784    1.9860    1.8604    2.2088    1.5512    0.5632    2.6732    3.9389  584.1245 1154.5446    1.4489    1.5263  227.4305    7.3482    1.5205 
1033.00    1.9109    1.9207    1.8755    2.1920    1.6409    0.5633    2.6279    4.0859  584.0024 1144.8000    1.6329    1.5426  227.2782    7.2189    1.5643 
1033.10    1.9102    1.8629    1.9004    2.1645    1.9478    0.5633    2.5662    4.2787  584.0329 1133.6239    2.0473    1.9820  227.4139    7.1137    1.5497 
1033.20    1.9047    1.8220    1.9391    2.1403    1.8276    0.5632    2.5018    4.5013  584.0939 1121.2087    2.2916    2.3322  227.4998    7.0239    1.4912 
1033.30    1.8915    1.8172    1.9778    2.1343    1.6786    0.5631    2.4506    4.7641  584.0939 1107.5912    1.8012    1.8764  227.5582    6.8398    1.3889 
1033.40    1.8839    1.8499    2.0080    2.1531    1.5989    0.5630    2.4191    5.0591  584.1245 1083.9131    1.4345    1.5351  227.4937    6.7280    1.2866 
1033.50    1.9275    1.9240    2.0369    2.1947    1.6171    0.5631    2.4112    5.3216  584.1855 1057.9333    1.3757    1.5500  227.3710    6.5615    1.2866 
1033.60    2.0362    2.0498    2.0637    2.2531    1.7128    0.5632    2.4302    5.5137  584.3687 1038.2958    1.5487    1.5895  227.3463    6.4672    1.4035 
1033.70    2.2157    2.2283    2.0848    2.3197    1.8022    0.5632    2.4671    5.6200  584.5823 1017.3035    1.8585    1.8327  227.2697    6.3642    1.6667 
1033.80    2.4719    2.4358    2.1045    2.3740    1.9955    0.5633    2.5038    5.5990  584.8264  995.2529    1.9239    2.0442  227.3174    6.0969    1.9444 
1033.90    2.7460    2.6344    2.1281    2.4029    2.4155    0.5633    2.5209    5.4606  585.0400  960.3378    2.1208    2.4596  227.9364    5.6695    2.2661 
1034.00    2.9620    2.7677    2.1504    2.4083    2.7396    0.5633    2.5163    5.2591  585.2842  924.5500    3.1114    3.1320  228.7048    5.2882    2.5146 
1034.10    3.0720    2.8153    2.1668    2.3901    2.9105    0.5632    2.4894    5.0362  585.4673  900.1317    3.5383    3.4809  229.4178    5.1216    2.7485 
1034.20    3.0477    2.8078    2.1806    2.3538    2.8877    0.5631    2.4368    4.8633  585.5588  875.7018    2.7965    3.2080  230.1004    4.8674    2.8655 
1034.30    2.9313    2.7799    2.1983    2.3210    3.2100    0.5630    2.3797    4.7800  585.6504  851.6855    4.6206    5.2603  230.5059    4.7907    2.7632 
1034.40    2.7845    2.7691    2.2258    2.3035    2.5772    0.5630    2.3436    4.7592  585.6504  828.4194    5.8201    5.4572  229.7894    4.8411    2.6023 
1034.50    2.6738    2.8418    2.2724    2.3096    2.2176    0.5630    2.3350    4.7713  585.5894  806.2167    3.6962    3.0769  228.7008    4.9923    2.5731 
1034.60    2.6475    3.0234    2.3373    2.3451    1.9423    0.5632    2.3580    4.7854  585.3147  775.7074    2.3515    2.5811  227.6180    5.1918    2.6170 
1034.70    2.7210    3.2563    2.4096    2.4419    1.9720    0.5634    2.4152    4.7625  584.9790  747.0057    2.1840    2.3313  226.6010    5.2444    2.6754 
1034.80    2.8539    3.4849    2.4817    2.5362    2.2851    0.5635    2.5012    4.7007  584.5823  729.6230    2.4326    2.7532  225.7587    5.0142    2.6901 
1034.90    3.0229    3.7148    2.5572    2.5771    2.6913    0.5635    2.6109    4.6187  584.1855  713.2403    3.9047    4.0336  225.4470    4.7644    2.8070 
1035.00    3.2202    3.9283    2.6339    2.6346    3.8223    0.5635    2.7369    4.5415  583.7582  697.8167    5.0743    4.7077  225.3493    4.3414    2.9094 
1035.10    3.4368    4.0862    2.7113    2.7191    3.8657    0.5633    2.8675    4.4851  583.3920  683.3253    4.8733    4.1863  225.2439    3.9974    2.9386 
1035.20    3.6599    4.2823    2.7973    2.8072    3.6602    0.5631    3.0141    4.4414  583.0563  664.1852    4.2457    4.3071  225.1343    3.4341    3.0117 
1035.30    3.9231    4.5920    2.8912    2.8884    3.6129    0.5630    3.1862    4.4152  582.7817  647.3609    3.4306    4.5607  225.0692    3.0594    3.1433 
1035.40    4.1944    4.9517    2.9764    2.9939    4.0348    0.5629    3.3878    4.4172  582.5375  638.9789    4.4046    6.0317  225.0223    2.8424    3.1287 
1035.50    4.3730    5.3562    3.0407    3.1335    4.6377    0.5628    3.6155    4.4394  582.3849  632.9000    5.1939    6.8513  224.6669    2.7241    3.2602 
1035.60    4.5377    5.8684    3.0787    3.2804    4.7675    0.5627    3.8846    4.4582  582.3544  629.2682    4.2503    5.1742  224.3747    2.7307    3.3772 
1035.70    4.7601    6.4536    3.0860    3.4277    4.9613    0.5627    4.2139    4.4501  582.3239  629.1514    3.9445    4.2385  223.9321    2.7504    3.6988 
1035.80    4.9788    7.0755    3.0689    3.5693    5.0690    0.5628    4.5679    4.4078  582.3239  632.4026    5.0142    3.9648  223.5149    2.7723    4.0789 
1035.90    5.1650    7.7092    3.0341    3.6653    4.5106    0.5629    4.9179    4.3029  582.3544  637.7538    4.7650    4.0693  223.1878    2.8819    4.2690 
1036.00    5.3665    8.2402    2.9718    3.6948    4.0947    0.5629    5.2591    4.1095  582.3544  645.0667    3.0776    4.4468  223.1636    2.8359    4.2690 
1036.10    5.5319    8.6213    2.8872    3.6452    4.8464    0.5630    5.5335    3.8610  582.4459  654.2272    4.5279    4.4182  223.4790    2.7679    4.4152 
1036.20    5.5193    8.7971    2.7946    3.5248    6.9137    0.5631    5.6774    3.5980  582.6290  665.0905    7.9694    4.8460  224.0282    2.7087    4.4298 
