~Version information
VERS.                            2.00: CWLS LAS  -  VERSION 2.00
WRAP.                              NO: One line per depth step
~Well information
#MNEM.UNIT                  DATA TYPE  INFORMATION
#===.================================:==================
STRT.M                          1.000: First depth in file
STOP.M                       1195.450: Last depth in file
STEP.M                          0.100: Depth increment
NULL.                       -9999.00 : Null values
DATE.                       7/10/2004: LOG DATE
TIME.                               9: LOG TIME
WELL.                            7768: Well name
GRP.                             1111: Group name
FLD.                            ”«≈Õ‹: Field name
ISS.                              ¡ «: Well surveys
SRVC.                                : Service Company
~Curve information
#MNEM.UNIT                   API CODE   CURVE DESCRIPTION
#===.================================:==================
DEPT.M                               : Depth curve
GZ1.OMM                        : 
GZ2.OMM                        : 
GZ5.OMM                        : 
GZ4.OMM                        : 
LLS  .Ï/˜‡Ò                           : 
REZ .ŒÃÃ                             : 
GZ3.OMM                        : 
OGZ3.OMM                        : 
SP .Ã‚                              : 
CILD  .Ã—ËÏ                            : 
MIN .ŒÃÃ                             : 
MNO .ŒÃÃ                             : 
CALI.ÏÏ                     : 
GR .                                : 
NEUT.                              : 
#
~Other information
#------------------ REMARKS AREA -----------------------
#=======================================================
# The file is generated by the program EditKar v2003.01
#Number of Curves = 15
~A Log Data Section
# ...
1143.40    5.3509    8.4176    2.7382    3.3053    4.2741    0.5473    5.9353    3.8917  565.6608  619.0873    1.9892    3.7591  214.3783    6.0618    2.2368 
1143.50    4.9937    8.1264    2.6772    3.2046    3.5638    0.5475    5.7043    3.8192  565.9354  626.3000    1.7524    3.5003  214.3629    6.0815    2.1930 
1143.60    4.6954    7.8753    2.6307    3.1221    3.3247    0.5476    5.4897    3.7729  566.1185  634.8111    1.6764    3.3505  214.1215    6.1122    1.9737 
1143.70    4.4737    7.6219    2.5945    3.0744    3.2880    0.5476    5.3332    3.7379  566.0270  644.3727    1.6752    3.3022  213.7411    6.2963    1.9152 
1143.80    4.3285    7.3615    2.5630    3.0650    3.2347    0.5476    5.2321    3.7043  565.8134  659.6625    1.6162    3.1870  213.2684    6.4409    1.9737 
1143.90    4.2434    7.1201    2.5375    3.0764    3.0713    0.5475    5.1796    3.6619  565.4166  674.8560    1.4749    3.0016  212.9065    6.6250    1.8860 
1144.00    4.2275    6.9010    2.5158    3.0965    3.0005    0.5475    5.1810    3.6008  565.0504  684.4333    1.4452    2.8988  212.8004    6.7412    1.8860 
1144.10    4.2607    6.6969    2.4935    3.1100    3.0906    0.5476    5.2177    3.5189  564.7452  693.4614    1.5304    3.0710  212.8291    6.7390    1.7982 
1144.20    4.2961    6.5014    2.4738    3.1032    3.2449    0.5476    5.2552    3.4267  564.5316  702.0051    1.8028    3.3888  212.9296    6.7149    1.7105 
1144.30    4.3036    6.2879    2.4574    3.0717    3.2888    0.5475    5.2709    3.3347  564.3790  714.0596    2.0879    3.6008  213.1573    6.7478    1.6959 
1144.40    4.2739    6.0356    2.4384    3.0112    3.3686    0.5476    5.2486    3.2588  564.3484  725.7046    2.0738    3.5599  213.4224    6.7609    1.6228 
1144.50    4.1706    5.7669    2.4187    2.9327    3.2809    0.5475    5.1632    3.2266  564.3484  733.1500    1.8754    3.3967  213.5543    6.7258    1.5497 
1144.60    3.9400    5.4085    2.4030    2.8569    3.1937    0.5474    5.0182    3.2541  564.3484  740.3790    1.7612    3.2502  213.6030    6.7478    1.5497 
1144.70    3.6483    4.9779    2.3911    2.8004    2.8544    0.5472    4.8545    3.3287  564.4705  750.7250    1.6819    3.0582  213.6510    6.7565    1.6959 
1144.80    3.3882    4.6441    2.3846    2.7709    2.3326    0.5471    4.7068    3.4363  564.5621  760.6872    1.4328    2.6075  213.4810    6.7828    1.8129 
1144.90    3.1854    4.4150    2.3958    2.7769    2.1043    0.5471    4.5926    3.5613  564.5926  766.8870    1.4116    2.3459  213.1033    6.7894    1.8567 
1145.00    3.0747    4.2367    2.4253    2.8212    1.9865    0.5472    4.5315    3.6720  564.5926  772.7500    1.6855    2.5533  212.7653    6.7412    1.9444 
1145.10    3.1060    4.1686    2.4613    2.8870    2.1083    0.5475    4.5164    3.7473  564.6231  780.8935    1.8866    2.8457  212.5227    6.6820    2.1491 
1145.20    3.2203    4.1767    2.4942    2.9509    2.2966    0.5479    4.5138    3.7876  564.6842  788.6029    1.9121    3.0403  212.3230    6.6645    2.0760 
1145.30    3.3303    4.1427    2.5191    3.0012    2.7195    0.5482    4.5013    3.7950  564.8673  793.2026    1.7300    3.1347  212.3977    6.5045    1.9883 
1145.40    3.4237    4.0768    2.5316    3.0408    3.0106    0.5484    4.4757    3.7742  565.1725  797.3524    1.5156    3.1187  212.7226    6.4650    1.7836 
1145.50    3.5061    4.0264    2.5316    3.0690    3.0699    0.5486    4.4357    3.7379  565.4777  800.8833    1.5653    3.1740  213.0642    6.4848    1.7251 
1145.60    3.5802    4.0223    2.5204    3.0965    2.9971    0.5484    4.3904    3.6902  565.7218  804.3810    1.7801    3.2995  213.3060    6.4672    1.8129 
1145.70    3.6620    4.0938    2.5040    3.1348    2.8785    0.5483    4.3582    3.6351  565.8439  806.7338    1.7923    3.1577  213.3970    6.3204    1.5058 
1145.80    3.7658    4.2359    2.4909    3.1960    2.9096    0.5482    4.3437    3.5093  565.8439  807.3502    1.6706    3.0937  213.2832    6.2503    1.4181 
1145.90    3.8883    4.4460    2.4725    3.2490    3.0885    0.5480    4.3411    3.3515  565.8134  807.5834    1.5664    3.2157  213.0169    6.2371    1.5351 
1146.00    4.0254    4.6984    2.4482    3.2671    3.1590    0.5478    4.3424    3.2339  565.7828  807.6667    1.6696    3.3141  212.7817    6.2240    1.5643 
1146.10    4.1556    4.9270    2.4292    3.2637    3.3225    0.5476    4.3306    3.1292  565.7218  807.7666    1.7662    3.4212  212.6273    6.1363    1.6228 
1146.20    4.2414    5.0939    2.4180    3.2402    3.3592    0.5474    4.2984    3.0586  565.6608  807.8667    1.7528    3.3919  212.7828    6.0684    1.7690 
1146.30    4.2524    5.1639    2.4154    3.2066    3.3396    0.5473    4.2340    3.0539  565.6608  808.0168    1.8623    3.3826  213.2073    6.0662    1.8421 
1146.40    4.1616    5.0960    2.4240    3.1764    3.3345    0.5473    4.1270    3.1252  565.6302  808.2835    2.0033    3.5180  213.7784    6.1758    1.9444 
1146.50    3.9532    4.8981    2.4404    3.1630    3.1462    0.5472    3.9905    3.2595  565.6608  808.6333    1.9154    3.6210  214.3294    6.2547    1.7544 
1146.60    3.6859    4.6579    2.4594    3.1825    2.9408    0.5472    3.8454    3.4274  565.7523  809.5158    1.7904    3.4516  214.7511    6.2481    1.6813 
1146.70    3.4435    4.4433    2.4883    3.2557    2.5110    0.5472    3.7074    3.6050  565.6608  810.6171    1.5226    2.9469  214.8764    6.1999    1.7251 
1146.80    3.2782    4.3108    2.5290    3.3699    2.2219    0.5473    3.6063    3.7655  565.3861  811.5506    1.3477    2.6242  214.6425    6.1977    1.6374 
1146.90    3.2146    4.2822    2.5650    3.4894    2.1436    0.5475    3.5682    3.8730  565.1420  812.6841    1.6521    2.7515  214.2849    6.2021    1.4474 
1147.00    3.2957    4.3603    2.5945    3.5975    2.1659    0.5475    3.5906    3.9045  564.8673  814.9500    1.9025    2.9956  214.0414    6.1451    1.6082 
1147.10    3.4813    4.4930    2.6188    3.6860    2.5530    0.5476    3.6621    3.8656  564.6842  817.7320    1.6971    2.9774  214.1902    6.0355    1.6228 
1147.20    3.6683    4.5966    2.6306    3.7351    2.8728    0.5476    3.7607    3.7775  564.7452  820.2684    1.3922    2.8611  214.6074    6.0004    1.7544 
1147.30    3.8309    4.6666    2.6339    3.7459    3.4336    0.5475    3.8585    3.6484  564.9588  823.3521    1.3591    2.7664  215.5353    6.1517    1.7251 
1147.40    3.9693    4.7196    2.6346    3.7385    3.6952    0.5473    3.9373    3.4959  565.0809  827.0024    1.4739    2.8657  216.8654    6.2941    1.7105 
1147.50    4.0572    4.7639    2.6260    3.7176    3.6831    0.5471    3.9905    3.3482  565.1420  833.2666    1.6699    3.2024  218.0596    6.2788    1.8713 
1147.60    4.0856    4.8251    2.6064    3.6908    3.4984    0.5469    4.0226    3.2239  565.1420  839.7139    1.8603    3.4699  219.2549    6.2108    1.7105 
1147.70    4.1022    4.9395    2.5755    3.6659    3.2506    0.5467    4.0423    3.1244  565.0504  843.8857    1.9987    3.3601  220.0590    6.2875    1.5058 
1147.80    4.1396    5.1258    2.5335    3.6458    3.1848    0.5465    4.0601    3.0464  564.9588  847.7356    1.8638    3.0607  220.1969    6.3796    1.5789 
1147.90    4.2040    5.3767    2.4876    3.6115    3.1533    0.5464    4.0857    2.9806  564.9588  852.6038    1.8510    3.1987  219.5957    6.4168    1.4912 
1148.00    4.2829    5.6543    2.4430    3.5464    3.2025    0.5464    4.1113    2.9161  564.8978  856.8501    2.0465    3.4600  218.8342    6.2766    1.5058 
1148.10    4.3126    5.8463    2.4010    3.4458    3.1493    0.5464    4.1120    2.8530  564.8368  859.1987    1.8433    3.2413  217.0978    6.1911    1.5789 
1148.20    4.2342    5.8456    2.3688    3.2851    3.0379    0.5465    4.0797    2.7904  564.8062  861.4347    1.6825    3.0537  215.5803    6.2766    1.5351 
1148.30    4.0335    5.6252    2.3505    3.0810    2.9350    0.5466    3.9904    2.7488  564.8062  863.5847    1.9496    3.1386  214.4500    6.3270    1.7982 
1148.40    3.6920    5.1718    2.3406    2.8943    2.7791    0.5466    3.8130    2.7657  564.7757  866.9529    1.9417    3.0747  213.7518    6.3752    1.9152 
