~Version information
VERS.                            2.00: CWLS LAS  -  VERSION 2.00
WRAP.                              NO: One line per depth step
~Well information
#MNEM.UNIT                  DATA TYPE  INFORMATION
#===.================================:==================
STRT.M                          1.000: First depth in file
STOP.M                       1195.450: Last depth in file
STEP.M                          0.100: Depth increment
NULL.                       -9999.00 : Null values
DATE.                       7/10/2004: LOG DATE
TIME.                               9: LOG TIME
WELL.                            7768: Well name
GRP.                             1111: Group name
FLD.                            ”«≈Õ‹: Field name
ISS.                              ¡ «: Well surveys
SRVC.                                : Service Company
~Curve information
#MNEM.UNIT                   API CODE   CURVE DESCRIPTION
#===.================================:==================
DEPT.M                               : Depth curve
GZ1.OMM                        : 
GZ2.OMM                        : 
GZ5.OMM                        : 
GZ4.OMM                        : 
LLS  .Ï/˜‡Ò                           : 
REZ .ŒÃÃ                             : 
GZ3.OMM                        : 
OGZ3.OMM                        : 
SP .Ã‚                              : 
CILD  .Ã—ËÏ                            : 
MIN .ŒÃÃ                             : 
MNO .ŒÃÃ                             : 
CALI.ÏÏ                     : 
GR .                                : 
NEUT.                              : 
#
~Other information
#------------------ REMARKS AREA -----------------------
#=======================================================
# The file is generated by the program EditKar v2003.01
#Number of Curves = 15
~A Log Data Section
# ...
1184.20    2.0266    2.1806    0.9970  -9999.00    2.2127    0.5453    2.4355  -9999.00  562.0596 1042.6567    1.0106    1.4283  218.4694    8.8538    1.4766 
1184.30    2.0729    2.2411    1.0567  -9999.00    2.1502    0.5453    2.4605  -9999.00  561.6628 1015.9107    1.0856    1.5495  217.1995    9.0160    1.4327 
1184.40    2.1041    2.2833    1.1230  -9999.00    2.0413    0.5454    2.4900  -9999.00  561.1440  987.3043    1.2566    1.6261  215.8437    9.2483    1.2866 
1184.50    2.1158    2.2962    1.1918  -9999.00    2.0781    0.5454    2.5229  -9999.00  560.6252  966.9833    1.3124    1.7093  214.1520    9.2286    1.3158 
1184.60    2.1144    2.2840    1.2266  -9999.00    2.0416    0.5455    2.5668  -9999.00  560.1979  946.3459    1.1799    1.7012  213.9303    9.3973    1.3889 
1184.70    2.1096    2.2676    1.2299  -9999.00    1.8894    0.5455    2.6404  -9999.00  559.9538  915.6418    1.1295    1.6595  213.7085    9.7436    1.4912 
1184.80    2.0978    2.2765    1.2279  -9999.00    1.8917    0.5455    2.7554  -9999.00  559.8622  885.6215    1.1246    1.6084  213.4805   10.0066    1.5789 
1184.90    2.0895    2.3159    1.2266  -9999.00    1.9120    0.5455    2.9275  -9999.00  559.9843  866.4885    1.1203    1.6075  213.4059   10.2674    1.4766 
1185.00    2.0854    2.3839    1.2358  -9999.00    2.0078    0.5456    3.1513  -9999.00  560.1369  848.1000    1.2052    1.5384  213.2482   10.2805    1.5936 
1185.10    2.0861    2.4792    1.3131  -9999.00    2.4011    0.5455    3.4210  -9999.00  560.1979  830.5272    1.0860    1.5206  213.0291   10.1359    1.7251 
1185.20    2.0867    2.5807    1.4014  -9999.00    2.6903    0.5456    3.7319  -9999.00  560.2590  806.0974    1.0048    1.7394  212.6895    9.9299    1.8567 
1185.30    2.0861    2.6507    1.4349  -9999.00    3.4928    0.5457    4.0511  -9999.00  560.3200  783.0579    1.3192    2.2621  212.2396    8.3980    2.0029 
1185.40    2.0867    2.6894    1.4595  -9999.00    4.1070    0.5457    4.3393  -9999.00  560.2895  769.0584    1.6208    2.8721  211.7852    7.7602    1.9883 
1185.50    2.0881    2.7160    1.4608  -9999.00    5.2327    0.5456    4.5834  -9999.00  560.1979  756.0333    1.8014    3.2267  211.4102    7.3921    2.0029 
1185.60    2.0888    2.7330    1.4221  -9999.00    5.8154    0.5457    4.7783  -9999.00  560.0453  739.2462    1.8453    3.3708  211.1042    7.0480    2.0906 
1185.70    2.0930    2.7412    1.3824  -9999.00    5.9922    0.5458    4.8973  -9999.00  559.8622  724.7452    1.8276    3.3399  210.9193    6.8902    2.0175 
1185.80    2.0930    2.7432    1.3673  -9999.00    6.2763    0.5460    4.8999  -9999.00  559.5876  717.9632    1.8315    3.2716  210.9159    6.6667    2.0322 
1185.90    2.0867    2.7419    1.3578  -9999.00    6.0530    0.5460    4.7797  -9999.00  559.2519  713.5814    1.7973    3.2178  211.0688    6.5593    1.8860 
1186.00    2.0861    2.7391    1.3571  -9999.00    5.8060    0.5460    4.5979  -9999.00  558.9162  711.9000    1.7510    3.1860  211.2105    6.5417    1.7398 
1186.10    2.0895    2.7384    1.3702  -9999.00    4.8257    0.5460    4.3951  -9999.00  558.3973  715.7285    1.7449    3.2202  211.3410    6.6250    1.7544 
1186.20    2.0916    2.7398    1.3847  -9999.00    3.5679    0.5457    4.1887  -9999.00  557.7565  723.6215    1.7467    3.1962  211.5323    6.7456    1.4912 
1186.30    2.0937    2.7412    1.3913  -9999.00    3.0843    0.5455    4.0304  -9999.00  556.7799  732.4560    1.8382    3.1019  211.7527    6.8924    1.4620 
1186.40    2.0528    2.7412    1.3932  -9999.00    2.6092    0.5454    3.9510  -9999.00  555.6812  743.0402    1.7708    2.8914  211.9837    7.0305    1.4474 
1186.50    1.9621    2.7405    1.3880  -9999.00    2.5516    0.5453    3.9176  -9999.00  554.3689  754.7833    1.6258    2.6897  212.3082    7.2847    1.4474 
1186.60    1.8693    2.7398    1.3854  -9999.00    2.5697    0.5453    3.8933  -9999.00  553.2092  773.7509    1.6801    2.7234  213.0853    7.4600    1.5643 
1186.70    1.7827    2.7384    1.3860  -9999.00    2.5658    0.5452    3.8723  -9999.00  552.1411  793.3748    1.7187    2.7679  214.2496    7.6025    1.6082 
1186.80    1.7045    2.7391    1.3873  -9999.00    2.5665    0.5451    3.8624  -9999.00  551.6528  806.9751    1.7426    2.7866  215.6835    7.5783    1.6520 
1186.90    1.6644    2.7391    1.3886  -9999.00    2.5794    0.5450    3.8611  -9999.00  551.5917  821.1255    1.8046    2.8253  217.3710    7.6331    1.7398 
1187.00    1.6623    2.7215    1.3926  -9999.00    2.6170    0.5448    3.8591  -9999.00  552.0190  843.7500    1.7750    2.8328  219.3128    7.6638    1.4912 
1187.10    1.6603    2.6623    1.3991  -9999.00    2.6175    0.5449    3.8578  -9999.00  552.9346  867.1402    1.7325    2.8641  220.7902    7.7997    1.4035 
1187.20    1.6582    2.5785    1.3991  -9999.00    2.6225    0.5451    3.8558  -9999.00  -9999.00  883.2265    1.8183    2.8564  221.7347    7.8983    1.3743 
1187.30    1.6519    2.4976    1.3939  -9999.00    2.3557    0.5455    3.8526  -9999.00  -9999.00  895.2632    1.9708    2.8549  222.0888    8.1416    1.3304 
1187.40    1.6436    2.4180    1.3959  -9999.00    2.0517    0.5457    3.8493  -9999.00  -9999.00  903.2465    1.8178    2.4838  221.8848    8.5733    1.2866 
1187.50    1.6388    2.3507    1.4024  -9999.00    1.8212    0.5459    3.8460  -9999.00  -9999.00  922.8167    1.5839    2.1472  219.9616    8.8735    1.2866 
1187.60    1.6346    2.3221  -9999.00  -9999.00    1.8838    0.5461    3.8421  -9999.00  -9999.00  945.8575    1.8918    2.2311  214.9815    8.9546    1.4474 
1187.70    1.6319    2.3207  -9999.00  -9999.00    1.9531    0.5461    3.8381  -9999.00  -9999.00  960.5588    1.8946    2.1613  207.0820    8.9875    1.6667 
1187.80    1.6340    2.3214  -9999.00  -9999.00    1.9598    0.5460    3.8335  -9999.00  -9999.00  974.6584    1.5319    2.6932  196.5885    8.9853    1.7544 
1187.90    1.6367    2.3234  -9999.00  -9999.00    1.9600    0.5460    3.8302  -9999.00  -9999.00  988.0246    2.0596    4.6620  183.4206    9.0971    1.7836 
1188.00    1.6326    2.3248  -9999.00  -9999.00    2.7365    0.5462    3.8296  -9999.00  -9999.00 1005.9833    3.5213    5.3232  169.9005    9.0905    1.8567 
1188.10    1.6229    2.3241  -9999.00  -9999.00    1.9880    0.5462    3.8302  -9999.00  -9999.00 1022.3940    3.8104    3.6365  159.4436    8.9502    1.9152 
1188.20    1.6069    2.3214  -9999.00  -9999.00    1.8417    0.5463    3.8335  -9999.00  -9999.00 1031.7888    2.8260    2.5179  151.9811    8.8582    1.9737 
1188.30    1.5688    2.3193  -9999.00  -9999.00    1.8299    0.5465    3.8401  -9999.00  -9999.00 1040.1715    2.4267    2.2811  147.3013    9.1826    1.8713 
1188.40    1.4739    2.3187  -9999.00  -9999.00    1.8322    0.5467    3.8486  -9999.00  -9999.00 1047.6377    2.4615    1.9700  145.5589    9.5025    1.7398 
1188.50    1.2443    2.3187  -9999.00  -9999.00    1.8257    0.5467    3.8585  -9999.00  -9999.00 1057.5835    2.3417    1.6803  145.5928    9.7129    1.5789 
1188.60    0.9168    2.3187  -9999.00  -9999.00    1.7499    0.5468  -9999.00  -9999.00  -9999.00 1067.0131    2.2103    1.7019  145.6626    9.6998    1.4327 
1188.70    0.7769    2.3153  -9999.00  -9999.00    1.8248    0.5468  -9999.00  -9999.00  -9999.00 1072.9203    2.2711    1.8967  145.7536    9.7239    1.3158 
1188.80    0.8738    2.3064  -9999.00  -9999.00    1.7801    0.5468  -9999.00  -9999.00  -9999.00 1078.4365    2.0825    1.5328  145.8985    9.8093    1.1842 
1188.90    1.2910    2.2568  -9999.00  -9999.00    1.7679    0.5469  -9999.00  -9999.00  -9999.00 1084.7711    2.1141    1.4786  146.0992    9.8948    1.0673 
1189.00    1.6492    1.9006  -9999.00  -9999.00    1.8536    0.5469  -9999.00  -9999.00  -9999.00 1089.2500    2.3493    1.9376  146.2659    9.8356    1.0526 
1189.10    1.6575    1.5326  -9999.00  -9999.00    1.8841    0.5469  -9999.00  -9999.00  -9999.00 1090.1332    2.2776    2.0296  146.4201    9.6778    1.1111 
1189.20    1.6575    1.4215  -9999.00  -9999.00    1.8742    0.5469  -9999.00  -9999.00  -9999.00 1089.7661    2.3085    2.0144  146.5814    9.6296    1.2427 
