~Version information
VERS.                            2.00: CWLS LAS  -  VERSION 2.00
WRAP.                              NO: One line per depth step
~Well information
#MNEM.UNIT                  DATA TYPE  INFORMATION
#===.================================:==================
STRT.M                          1.000: First depth in file
STOP.M                       1195.450: Last depth in file
STEP.M                          0.100: Depth increment
NULL.                       -9999.00 : Null values
DATE.                       7/10/2004: LOG DATE
TIME.                               9: LOG TIME
WELL.                            7768: Well name
GRP.                             1111: Group name
FLD.                            ”«≈Õ‹: Field name
ISS.                              ¡ «: Well surveys
SRVC.                                : Service Company
~Curve information
#MNEM.UNIT                   API CODE   CURVE DESCRIPTION
#===.================================:==================
DEPT.M                               : Depth curve
GZ1.OMM                        : 
GZ2.OMM                        : 
GZ5.OMM                        : 
GZ4.OMM                        : 
LLS  .Ï/˜‡Ò                           : 
REZ .ŒÃÃ                             : 
GZ3.OMM                        : 
OGZ3.OMM                        : 
SP .Ã‚                              : 
CILD  .Ã—ËÏ                            : 
MIN .ŒÃÃ                             : 
MNO .ŒÃÃ                             : 
CALI.ÏÏ                     : 
GR .                                : 
NEUT.                              : 
#
~Other information
#------------------ REMARKS AREA -----------------------
#=======================================================
# The file is generated by the program EditKar v2003.01
#Number of Curves = 15
~A Log Data Section
# ...
 934.30    2.4329    2.4336    2.8170    2.2760    2.1668    0.5723    2.3850    3.4906  578.4785  951.1833    1.9308    2.7558  217.5761    2.7109    2.0175 
 934.40    2.5312    2.4942    2.8931    2.3250    2.2187    0.5723    2.4336    3.5639  578.0513  940.9636    1.8560    2.7656  217.5288    2.6671    1.9591 
 934.50    2.6164    2.5697    2.9574    2.3827    2.2385    0.5723    2.4894    3.6405  577.6545  930.6833    1.7804    2.7818  217.4558    2.6912    1.8860 
 934.60    2.6870    2.6705    2.9981    2.4459    2.3504    0.5723    2.5570    3.7117  577.2883  920.4135    1.9276    2.9301  217.3796    2.7109    1.7251 
 934.70    2.7839    2.8059    3.0145    2.5157    2.4655    0.5724    2.6476    3.7688  577.1052  910.3000    1.8400    2.8808  217.2598    2.6846    1.7105 
 934.80    2.9154    2.9956    3.0171    2.5875    2.4888    0.5724    2.7435    3.7997  577.1357  900.5500    1.7403    2.6863  217.0751    2.6277    1.6374 
 934.90    3.0567    3.2168    3.0000    2.6413    2.5284    0.5724    2.8269    3.7910  577.1968  891.3306    1.7148    2.6035  216.9588    2.6233    1.9152 
 935.00    3.2063    3.4263    2.9613    2.6601    2.7017    0.5725    2.8912    3.7399  577.2883  882.6667    1.5548    2.5924  216.8827    2.6430    2.3684 
 935.10    3.3434    3.5931    2.9095    2.6453    3.1664    0.5725    2.9214    3.6613  577.4714  870.7786    1.6978    2.9081  216.7571    2.7394    2.5146 
 935.20    3.4098    3.6821    2.8458    2.5916    3.2275    0.5725    2.9070    3.5773  577.6851  859.5667    1.9163    3.1640  216.5981    2.7942    2.5146 
 935.30    3.3932    3.6835    2.7697    2.5063    2.8533    0.5724    2.8597    3.5067  577.8987  852.6833    2.0000    3.0587  216.5073    2.7613    2.5146 
 935.40    3.3240    3.6392    2.6956    2.4143    2.6953    0.5724    2.7934    3.4617  578.2344  846.2148    1.9815    2.9086  216.2894    2.6890    2.6608 
 935.50    3.2194    3.5875    2.6372    2.3324    2.3920    0.5723    2.7205    3.4557  578.6006  840.2500    1.8794    2.7952  216.1210    2.6518    2.6462 
 935.60    3.1045    3.5447    2.5939    2.2679    2.3266    0.5723    2.6555    3.4846  578.9669  834.8318    1.8294    2.7413  216.0544    2.5948    2.5585 
 935.70    2.9986    3.5352    2.5683    2.2330    2.2152    0.5722    2.6095    3.5350  579.4246  830.0000    1.7825    2.6596  216.1018    2.4940    2.2807 
 935.80    2.9176    3.5488    2.5624    2.2303    2.2629    0.5723    2.5879    3.6001  579.8824  824.1499    1.7297    2.5907  216.2302    2.4458    2.2807 
 935.90    2.8753    3.5699    2.5670    2.2404    2.2801    0.5724    2.5898    3.6781  580.2487  819.0991    1.7545    2.6006  216.4749    2.3975    2.4415 
 936.00    2.8733    3.5984    2.5696    2.2505    2.3541    0.5725    2.6154    3.7560  580.5844  816.2667    1.7496    2.6173  216.7419    2.3515    2.6170 
 936.10    2.9023    3.6209    2.5644    2.2579    2.4403    0.5725    2.6601    3.8306  580.8284  813.6326    1.7889    2.8745  217.0857    2.2748    2.6608 
 936.20    2.9529    3.6222    2.5499    2.2652    2.5834    0.5725    2.7192    3.9146  580.8895  811.1000    2.0269    3.1878  217.4240    2.2748    2.6608 
 936.30    3.0048    3.6168    2.5263    2.2767    2.6139    0.5725    2.7849    4.0013  580.8895  808.6000    2.2457    3.2874  217.7435    2.2726    2.6901 
 936.40    3.0477    3.6175    2.4928    2.2914    2.6863    0.5725    2.8519    4.0806  580.7675  806.2159    2.4068    3.3806  218.1094    2.3077    2.7485 
 936.50    3.1017    3.6392    2.4482    2.3089    2.6915    0.5725    2.9221    4.1558  580.6453  804.0833    2.6281    3.4466  218.4590    2.2858    2.9825 
 936.60    3.1647    3.6985    2.3984    2.3270    2.6561    0.5726    2.9904    4.2210  580.5233  802.2995    2.5221    3.2712  218.7090    2.2485    2.9532 
 936.70    3.2187    3.7828    2.3485    2.3344    2.6897    0.5726    3.0554    4.2674  580.4622  800.6000    2.2195    3.0633  218.9557    2.2244    2.9971 
 936.80    3.2935    3.8828    2.3000    2.3237    2.9713    0.5726    3.1204    4.2949  580.4012  799.5834    2.2486    3.2438  219.1371    2.2135    2.9825 
 936.90    3.3987    4.0087    2.2501    2.2981    3.1038    0.5727    3.1789    4.3036  580.3707  799.5167    2.4547    3.5439  219.2567    2.1872    3.0556 
 937.00    3.4798    4.1196    2.2035    2.2592    3.0563    0.5727    3.2215    4.3003  580.3096  799.7333    2.5005    3.5289  219.2922    2.2178    3.0848 
 937.10    3.4991    4.1590    2.1622    2.2021    2.9233    0.5726    3.2471    4.2929  580.2487  800.2002    2.2554    3.2532  219.2316    2.2792    2.8363 
 937.20    3.4652    4.1461    2.1176    2.1370    2.7994    0.5726    3.2530    4.2848  580.2487  800.9000    2.1497    3.1559  219.0284    2.2639    2.5877 
 937.30    3.3912    4.1155    2.0657    2.0779    2.8920    0.5725    3.2314    4.2855  580.2487  801.7333    2.3681    3.5235  218.7739    2.2814    2.3392 
 937.40    3.2942    4.0624    2.0132    2.0268    2.7462    0.5726    3.1874    4.3023  580.3401  802.9838    2.6409    3.6812  218.4961    2.3121    2.2515 
 937.50    3.1793    3.9951    1.9680    1.9872    2.5465    0.5726    3.1381    4.3312  580.4318  804.0500    2.4187    3.2221  218.2279    2.3603    2.1491 
 937.60    3.0837    3.9495    1.9299    1.9637    2.3199    0.5727    3.0941    4.3621  580.4927  804.3667    1.9400    2.7963  218.1325    2.3669    2.0175 
 937.70    3.0401    3.9257    1.9037    1.9537    2.4632    0.5727    3.0534    4.3836  580.5233  804.2833    1.7967    2.8229  218.2227    2.3734    1.9006 
 937.80    3.0131    3.8903    1.8945    1.9470    2.5124    0.5727    3.0239    4.3843  580.5538  803.6500    1.8999    2.9949  218.4267    2.3406    1.9737 
 937.90    2.9688    3.8216    1.9024    1.9389    2.4521    0.5726    3.0088    4.3493  580.5844  802.2161    1.9482    2.9689  218.5841    2.3647    2.1491 
 938.00    2.9307    3.7270    1.9214    1.9268    2.4766    0.5727    2.9924    4.2721  580.6453  799.8167    2.0233    2.9827  218.7957    2.3734    2.2368 
 938.10    2.9016    3.6099    1.9568    1.9134    2.4719    0.5726    2.9700    4.1726  580.7369  796.3155    2.1103    3.0841  218.9247    2.3208    2.1784 
 938.20    2.8636    3.4834    2.0113    1.9026    2.4159    0.5726    2.9464    4.0618  580.7369  791.5667    2.1766    3.1658  218.9782    2.2748    2.0468 
 938.30    2.8151    3.3678    2.0834    1.9053    2.3614    0.5726    2.9228    3.9475  580.5233  781.4667    2.1593    3.0460  218.9206    2.3099    2.0029 
 938.40    2.7687    3.2718    2.1793    1.9295    2.3649    0.5726    2.9011    3.8568  580.1570  769.4138    2.0628    2.7720  218.9535    2.3186    2.0029 
 938.50    2.7334    3.1991    2.3367    1.9758    2.2266    0.5725    2.8893    3.7890  579.7298  759.5333    2.0727    2.6186  218.9233    2.3362    1.9591 
 938.60    2.7036    3.1575    2.5690    2.0470    2.2232    0.5725    2.8939    3.7264  579.2720  748.5131    1.9148    2.5363  218.8782    2.3625    1.9591 
 938.70    2.6925    3.1405    2.8590    2.1444    2.2991    0.5724    2.9149    3.6929  578.8143  736.5333    1.8091    2.6330  218.7757    2.3515    2.0175 
 938.80    2.7064    3.1358    3.2119    2.2867    2.3836    0.5724    2.9516    3.7224  578.5396  723.7833    2.0020    2.8206  218.7108    2.3362    2.1199 
 938.90    2.7376    3.1439    3.6838    2.4829    2.4822    0.5725    3.0042    3.8024  578.3564  710.4458    1.9978    2.8681  218.5398    2.3866    2.2222 
 939.00    2.7846    3.1657    4.2459    2.7353    2.5250    0.5724    3.0803    3.9422  578.1124  696.7167    1.8162    2.8681  218.4132    2.4129    2.3538 
 939.10    2.8393    3.2120    4.8255    3.1088    2.6184    0.5724    3.2058    4.1673  577.8376  675.8415    1.7549    2.8947  218.2225    2.3844    2.3538 
 939.20    2.8746    3.2909    5.4276    3.6116    2.6659    0.5724    3.3831    4.4293  577.5935  655.2000    1.7758    2.8698  218.0490    2.3647    2.2953 
 939.30    2.9335    3.4249    6.0955    4.1769    2.7774    0.5724    3.6260    4.6826  577.4409  642.0333    1.9244    2.8473  217.9166    2.3340    2.2368 
