~Version information
VERS.                            2.00: CWLS LAS  -  VERSION 2.00
WRAP.                              NO: One line per depth step
~Well information
#MNEM.UNIT                  DATA TYPE  INFORMATION
#===.================================:==================
STRT.M                          1.000: First depth in file
STOP.M                       1195.450: Last depth in file
STEP.M                          0.100: Depth increment
NULL.                       -9999.00 : Null values
DATE.                       7/10/2004: LOG DATE
TIME.                               9: LOG TIME
WELL.                            7768: Well name
GRP.                             1111: Group name
FLD.                            ”«≈Õ‹: Field name
ISS.                              ¡ «: Well surveys
SRVC.                                : Service Company
~Curve information
#MNEM.UNIT                   API CODE   CURVE DESCRIPTION
#===.================================:==================
DEPT.M                               : Depth curve
GZ1.OMM                        : 
GZ2.OMM                        : 
GZ5.OMM                        : 
GZ4.OMM                        : 
LLS  .Ï/˜‡Ò                           : 
REZ .ŒÃÃ                             : 
GZ3.OMM                        : 
OGZ3.OMM                        : 
SP .Ã‚                              : 
CILD  .Ã—ËÏ                            : 
MIN .ŒÃÃ                             : 
MNO .ŒÃÃ                             : 
CALI.ÏÏ                     : 
GR .                                : 
NEUT.                              : 
#
~Other information
#------------------ REMARKS AREA -----------------------
#=======================================================
# The file is generated by the program EditKar v2003.01
#Number of Curves = 15
~A Log Data Section
# ...
 893.50  -9999.00  -9999.00  -9999.00  -9999.00  -9999.00    0.5764    4.0574    3.9086  579.8519  -9999.00  -9999.00  -9999.00  231.3177    7.7252    1.6520 
 893.60  -9999.00  -9999.00  -9999.00  -9999.00  -9999.00    0.5763    4.0863    4.1351  579.9739  -9999.00  -9999.00  -9999.00  230.1357    8.1438    1.5205 
 893.70  -9999.00  -9999.00  -9999.00  -9999.00  -9999.00    0.5764    4.1389    4.4347  580.1265  -9999.00  -9999.00  -9999.00  228.7157    8.4221    1.4766 
 893.80  -9999.00  -9999.00  -9999.00  -9999.00  -9999.00    0.5764    4.2393    4.8640  580.0655  -9999.00  -9999.00  -9999.00  227.1821    8.6040    1.4620 
 893.90  -9999.00  -9999.00  -9999.00  -9999.00  -9999.00    0.5764    4.4509    5.5026  579.9434  -9999.00  -9999.00  -9999.00  225.7415    8.6456    1.4620 
 894.00  -9999.00  -9999.00  -9999.00  -9999.00  -9999.00    0.5764    4.7962    6.2677  579.7908  -9999.00  -9999.00  -9999.00  224.3914    8.5908    1.4327 
 894.10  -9999.00  -9999.00  -9999.00  -9999.00  -9999.00    0.5764    5.2862    7.0440  579.6382  -9999.00  -9999.00  -9999.00  223.3116    8.6040    1.5058 
 894.20  -9999.00  -9999.00  -9999.00  -9999.00  -9999.00    0.5764    5.9795    7.7781  579.4551  -9999.00  -9999.00  -9999.00  222.3246    8.6412    1.5351 
 894.30  -9999.00  -9999.00  -9999.00  -9999.00  -9999.00    0.5764    6.8108    8.3063  579.3331  -9999.00  -9999.00  -9999.00  221.3973    8.5558    1.5497 
 894.40  -9999.00  -9999.00  -9999.00  -9999.00  -9999.00    0.5765    7.6496    8.4016  579.2110  -9999.00  -9999.00  -9999.00  220.6947    8.3257    1.9444 
 894.50  -9999.00  -9999.00  -9999.00  -9999.00  -9999.00    0.5765    8.4163    8.1322  579.1500  -9999.00  -9999.00  -9999.00  220.2233    7.9290    2.2076 
 894.60  -9999.00  -9999.00  -9999.00  -9999.00  -9999.00    0.5765    8.9930    7.5979  578.9669  -9999.00  -9999.00  -9999.00  219.9236    7.5433    2.3246 
 894.70  -9999.00  -9999.00  -9999.00  -9999.00  -9999.00    0.5765    9.1767    6.8065  578.7838  -9999.00  -9999.00  -9999.00  219.7607    7.1817    2.8216 
 894.80  -9999.00  -9999.00  -9999.00  -9999.00  -9999.00    0.5765    8.9666    5.9277  578.6006  -9999.00  -9999.00  -9999.00  219.6752    6.6645    3.0263 
 894.90  -9999.00  -9999.00  -9999.00  -9999.00  -9999.00    0.5764    8.3924    5.1790  578.3564  -9999.00  -9999.00  -9999.00  219.5759    6.3094    3.1871 
 895.00  -9999.00  -9999.00  -9999.00  -9999.00  -9999.00    0.5763    7.5075    4.5502  578.1124  -9999.00  -9999.00  -9999.00  219.5217    6.0903    3.3041 
 895.10  -9999.00  -9999.00  -9999.00  -9999.00  -9999.00    0.5763    6.5334    4.0321  577.9902  -9999.00  -9999.00  -9999.00  219.4386    6.0048    3.1725 
 895.20  -9999.00  -9999.00  -9999.00  -9999.00  -9999.00    0.5762    5.6360    3.6694  577.8682  -9999.00  -9999.00  -9999.00  219.3138    6.0114    2.7632 
 895.30  -9999.00  -9999.00  -9999.00  -9999.00  -9999.00    0.5761    4.8769    3.4906  577.7461  -9999.00  -9999.00  -9999.00  219.2961    6.4431    2.6316 
 895.40  -9999.00  -9999.00  -9999.00  -9999.00  -9999.00    0.5761    4.3272    3.4530  577.6851  -9999.00  -9999.00  -9999.00  219.4488    6.5987    2.2222 
 895.50  -9999.00  -9999.00  -9999.00  -9999.00  -9999.00    0.5761    4.0062    3.4745  577.5935  -9999.00  -9999.00  -9999.00  219.6695    6.7894    1.8860 
 895.60  -9999.00  -9999.00  -9999.00  -9999.00  -9999.00    0.5760    3.8033    3.5652  577.5630  -9999.00  -9999.00  -9999.00  220.2148    6.8442    1.8129 
 895.70  -9999.00  -9999.00  -9999.00  -9999.00  -9999.00    0.5760    3.6864    3.6687  577.5325  -9999.00  -9999.00  -9999.00  221.1047    6.8442    1.7398 
 895.80  -9999.00  -9999.00  -9999.00  -9999.00  -9999.00    0.5759    3.6543    3.7621  577.5630  -9999.00  -9999.00  -9999.00  222.1727    7.0261    1.5205 
 895.90  -9999.00  -9999.00  -9999.00  -9999.00  -9999.00    0.5759    3.6740    3.8232  577.5020  -9999.00  -9999.00  -9999.00  223.1768    7.3943    1.6082 
 896.00  -9999.00  -9999.00  -9999.00  -9999.00  -9999.00    0.5758    3.7423    3.8420  577.3494  -9999.00  -9999.00  -9999.00  224.2067    7.6397    1.6813 
 896.10  -9999.00  -9999.00  -9999.00  -9999.00  -9999.00    0.5758    3.8487    3.8279  577.1968  -9999.00  -9999.00  -9999.00  224.7678    7.9487    1.7836 
 896.20  -9999.00  -9999.00  -9999.00  -9999.00  -9999.00    0.5758    3.9911    3.7943  577.0747  -9999.00  -9999.00  -9999.00  224.9799    8.3059    1.8129 
 896.30  -9999.00  -9999.00  -9999.00  -9999.00  -9999.00    0.5758    4.2026    3.7554  576.9221  -9999.00  -9999.00  -9999.00  224.9353    8.5207    1.7690 
 896.40  -9999.00  -9999.00  -9999.00  -9999.00  -9999.00    0.5758    4.4791    3.7211  576.9221  -9999.00  -9999.00  -9999.00  224.8200    8.7026    1.6959 
 896.50  -9999.00  -9999.00  -9999.00  -9999.00  -9999.00    0.5759    4.7922    3.6902  577.0442  -9999.00  -9999.00  -9999.00  224.6171    8.7377    1.7251 
 896.60  -9999.00  -9999.00  -9999.00  -9999.00  -9999.00    0.5759    5.1213    3.6579  577.1052  -9999.00  -9999.00  -9999.00  224.9299    8.7179    1.6813 
 896.70  -9999.00  -9999.00  -9999.00  -9999.00  -9999.00    0.5759    5.4285    3.6196  577.1663  -9999.00  -9999.00  -9999.00  225.5920    8.7399    1.5789 
 896.80  -9999.00  -9999.00  -9999.00  -9999.00  -9999.00    0.5759    5.6524    3.5733  577.1968  -9999.00  -9999.00  -9999.00  226.2406    8.7136    1.6082 
 896.90    3.1751  -9999.00  -9999.00  -9999.00  -9999.00    0.5758    5.7779    3.5175  577.1663  -9999.00  -9999.00  -9999.00  226.7259    8.7399    1.5205 
 897.00    3.1080  -9999.00  -9999.00  -9999.00  -9999.00    0.5758    5.8094    3.4631  576.9832  -9999.00  -9999.00  -9999.00  226.6001    8.8275    1.5936 
 897.10    3.0214  -9999.00  -9999.00  -9999.00  -9999.00    0.5757    5.7627    3.4154  576.8610  -9999.00  -9999.00  -9999.00  225.4191    8.9240    1.7398 
 897.20    2.9203  -9999.00  -9999.00  -9999.00  -9999.00    0.5757    5.6616    3.3630  576.6475  -9999.00  -9999.00  -9999.00  223.2354    9.0598    1.7982 
 897.30    2.8310  -9999.00  -9999.00  -9999.00  -9999.00    0.5757    5.4962    3.2944  576.4644  -9999.00    1.9483    2.4953  220.7008    8.9546    1.7982 
 897.40    2.7625  -9999.00  -9999.00  -9999.00  -9999.00    0.5758    5.2906    3.2138  576.2202  -9999.00    1.8021    2.1801  217.8803    8.8692    1.7544 
 897.50    2.7009    4.4992  -9999.00  -9999.00  -9999.00    0.5759    5.0582    3.1164  576.0981  -9999.00    1.7829    2.3317  215.5764    8.8341    1.7544 
 897.60    2.6316    4.2834  -9999.00  -9999.00  -9999.00    0.5759    4.7849    3.0028  575.8539  -9999.00    1.7946    2.6330  213.8195    8.6456    1.7982 
 897.70    2.5568    4.0385  -9999.00  -9999.00  -9999.00    0.5760    4.4994    2.8987  575.6708  -9999.00    1.8553    2.7118  212.6748    8.3870    1.9298 
 897.80    2.4703    3.7631  -9999.00  -9999.00  -9999.00    0.5761    4.2512    2.8227  575.4572  -9999.00    1.9042    2.7575  211.8233    8.0605    1.8567 
 897.90    2.3748    3.4766  -9999.00    2.2625  -9999.00    0.5761    4.0443    2.7730  575.3657  -9999.00    1.9290    2.6718  211.3679    7.7756    1.8860 
 898.00    2.3055    3.2684  -9999.00    2.2323  -9999.00    0.5760    3.8874    2.7508  575.2741  -9999.00    1.9060    2.5149  210.9735    7.6616    1.9591 
 898.10    2.2640    3.1520  -9999.00    2.2303  -9999.00    0.5760    3.7974    2.7576  575.3046  -9999.00    1.8765    2.5120  210.7686    7.4140    2.0175 
 898.20    2.2252    3.0732  -9999.00    2.2679  -9999.00    0.5760    3.7488    2.7764  575.3351  -9999.00    1.8705    2.4882  210.7577    6.9954    2.0614 
 898.30    2.1982    3.0249  -9999.00    2.3539  -9999.00    0.5760    3.7147    2.8019  575.3657  -9999.00    1.9276    2.6885  210.9941    6.8288    2.1491 
 898.40    2.1837    2.9854  -9999.00    2.4808  -9999.00    0.5760    3.6891    2.8416  575.3657  -9999.00    2.3664    3.2729  211.3191    6.6469    2.0614 
 898.50    2.1407    2.9330  -9999.00    2.6399  -9999.00    0.5759    3.6700    2.8919  575.3657  -9999.00    2.3808    3.2083  211.6702    6.4103    1.9152 
