~Version information
VERS.                            2.00: CWLS LAS  -  VERSION 2.00
WRAP.                              NO: One line per depth step
~Well information
#MNEM.UNIT                  DATA TYPE  INFORMATION
#===.================================:==================
STRT.M                          1.000: First depth in file
STOP.M                       1195.450: Last depth in file
STEP.M                          0.100: Depth increment
NULL.                       -9999.00 : Null values
DATE.                       7/10/2004: LOG DATE
TIME.                               9: LOG TIME
WELL.                            7768: Well name
GRP.                             1111: Group name
FLD.                            ”«≈Õ‹: Field name
ISS.                              ¡ «: Well surveys
SRVC.                                : Service Company
~Curve information
#MNEM.UNIT                   API CODE   CURVE DESCRIPTION
#===.================================:==================
DEPT.M                               : Depth curve
GZ1.OMM                        : 
GZ2.OMM                        : 
GZ5.OMM                        : 
GZ4.OMM                        : 
LLS  .Ï/˜‡Ò                           : 
REZ .ŒÃÃ                             : 
GZ3.OMM                        : 
OGZ3.OMM                        : 
SP .Ã‚                              : 
CILD  .Ã—ËÏ                            : 
MIN .ŒÃÃ                             : 
MNO .ŒÃÃ                             : 
CALI.ÏÏ                     : 
GR .                                : 
NEUT.                              : 
#
~Other information
#------------------ REMARKS AREA -----------------------
#=======================================================
# The file is generated by the program EditKar v2003.01
#Number of Curves = 15
~A Log Data Section
# ...
1066.90    1.9137    2.0111    1.7285    1.9154    1.5190    0.5595    2.2490    2.6192  582.6901 1187.9803    1.5274    1.5899  225.7894    8.2840    1.7690 
1067.00    1.9746    2.0193    1.7337    1.9268    1.6035    0.5596    2.2661    2.6312  582.5070 1179.7167    1.4128    1.5362  224.8715    8.1306    1.7251 
1067.10    2.0217    2.0519    1.7383    1.9369    1.6710    0.5597    2.2851    2.6420  582.3849 1170.5209    1.5977    1.6991  224.0968    7.9882    1.6667 
1067.20    2.0938    2.0976    1.7429    1.9503    1.7897    0.5598    2.3068    2.6501  582.3849 1163.6123    1.9556    2.0012  224.1057    7.8194    1.5497 
1067.30    2.1837    2.1520    1.7456    1.9671    1.8464    0.5599    2.3259    2.6548  582.5681 1156.3788    2.0325    2.0681  224.6236    7.6989    1.5351 
1067.40    2.2613    2.2111    1.7515    1.9846    1.9086    0.5600    2.3370    2.6574  582.8427 1148.9453    1.9807    2.0651  225.6975    7.5499    1.3889 
1067.50    2.3270    2.2798    1.7639    1.9993    1.9933    0.5600    2.3436    2.6608  583.1174 1141.4666    2.1144    2.3095  227.4850    7.5367    1.4035 
1067.60    2.3637    2.3312    1.7744    2.0081    1.9678    0.5599    2.3449    2.6642  583.1479 1130.7252    2.2997    2.4291  229.9228    7.6463    1.4035 
1067.70    2.3748    2.3564    1.7790    2.0101    1.8792    0.5598    2.3403    2.6662  583.0563 1120.6462    2.3035    2.3311  231.9644    7.7844    1.4474 
1067.80    2.3775    2.3935    1.7790    2.0087    1.8727    0.5596    2.3324    2.6668  582.8427 1114.9468    2.2876    2.2885  233.7828    7.8216    1.4912 
1067.90    2.3755    2.4357    1.7705    2.0081    1.8836    0.5595    2.3245    2.6648  582.6901 1110.0807    2.3040    2.3238  235.4778    7.7076    1.4912 
1068.00    2.3637    2.4683    1.7541    2.0094    1.8754    0.5593    2.3167    2.6588  582.5681 1106.0334    2.3366    2.3446  236.5732    7.6682    1.5789 
1068.10    2.3526    2.4928    1.7403    2.0107    1.8667    0.5593    2.3075    2.6494  582.7206 1102.6686    2.3334    2.3469  236.7131    7.7865    1.7251 
1068.20    2.3512    2.5119    1.7318    2.0087    1.8429    0.5592    2.3002    2.6379  582.9037 1098.6971    2.2868    2.3103  236.4289    7.8852    1.7544 
1068.30    2.3609    2.5303    1.7265    2.0040    1.8856    0.5592    2.2989    2.6272  583.0869 1095.2321    2.2799    2.2530  235.7417    7.8830    1.7105 
1068.40    2.3900    2.5568    1.7226    1.9993    1.9301    0.5593    2.3016    2.6198  583.2089 1093.2988    2.3687    2.3391  234.7096    7.8589    1.6520 
1068.50    2.4316    2.5942    1.7160    1.9973    1.9847    0.5594    2.3094    2.6165  583.3005 1091.6001    2.4995    2.4778  233.7979    7.9378    1.6374 
1068.60    2.4724    2.6303    1.7075    2.0007    1.9855    0.5593    2.3258    2.6185  583.3310 1090.1010    2.5405    2.4876  233.4578    8.0846    1.6813 
1068.70    2.5008    2.6582    1.7016    2.0074    2.0127    0.5592    2.3469    2.6279  583.3615 1088.7826    2.4726    2.4616  233.6519    8.0561    1.7105 
1068.80    2.5132    2.6793    1.6970    2.0114    2.0556    0.5591    2.3666    2.6420  583.2700 1087.0653    2.5737    2.6208  234.2932    7.9947    1.7544 
1068.90    2.5084    2.6949    1.6911    2.0087    2.0350    0.5591    2.3850    2.6568  583.1479 1085.4828    2.7478    2.7499  235.2426    7.9597    1.6813 
1069.00    2.4848    2.7017    1.6872    2.0013    1.9116    0.5590    2.4001    2.6709  582.9953 1084.5500    2.6709    2.6485  236.1476    7.9158    1.6082 
1069.10    2.4419    2.6949    1.6852    1.9926    1.8523    0.5590    2.4079    2.6850  582.8427 1083.7006    2.4947    2.4446  236.9297    7.8895    1.5936 
1069.20    2.3802    2.6670    1.6819    1.9859    1.7906    0.5590    2.4106    2.6991  582.7206 1082.9663    2.3939    2.2436  237.5671    7.8369    1.6667 
1069.30    2.3103    2.6221    1.6839    1.9846    1.7858    0.5590    2.4125    2.7179  582.7206 1082.0826    2.3497    2.2023  237.9142    7.8304    1.7982 
1069.40    2.2446    2.5738    1.6944    1.9879    1.7553    0.5590    2.4171    2.7475  582.7512 1081.2496    2.3593    2.2479  237.9289    7.8085    1.7836 
1069.50    2.1968    2.5282    1.7095    1.9926    1.7137    0.5590    2.4257    2.7871  582.6595 1080.5999    2.3305    2.1690  237.8939    7.7383    1.6813 
1069.60    2.1719    2.4881    1.7252    1.9987    1.6662    0.5590    2.4394    2.8294  582.4459 1079.6840    2.2102    2.0371  237.6584    7.7274    1.7398 
1069.70    2.1782    2.4643    1.7337    2.0067    1.7305    0.5589    2.4585    2.8658  582.2018 1078.3157    2.1953    2.0704  237.2710    7.7756    1.8421 
1069.80    2.2051    2.4534    1.7311    2.0148    1.7677    0.5589    2.4802    2.8879  581.8966 1076.3319    2.2721    2.1832  236.9415    7.8632    1.8860 
1069.90    2.2315    2.4418    1.7246    2.0235    1.8038    0.5587    2.4979    2.8926  581.5609 1071.6791    2.3082    2.2613  236.7416    7.9641    1.7836 
1070.00    2.2598    2.4323    1.7173    2.0289    1.8205    0.5586    2.5110    2.8819  581.3778 1065.9500    2.2840    2.3116  236.3765    7.9619    1.6813 
1070.10    2.2813    2.4296    1.7101    2.0255    1.8345    0.5586    2.5209    2.8604  581.2252 1061.1864    2.1705    2.3701  236.1300    7.9553    1.7105 
1070.20    2.3070    2.4384    1.7082    2.0154    1.8885    0.5585    2.5248    2.8368  581.0116 1056.0302    2.0715    2.2415  235.8695    7.9904    1.7398 
1070.30    2.3499    2.4622    1.7108    2.0040    1.9337    0.5586    2.5228    2.8180  580.7980 1050.7467    2.2978    2.2683  235.6137    8.0627    1.6813 
1070.40    2.3886    2.4874    1.7147    1.9946    1.9948    0.5587    2.5183    2.8053  580.6149 1045.5135    2.6209    2.5417  235.3674    8.0495    1.6813 
1070.50    2.3976    2.5037    1.7252    1.9913    1.9839    0.5588    2.5110    2.7979  580.4318 1038.0667    2.7168    2.4776  235.3769    7.7909    1.6959 
1070.60    2.3886    2.5194    1.7449    1.9953    1.9695    0.5588    2.5012    2.7972  580.3707 1030.9194    2.5723    2.3690  235.2058    7.7449    1.7836 
1070.70    2.3629    2.5282    1.7672    2.0047    1.9110    0.5588    2.4920    2.8019  580.4012 1026.3638    2.4809    2.4798  234.9612    7.7537    1.7251 
1070.80    2.3270    2.5303    1.7902    2.0202    1.8695    0.5588    2.4887    2.8127  580.4927 1021.7971    2.4073    2.4816  234.3085    7.7515    1.7690 
1070.90    2.3055    2.5445    1.8125    2.0423    1.8495    0.5587    2.4979    2.8261  580.6149 1017.1638    2.2475    2.3125  233.3085    7.8150    1.9006 
1071.00    2.3014    2.5799    1.8295    2.0792    1.8590    0.5587    2.5202    2.8308  580.8590 1012.4834    2.2770    2.2879  232.0893    7.7690    2.1199 
1071.10    2.3402    2.6404    1.8407    2.1309    1.8898    0.5588    2.5557    2.8227  581.1642 1005.7221    2.2688    2.3660  230.9464    7.7274    2.3099 
1071.20    2.4254    2.7242    1.8571    2.1854    1.9514    0.5591    2.6030    2.8012  581.5914  999.3309    2.2637    2.4613  230.0161    7.8216    2.3830 
1071.30    2.5285    2.8228    1.8807    2.2330    2.0516    0.5593    2.6496    2.7602  582.0187  995.6146    2.4631    2.5659  229.9175    7.7164    2.4854 
1071.40    2.6338    2.9167    1.9024    2.2639    2.2183    0.5595    2.6837    2.7078  582.3544  992.2647    2.6086    2.6732  230.6810    7.4885    2.6608 
1071.50    2.7300    2.9800    1.9175    2.2720    2.4326    0.5596    2.7028    2.6621  582.4764  989.1667    2.8956    3.0978  231.9336    7.4184    2.4854 
1071.60    2.7749    2.9902    1.9207    2.2666    2.5388    0.5597    2.7080    2.6306  582.4764  986.2185    3.2987    3.5011  233.2563    7.4644    2.4269 
1071.70    2.7361    2.9575    1.9089    2.2659    2.4085    0.5595    2.7054    2.6144  582.4155  982.2470    3.4202    3.4863  234.5132    7.5630    2.2953 
1071.80    2.6579    2.9126    1.8925    2.2753    2.0991    0.5594    2.7047    2.6138  582.3849  978.8156    3.1532    3.1062  235.3457    7.7230    2.0614 
1071.90    2.5970    2.9065    1.8879    2.2961    1.8400    0.5593    2.7146    2.6191  582.4155  977.3327    2.6706    2.5426  235.4702    7.9071    1.9737 
