~Version information
VERS.                            2.00: CWLS LAS  -  VERSION 2.00
WRAP.                              NO: One line per depth step
~Well information
#MNEM.UNIT                  DATA TYPE  INFORMATION
#===.================================:==================
STRT.M                          1.000: First depth in file
STOP.M                       1195.450: Last depth in file
STEP.M                          0.100: Depth increment
NULL.                       -9999.00 : Null values
DATE.                       7/10/2004: LOG DATE
TIME.                               9: LOG TIME
WELL.                            7768: Well name
GRP.                             1111: Group name
FLD.                            ”«≈Õ‹: Field name
ISS.                              ¡ «: Well surveys
SRVC.                                : Service Company
~Curve information
#MNEM.UNIT                   API CODE   CURVE DESCRIPTION
#===.================================:==================
DEPT.M                               : Depth curve
GZ1.OMM                        : 
GZ2.OMM                        : 
GZ5.OMM                        : 
GZ4.OMM                        : 
LLS  .Ï/˜‡Ò                           : 
REZ .ŒÃÃ                             : 
GZ3.OMM                        : 
OGZ3.OMM                        : 
SP .Ã‚                              : 
CILD  .Ã—ËÏ                            : 
MIN .ŒÃÃ                             : 
MNO .ŒÃÃ                             : 
CALI.ÏÏ                     : 
GR .                                : 
NEUT.                              : 
#
~Other information
#------------------ REMARKS AREA -----------------------
#=======================================================
# The file is generated by the program EditKar v2003.01
#Number of Curves = 15
~A Log Data Section
# ...
1010.80    2.2972    2.5826    1.9391    2.2270    1.8570    0.5647    2.6391    2.7757  596.9117 1043.1667    1.2839    1.6300  230.9811    6.8968    1.8129 
1010.90    2.2744    2.5588    1.9509    2.2182    1.8530    0.5647    2.6286    2.7596  596.7897 1038.2991    1.2824    1.5813  231.5081    6.9318    1.8129 
1011.00    2.2508    2.5173    1.9653    2.2041    1.8747    0.5646    2.6095    2.7421  596.6066 1034.7501    1.1481    1.5634  231.9815    6.8705    1.8860 
1011.10    2.2460    2.4642    1.9772    2.1900    1.8631    0.5646    2.5826    2.7253  596.3014 1030.8989    1.0951    1.5090  232.2110    6.8135    1.7982 
1011.20    2.2550    2.4282    1.9863    2.1853    1.8572    0.5647    2.5570    2.7152  595.9657 1026.7666    1.2051    1.6734  232.0529    6.7741    1.7251 
1011.30    2.2578    2.4187    1.9942    2.1961    1.8679    0.5648    2.5399    2.7166  595.6910 1020.3333    1.2203    1.6660  231.5815    6.6754    1.6374 
1011.40    2.2813    2.4405    1.9975    2.2196    1.8387    0.5649    2.5373    2.7267  595.5384 1014.0822    1.0625    1.4076  230.8378    6.5308    1.8129 
1011.50    2.3485    2.5132    1.9982    2.2505    1.9271    0.5651    2.5517    2.7387  595.4468 1010.5001    0.7806    1.2924  230.3128    6.4146    1.8860 
1011.60    2.4378    2.6222    2.0021    2.2807    2.0695    0.5651    2.5787    2.7428  595.4774 1007.6492    0.6411    1.2785  230.4399    6.2547    1.8129 
1011.70    2.5132    2.7215    2.0086    2.3008    2.3025    0.5650    2.6056    2.7287  595.5384 1005.7000    0.8174    1.5066  230.8635    6.2700    1.8421 
1011.80    2.5631    2.7888    2.0139    2.3096    2.3552    0.5650    2.6259    2.7004  595.5384 1004.7500    1.3613    1.6584  231.3595    6.2941    1.9298 
1011.90    2.5845    2.8296    2.0198    2.3109    2.3328    0.5649    2.6358    2.6689  595.5384 1005.7174    1.5137    1.5976  231.8766    6.1999    1.9591 
1012.00    2.5894    2.8609    2.0270    2.3069    2.3308    0.5648    2.6365    2.6400  595.5689 1008.2500    1.3782    1.7249  231.9640    6.1582    2.0468 
1012.10    2.5818    2.9052    2.0336    2.3089    2.2557    0.5647    2.6371    2.6212  595.5994 1011.4011    1.6431    1.8495  231.0753    6.1823    1.9152 
1012.20    2.5652    2.9718    2.0355    2.3216    2.1057    0.5649    2.6483    2.6212  595.6605 1015.4166    1.9294    1.6022  230.0322    6.2064    1.9152 
1012.30    2.5686    3.0643    2.0303    2.3378    1.9413    0.5650    2.6752    2.6299  595.6910 1020.2167    1.5186    1.4516  229.1413    6.1210    2.1053 
1012.40    2.5880    3.1671    2.0172    2.3559    2.0409    0.5652    2.7107    2.6339  595.7520 1025.6184    1.4055    1.7053  228.2745    6.0684    2.0468 
1012.50    2.6268    3.2623    1.9995    2.3754    2.2842    0.5653    2.7494    2.6319  595.7825 1034.1833    1.9697    2.0260  227.6165    5.9610    1.9006 
1012.60    2.6794    3.3338    1.9811    2.3861    2.3185    0.5654    2.7875    2.6245  595.9046 1042.6017    2.1603    2.2409  227.5461    6.0443    1.8421 
1012.70    2.7272    3.3610    1.9621    2.3827    2.3240    0.5654    2.8177    2.6131  595.9962 1047.6833    2.0982    2.3568  227.8040    6.0859    1.9298 
1012.80    2.7424    3.3433    1.9457    2.3713    2.3190    0.5653    2.8315    2.6050  596.0572 1052.2833    2.0393    2.4233  228.4176    5.9829    2.0322 
1012.90    2.7154    3.2936    1.9332    2.3465    2.2176    0.5652    2.8302    2.6097  595.9046 1056.5012    1.9535    2.5345  229.2630    5.9982    2.1199 
1013.00    2.6344    3.1991    1.9214    2.3069    2.1031    0.5651    2.8203    2.6279  595.6910 1060.5333    1.7305    2.3911  230.2796    6.0859    2.0029 
1013.10    2.5153    3.0697    1.9050    2.2605    1.8489    0.5650    2.8013    2.6595  595.2943 1066.8192    1.4857    2.0255  231.2343    6.1604    1.7836 
1013.20    2.3928    2.9357    1.8853    2.2122    1.6630    0.5650    2.7678    2.7025  594.8060 1073.3833    1.3278    1.7308  232.0268    6.2459    1.6959 
1013.30    2.2772    2.7881    1.8669    2.1665    1.6086    0.5649    2.7251    2.7495  594.3481 1077.9333    1.2693    1.5785  232.0039    6.2240    1.7251 
1013.40    2.1650    2.6329    1.8512    2.1289    1.5580    0.5648    2.6785    2.7986  594.1346 1082.2512    1.2349    1.5391  231.5690    6.1801    1.5936 
1013.50    2.0507    2.4956    1.8394    2.1027    1.5352    0.5648    2.6273    2.8536  594.0125 1085.9333    1.2218    1.4980  230.8839    6.3314    1.5351 
1013.60    1.9669    2.3785    1.8354    2.0947    1.5272    0.5648    2.5780    2.9088  594.0430 1088.6006    1.2168    1.4927  230.1707    6.3796    1.4912 
1013.70    1.9379    2.2846    1.8427    2.0987    1.5334    0.5649    2.5445    2.9598  594.2261 1089.4333    1.2172    1.4864  229.3136    6.3883    1.4181 
1013.80    1.9656    2.2363    1.8545    2.1027    1.5839    0.5651    2.5314    3.0102  594.5008 1087.9333    1.2267    1.4864  229.1815    6.4935    1.4912 
1013.90    2.0466    2.2336    1.8663    2.1095    1.6374    0.5652    2.5360    3.0505  594.7449 1084.5820    1.2423    1.5634  229.5262    6.5154    1.4912 
1014.00    2.1664    2.2636    1.8781    2.1162    1.9057    0.5653    2.5511    3.0673  595.0501 1079.8167    1.3707    1.8256  229.8758    6.3840    1.4766 
1014.10    2.2820    2.3105    1.8827    2.1168    2.0408    0.5655    2.5642    3.0673  595.3248 1073.8647    1.7460    2.2218  229.9832    6.3401    1.6228 
1014.20    2.3741    2.3520    1.8787    2.1101    2.1591    0.5655    2.5688    3.0619  595.5689 1063.0500    2.0362    2.4373  229.9948    6.2262    1.6959 
1014.30    2.4419    2.3853    1.8741    2.1014    2.1759    0.5653    2.5623    3.0532  595.7520 1051.3667    2.1021    2.4517  229.6090    6.0991    1.6228 
1014.40    2.4814    2.4173    1.8709    2.0994    2.1667    0.5652    2.5471    3.0505  595.9962 1043.1475    2.1454    2.4755  228.7883    6.0837    1.6228 
1014.50    2.5008    2.4425    1.8702    2.1074    2.1023    0.5651    2.5301    3.0660  596.1793 1034.9667    2.0146    2.4396  228.0326    6.1232    1.6959 
1014.60    2.4765    2.4650    1.8768    2.1215    1.8776    0.5649    2.5202    3.0996  596.3624 1026.9476    1.7045    2.1465  227.4925    6.1758    1.7544 
1014.70    2.4211    2.5024    1.8886    2.1363    1.8715    0.5647    2.5183    3.1412  596.5455 1019.1667    1.4984    1.9305  227.1153    6.2700    1.7251 
1014.80    2.3935    2.5595    1.9010    2.1504    1.9286    0.5649    2.5196    3.1842  596.6066 1007.9333    1.5062    2.0475  226.8243    6.2788    1.5789 
1014.90    2.3945    2.6214    1.9129    2.1632    1.8941    0.5651    2.5248    3.2219  596.5150  996.8811    1.7676    2.1216  226.7530    6.3620    1.5351 
1015.00    2.4035    2.6772    1.9194    2.1712    1.9075    0.5651    2.5327    3.2460  596.2709  989.5333    1.7759    1.9891  226.7068    6.4541    1.6228 
1015.10    2.4572    2.7283    1.9207    2.1766    2.1438    0.5652    2.5399    3.2541  595.9046  982.0978    1.7237    2.1321  226.6872    6.2941    1.8567 
1015.20    2.5478    2.7779    1.9181    2.1847    2.2229    0.5653    2.5458    3.2487  595.5079  974.6000    2.1383    2.5224  226.7720    5.9917    2.1491 
1015.30    2.6122    2.8167    1.9129    2.1961    2.2663    0.5653    2.5544    3.2360  595.2027  967.0834    2.3497    2.6168  227.0374    5.8383    2.2076 
1015.40    2.6600    2.8548    1.9096    2.2095    2.2829    0.5652    2.5649    3.2239  594.8975  956.0956    2.3267    2.6231  227.3747    5.9194    2.2953 
1015.50    2.7106    2.8885    1.9129    2.2249    2.3099    0.5652    2.5767    3.2192  594.7449  945.5834    2.3628    2.6793  227.7563    5.8514    2.3977 
1015.60    2.7445    2.9041    1.9234    2.2431    2.3093    0.5653    2.5931    3.2232  594.5618  939.3148    2.4480    2.7083  228.1210    5.8032    2.4415 
1015.70    2.7452    2.9249    1.9398    2.2626    2.2495    0.5653    2.6141    3.2353  594.3481  933.6833    2.4590    2.7349  228.4149    5.9456    2.3830 
1015.80    2.7472    2.9691    1.9575    2.2800    2.2140    0.5653    2.6404    3.2602  594.0735  928.7333    2.3072    2.6909  228.5482    5.9676    2.1930 
