~Version information
VERS.                            2.00: CWLS LAS  -  VERSION 2.00
WRAP.                              NO: One line per depth step
~Well information
#MNEM.UNIT                  DATA TYPE  INFORMATION
#===.================================:==================
STRT.M                          1.000: First depth in file
STOP.M                       1195.450: Last depth in file
STEP.M                          0.100: Depth increment
NULL.                       -9999.00 : Null values
DATE.                       7/10/2004: LOG DATE
TIME.                               9: LOG TIME
WELL.                            7768: Well name
GRP.                             1111: Group name
FLD.                            ”«≈Õ‹: Field name
ISS.                              ¡ «: Well surveys
SRVC.                                : Service Company
~Curve information
#MNEM.UNIT                   API CODE   CURVE DESCRIPTION
#===.================================:==================
DEPT.M                               : Depth curve
GZ1.OMM                        : 
GZ2.OMM                        : 
GZ5.OMM                        : 
GZ4.OMM                        : 
LLS  .Ï/˜‡Ò                           : 
REZ .ŒÃÃ                             : 
GZ3.OMM                        : 
OGZ3.OMM                        : 
SP .Ã‚                              : 
CILD  .Ã—ËÏ                            : 
MIN .ŒÃÃ                             : 
MNO .ŒÃÃ                             : 
CALI.ÏÏ                     : 
GR .                                : 
NEUT.                              : 
#
~Other information
#------------------ REMARKS AREA -----------------------
#=======================================================
# The file is generated by the program EditKar v2003.01
#Number of Curves = 15
~A Log Data Section
# ...
1107.70    2.4744    2.7874    2.1248    3.0656    1.9889    0.5524    2.8505    2.8785  590.1061 1068.8496    1.9745    1.9304  220.1364    8.1832    1.6959 
1107.80    2.4537    2.7820    2.1176    3.0247    1.9772    0.5524    2.8282    2.8980  590.4418 1068.0162    2.0669    1.7923  221.1180    8.1986    1.8129 
1107.90    2.4308    2.7677    2.1136    2.9810    1.9425    0.5524    2.8052    2.9148  590.8386 1066.8325    1.9691    1.8170  222.1504    8.2380    1.8275 
1108.00    2.4087    2.7500    2.1103    2.9414    1.9365    0.5523    2.7803    2.9343  591.2353 1065.2334    1.8660    1.8924  222.8430    8.2577    1.7398 
1108.10    2.3858    2.7283    2.1012    2.9005    1.9289    0.5523    2.7507    2.9558  591.5405 1061.9030    2.0189    2.1508  223.4274    8.2139    1.5205 
1108.20    2.3699    2.7044    2.0854    2.8554    1.9244    0.5523    2.7192    2.9773  591.9372 1057.9148    2.2858    2.3122  224.0605    8.1153    1.4035 
1108.30    2.3623    2.6799    2.0743    2.8111    1.9274    0.5522    2.6903    3.0015  592.3340 1054.6479    2.3440    2.4702  224.6984    7.9947    1.4181 
1108.40    2.3554    2.6534    2.0690    2.7668    1.9281    0.5521    2.6634    3.0297  592.4866 1051.0143    2.2515    2.4078  224.8969    7.9334    1.3450 
1108.50    2.3491    2.6242    2.0697    2.7192    1.9274    0.5521    2.6371    3.0599  592.5781 1047.0000    2.3519    2.0566  224.8809    7.8939    1.3596 
1108.60    2.3457    2.6010    2.0828    2.6755    1.9148    0.5521    2.6148    3.0901  592.4866 1040.1559    2.2150    2.0297  224.2091    7.7581    1.5058 
1108.70    2.3471    2.5840    2.0939    2.6412    1.9232    0.5521    2.5957    3.1245  592.2424 1032.7968    1.9911    2.0170  222.9435    7.7164    1.6520 
1108.80    2.3568    2.5765    2.0893    2.6124    1.9468    0.5521    2.5800    3.1668  592.0287 1027.4800    2.1382    1.9719  221.1948    7.7515    1.7398 
1108.90    2.3838    2.5949    2.0861    2.5875    1.9872    0.5521    2.5708    3.2158  591.9677 1021.9633    2.1155    2.0278  219.4104    7.7076    1.7398 
1109.00    2.4253    2.6357    2.0893    2.5708    2.0024    0.5522    2.5701    3.2669  592.1203 1016.3334    2.0654    2.1392  217.5929    7.7668    1.7398 
1109.10    2.4696    2.6847    2.0887    2.5647    2.0537    0.5522    2.5787    3.3179  592.3340 1010.5869    2.3190    2.5030  216.3080    7.7559    1.8129 
1109.20    2.5126    2.7467    2.1005    2.5661    2.0670    0.5522    2.5977    3.3663  592.4255 1001.6594    2.4177    2.5972  215.4124    7.7712    1.8567 
1109.30    2.5631    2.8235    2.1222    2.5721    2.1189    0.5522    2.6260    3.4046  592.5781  992.5796    2.3837    2.5645  215.0278    7.9356    1.7398 
1109.40    2.6123    2.8996    2.1300    2.5788    2.1952    0.5521    2.6562    3.4302  592.7917  986.3628    2.5349    2.5336  214.9165    7.8720    1.5789 
1109.50    2.6448    2.9657    2.1346    2.5761    2.2081    0.5520    2.6864    3.4449  593.0664  980.0833    2.6991    2.3370  215.0725    7.6572    1.6520 
1109.60    2.6739    3.0214    2.1340    2.5614    2.2149    0.5520    2.7152    3.4523  593.4326  973.8371    2.6174    2.2276  215.2468    7.5937    1.7398 
1109.70    2.7057    3.0691    2.1235    2.5405    2.2441    0.5520    2.7363    3.4537  593.8904  967.6629    2.5541    2.3092  215.6035    7.5455    1.7836 
1109.80    2.7230    3.1024    2.1130    2.5137    2.2961    0.5520    2.7487    3.4496  594.3787  958.5593    2.7113    2.4535  215.7527    7.4578    1.7398 
1109.90    2.7286    3.1167    2.0959    2.4814    2.2969    0.5520    2.7566    3.4389  594.8365  949.5630    2.8125    2.5457  215.9781    7.3439    1.7105 
1110.00    2.7292    3.1235    2.0854    2.4499    2.2642    0.5520    2.7579    3.4241  595.2943  943.6500    2.5633    2.5542  216.1711    7.1466    1.8129 
1110.10    2.7237    3.1276    2.0867    2.4170    2.2467    0.5520    2.7533    3.4080  595.7520  937.7869    2.5568    2.5746  216.3123    7.1181    1.9006 
1110.20    2.7161    3.1242    2.0913    2.3780    2.2511    0.5519    2.7487    3.3898  596.1793  932.0132    2.5208    2.4527  216.2893    7.2058    1.9737 
1110.30    2.7085    3.1208    2.1044    2.3418    2.1929    0.5518    2.7382    3.3744  596.3929  923.8936    2.2453    2.2438  216.3870    7.2014    2.0760 
1110.40    2.7009    3.1228    2.1366    2.3142    2.1930    0.5518    2.7290    3.3704  596.3318  916.2805    2.3102    2.3274  216.3680    7.1598    2.0906 
1110.50    2.7029    3.1290    2.1760    2.2934    2.2288    0.5518    2.7284    3.3777  596.0572  911.8334    2.4587    2.4883  216.4015    7.1181    2.0760 
1110.60    2.7099    3.1378    2.2081    2.2780    2.2447    0.5517    2.7310    3.3945  595.6299  907.9189    2.3531    2.4632  216.4681    7.0874    2.0614 
1110.70    2.7085    3.1467    2.2390    2.2672    2.2569    0.5516    2.7415    3.4221  595.2637  904.5148    2.1968    2.3463  216.6875    7.1335    1.9883 
1110.80    2.7085    3.1555    2.2698    2.2599    2.2917    0.5515    2.7586    3.4557  594.9280  901.5817    2.4247    2.3749  216.9163    7.1072    1.9444 
1110.90    2.7126    3.1671    2.2960    2.2585    2.2941    0.5514    2.7809    3.4927  594.8975  898.0306    2.4756    2.3276  217.2718    7.0305    1.8421 
1111.00    2.7258    3.1943    2.3223    2.2666    2.2627    0.5513    2.8118    3.5370  594.9586  894.9166    2.6079    2.2299  217.6086    7.0524    1.8713 
1111.10    2.7667    3.2460    2.3465    2.2813    2.2925    0.5513    2.8485    3.5867  595.0196  893.2676    2.7255    2.3894  217.8037    7.0633    1.8567 
1111.20    2.8380    3.3161    2.3643    2.2975    2.3647    0.5513    2.8873    3.6351  595.0501  891.9993    2.5523    2.5072  217.7288    7.0502    1.8860 
1111.30    2.9218    3.4079    2.3748    2.3116    2.5633    0.5514    2.9320    3.6862  595.1722  891.1830    2.7914    2.6981  217.5929    7.0261    1.8860 
1111.40    2.9965    3.5092    2.3761    2.3203    2.6301    0.5514    2.9799    3.7413  595.2332  891.1837    2.8693    2.8784  217.3210    6.8727    1.8860 
1111.50    3.0457    3.5855    2.3721    2.3196    2.6193    0.5513    3.0226    3.7910  595.2943  892.0167    2.7807    2.8119  216.9272    6.7894    1.9591 
1111.60    3.0630    3.6399    2.3538    2.3143    2.6771    0.5512    3.0573    3.8306  595.3858  893.3158    2.9525    3.0317  216.5244    6.7675    1.9591 
1111.70    3.0491    3.6883    2.3295    2.3096    2.7096    0.5510    3.0830    3.8582  595.4163  894.9845    2.9163    3.1462  216.3030    6.7587    1.9006 
1111.80    3.0117    3.7168    2.3006    2.3028    2.6509    0.5509    3.0987    3.8716  595.3858  896.9513    2.8758    3.1180  216.1439    6.6469    1.8129 
1111.90    2.9667    3.7182    2.2658    2.2887    2.5625    0.5508    3.1060    3.8729  595.2943  899.1848    2.8669    2.8388  216.1051    6.6952    1.6667 
1112.00    2.9258    3.7100    2.2284    2.2713    2.4141    0.5508    3.1073    3.8635  595.2637  902.8834    2.7154    2.5062  216.3376    6.7894    1.6374 
1112.10    2.8850    3.6964    2.1963    2.2545    2.3834    0.5507    3.1060    3.8347  595.2943  906.5486    2.7321    2.4505  216.9748    6.9822    1.4912 
1112.20    2.8393    3.6494    2.1654    2.2370    2.3245    0.5507    3.1027    3.7741  595.2943  908.6178    2.5710    2.4677  217.7946    7.1291    1.3450 
1112.30    2.7998    3.5726    2.1372    2.2202    2.2854    0.5507    3.0935    3.6861  595.1111  910.0506    2.4387    2.4490  218.6758    7.1773    1.2719 
1112.40    2.7659    3.4978    2.1149    2.2041    2.2770    0.5507    3.0751    3.5759  594.8365  910.5499    2.4521    2.4648  219.5226    7.2759    1.2281 
1112.50    2.7327    3.4155    2.0992    2.1853    2.2651    0.5507    3.0462    3.4557  594.5008  908.6167    2.4498    2.6562  220.1686    7.4753    1.4035 
1112.60    2.6925    3.3107    2.0972    2.1612    2.2698    0.5507    3.0055    3.3549  594.0735  904.7191    2.3662    2.6074  220.6491    7.4710    1.4912 
1112.70    2.6475    3.2106    2.1084    2.1350    2.2024    0.5506    2.9562    3.2998  593.7378  900.0801    2.2786    2.3801  220.8019    7.4666    1.5058 
