~Version information
VERS.                            2.00: CWLS LAS  -  VERSION 2.00
WRAP.                              NO: One line per depth step
~Well information
#MNEM.UNIT                  DATA TYPE  INFORMATION
#===.================================:==================
STRT.M                          1.000: First depth in file
STOP.M                       1195.450: Last depth in file
STEP.M                          0.100: Depth increment
NULL.                       -9999.00 : Null values
DATE.                       7/10/2004: LOG DATE
TIME.                               9: LOG TIME
WELL.                            7768: Well name
GRP.                             1111: Group name
FLD.                            ”«≈Õ‹: Field name
ISS.                              ¡ «: Well surveys
SRVC.                                : Service Company
~Curve information
#MNEM.UNIT                   API CODE   CURVE DESCRIPTION
#===.================================:==================
DEPT.M                               : Depth curve
GZ1.OMM                        : 
GZ2.OMM                        : 
GZ5.OMM                        : 
GZ4.OMM                        : 
LLS  .Ï/˜‡Ò                           : 
REZ .ŒÃÃ                             : 
GZ3.OMM                        : 
OGZ3.OMM                        : 
SP .Ã‚                              : 
CILD  .Ã—ËÏ                            : 
MIN .ŒÃÃ                             : 
MNO .ŒÃÃ                             : 
CALI.ÏÏ                     : 
GR .                                : 
NEUT.                              : 
#
~Other information
#------------------ REMARKS AREA -----------------------
#=======================================================
# The file is generated by the program EditKar v2003.01
#Number of Curves = 15
~A Log Data Section
# ...
1128.10    3.1834    3.9108    4.6356    3.4120    2.8841    0.5493    4.0318    4.8209  566.0575  710.8901    1.6774    2.8455  217.5456    6.7346    2.1930 
1128.20    3.1412    3.8999    4.7525    3.5788    2.5876    0.5492    4.1067    4.9837  566.1185  702.3297    1.6829    2.8840  218.1308    6.7478    2.2661 
1128.30    3.1544    3.9733    4.8739    3.7715    2.6653    0.5492    4.2066    5.1255  566.1490  696.2129    1.8420    2.8248  218.4841    6.8179    2.1637 
1128.40    3.2153    4.0909    4.9499    3.9669    2.7414    0.5492    4.3300    5.2235  566.0575  689.9128    1.6713    2.6514  218.4069    6.8113    2.1491 
1128.50    3.4419    4.2800    4.9631    4.1387    3.1216    0.5491    4.4777    5.2537  565.9659  680.5834    1.4353    2.6951  218.2139    6.8223    2.0906 
1128.60    3.7582    4.5453    4.9546    4.2923    3.4160    0.5491    4.6254    5.2222  565.8744  671.6368    1.7212    2.9059  217.8702    6.8705    1.9152 
1128.70    4.0104    4.8321    4.9125    4.4167    3.7597    0.5491    4.7430    5.1475  565.6913  666.3470    2.0220    3.0146  217.4823    6.9231    2.0614 
1128.80    4.2068    5.1136    4.8423    4.4832    4.0378    0.5490    4.8284    5.0407  565.4777  661.7474    1.8439    3.0269  217.0610    6.8727    1.8567 
1128.90    4.3265    5.3625    4.7340    4.4905    4.1716    0.5491    4.8691    4.9117  565.2335  657.9647    1.6349    2.9971  216.8353    6.7543    1.8129 
1129.00    4.3590    5.5251    4.6035    4.4616    4.3303    0.5492    4.8435    4.7794  565.0504  654.4333    1.6592    3.0999  216.5585    6.5746    1.7398 
1129.10    4.3050    5.6258    4.4776    4.3999    4.2921    0.5492    4.7667    4.6625  564.9588  652.2837    1.8764    3.4173  216.2191    6.5965    1.7105 
1129.20    4.1962    5.6749    4.3508    4.3199    3.8083    0.5493    4.6681    4.5630  564.9283  652.1002    2.1187    3.4967  215.8469    6.6053    1.8275 
1129.30    4.0890    5.6864    4.2104    4.2407    3.5308    0.5495    4.5656    4.4749  564.9894  652.6172    2.0263    3.2886  215.5616    6.6009    1.7251 
1129.40    4.0288    5.7272    4.0812    4.1648    3.2046    0.5496    4.4730    4.3963  565.2030  653.6841    1.8513    3.1060  215.2150    6.5834    1.5643 
1129.50    3.9921    5.7830    3.9776    4.0937    3.2710    0.5496    4.4035    4.3198  565.4471  656.1833    1.8936    3.0076  214.9132    6.5308    1.7544 
1129.60    3.9581    5.7695    3.8825    4.0259    3.3217    0.5497    4.3556    4.2379  565.5997  659.1487    1.9528    2.9787  214.8089    6.5702    1.9006 
1129.70    3.9409    5.6953    3.7958    3.9526    3.1622    0.5498    4.3161    4.1443  565.6608  661.3013    1.8588    2.9885  214.7873    6.6294    2.1199 
1129.80    3.9214    5.6055    3.7309    3.8714    3.1711    0.5498    4.2695    4.0503  565.7523  663.2511    1.8164    3.0787  214.7561    6.6667    2.1345 
1129.90    3.8529    5.4233    3.6843    3.7794    3.3784    0.5499    4.2150    3.9730  565.8134  665.4849    1.9270    3.1611  214.6779    6.7083    2.1930 
1130.00    3.7247    5.1607    3.6496    3.6834    3.3057    0.5500    4.1599    3.9254  565.7828  667.2333    1.9570    3.0388  214.6061    6.7850    2.2368 
1130.10    3.5912    4.9361    3.6397    3.6055    3.1828    0.5499    4.1067    3.9092  565.8134  668.0828    1.7721    2.8559  214.3628    6.8639    2.2076 
1130.20    3.4859    4.7835    3.6581    3.5585    2.9174    0.5498    4.0732    3.9173  565.9659  668.9339    1.6009    2.7417  214.0241    6.9559    2.1491 
1130.30    3.4049    4.6727    3.7008    3.5417    2.7908    0.5498    4.0745    3.9415  565.9965  669.8005    1.6287    2.6734  213.6039    6.8836    2.0029 
1130.40    3.3586    4.6292    3.7552    3.5558    2.5433    0.5497    4.1166    3.9690  565.9659  671.0844    1.5567    2.6260  213.2669    6.8683    1.8129 
1130.50    3.3489    4.6292    3.8064    3.5948    2.6138    0.5497    4.1953    3.9892  565.9354  672.2667    1.5851    2.7380  212.9124    6.8223    1.4766 
1130.60    3.3662    4.6122    3.8503    3.6471    2.7862    0.5498    4.3030    4.0046  565.8134  672.8164    1.8600    2.9696  212.6562    6.7193    1.3743 
1130.70    3.3849    4.5815    3.8871    3.7069    3.1354    0.5499    4.4193    4.0188  565.6302  673.1168    2.0790    3.2207  212.4713    6.5593    1.3743 
1130.80    3.3967    4.5571    3.9113    3.7775    3.1400    0.5499    4.5395    4.0235  565.5082  673.0998    2.0795    3.2958  212.4059    6.4344    1.4035 
1130.90    3.4320    4.5496    3.9310    3.8533    2.9214    0.5499    4.6649    4.0174  565.3556  672.4326    1.8126    3.0826  212.4768    6.4826    1.3012 
1131.00    3.5096    4.5747    3.9487    3.9151    2.8839    0.5498    4.7804    3.9959  565.2946  671.4500    1.7089    3.0680  212.7141    6.4892    1.3012 
1131.10    3.5954    4.6407    3.9540    3.9560    2.9862    0.5498    4.8756    3.9469  565.3861  670.6339    1.8756    3.1147  213.0605    6.4979    1.5058 
1131.20    3.6758    4.7129    3.9481    3.9795    3.2445    0.5498    4.9499    3.8749  565.5387  669.9330    1.9428    3.0715  213.5164    6.5133    1.6813 
1131.30    3.7595    4.7748    3.9317    3.9849    3.3732    0.5498    4.9991    3.7950  565.6913  669.4998    1.8906    3.1747  213.9890    6.5900    1.6959 
1131.40    3.8246    4.8455    3.9048    3.9788    3.4555    0.5499    5.0181    3.7177  565.8744  669.6671    1.8090    3.1580  214.2873    6.6360    1.7105 
1131.50    3.8536    4.9203    3.8753    3.9735    3.4542    0.5500    5.0214    3.6552  565.9965  670.5500    1.7083    3.1125  214.3845    6.6009    1.7544 
1131.60    3.8550    4.9795    3.8484    3.9688    3.4140    0.5499    5.0155    3.6116  565.9965  672.0489    1.6492    3.1519  214.3542    6.4760    1.7836 
1131.70    3.8307    5.0143    3.8201    3.9621    3.2041    0.5499    5.0004    3.5820  565.8439  674.3350    1.7482    3.1838  214.2201    6.4037    1.7982 
1131.80    3.7767    5.0245    3.7906    3.9527    3.1285    0.5500    4.9780    3.5558  565.5082  679.8885    1.8243    3.3033  214.0650    6.4190    1.5936 
1131.90    3.7068    5.0163    3.7611    3.9386    3.1498    0.5500    4.9399    3.5202  565.1420  686.9536    1.8035    3.2987  213.9275    6.3796    1.5497 
1132.00    3.6424    5.0000    3.7217    3.9231    3.0244    0.5500    4.8809    3.4658  564.7452  693.2334    1.7967    3.1848  213.9892    6.2700    1.5058 
1132.10    3.6030    4.9789    3.6680    3.9157    2.9997    0.5500    4.8166    3.3912  564.5621  700.4620    1.7914    3.2272  214.0029    6.2810    1.3450 
1132.20    3.6148    4.9925    3.6082    3.9198    2.8755    0.5499    4.7613    3.3011  564.4400  708.5385    1.8302    3.1822  214.0246    6.3642    1.2866 
1132.30    3.6861    5.0605    3.5413    3.9319    2.8504    0.5498    4.7167    3.2030  564.4705  722.0781    1.8915    3.1289  213.8295    6.4453    1.1988 
1132.40    3.7851    5.1278    3.4645    3.9493    3.1049    0.5498    4.6872    3.1002  564.5010  736.3394    1.9760    3.2156  213.4753    6.5352    1.2719 
1132.50    3.8828    5.1748    3.3904    3.9567    3.2734    0.5498    4.6701    3.0028  564.5316  746.4500    2.0031    3.2283  212.8370    6.5746    1.4912 
1132.60    3.9672    5.2183    3.3176    3.9386    3.3545    0.5498    4.6511    2.9202  564.4400  756.9102    2.0114    3.2828  212.2894    6.6382    1.5789 
1132.70    4.0233    5.2422    3.2355    3.8949    3.4569    0.5497    4.6156    2.8489  564.4095  773.2801    1.9482    3.3237  211.6544    6.5615    1.6520 
1132.80    4.0426    5.2320    3.1555    3.8223    3.3841    0.5497    4.5571    2.7891  564.3484  789.9068    1.8955    3.2019  211.3011    6.4650    1.7105 
1132.90    4.0260    5.1980    3.0820    3.7256    3.1690    0.5496    4.4770    2.7454  564.4095  801.0901    1.7971    3.1073  211.2603    6.4146    1.7982 
1133.00    3.9713    5.1313    3.0118    3.6250    3.0877    0.5495    4.3805    2.7193  564.4705  812.1833    1.8828    3.1444  211.4659    6.4256    1.8275 
1133.10    3.8549    5.0089    2.9522    3.5257    3.1046    0.5495    4.2781    2.7179  564.6231  823.1766    2.0449    3.2695  211.6223    6.4212    1.7544 
