~Version information
VERS.                            2.00: CWLS LAS  -  VERSION 2.00
WRAP.                              NO: One line per depth step
~Well information
#MNEM.UNIT                  DATA TYPE  INFORMATION
#===.================================:==================
STRT.M                          1.000: First depth in file
STOP.M                       1195.450: Last depth in file
STEP.M                          0.100: Depth increment
NULL.                       -9999.00 : Null values
DATE.                       7/10/2004: LOG DATE
TIME.                               9: LOG TIME
WELL.                            7768: Well name
GRP.                             1111: Group name
FLD.                            ”«≈Õ‹: Field name
ISS.                              ¡ «: Well surveys
SRVC.                                : Service Company
~Curve information
#MNEM.UNIT                   API CODE   CURVE DESCRIPTION
#===.================================:==================
DEPT.M                               : Depth curve
GZ1.OMM                        : 
GZ2.OMM                        : 
GZ5.OMM                        : 
GZ4.OMM                        : 
LLS  .Ï/˜‡Ò                           : 
REZ .ŒÃÃ                             : 
GZ3.OMM                        : 
OGZ3.OMM                        : 
SP .Ã‚                              : 
CILD  .Ã—ËÏ                            : 
MIN .ŒÃÃ                             : 
MNO .ŒÃÃ                             : 
CALI.ÏÏ                     : 
GR .                                : 
NEUT.                              : 
#
~Other information
#------------------ REMARKS AREA -----------------------
#=======================================================
# The file is generated by the program EditKar v2003.01
#Number of Curves = 15
~A Log Data Section
# ...
1163.80    1.7544    2.0737    1.9339    1.8933    1.3850    0.5455    2.1657    2.0480  594.4703 1292.7365    0.9150    1.2443  218.6071    8.9086    1.5351 
1163.90    1.7530    2.0642    1.9890    1.9510    1.4059    0.5455    2.2149    2.0803  594.3481 1297.7195    0.9960    1.2391  218.3986    9.1124    1.6667 
1164.00    1.7710    2.0635    2.0375    2.0067    1.4697    0.5454    2.2773    2.0997  594.2872 1302.1499    1.0192    1.2536  218.4341    9.2549    1.6082 
1164.10    1.8008    2.0676    2.0769    2.0591    1.4966    0.5454    2.3455    2.1065  594.2566 1307.5626    0.8833    1.2541  218.6424    9.5113    1.5351 
1164.20    1.8369    2.0690    2.1058    2.0974    1.5167    0.5454    2.4126    2.0957  594.3787 1312.1516    0.8217    1.2165  219.3450    9.8488    1.4620 
1164.30    1.8735    2.0588    2.1235    2.1135    1.5131    0.5454    2.4684    2.0735  594.3177 1314.3345    0.8718    1.2166  219.6346    9.8466    1.5058 
1164.40    1.8998    2.0329    2.1274    2.1088    1.5249    0.5455    2.5012    2.0446  594.0735 1315.8840    0.8809    1.2536  219.2480    9.8904    1.5643 
1164.50    1.9144    1.9921    2.1176    2.0819    1.5482    0.5454    2.5025    2.0070  593.7988 1316.8167    0.9090    1.3046  218.2393    9.8970    1.6959 
1164.60    1.9206    1.9445    2.1064    2.0289    1.5546    0.5455    2.4677    1.9647  593.5547 1317.1666    0.9614    1.3190  217.0216    9.8554    1.6082 
1164.70    1.9143    1.8880    2.1058    1.9617    1.5728    0.5455    2.4013    1.9217  593.2800 1316.9998    0.9268    1.3208  215.7646    9.8663    1.5643 
1164.80    1.8929    1.8227    2.1110    1.9013    1.5815    0.5456    2.3179    1.8780  593.0359 1316.5164    0.9556    1.4090  214.8929    9.8181    1.4620 
1164.90    1.8679    1.7676    2.1202    1.8623    1.5834    0.5457    2.2293    1.8404  592.8528 1315.9163    1.0480    1.5665  214.8806    9.6121    1.6082 
1165.00    1.8555    1.7356    2.1431    1.8516    1.5836    0.5458    2.1486    1.8175  592.6697 1314.9666    1.0614    1.5581  215.6211    9.5376    1.6520 
1165.10    1.8548    1.7301    2.1799    1.8731    1.5638    0.5458    2.0901    1.8088  592.5171 1314.1169    1.0362    1.4070  216.7419    9.4543    1.6813 
1165.20    1.8645    1.7601    2.2291    1.9221    1.5689    0.5457    2.0579    1.8169  592.3644 1313.8833    0.8487    1.3817  217.9196    9.4806    1.6374 
1165.30    1.8888    1.8227    2.3066    1.9859    1.5921    0.5457    2.0455    1.8491  592.3035 1314.0836    0.7289    1.3111  219.0814    9.4127    1.7251 
1165.40    1.9213    1.8988    2.4083    2.0517    1.5891    0.5456    2.0507    1.9029  592.2119 1314.8840    0.8214    1.1922  219.8998    9.3601    1.7105 
1165.50    1.9420    1.9710    2.5053    2.1155    1.5827    0.5454    2.0698    1.9721  591.9067 1317.7000    0.9164    1.2676  221.5001    9.2067    1.6374 
1165.60    1.9531    2.0274    2.5866    2.1779    1.5901    0.5454    2.0960    2.0500  591.5099 1321.4481    0.9845    1.3833  221.8028    9.2373    1.4912 
1165.70    1.9677    2.0704    2.6484    2.2391    1.5993    0.5454    2.1348    2.1395  591.1132 1324.6019    1.0108    1.4419  222.0352    9.1409    1.5936 
1165.80    1.9843    2.1010    2.6798    2.3190    1.6269    0.5454    2.1992    2.2476  590.6555 1327.8019    1.0153    1.5161  222.1945    9.0905    1.5643 
1165.90    2.0071    2.1241    2.6805    2.4184    1.6514    0.5455    2.2826    2.3592  590.3807 1331.7529    1.1444    1.5460  222.0265    8.9218    1.6520 
1166.00    2.0556    2.1900    2.6641    2.5144    1.6649    0.5455    2.3738    2.4532  590.3807 1334.8335    1.1642    1.5130  221.6344    8.9502    1.5789 
1166.10    2.1450    2.3104    2.6359    2.5902    1.6668    0.5456    2.4670    2.5297  590.4418 1335.9496    1.0455    1.4835  220.9611    9.0072    1.6667 
1166.20    2.2357    2.3956    2.5906    2.6252    1.6790    0.5456    2.5360    2.5788  590.5334 1336.5503    1.0209    1.4417  220.0449    9.1234    1.8275 
1166.30    2.2709    2.4105    2.5282    2.5922    1.6960    0.5456    2.5419    2.5828  590.6249 1336.8002    0.9926    1.4018  219.1580    9.0708    1.7105 
1166.40    2.2598    2.3833    2.4653    2.4867    1.8121    0.5456    2.4893    2.5654  590.5029 1337.1337    1.0214    1.6300  218.6789    9.0116    1.5936 
1166.50    2.2155    2.2847    2.4069    2.3445    1.7734    0.5456    2.4007    2.5661  590.2892 1337.6833    1.1009    1.7010  218.4622    8.9831    1.4181 
1166.60    2.1157    2.1092    2.3485    2.2049    1.5754    0.5455    2.2833    2.6077  589.9535 1338.3328    1.0319    1.3344  218.6172    8.8823    1.2573 
1166.70    1.9869    1.9471    2.3026    2.0993    1.3686    0.5454    2.1675    2.6985  589.5568 1339.1338    0.9594    1.2593  219.1068    8.7596    1.3450 
1166.80    1.8942    1.8451    2.2619    2.0430    1.4102    0.5454    2.0927    2.8612  589.0990 1340.4177    1.2133    1.5326  219.6244    8.6610    1.1988 
1166.90    1.8430    1.7873    2.2140    2.0376    1.3997    0.5452    2.0638    3.0896  588.6107 1341.6005    1.2685    1.5103  219.9028    8.7947    1.0380 
1167.00    1.8250    1.7852    2.1372    2.0624    1.3684    0.5451    2.0671    3.3226  588.1224 1342.0667    1.0330    1.3074  220.2648    9.0116    1.0380 
1167.10    1.8680    1.8675    2.0661    2.0880    1.4123    0.5451    2.0940    3.5120  587.6951 1342.0503    0.9593    1.2907  220.5214    9.1584    1.0673 
1167.20    1.9553    1.9983    2.0273    2.0920    1.4215    0.5450    2.1184    3.6412  587.2068 1341.2993    0.9041    1.2208  220.7144    9.2856    1.1550 
1167.30    2.0446    2.0901    1.9725    2.0429    1.5123    0.5448    2.1065    3.6720  586.6270 1335.1932    0.8785    1.2901  220.8756    9.5354    1.2135 
1167.40    2.1145    2.1282    1.8957    1.9455    1.9426    0.5446    2.0553    3.5880  585.9556 1326.5629    1.1866    1.6827  221.1916    9.5551    1.3450 
1167.50    2.1525    2.1078    1.8118    1.8254    2.0816    0.5445    1.9739    3.4469  585.1316 1319.7666    1.4484    1.9201  221.3607    9.5792    1.5936 
1167.60    2.1386    2.0031    1.7358    1.6919    1.7671    0.5443    1.8682    3.3026  584.3076 1307.5770    1.3330    1.7311  221.5381    9.4280    1.6959 
1167.70    2.0943    1.8593    1.6701    1.5648    1.6270    0.5442    1.7611    3.1828  583.5751 1294.2775    1.1950    1.5234  221.7228    9.3469    1.7982 
1167.80    2.0556    1.7560    1.6110    1.4836    1.5298    0.5442    1.6849    3.1359  583.0258 1284.4938    1.1846    1.4985  221.8754    9.5683    1.9006 
1167.90    2.0258    1.7118    1.5612    1.4527    1.6094    0.5442    1.6475    3.1903  582.5986 1274.0767    1.2488    1.5961  221.8748    9.5573    1.9298 
1168.00    2.0168    1.7301    1.5199    1.4460    1.6718    0.5442    1.6383    3.2843  582.2018 1262.8167    1.6102    1.9807  221.5596    9.5244    1.8567 
1168.10    2.0369    1.8301    1.4871    1.4534    1.6386    0.5442    1.6547    3.3186  581.8356 1243.4664    1.7859    2.1047  220.7762    9.5047    1.6959 
1168.20    2.0618    1.9547    1.4674    1.4548    1.5638    0.5442    1.6870    3.2278  581.5304 1222.2739    1.6478    1.9026  219.6627    9.5792    1.6082 
1168.30    2.0577    2.0397    1.4582    1.4319    1.5538    0.5442    1.7093    3.0100  581.1642 1206.3566    1.5484    1.7942  218.3081    9.6713    1.5497 
1168.40    2.0383    2.0717    1.4542    1.3876    1.5619    0.5443    1.6974    2.6794  580.7064 1189.5061    1.4872    1.7859  216.5530    9.5047    1.4620 
1168.50    1.9752    2.0377    1.4595    1.3332    1.6749    0.5443    1.6607    2.2892  580.2792 1172.0833    1.4856    1.9150  214.7437    9.2527    1.4766 
1168.60    1.9026    1.9214    1.4805    1.2815    1.7210    0.5443    1.6134    1.9461  579.6993 1145.8712    1.4609    2.0598  213.2269    9.1300    1.5497 
1168.70    1.8874    1.7743    1.5179    1.2479    1.8209    0.5444    1.5648    1.7214  578.9973 1120.2400    1.5925    2.1734  211.6799    9.1431    1.7251 
1168.80    1.9061    1.6750    1.5744    1.2506    1.8390    0.5445    1.5405    1.5971  578.2954 1104.4241    1.7081    2.2207  210.2087    9.2527    1.8129 
