~Version information
VERS.                            2.00: CWLS LAS  -  VERSION 2.00
WRAP.                              NO: One line per depth step
~Well information
#MNEM.UNIT                  DATA TYPE  INFORMATION
#===.================================:==================
STRT.M                          1.000: First depth in file
STOP.M                       1195.450: Last depth in file
STEP.M                          0.100: Depth increment
NULL.                       -9999.00 : Null values
DATE.                       7/10/2004: LOG DATE
TIME.                               9: LOG TIME
WELL.                            7768: Well name
GRP.                             1111: Group name
FLD.                            ”«≈Õ‹: Field name
ISS.                              ¡ «: Well surveys
SRVC.                                : Service Company
~Curve information
#MNEM.UNIT                   API CODE   CURVE DESCRIPTION
#===.================================:==================
DEPT.M                               : Depth curve
GZ1.OMM                        : 
GZ2.OMM                        : 
GZ5.OMM                        : 
GZ4.OMM                        : 
LLS  .Ï/˜‡Ò                           : 
REZ .ŒÃÃ                             : 
GZ3.OMM                        : 
OGZ3.OMM                        : 
SP .Ã‚                              : 
CILD  .Ã—ËÏ                            : 
MIN .ŒÃÃ                             : 
MNO .ŒÃÃ                             : 
CALI.ÏÏ                     : 
GR .                                : 
NEUT.                              : 
#
~Other information
#------------------ REMARKS AREA -----------------------
#=======================================================
# The file is generated by the program EditKar v2003.01
#Number of Curves = 15
~A Log Data Section
# ...
 990.40    2.8476    3.2695    2.4870    2.4801    2.4062    0.5688    2.8821    4.1961  597.1559  786.1141    2.5246    3.0013  225.4499    4.7535    2.0906 
 990.50    2.8663    3.3344    2.5053    2.5009    2.6583    0.5688    2.9313    4.2163  597.3390  774.2001    3.2227    3.4137  225.3204    4.8148    2.0760 
 990.60    2.9141    3.4502    2.5198    2.5291    2.6552    0.5688    2.9897    4.2244  597.4611  762.9312    2.9917    3.0540  225.1130    4.8148    2.0322 
 990.70    3.0180    3.6250    2.5342    2.5667    2.4881    0.5688    3.0639    4.2116  597.4916  755.9667    2.9186    2.7505  224.9414    4.8082    1.9006 
 990.80    3.2007    3.8291    2.5473    2.6090    2.5077    0.5689    3.1460    4.1699  597.3695  749.4167    3.2654    3.0920  224.8199    4.7491    1.9444 
 990.90    3.4202    4.0332    2.5552    2.6460    2.8472    0.5690    3.2288    4.0906  597.3085  743.4150    3.6458    3.5937  224.8448    4.6504    2.3684 
 991.00    3.5954    4.2291    2.5565    2.6735    3.1084    0.5690    3.3102    3.9865  597.2169  738.0667    4.2194    4.0597  224.8674    4.4751    2.5585 
 991.10    3.7124    4.3829    2.5519    2.6889    3.5141    0.5690    3.3778    3.8749  597.0948  733.5321    4.9050    4.4433  224.9643    4.2823    2.6608 
 991.20    3.7795    4.4768    2.5401    2.6863    3.6880    0.5688    3.4231    3.7628  597.0643  729.9333    4.6797    4.4537  225.0844    4.1332    2.7924 
 991.30    3.7699    4.5509    2.5211    2.6688    3.5501    0.5686    3.4520    3.6626  597.1254  726.5667    4.1825    4.3090  225.1980    4.0412    2.8509 
 991.40    3.6895    4.6115    2.5001    2.6453    3.1714    0.5684    3.4711    3.5874  597.0338  724.5665    3.7178    3.8445  225.2293    4.0324    2.8947 
 991.50    3.5884    4.6326    2.4791    2.6198    3.0298    0.5682    3.4842    3.5309  597.0338  724.5166    3.2365    3.4345  225.3125    4.0259    2.7339 
 991.60    3.4596    4.6196    2.4594    2.5996    2.8274    0.5681    3.5000    3.4886  597.0338  725.1669    3.0939    3.2295  225.3967    4.0872    2.4415 
 991.70    3.3150    4.5992    2.4463    2.5922    2.7295    0.5681    3.5203    3.4584  597.0338  726.4500    3.0031    3.1490  225.3973    4.1661    2.3977 
 991.80    3.2194    4.5734    2.4423    2.5990    2.6715    0.5680    3.5459    3.4349  597.1254  728.2167    3.1239    3.1183  225.3844    4.3502    2.3392 
 991.90    3.1640    4.5441    2.4430    2.6198    2.6269    0.5681    3.5820    3.4160  597.2474  730.2840    2.9612    2.9307  225.3454    4.4620    2.1637 
 992.00    3.1433    4.5305    2.4482    2.6560    2.4638    0.5681    3.6267    3.3979  597.2474  732.5667    2.7161    2.9115  225.3359    4.5014    2.3830 
 992.10    3.2042    4.5380    2.4561    2.6997    2.5147    0.5682    3.6773    3.3824  597.2169  736.5016    2.9758    3.1802  225.3043    4.4510    2.4415 
 992.20    3.3060    4.5462    2.4607    2.7406    2.7893    0.5683    3.7409    3.3751  597.1559  740.8334    3.2758    3.4657  225.3187    4.4072    2.4854 
 992.30    3.3607    4.5373    2.4607    2.7756    2.8754    0.5683    3.8138    3.3771  597.0033  744.2333    3.5520    3.4652  225.2885    4.3765    2.6023 
 992.40    3.3877    4.5040    2.4587    2.8004    2.8694    0.5684    3.8775    3.3912  596.9423  748.0179    3.6766    3.4426  225.3111    4.3809    2.5439 
 992.50    3.3960    4.4441    2.4555    2.8112    2.8547    0.5685    3.9274    3.4181  596.9117  752.2001    3.5738    3.6990  225.2926    4.4116    2.4854 
 992.60    3.3281    4.3617    2.4515    2.8132    2.8682    0.5685    3.9629    3.4530  596.9423  756.8682    3.3397    3.5584  225.2807    4.4970    2.3830 
 992.70    3.2250    4.2672    2.4495    2.8145    2.7512    0.5685    3.9800    3.4920  596.8202  762.0000    3.0910    3.0436  225.2816    4.6307    2.2222 
 992.80    3.1357    4.1672    2.4502    2.8199    2.5199    0.5685    3.9846    3.5303  596.6371  767.5333    3.0063    2.8212  225.3568    4.9507    2.2661 
 992.90    3.0366    4.0801    2.4522    2.8333    2.3731    0.5684    3.9892    3.5605  596.3929  776.3203    2.9992    2.8652  225.4287    5.1567    2.4415 
 993.00    2.9785    4.0271    2.4535    2.8541    2.3549    0.5684    4.0016    3.5780  596.1183  785.0500    2.8921    2.8346  225.5785    5.3386    2.4854 
 993.10    2.9944    4.0148    2.4528    2.8783    2.4070    0.5683    4.0200    3.5807  595.8741  790.4849    2.8534    2.9972  226.2271    5.4701    2.4269 
 993.20    3.0360    4.0345    2.4476    2.9005    2.4736    0.5684    4.0371    3.5612  595.7825  795.3833    2.8385    2.9857  227.4478    5.5161    2.3977 
 993.30    3.0989    4.0604    2.4358    2.9159    2.5758    0.5683    4.0482    3.5155  595.8130  799.6333    2.7682    2.8778  229.1741    5.4854    2.4708 
 993.40    3.1723    4.0788    2.4200    2.9226    2.6274    0.5682    4.0469    3.4543  595.8436  803.1843    3.0389    3.2538  231.3830    5.3276    2.5877 
 993.50    3.2104    4.0794    2.4036    2.9213    2.7961    0.5682    4.0240    3.3871  595.9657  806.0000    3.5335    3.5358  234.1248    5.0449    2.5000 
 993.60    3.2160    4.0495    2.3859    2.9139    2.8539    0.5681    3.9819    3.3179  596.0877  808.6842    3.3095    3.0453  236.4921    4.8411    2.3538 
 993.70    3.1807    3.9930    2.3708    2.9058    2.7844    0.5681    3.9261    3.2608  596.2709  810.4667    2.5526    3.3661  238.3005    4.7710    2.1784 
 993.80    3.0948    3.9196    2.3636    2.8998    2.6586    0.5680    3.8572    3.2306  596.4845  810.9667    1.5418    3.3482  239.5396    4.6943    2.1053 
 993.90    2.9923    3.8379    2.3629    2.8958    2.3733    0.5680    3.7849    3.2252  596.7286  811.1833    0.8266    2.3249  240.4889    4.6241    1.9883 
 994.00    2.8781    3.7576    2.3682    2.8937    2.2985    0.5680    3.7153    3.2380  596.8202  811.2000    0.9011    2.2334  241.0883    4.5979    1.9883 
 994.10    2.7562    3.6739    2.3813    2.8884    2.1725    0.5680    3.6431    3.2649  596.9117  811.0165    0.8990    2.2265  241.8079    4.5913    1.7982 
 994.20    2.6413    3.5630    2.3984    2.8776    2.1113    0.5679    3.5722    3.2985  596.9423  810.5667    0.8355    2.0892  241.8727    4.5825    1.6520 
 994.30    2.5326    3.4297    2.4141    2.8669    2.0148    0.5679    3.5091    3.3314  596.8507  809.8333    0.7309    1.8004  241.3349    4.6614    1.6082 
 994.40    2.4717    3.3045    2.4292    2.8595    1.9958    0.5679    3.4500    3.3616  596.7592  808.0992    0.6514    1.7777  239.7459    4.6965    1.6959 
 994.50    2.4800    3.2065    2.4456    2.8655    2.0618    0.5679    3.3995    3.3912  596.6981  806.1333    0.7273    1.9543  236.7782    4.6702    1.7544 
 994.60    2.5084    3.1453    2.4653    2.8964    2.1432    0.5680    3.3706    3.4174  596.6676  804.9163    0.7965    1.8917  232.5566    4.7337    1.7251 
 994.70    2.5562    3.1371    2.4922    2.9508    2.1493    0.5681    3.3699    3.4342  596.5150  803.9667    0.7149    1.6491  228.8481    4.8323    1.7398 
 994.80    2.6558    3.1854    2.5316    3.0207    2.1155    0.5682    3.3909    3.4315  596.3014  803.3500    0.5805    1.5460  225.7846    4.8893    1.7836 
 994.90    2.7902    3.2780    2.5782    3.1053    2.1752    0.5683    3.4290    3.3992  596.0572  803.0499    0.6528    1.8946  223.5820    5.0515    1.8129 
 995.00    2.9252    3.3964    2.6208    3.1939    2.5387    0.5684    3.4862    3.3441  595.8436  803.0167    1.8471    2.4174  222.5422    5.0581    1.8421 
 995.10    3.0651    3.5162    2.6562    3.2732    2.7134    0.5684    3.5518    3.2756  595.5384  803.2001    3.6050    3.0123  222.5104    4.9507    1.9006 
 995.20    3.2104    3.6413    2.6759    3.3443    3.0442    0.5684    3.6162    3.2017  595.3858  804.0500    4.3484    3.5022  222.6480    4.8674    1.9152 
 995.30    3.3461    3.8093    2.6733    3.4121    3.1672    0.5683    3.6884    3.1291  595.3858  805.5000    4.1666    3.6973  222.8299    4.7929    1.9591 
 995.40    3.4749    4.0176    2.6549    3.4712    3.1638    0.5682    3.7699    3.0559  595.5079  807.2339    3.7721    3.4918  223.1735    4.7359    1.9152 
