~Version information
VERS.                            2.00: CWLS LAS  -  VERSION 2.00
WRAP.                              NO: One line per depth step
~Well information
#MNEM.UNIT                  DATA TYPE  INFORMATION
#===.================================:==================
STRT.M                          1.000: First depth in file
STOP.M                       1195.450: Last depth in file
STEP.M                          0.100: Depth increment
NULL.                       -9999.00 : Null values
DATE.                       7/10/2004: LOG DATE
TIME.                               9: LOG TIME
WELL.                            7768: Well name
GRP.                             1111: Group name
FLD.                            ”«≈Õ‹: Field name
ISS.                              ¡ «: Well surveys
SRVC.                                : Service Company
~Curve information
#MNEM.UNIT                   API CODE   CURVE DESCRIPTION
#===.================================:==================
DEPT.M                               : Depth curve
GZ1.OMM                        : 
GZ2.OMM                        : 
GZ5.OMM                        : 
GZ4.OMM                        : 
LLS  .Ï/˜‡Ò                           : 
REZ .ŒÃÃ                             : 
GZ3.OMM                        : 
OGZ3.OMM                        : 
SP .Ã‚                              : 
CILD  .Ã—ËÏ                            : 
MIN .ŒÃÃ                             : 
MNO .ŒÃÃ                             : 
CALI.ÏÏ                     : 
GR .                                : 
NEUT.                              : 
#
~Other information
#------------------ REMARKS AREA -----------------------
#=======================================================
# The file is generated by the program EditKar v2003.01
#Number of Curves = 15
~A Log Data Section
# ...
 970.00    2.9529    3.6746    3.3018    3.1180    2.3456    0.5693    3.6359    3.6552  592.9749  824.1667    0.8745    2.2362  225.6960    4.8893    2.1637 
 970.10    3.0291    3.7325    3.3005    3.1133    2.6050    0.5692    3.6378    3.6653  592.8223  822.0327    1.0242    2.6498  225.7001    4.9069    2.2368 
 970.20    3.0581    3.7386    3.3005    3.1012    2.6883    0.5691    3.6260    3.6747  592.6697  819.9167    1.1253    3.0250  226.1372    4.9025    2.2661 
 970.30    3.0256    3.7052    3.3025    3.0838    2.6539    0.5691    3.5978    3.6882  592.5781  816.9833    1.0725    3.0205  226.9651    4.9529    2.2076 
 970.40    2.9570    3.6358    3.3110    3.0656    2.5973    0.5690    3.5498    3.7130  592.5781  814.1995    1.1430    3.0650  228.1052    5.0142    2.0906 
 970.50    2.8643    3.5460    3.3300    3.0502    2.4738    0.5689    3.4855    3.7533  592.5171  812.3167    2.1704    2.8990  228.9980    5.1304    2.1199 
 970.60    2.7479    3.4555    3.3537    3.0428    2.2045    0.5689    3.4211    3.8004  592.4866  810.2827    2.0766    2.3180  229.0140    5.3167    2.1491 
 970.70    2.6669    3.3984    3.3753    3.0489    2.1297    0.5689    3.3732    3.8535  592.4866  808.0166    0.8617    1.8813  228.7362    5.4832    2.1930 
 970.80    2.6545    3.3957    3.3930    3.0677    2.2053    0.5690    3.3489    3.9119  592.4866  805.4166    0.6808    1.6972  228.2520    5.5994    2.1199 
 970.90    2.7092    3.4454    3.4029    3.0979    2.2174    0.5691    3.3542    3.9623  592.4255  802.4490    0.6922    1.7325  227.4497    5.7484    2.2515 
 971.00    2.8269    3.5420    3.4009    3.1462    2.1973    0.5691    3.3988    3.9946  592.4255  799.1167    0.8988    1.5705  226.3442    5.7988    2.3830 
 971.10    3.0083    3.6863    3.3891    3.2073    2.2417    0.5691    3.4790    4.0127  592.3950  795.4489    0.8823    1.5709  225.7025    5.6892    2.5439 
 971.20    3.2257    3.8488    3.3727    3.2671    2.6788    0.5691    3.5696    4.0174  592.3950  789.4833    0.7007    1.8778  225.1075    5.5512    2.4269 
 971.30    3.4063    3.9903    3.3510    3.3181    3.0284    0.5692    3.6444    3.9993  592.4255  783.4167    1.3782    2.2286  224.8921    5.4942    2.2807 
 971.40    3.4936    4.0570    3.3248    3.3409    3.3815    0.5692    3.6825    3.9683  592.5781  779.4321    2.8938    3.1478  225.1635    5.3868    2.1199 
 971.50    3.4680    4.0066    3.2966    3.3215    3.3484    0.5692    3.6746    3.9442  592.7917  775.6500    3.5640    3.6407  225.7232    5.4219    1.9591 
 971.60    3.3308    3.8800    3.2651    3.2684    2.9149    0.5693    3.6188    3.9294  593.0664  772.2324    2.9821    2.9139  226.2617    5.4416    1.8567 
 971.70    3.1571    3.7501    3.2251    3.1946    2.7399    0.5693    3.5275    3.9133  593.3411  769.3500    2.6909    2.4598  226.9112    5.5227    1.6667 
 971.80    3.0263    3.6746    3.1850    3.1194    2.5691    0.5693    3.4349    3.9005  593.4937  767.1334    2.6399    2.9362  226.9323    5.5928    1.6520 
 971.90    2.9404    3.6835    3.1555    3.0717    2.4857    0.5693    3.3778    3.8877  593.6157  765.5830    2.8034    2.2427  226.2754    5.6323    1.7398 
 972.00    2.9369    3.7814    3.1352    3.0549    2.1756    0.5694    3.3640    3.8481  593.7073  765.2000    1.8723    1.3409  225.8185    5.5665    1.8713 
 972.10    3.0305    3.9285    3.1220    3.0562    2.1475    0.5694    3.3831    3.7775  593.7683  765.8503    0.6464    1.3972  225.3667    5.5227    2.0322 
 972.20    3.1447    4.0734    3.1148    3.0703    2.6546    0.5695    3.4297    3.6862  593.7683  766.7333    1.8099    1.9300  225.0192    5.3868    2.3392 
 972.30    3.2464    4.1733    3.1070    3.0844    2.9810    0.5694    3.4881    3.5813  593.8904  767.7000    3.2250    3.1145  225.2926    5.2115    2.4415 
 972.40    3.3447    4.2250    3.0912    3.0891    3.1429    0.5694    3.5374    3.4798  593.9514  768.6669    3.1137    3.3638  225.8214    4.9748    2.5439 
 972.50    3.4112    4.2699    3.0669    3.0878    3.1301    0.5694    3.5741    3.4039  593.9209  769.5500    3.1816    2.9203  226.0004    4.7535    2.5877 
 972.60    3.4618    4.3408    3.0315    3.0804    3.1718    0.5693    3.6122    3.3542  593.8599  770.3002    2.5976    2.9538  226.1669    4.6461    2.4269 
 972.70    3.5137    4.4339    2.9908    3.0650    3.1563    0.5692    3.6497    3.3253  593.6462  771.0834    1.5523    2.7830  226.3858    4.5694    2.5585 
 972.80    3.5019    4.5101    2.9515    3.0442    3.0990    0.5692    3.6805    3.3132  593.4021  771.6833    2.1475    2.3134  226.4982    4.4729    2.6023 
 972.90    3.4161    4.5128    2.9134    3.0166    2.7302    0.5691    3.7048    3.3032  593.1580  772.0168    1.7542    2.0649  227.1119    4.4072    2.4415 
 973.00    3.3101    4.4496    2.8760    2.9710    2.6243    0.5691    3.7140    3.2864  592.9749  772.5333    0.6752    1.9195  228.1192    4.4948    2.2953 
 973.10    3.1868    4.3556    2.8517    2.9139    2.7202    0.5691    3.6963    3.2649  592.7612  773.4337    0.9298    2.2670  229.4965    4.6154    2.2515 
 973.20    3.0408    4.2270    2.8504    2.8655    2.6955    0.5692    3.6661    3.2528  592.7612  774.8333    2.4834    2.7720  230.8988    4.7600    2.1199 
 973.30    2.9280    4.0760    2.8708    2.8300    2.3366    0.5692    3.6398    3.2561  592.7002  776.7000    2.5296    2.4103  231.9922    4.8630    2.0760 
 973.40    2.8587    3.9651    2.9187    2.8098    2.2136    0.5692    3.6181    3.2803  592.6697  780.0180    0.9809    1.8153  232.6764    4.8740    1.9883 
 973.50    2.8103    3.8855    2.9908    2.8185    2.2919    0.5691    3.6063    3.3448  592.7002  783.2666    0.6581    1.7840  233.0568    5.0033    1.7690 
 973.60    2.7839    3.7677    3.0742    2.8595    2.3758    0.5691    3.6142    3.4497  592.7612  784.9337    0.7074    1.9375  232.7190    5.1698    1.7251 
 973.70    2.7265    3.6249    3.1568    2.9246    2.4137    0.5690    3.6516    3.5840  592.7917  786.0167    1.0529    1.9004  231.6365    5.2027    1.7544 
 973.80    2.6849    3.5481    3.2264    3.0133    2.1811    0.5690    3.7226    3.7392  592.7917  786.5000    0.9712    1.6521  230.2128    5.1874    1.8421 
 973.90    2.8102    3.5855    3.2717    3.1355    2.1234    0.5690    3.8211    3.8884  592.7612  786.4332    0.5720    1.5993  228.3291    5.1085    2.0322 
 974.00    2.9885    3.8318    3.2946    3.2812    2.0957    0.5690    3.9550    3.9993  592.6697  785.9000    0.6000    1.6578  226.3117    5.0888    2.2661 
 974.10    3.1000    4.0921    3.2992    3.4209    2.1166    0.5690    4.1232    4.0571  592.6086  785.0497    0.6461    1.6954  224.6059    5.0208    2.2515 
 974.20    3.3074    4.2043    3.2775    3.5343    2.5456    0.5690    4.2787    4.0557  592.5171  783.4501    0.8334    2.0029  223.6300    4.8630    2.1930 
 974.30    3.5482    4.2856    3.2356    3.5934    3.0733    0.5690    4.3746    3.9959  592.5171  781.8334    1.7059    3.1097  223.4537    4.7710    2.1637 
 974.40    3.6480    4.2645    3.1837    3.5786    4.0547    0.5689    4.3936    3.8998  592.5171  780.8664    4.0377    4.6500  224.1505    4.6680    2.0468 
 974.50    3.6002    4.0128    3.1253    3.5055    3.9010    0.5688    4.3352    3.7916  592.5475  779.9333    5.7963    5.3687  225.5090    4.7052    1.9006 
 974.60    3.4513    3.7699    3.0551    3.3973    2.8938    0.5687    4.1920    3.6868  592.6392  779.0331    4.5552    4.2568  227.1912    4.9419    1.6813 
 974.70    3.2527    3.6950    2.9836    3.2718    2.6093    0.5687    3.9931    3.5921  592.7002  778.2500    3.1311    2.8403  228.7274    5.1414    1.3304 
 974.80    3.0623    3.6406    2.9252    3.1657    2.3467    0.5686    3.8007    3.5135  592.7307  777.7333    3.1945    2.4211  230.0226    5.3583    1.1111 
 974.90    2.9536    3.6542    2.8753    3.0952    2.2172    0.5686    3.6555    3.4516  592.7917  777.7167    2.1312    2.4153  230.6950    5.4350    1.2427 
 975.00    2.9453    3.7386    2.8327    3.0536    2.1798    0.5687    3.5544    3.3966  592.8528  779.2167    0.7859    2.1456  230.5739    5.4416    1.4474 
