~Version information
VERS.                            2.00: CWLS LAS  -  VERSION 2.00
WRAP.                              NO: One line per depth step
~Well information
#MNEM.UNIT                  DATA TYPE  INFORMATION
#===.================================:==================
STRT.M                          1.000: First depth in file
STOP.M                       1195.450: Last depth in file
STEP.M                          0.100: Depth increment
NULL.                       -9999.00 : Null values
DATE.                       7/10/2004: LOG DATE
TIME.                               9: LOG TIME
WELL.                            7768: Well name
GRP.                             1111: Group name
FLD.                            ”«≈Õ‹: Field name
ISS.                              ¡ «: Well surveys
SRVC.                                : Service Company
~Curve information
#MNEM.UNIT                   API CODE   CURVE DESCRIPTION
#===.================================:==================
DEPT.M                               : Depth curve
GZ1.OMM                        : 
GZ2.OMM                        : 
GZ5.OMM                        : 
GZ4.OMM                        : 
LLS  .Ï/˜‡Ò                           : 
REZ .ŒÃÃ                             : 
GZ3.OMM                        : 
OGZ3.OMM                        : 
SP .Ã‚                              : 
CILD  .Ã—ËÏ                            : 
MIN .ŒÃÃ                             : 
MNO .ŒÃÃ                             : 
CALI.ÏÏ                     : 
GR .                                : 
NEUT.                              : 
#
~Other information
#------------------ REMARKS AREA -----------------------
#=======================================================
# The file is generated by the program EditKar v2003.01
#Number of Curves = 15
~A Log Data Section
# ...
1087.30    3.6534    5.0306    2.4804    2.8937    3.2102    0.5571    3.7968    4.1511  584.3687  693.9270    4.4557    3.9569  224.3797    5.4832    1.7836 
1087.40    3.4879    4.9456    2.4975    2.8709    2.7714    0.5571    3.8145    4.1175  584.1550  687.7821    3.4581    3.1311  224.0459    5.7484    1.9006 
1087.50    3.3315    4.8184    2.5224    2.8420    2.6520    0.5571    3.8040    4.0866  584.1550  686.0499    2.7339    2.8559  223.4494    5.9917    1.8275 
1087.60    3.2187    4.6735    2.5519    2.8246    2.5803    0.5571    3.7915    4.0557  584.3076  684.6674    2.6383    2.8943  222.6932    6.1363    1.6374 
1087.70    3.1543    4.5543    2.5854    2.8340    2.5449    0.5569    3.7968    4.0228  584.4907  683.5494    2.7838    2.7392  221.9792    6.3686    1.7105 
1087.80    3.1772    4.5387    2.6234    2.8696    2.4903    0.5569    3.8401    3.9703  584.5823  682.4492    2.6305    2.6771  221.4181    6.4607    1.8275 
1087.90    3.3179    4.6271    2.6661    2.9206    2.6825    0.5568    3.9327    3.8890  584.7043  681.6831    2.6278    3.0963  221.1378    6.4497    2.0760 
1088.00    3.5048    4.7624    2.7133    2.9790    2.8196    0.5567    4.0634    3.7769  584.7958  681.5667    2.9835    3.5680  221.3066    6.3642    2.0760 
1088.10    3.6938    4.9230    2.7651    3.0341    3.1362    0.5566    4.2012    3.6419  584.8569  681.8164    3.3871    3.7164  221.7774    6.0245    2.0906 
1088.20    3.8517    5.0654    2.8085    3.0751    3.3932    0.5565    4.3202    3.4979  585.0400  682.5005    3.9174    4.8845  222.4299    5.6432    2.1784 
1088.30    3.9416    5.1252    2.8465    3.1059    4.2288    0.5564    4.4114    3.3602  585.1926  683.6842    5.5705    6.4812  223.2790    5.5314    2.2953 
1088.40    3.9477    5.1415    2.8780    3.1355    4.1235    0.5563    4.4698    3.2480  585.2231  686.7362    5.1701    5.4876  224.0533    5.4153    2.2807 
1088.50    3.8951    5.1789    2.9049    3.1623    3.4224    0.5563    4.5046    3.1755  585.2842  690.6167    3.4688    4.1502  224.4713    5.3671    2.3246 
1088.60    3.8099    5.2136    2.9291    3.1892    3.0575    0.5563    4.5328    3.1359  585.3147  694.0144    3.1574    3.7989  224.7949    5.4109    2.2661 
1088.70    3.7012    5.2442    2.9469    3.2248    2.8275    0.5563    4.5624    3.1177  585.1926  698.0193    2.8056    3.2461  224.8874    5.5183    2.1199 
1088.80    3.6126    5.2959    2.9593    3.2745    2.7803    0.5564    4.5907    3.1231  585.0706  702.6030    2.7733    3.1424  224.6169    5.6564    2.0468 
1088.90    3.5476    5.3374    2.9698    3.3383    2.8925    0.5564    4.6255    3.1446  584.9790  707.8534    2.7522    3.3374  224.4041    5.7659    2.1199 
1089.00    3.5435    5.3952    2.9810    3.4101    2.9243    0.5564    4.6727    3.1634  584.7349  717.0667    2.6330    3.1138  224.5626    5.8931    2.2368 
1089.10    3.6086    5.4857    2.9816    3.4732    2.7725    0.5564    4.7193    3.1688  584.3992  726.9791    2.4645    2.7145  224.8916    6.1232    2.2368 
1089.20    3.6834    5.5266    2.9862    3.5142    2.7176    0.5564    4.7594    3.1627  584.0024  734.2712    2.3147    2.7603  225.7568    6.3138    2.2368 
1089.30    3.7020    5.4463    2.9948    3.5269    2.9546    0.5564    4.7857    3.1439  583.6972  742.1550    2.1937    2.9384  226.8887    6.3401    2.2953 
1089.40    3.6632    5.2749    2.9941    3.5148    3.0673    0.5563    4.7745    3.1244  583.4531  750.8223    2.0722    3.0501  227.6484    6.2810    2.4123 
1089.50    3.5752    5.0532    2.9790    3.4954    3.5534    0.5562    4.7285    3.1244  583.3310  766.0667    3.3022    4.1921  228.2561    6.3314    2.5585 
1089.60    3.4603    4.8572    2.9626    3.4846    3.4176    0.5562    4.6760    3.1419  583.2700  782.8925    3.0214    3.7813  228.6318    6.5023    2.6023 
1089.70    3.3737    4.7557    2.9396    3.4840    2.4295    0.5562    4.6326    3.1661  583.3005  795.5913    1.4533    2.0542  228.6311    6.4694    2.4708 
1089.80    3.3309    4.7339    2.9075    3.4927    2.1923    0.5563    4.6117    3.1923  583.2394  809.0751    1.5357    1.8328  228.6797    6.3357    2.3246 
1089.90    3.3205    4.7455    2.8688    3.5082    2.2537    0.5564    4.6169    3.2098  583.1479  823.1921    1.5379    1.9272  229.0404    6.2393    2.1345 
1090.00    3.3254    4.7401    2.8038    3.5222    2.6945    0.5565    4.6274    3.2111  582.9953  837.7666    1.4239    2.4633  229.1741    6.2459    1.9883 
1090.10    3.3364    4.7163    2.7212    3.5223    3.0103    0.5565    4.6294    3.1849  582.8427  860.2482    2.6265    3.2843  229.3596    6.2788    1.8275 
1090.20    3.3670    4.6700    2.6293    3.4967    2.7924    0.5566    4.6097    3.1150  582.7512  882.9092    2.4232    2.8106  229.3904    6.2810    1.7398 
1090.30    3.3696    4.5863    2.5210    3.4423    2.3516    0.5567    4.5551    3.0121  582.6290  897.9759    1.0260    1.8205  229.4824    6.1911    1.4912 
1090.40    3.3260    4.4639    2.3957    3.3563    2.3112    0.5567    4.4606    2.8804  582.5070  913.0425    1.0238    1.8732  229.8158    6.1034    1.5351 
1090.50    3.2644    4.3068    2.2770    3.2161    2.5187    0.5567    4.3017    2.7159  582.4155  928.1167    1.1151    2.1333  230.6525    6.0552    1.7982 
1090.60    3.1446    4.0776    2.1675    3.0382    2.7853    0.5566    4.0766    2.5500  582.2933  943.2574    1.6941    2.5402  231.6428    6.1100    1.7982 
1090.70    2.9575    3.8085    2.0604    2.8627    2.8270    0.5566    3.8294    2.4188  582.1713  965.9017    1.7886    2.2903  232.7655    6.1736    1.8713 
1090.80    2.7832    3.5630    1.9627    2.6861    2.0677    0.5565    3.5792    2.3167  582.2018  988.1255    1.0900    1.6577  233.7814    6.3292    1.8860 
1090.90    2.6357    3.3652    1.8879    2.5169    1.9189    0.5564    3.3356    2.2348  582.2018 1002.1583    0.8648    1.7699  234.4288    6.6294    1.8421 
1091.00    2.4931    3.2100    1.8368    2.3908    1.8662    0.5564    3.1427    2.1804  582.2324 1015.3000    1.1070    1.8685  234.4207    6.8946    1.9591 
1091.10    2.3691    3.0746    1.7987    2.3056    1.8615    0.5564    3.0128    2.1488  582.2933 1027.3929    1.2825    1.8767  233.9567    7.3614    1.8860 
1091.20    2.2708    2.9588    1.7810    2.2430    1.8048    0.5563    2.9181    2.1340  582.3239 1038.2562    1.1207    1.7678  233.2579    7.6572    1.7544 
1091.30    2.2245    2.8847    1.7764    2.2122    1.7725    0.5563    2.8498    2.1381  582.3849 1051.1595    0.8142    1.4993  232.3614    7.9356    1.7105 
1091.40    2.2141    2.8290    1.7843    2.2048    1.7599    0.5563    2.8131    2.1623  582.5375 1061.6533    0.7700    1.4901  231.4231    8.0254    1.6813 
1091.50    2.1933    2.7677    1.8085    2.2055    1.7892    0.5563    2.7967    2.2052  582.7817 1066.2500    0.9065    1.5999  230.7822    8.1065    1.6520 
1091.60    2.1802    2.7018    1.8420    2.2129    1.8001    0.5564    2.7868    2.2643  583.0869 1069.3486    1.0232    1.7906  230.5312    8.0802    1.5789 
1091.70    2.1691    2.6180    1.8912    2.2250    1.7658    0.5564    2.7789    2.3316  583.3920 1071.0173    0.9721    2.0013  230.7586    8.0013    1.4766 
1091.80    2.1276    2.5228    1.9608    2.2411    1.7324    0.5565    2.7743    2.3988  583.6362 1071.2831    0.8734    2.0743  231.1445    7.8369    1.3889 
1091.90    2.0971    2.4405    2.0356    2.2774    1.7421    0.5564    2.7730    2.4788  583.7888 1068.4301    0.9015    2.1605  231.6019    7.7581    1.3743 
1092.00    2.0867    2.3772    2.1090    2.3465    1.7641    0.5564    2.7895    2.5963  583.8498 1063.5332    0.9792    2.1158  231.5883    7.6353    1.4620 
1092.10    2.0791    2.3452    2.1890    2.4491    1.7609    0.5563    2.8472    2.7601  583.8803 1058.5033    0.9162    1.9414  231.0183    7.6616    1.4181 
1092.20    2.1152    2.3772    2.2685    2.5964    1.7673    0.5563    2.9425    2.9438  583.8193 1052.6796    0.8505    1.7960  229.9629    7.7668    1.5205 
1092.30    2.2211    2.4833    2.3426    2.7784    1.7687    0.5563    3.0653    3.1239  583.6667 1046.3793    0.9745    1.6116  228.9102    7.9465    1.5351 
