~Version information
VERS.                            2.00: CWLS LAS  -  VERSION 2.00
WRAP.                              NO: One line per depth step
~Well information
#MNEM.UNIT                  DATA TYPE  INFORMATION
#===.================================:==================
STRT.M                          1.000: First depth in file
STOP.M                       1195.450: Last depth in file
STEP.M                          0.100: Depth increment
NULL.                       -9999.00 : Null values
DATE.                       7/10/2004: LOG DATE
TIME.                               9: LOG TIME
WELL.                            7768: Well name
GRP.                             1111: Group name
FLD.                            ”«≈Õ‹: Field name
ISS.                              ¡ «: Well surveys
SRVC.                                : Service Company
~Curve information
#MNEM.UNIT                   API CODE   CURVE DESCRIPTION
#===.================================:==================
DEPT.M                               : Depth curve
GZ1.OMM                        : 
GZ2.OMM                        : 
GZ5.OMM                        : 
GZ4.OMM                        : 
LLS  .Ï/˜‡Ò                           : 
REZ .ŒÃÃ                             : 
GZ3.OMM                        : 
OGZ3.OMM                        : 
SP .Ã‚                              : 
CILD  .Ã—ËÏ                            : 
MIN .ŒÃÃ                             : 
MNO .ŒÃÃ                             : 
CALI.ÏÏ                     : 
GR .                                : 
NEUT.                              : 
#
~Other information
#------------------ REMARKS AREA -----------------------
#=======================================================
# The file is generated by the program EditKar v2003.01
#Number of Curves = 15
~A Log Data Section
# ...
 913.90    3.6729    5.8124    3.8168    4.1327    2.6110    0.5746    8.7775    6.8549  584.0939  609.5507    1.5747    1.9983  218.2376    8.2709    2.2076 
 914.00    4.1015    6.0205    3.6961    4.3327    3.7381    0.5746    8.9265    6.6769  584.1245  611.4500    2.0529    2.5839  219.0138    7.6726    2.1784 
 914.10    4.4353    6.0633    3.5262    4.3884    5.1022    0.5746    8.8568    6.1303  583.8803  612.6836    4.1775    4.4357  219.8163    7.2474    2.2953 
 914.20    4.5785    5.9388    3.3261    4.2911    8.5745    0.5745    8.5049    5.6220  583.5446  612.8500    8.0366    6.7481  220.4485    7.0896    2.4415 
 914.30    4.5128    5.6756    3.0991    4.1232    8.9885    0.5744    7.9192    5.4231  583.2089  612.1167    9.5516    8.7107  220.9190    7.0042    2.3830 
 914.40    4.3161    5.4176    2.8825    4.0141    5.0168    0.5743    7.2669    5.2302  582.8121  611.2164    5.6736    6.8413  221.0905    7.0502    2.2661 
 914.50    4.0766    5.2932    2.7087    4.0000    3.7648    0.5743    6.6617    5.1281  582.4155  610.5500    1.9872    2.9470  221.2452    7.2189    2.1053 
 914.60    3.8743    5.3273    2.5676    4.0494    3.1084    0.5743    6.1244    5.1536  582.1713  610.5168    1.4239    1.8906  221.6130    7.6967    1.9298 
 914.70    3.7124    5.4933    2.4548    4.1837    3.0527    0.5744    5.6991    5.2457  582.0187  611.3000    1.4995    2.1709  222.0786    8.2205    1.8567 
 914.80    3.5601    5.6878    2.3761    4.3441    2.9840    0.5745    5.3964    5.3660  581.9271  612.7667    1.5233    2.1860  222.5232    8.5733    1.7251 
 914.90    3.4354    5.7851    2.3255    4.4704    2.9599    0.5745    5.1297    5.4950  581.8966  614.5339    1.7790    2.2178  222.9652    8.8122    1.5351 
 915.00    3.3454    5.7524    2.2855    4.5389    2.9993    0.5745    4.8881    5.6199  581.8966  616.4167    2.1425    2.5142  223.2291    9.1387    1.5643 
 915.10    3.2284    5.5781    2.2521    4.5731    3.0699    0.5746    4.6845    5.7544  581.8966  617.2332    2.5005    2.9243  223.2285    9.2790    1.5351 
 915.20    3.0782    5.2625    2.2212    4.6013    3.0497    0.5746    4.5138    5.9270  581.9576  616.5333    2.8637    3.0100  223.0966    9.3601    1.5058 
 915.30    2.9564    4.9333    2.1897    4.6403    2.9213    0.5746    4.3930    6.1084  581.9576  615.2000    2.6450    2.6510  223.0002    9.1869    1.3743 
 915.40    2.9189    4.7550    2.1549    4.6893    2.6650    0.5746    4.3437    6.2435  581.9576  613.3994    2.1234    2.3707  222.9365    9.1497    1.3304 
 915.50    3.0006    4.7523    2.1208    4.7484    2.6308    0.5746    4.3648    6.2932  581.9882  611.2667    1.9013    2.2595  223.0041    9.1321    1.3889 
 915.60    3.1828    4.8436    2.0801    4.7880    2.6718    0.5747    4.4396    6.2320  582.1102  608.8492    1.8187    2.3278  223.1700    8.9634    1.5205 
 915.70    3.3897    4.9510    2.0303    4.7678    3.0095    0.5746    4.5453    6.0439  582.1713  606.0333    2.0096    2.5936  223.4243    8.3783    1.5497 
 915.80    3.5822    5.0074    1.9555    4.6806    3.4557    0.5746    4.6596    5.7678  582.2629  600.6500    2.4241    2.8339  223.5737    7.9684    1.6667 
 915.90    3.7283    4.9972    1.8935    4.5415    5.1967    0.5747    4.7621    5.4875  582.2933  594.5486    3.8306    4.4340  223.6242    7.7011    1.6959 
 916.00    3.7705    4.9408    1.8692    4.3623    5.4816    0.5747    4.8369    5.2679  582.3544  589.9667    4.5269    5.5108  223.4294    7.5564    1.8567 
 916.10    3.7200    4.8700    1.8499    4.1836    4.3280    0.5746    4.8914    5.1274  582.1713  585.3486    4.0218    4.3807  223.1563    7.4315    2.1491 
 916.20    3.6258    4.8414    1.8440    4.0393    3.8101    0.5746    4.9223    5.0690  581.9576  580.9667    3.4408    3.5393  222.8331    7.3899    2.1784 
 916.30    3.4992    4.8680    1.8551    3.9298    3.3234    0.5746    4.9170    5.0844  581.7135  577.0166    2.6031    3.3372  222.5656    7.5696    2.0906 
 916.40    3.3496    4.9115    1.8866    3.8546    3.2354    0.5748    4.8782    5.1382  581.5304  573.6157    2.5051    3.1275  222.4135    8.0451    2.2661 
 916.50    3.2070    4.9557    1.9332    3.8157    3.1590    0.5747    4.8198    5.2033  581.3473  570.8000    2.5661    2.8948  222.3905    8.3235    2.3246 
 916.60    3.1017    4.9939    1.9824    3.8090    3.1314    0.5747    4.7607    5.2780  581.2863  567.6155    2.6810    2.9683  222.3607    8.5667    2.5146 
 916.70    3.0546    5.0408    2.0323    3.8325    3.0650    0.5747    4.7371    5.3680  581.3168  564.9167    2.6792    3.0795  222.2616    8.6610    2.5439 
 916.80    3.0692    5.1204    2.0893    3.8916    3.1004    0.5746    4.7732    5.4721  581.3778  563.4000    2.5175    3.0679  222.0604    8.7004    2.3099 
 916.90    3.1800    5.2415    2.1478    3.9957    3.1515    0.5745    4.8882    5.5689  581.4388  561.9996    2.5913    2.9712  221.7509    8.7026    2.1930 
 917.00    3.3953    5.4197    2.1996    4.1299    3.3763    0.5746    5.0818    5.6179  581.4388  560.8000    2.7537    2.9816  221.4285    8.6237    2.3099 
 917.10    3.6550    5.6512    2.2468    4.2589    3.5095    0.5748    5.3078    5.5998  581.4388  559.8331    2.8470    3.4571  221.1849    8.3476    2.2807 
 917.20    3.9028    5.8559    2.2849    4.3656    3.8744    0.5749    5.5224    5.5118  581.3473  559.0667    3.1655    4.2041  221.0293    8.0057    2.1784 
 917.30    4.1063    5.9851    2.3006    4.4281    4.2695    0.5751    5.7043    5.3525  581.3168  558.5667    4.0359    4.8444  221.0046    7.4753    2.0760 
 917.40    4.2358    6.0607    2.2940    4.4308    5.5500    0.5752    5.8265    5.1583  581.2863  558.6001    4.9724    5.4428  220.9927    7.2277    2.0322 
 917.50    4.2836    6.1130    2.2776    4.4005    5.9867    0.5752    5.8941    4.9850  581.2252  559.4000    4.7953    5.0529  220.9424    7.0305    2.0760 
 917.60    4.2780    6.1593    2.2534    4.3710    5.2670    0.5751    5.9637    4.8418  581.1947  561.0173    3.3971    3.7489  220.7760    6.8749    2.1199 
 917.70    4.2434    6.2314    2.2271    4.3475    4.4308    0.5751    6.0477    4.7270  581.1031  563.5167    2.8676    3.1577  220.6384    6.8245    2.0760 
 917.80    4.2136    6.3757    2.2101    4.3441    3.9311    0.5750    6.1259    4.6436  581.0421  566.9667    3.4016    3.6785  220.5360    6.7938    1.9737 
 917.90    4.1693    6.5288    2.2042    4.3670    4.0096    0.5749    6.1784    4.5831  580.9200  571.2681    3.4886    4.1161  220.4355    6.9340    1.8713 
 918.00    4.0426    6.5791    2.2042    4.4005    4.1776    0.5748    6.1843    4.5429  580.7675  576.1833    3.0611    3.7913  220.3927    7.2869    1.7398 
 918.10    3.8584    6.5253    2.2186    4.4382    4.0548    0.5748    6.1140    4.5301  580.5844  581.5016    2.3653    3.2984  220.4645    7.4841    1.6520 
 918.20    3.6695    6.3838    2.2514    4.4811    3.5880    0.5747    5.9716    4.5509  580.3401  589.6833    2.6416    3.4646  220.4155    7.7515    1.5643 
 918.30    3.4680    6.1457    2.3314    4.5308    3.4898    0.5746    5.8146    4.6168  580.0350  597.7667    2.6466    3.3271  220.2411    8.0276    1.4766 
 918.40    3.3039    5.9102    2.4233    4.5819    3.2254    0.5746    5.6964    4.7135  579.7603  602.9683    1.8914    2.5230  220.1465    8.1394    1.6082 
 918.50    3.2589    5.7912    2.4850    4.6268    2.8052    0.5745    5.6288    4.8103  579.4857  608.0500    1.8967    2.4267  220.1614    8.3081    1.6959 
 918.60    3.3032    5.7415    2.5788    4.6571    2.7661    0.5745    5.6341    4.8909  579.2110  613.0182    1.8719    2.5293  220.2795    8.4440    1.6813 
 918.70    3.3752    5.7143    2.7074    4.6624    2.8525    0.5744    5.6652    4.9433  578.9669  617.8167    1.9085    2.5930  220.7472    8.4615    1.7398 
 918.80    3.4617    5.6967    2.8386    4.6335    3.0100    0.5743    5.6685    4.9615  578.7227  622.3500    2.5233    3.0254  221.3323    8.5251    1.7690 
 918.90    3.5081    5.6061    2.9705    4.5731    3.8048    0.5741    5.6583    4.9729  578.4175  626.4512    4.2963    4.5481  221.8658    8.4900    1.9006 
