~Version information
VERS.                            2.00: CWLS LAS  -  VERSION 2.00
WRAP.                              NO: One line per depth step
~Well information
#MNEM.UNIT                  DATA TYPE  INFORMATION
#===.================================:==================
STRT.M                          1.000: First depth in file
STOP.M                       1195.450: Last depth in file
STEP.M                          0.100: Depth increment
NULL.                       -9999.00 : Null values
DATE.                       7/10/2004: LOG DATE
TIME.                               9: LOG TIME
WELL.                            7768: Well name
GRP.                             1111: Group name
FLD.                            ”«≈Õ‹: Field name
ISS.                              ¡ «: Well surveys
SRVC.                                : Service Company
~Curve information
#MNEM.UNIT                   API CODE   CURVE DESCRIPTION
#===.================================:==================
DEPT.M                               : Depth curve
GZ1.OMM                        : 
GZ2.OMM                        : 
GZ5.OMM                        : 
GZ4.OMM                        : 
LLS  .Ï/˜‡Ò                           : 
REZ .ŒÃÃ                             : 
GZ3.OMM                        : 
OGZ3.OMM                        : 
SP .Ã‚                              : 
CILD  .Ã—ËÏ                            : 
MIN .ŒÃÃ                             : 
MNO .ŒÃÃ                             : 
CALI.ÏÏ                     : 
GR .                                : 
NEUT.                              : 
#
~Other information
#------------------ REMARKS AREA -----------------------
#=======================================================
# The file is generated by the program EditKar v2003.01
#Number of Curves = 15
~A Log Data Section
# ...
 949.60    2.6787    2.7631   11.0277    4.7574    2.4457    0.5708    3.0167    7.7469  584.9180  884.9953    1.9822    2.9747  220.5125    2.4151    2.5731 
 949.70    2.7431    3.0114   11.6297    5.7328    2.1942    0.5707    3.3850    8.8546  585.3147  869.4167    1.9663    2.8901  221.0652    2.4918    2.4854 
 949.80    2.9043    3.3678   11.8423    6.7232    2.1131    0.5707    3.9104    9.8309  585.7419  853.7167    1.6868    2.5097  221.6154    2.5268    2.4123 
 949.90    3.2070    3.8959   11.8009    7.6252    2.3065    0.5708    4.4982   10.4438  586.1387  838.0285    1.5860    2.4616  222.2248    2.6167    2.3684 
 950.00    3.5518    4.4693   11.3797    8.1192    2.9884    0.5708    5.0404   10.5727  586.5660  822.4667    1.5449    2.7388  223.0451    2.6167    2.3246 
 950.10    3.8454    4.8627   10.5462    8.0392    3.2052    0.5708    5.4661   10.1666  587.0848  807.0786    1.5828    3.0088  224.2314    2.5794    2.2076 
 950.20    4.0357    5.0313    9.4639    7.5397    3.5922    0.5708    5.6577    9.2631  587.5120  791.8833    1.7176    3.3065  225.1595    2.5794    2.2368 
 950.30    4.0662    4.9578    8.2442    6.6654    3.9739    0.5709    5.2223    8.0751  587.8172  769.4333    2.4072    4.1493  225.9627    2.7745    2.3977 
 950.40    3.9630    4.6086    6.9323    5.5531    3.8739    0.5708    4.4453    6.9016  588.1224  747.3123    2.7129    4.5938  226.6838    2.9652    2.4269 
 950.50    3.7470    4.1488    5.7596    4.5033    3.3540    0.5708    3.8059    5.9861  588.3970  733.2500    3.1427    4.3235  227.2173    3.1339    2.3977 
 950.60    3.4520    3.7513    4.8894    3.6597    2.6683    0.5709    3.2056    5.3597  588.6412  720.1129    3.3929    3.5416  227.4489    3.3355    2.2953 
 950.70    3.1225    3.4691    4.2505    3.0119    2.5567    0.5710    2.7435    5.0166  588.9159  708.2667    2.9481    2.8976  227.7713    3.6314    2.2661 
 950.80    2.9325    3.3882    3.8136    2.6016    2.5038    0.5711    2.4677    4.9487  589.1906  697.8833    2.9903    2.8895  228.0078    3.7651    2.4708 
 950.90    2.9096    3.5237    3.5813    2.3827    2.5191    0.5713    2.3114    5.0489  589.4042  688.9141    2.8165    2.8380  228.1228    3.9053    2.5585 
 951.00    2.9369    3.7590    3.4947    2.2451    2.5507    0.5714    2.2385    5.2275  589.4957  681.1333    2.3041    2.7280  228.1408    4.0434    2.5292 
 951.10    3.0187    4.0320    3.4514    2.1665    2.6836    0.5714    2.2451    5.4554  589.5873  670.9960    2.1550    2.6585  228.0850    4.0193    2.4854 
 951.20    3.1197    4.3122    3.4140    2.1437    3.3243    0.5714    2.3153    5.7469  589.6178  661.3833    2.5544    3.1606  227.9860    3.9952    2.4854 
 951.30    3.2478    4.7489    3.3694    2.1779    3.9510    0.5713    2.4414    6.0647  589.5873  655.2500    4.3273    4.2935  227.8273    3.8549    2.5146 
 951.40    3.3794    5.1735    3.3149    2.2471    3.8099    0.5713    2.6365    6.3302  589.6178  649.3816    4.4992    4.3853  227.6376    3.7694    2.5439 
 951.50    3.5608    5.4129    3.2415    2.3250    3.4357    0.5713    2.9149    6.5176  589.8009  643.9833    3.0255    3.5586  227.4720    3.7585    2.5585 
 951.60    3.9147    5.8099    3.1305    2.3807    3.5164    0.5713    3.2394    6.5788  590.0146  639.2653    2.8119    3.2468  227.4108    3.7388    2.6754 
 951.70    4.4123    6.4058    2.9889    2.3814    4.0897    0.5714    3.5879    6.4578  590.2587  635.4667    2.1713    3.2104  227.2546    3.5744    2.8363 
 951.80    4.9218    6.9832    2.8275    2.3216    6.3353    0.5714    3.9616    6.1978  590.5334  632.7500    3.7006    5.2105  227.2280    3.4604    2.8801 
 951.90    5.2854    7.3445    2.6417    2.2121    9.1794    0.5713    4.3031    5.8799  590.7165  631.0163    8.0930    7.4748  227.2937    3.4035    2.8947 
 952.00    5.4668    7.4431    2.4286    2.0530    8.7910    0.5713    4.5690    5.5541  590.8080  630.6667    8.2507    7.8500  227.3683    3.4626    2.7924 
 952.10    5.4079    7.3089    2.2185    1.8777    5.7002    0.5713    4.7930    5.2806  590.8386  631.5170    6.2074    6.1742  227.3774    3.6182    2.7047 
 952.20    5.0902    6.9872    2.0408    1.7254    4.4234    0.5712    4.9623    5.1200  590.7775  632.8000    4.4421    4.1462  227.3948    3.8242    2.4854 
 952.30    4.4659    6.6111    1.8906    1.5985    3.1407    0.5711    5.0418    5.0616  590.7775  634.4500    2.2953    3.8422  227.3772    4.1749    2.2661 
 952.40    3.9492    6.2694    1.7698    1.4943    3.0147    0.5710    5.0496    5.0569  590.7469  636.5173    2.1259    3.2602  227.3447    4.5365    1.9591 
 952.50    3.7747    6.0348    1.6865    1.4232    3.0077    0.5710    5.0063    5.0858  590.7165  639.0166    2.2830    3.0156  227.2969    4.8302    1.7544 
 952.60    3.5960    5.9457    1.6373    1.3822    2.9501    0.5709    4.9216    5.1510  590.6555  641.8509    2.3494    3.0772  227.1915    4.9858    1.6374 
 952.70    3.4299    5.8871    1.6012    1.3514    2.7798    0.5708    4.8152    5.2235  590.6555  646.0667    2.3689    2.7413  227.1699    5.1983    1.7398 
 952.80    3.3330    5.7667    1.5658    1.3258    2.7908    0.5709    4.7042    5.2961  590.5029  649.6166    2.2129    2.5421  227.1479    5.2356    1.7836 
 952.90    3.3094    5.5101    1.5297    1.3090    3.1016    0.5709    4.6044    5.4050  590.3503  650.6334    2.5952    3.1212  227.0904    5.2159    1.7690 
 953.00    3.2887    5.2531    1.4975    1.3043    3.1799    0.5709    4.5329    5.5554  590.1061  650.3333    2.7997    3.4480  226.9976    5.0909    1.6667 
 953.10    3.2492    5.1047    1.4660    1.3077    2.8740    0.5709    4.4823    5.7275  589.8925  648.6493    2.5185    2.9579  226.9769    5.1151    1.5789 
 953.20    3.2056    4.9067    1.4385    1.3245    2.8458    0.5709    4.4396    5.9297  589.6483  645.6500    2.5937    2.8171  227.0197    5.1655    1.6520 
 953.30    3.1682    4.7122    1.4241    1.3601    2.9903    0.5708    4.4133    6.1575  589.5262  641.5000    2.6884    3.0313  227.1070    5.2027    1.7105 
 953.40    3.1343    4.5774    1.4260    1.4098    2.9559    0.5708    4.4179    6.3860  589.4652  633.4298    2.3288    2.8444  227.2114    5.2181    1.6813 
 953.50    3.1073    4.4462    1.4398    1.4662    2.6249    0.5708    4.4363    6.6016  589.4957  624.4833    1.8588    2.4662  227.4031    5.2619    1.7251 
 953.60    3.0934    4.3223    1.4687    1.5273    2.6638    0.5708    4.4475    6.7885  589.6483  617.8812    1.9503    2.4911  227.6305    5.2334    1.7544 
 953.70    3.0886    4.2325    1.5120    1.6139    3.2029    0.5707    4.4567    6.9564  589.8619  610.9999    2.6884    3.3030  227.7060    5.2159    1.7690 
 953.80    3.0727    4.1373    1.5605    1.7422    3.1194    0.5708    4.4738    7.1667  590.0450  603.8333    3.0022    3.7451  227.7172    5.1874    1.8421 
 953.90    3.0173    4.0012    1.6098    1.9195    2.8439    0.5708    4.4935    7.4329  590.1672  596.3143    2.5661    3.0030  227.5979    5.1216    1.8275 
 954.00    2.9480    3.8699    1.6635    2.1679    2.7966    0.5708    4.5322    7.7661  590.2281  588.4000    2.3735    2.6144  227.3872    5.1830    1.7836 
 954.10    2.9016    3.8250    1.7154    2.5756    2.8852    0.5708    4.6248    8.1848  590.1366  580.1141    2.4504    3.0071  227.1151    5.2115    1.7836 
 954.20    2.8996    3.8495    1.7561    3.1267    3.0915    0.5708    4.7935    8.6053  589.9840  566.9333    2.8622    3.6290  226.8332    5.1260    1.6813 
 954.30    2.9549    3.9876    1.7928    3.7244    3.1309    0.5707    5.0234    8.8915  589.9230  553.3500    2.7408    3.4643  226.5538    5.0931    1.6667 
 954.40    3.0865    4.3014    1.8236    4.3376    3.2473    0.5707    5.2960    8.9567  589.9535  544.0972    2.2142    2.9689  226.6154    5.0142    2.0175 
 954.50    3.3780    4.7244    1.8387    4.9156    3.5338    0.5707    5.5842    8.8075  589.8314  534.7833    1.5778    2.7327  226.8170    4.8104    2.2222 
 954.60    3.8358    5.2929    1.8367    5.3286    4.9519    0.5706    5.8456    8.4587  589.5568  525.4138    3.4993    3.3482  227.1817    4.5277    2.5877 
