~Version information
VERS.                            2.00: CWLS LAS  -  VERSION 2.00
WRAP.                              NO: One line per depth step
~Well information
#MNEM.UNIT                  DATA TYPE  INFORMATION
#===.================================:==================
STRT.M                          1.000: First depth in file
STOP.M                       1195.450: Last depth in file
STEP.M                          0.100: Depth increment
NULL.                       -9999.00 : Null values
DATE.                       7/10/2004: LOG DATE
TIME.                               9: LOG TIME
WELL.                            7768: Well name
GRP.                             1111: Group name
FLD.                            ”«≈Õ‹: Field name
ISS.                              ¡ «: Well surveys
SRVC.                                : Service Company
~Curve information
#MNEM.UNIT                   API CODE   CURVE DESCRIPTION
#===.================================:==================
DEPT.M                               : Depth curve
GZ1.OMM                        : 
GZ2.OMM                        : 
GZ5.OMM                        : 
GZ4.OMM                        : 
LLS  .Ï/˜‡Ò                           : 
REZ .ŒÃÃ                             : 
GZ3.OMM                        : 
OGZ3.OMM                        : 
SP .Ã‚                              : 
CILD  .Ã—ËÏ                            : 
MIN .ŒÃÃ                             : 
MNO .ŒÃÃ                             : 
CALI.ÏÏ                     : 
GR .                                : 
NEUT.                              : 
#
~Other information
#------------------ REMARKS AREA -----------------------
#=======================================================
# The file is generated by the program EditKar v2003.01
#Number of Curves = 15
~A Log Data Section
# ...
1046.50    6.2648    9.2695    5.7832    7.5659    8.2410    0.5618    8.8523    4.0214  583.6667  663.5500    5.7740    7.8229  224.5699    3.2983    4.0936 
1046.60    6.7201    9.6060    5.4390    7.4640   10.2164    0.5617    9.1385    3.6709  583.4225  675.9256    5.7779    8.2143  227.1038    3.0331    4.0643 
1046.70    6.7918    9.4690    5.0415    7.0861   12.3540    0.5614    9.1142    3.3043  583.2394  688.7913    6.0247    8.3076  230.2183    2.8490    3.8743 
1046.80    6.4080    9.0134    4.5796    6.4683    9.8607    0.5612    8.7706    2.9536  583.1479  709.4338    5.1331    7.6671  233.1732    2.8139    3.5088 
1046.90    5.6580    8.3057    4.0869    5.7760    7.3898    0.5610    8.1282    2.6828  583.0258  731.1426    4.2736    6.4198  235.4659    3.0725    2.9825 
1047.00    4.8100    7.4892    3.6627    5.0680    3.4290    0.5609    7.3492    2.5042  582.9953  746.8500    3.2895    3.8906  237.1096    3.7037    2.3246 
1047.10    4.0561    6.7829    3.3237    4.3929    2.4846    0.5609    6.5657    2.3881  583.1174  763.4729    1.6573    1.9139  237.9734    4.2297    1.8275 
1047.20    3.4237    6.2543    3.0438    3.8900    1.9405    0.5609    5.8063    2.3262  583.3310  781.0443    1.3421    1.8605  237.8593    4.7272    1.5936 
1047.30    2.9824    5.8007    2.8602    3.5832    1.8219    0.5609    5.1761    2.3148  583.6057  808.8896    1.7523    1.6053  237.0604    5.5402    1.4035 
1047.40    2.7229    5.3452    2.7559    3.3556    1.7902    0.5610    4.7421    2.3228  583.8803  837.1616    1.4180    1.7063  235.9402    6.2240    1.2135 
1047.50    2.5679    4.9315    2.6739    3.1926    1.8237    0.5611    4.4087    2.3356  584.0329  855.7833    1.4688    1.9126  234.3736    6.8573    1.1696 
1047.60    2.5042    4.5233    2.6090    3.0604    1.8541    0.5610    4.1331    2.3510  584.1245  873.7060    2.1389    2.0772  232.3560    7.0085    1.2719 
1047.70    2.5015    4.1173    2.5643    2.9716    1.9197    0.5610    3.9346    2.3645  584.1245  890.7601    2.1760    2.0794  230.6612    7.2233    1.4181 
1047.80    2.5264    3.8059    2.5355    2.9434    1.9003    0.5609    3.8019    2.3732  584.0024  906.9263    1.9804    2.1636  229.6692    7.2255    1.4912 
1047.90    2.5666    3.5917    2.5099    2.9273    2.0140    0.5607    3.7133    2.3759  583.9108  930.2521    2.2629    2.3950  229.6277    7.1050    1.5643 
1048.00    2.6296    3.4427    2.4869    2.9293    2.1284    0.5606    3.6753    2.3712  583.8498  953.5499    2.5607    2.4304  230.7892    6.9275    1.5351 
1048.10    2.7272    3.3957    2.4647    2.9347    2.1625    0.5606    3.6949    2.3504  583.7888  969.5567    2.6325    2.5485  233.4799    6.6820    1.5351 
1048.20    2.8402    3.4195    2.4312    2.9293    2.3185    0.5606    3.7554    2.3094  583.8498  986.0435    2.7428    2.7150  236.9609    6.3927    1.6813 
1048.30    2.9266    3.4324    2.3826    2.9078    2.3827    0.5605    3.8401    2.2583  583.9108 1002.7770    2.9626    2.9050  240.9213    6.1801    1.7690 
1048.40    2.9653    3.4195    2.3288    2.8642    2.6139    0.5605    3.9229    2.2039  583.9719 1019.5770    3.0649    3.2045  244.7417    5.8317    1.6374 
1048.50    2.9508    3.3882    2.2724    2.8011    2.6761    0.5603    3.9754    2.1454  584.1245 1044.3501    3.0713    3.3058  247.6849    5.6454    1.6228 
1048.60    2.8635    3.3324    2.2134    2.7360    2.6581    0.5603    3.9852    2.0937  584.2161 1068.7069    3.1030    3.3570  249.5059    5.7681    1.5789 
1048.70    2.7298    3.2684    2.1615    2.6775    2.3123    0.5603    3.9471    2.0567  584.2161 1084.5763    2.5558    2.8007  250.5271    5.8624    1.4620 
1048.80    2.6101    3.2256    2.1182    2.6137    2.0290    0.5601    3.8512    2.0258  584.1245 1100.1929    1.6344    1.7590  250.9958    5.9939    1.4474 
1048.90    2.5090    3.1930    2.0775    2.5465    1.8117    0.5602    3.7159    1.9942  583.9719 1115.6427    1.3765    1.6682  251.1913    6.1626    1.4766 
1049.00    2.3927    3.1317    2.0421    2.4841    1.8580    0.5604    3.5610    1.9633  583.7582 1130.9166    1.5104    1.7705  251.7371    6.6119    1.3012 
1049.10    2.2729    3.0318    2.0152    2.4144    1.8790    0.5604    3.3930    1.9331  583.5751 1153.0989    1.3078    1.6381  251.7982    6.9450    1.3743 
1049.20    2.1773    2.9003    1.9962    2.3370    1.7833    0.5604    3.2280    1.9049  583.3920 1174.5918    1.6118    1.7921  251.1509    7.2737    1.3304 
1049.30    2.0957    2.7534    1.9844    2.2726    1.8037    0.5604    3.0816    1.8861  583.3615 1187.8412    2.1556    2.0881  249.3279    7.3855    1.2427 
1049.40    2.0175    2.6072    1.9804    2.2276    1.7605    0.5604    2.9595    1.8841  583.3310 1200.1239    2.0805    1.9443  246.5261    7.3921    1.4035 
1049.50    1.9496    2.4759    1.9804    2.1934    1.6335    0.5603    2.8650    1.8982  583.2700 1211.3167    1.4400    1.4526  242.8427    7.5520    1.4181 
1049.60    1.9046    2.3752    1.9798    2.1733    1.4520    0.5602    2.8039    1.9217  583.2700 1221.4274    0.9998    1.2449  239.5420    7.7668    1.3450 
1049.70    1.8630    2.2982    1.9804    2.1672    1.4616    0.5602    2.7645    1.9499  583.2394 1234.3264    0.9967    1.3682  236.7882    7.9290    1.4327 
1049.80    1.8174    2.2289    1.9863    2.1753    1.4484    0.5603    2.7376    1.9768  583.1174 1245.6539    1.1323    1.3561  234.8941    8.0101    1.3596 
1049.90    1.7939    2.1724    1.9955    2.1968    1.4591    0.5604    2.7192    1.9970  582.9953 1251.5698    1.1593    1.1736  233.7122    8.1613    1.5205 
1050.00    1.8077    2.1384    2.0067    2.2256    1.4653    0.5604    2.7028    2.0097  582.8121 1256.2334    1.1386    1.3355  233.2164    8.2161    1.5497 
1050.10    1.8500    2.1105    2.0178    2.2612    1.5658    0.5605    2.6890    2.0158  582.5375 1259.5651    1.3407    1.5246  233.1951    8.2270    1.4035 
1050.20    1.8929    2.0792    2.0237    2.3089    1.5918    0.5605    2.6772    2.0151  582.3849 1261.6510    1.3471    1.4514  233.5125    8.2380    1.3743 
1050.30    1.9220    2.0445    2.0270    2.3646    1.5904    0.5605    2.6680    2.0117  582.2933 1262.8506    1.3084    1.4385  233.9956    8.0583    1.3889 
1050.40    1.9441    2.0159    2.0316    2.4237    1.6330    0.5604    2.6588    2.0084  582.2629 1263.4169    1.4622    1.5432  234.6618    7.9005    1.4181 
1050.50    1.9684    2.0016    2.0362    2.4962    1.6795    0.5603    2.6456    2.0064  582.3544 1263.8000    1.5864    1.7257  235.1620    7.7712    1.5497 
1050.60    1.9912    2.0043    2.0447    2.5794    1.7042    0.5604    2.6266    2.0070  582.3849 1264.5327    1.6542    1.8390  235.2005    7.6770    1.4766 
1050.70    2.0182    2.0227    2.0546    2.6588    1.6849    0.5604    2.6049    2.0137  582.3544 1265.6342    1.6098    1.7851  234.8334    7.7405    1.4620 
1050.80    2.0383    2.0458    2.0579    2.7266    1.6630    0.5604    2.5852    2.0252  582.2933 1267.0177    1.2738    1.7208  233.9456    7.8369    1.3889 
1050.90    2.0369    2.0608    2.0552    2.7810    1.7086    0.5604    2.5675    2.0379  582.2629 1269.3687    1.0074    1.6496  232.5006    7.9093    1.2573 
1051.00    2.0293    2.0853    2.0487    2.8165    1.7587    0.5605    2.5531    2.0507  582.2018 1271.8167    1.1219    1.7808  231.2795    8.0079    1.2719 
1051.10    2.0508    2.1377    2.0395    2.8360    1.7786    0.5606    2.5452    2.0594  582.2324 1273.6488    1.3634    1.9091  230.3133    8.0955    1.3596 
1051.20    2.0972    2.2051    2.0336    2.8441    1.7047    0.5606    2.5412    2.0567  582.2324 1275.8181    1.2690    1.7791  229.5839    8.3388    1.2719 
1051.30    2.1512    2.2717    2.0329    2.8400    1.6298    0.5605    2.5334    2.0420  582.2018 1278.4851    1.2358    1.9035  229.7128    8.3542    1.2427 
1051.40    2.2183    2.3309    2.0264    2.8232    1.6904    0.5604    2.5196    2.0198  582.0492 1284.1218    1.6189    2.2401  230.8421    8.2314    1.3450 
1051.50    2.2792    2.3649    2.0106    2.7910    1.9345    0.5603    2.4972    1.9916  581.9271 1290.9001    2.0332    2.5829  232.0981    8.1481    1.6520 
