~Version
 VERS              .         2.0                           : CWLS LOG ASCII STANDARD - VERSION 2.0
 WRAP              .         NO                            : ONE LINE PER DEPTH STEP
 DLM               .         SPACE                         : DELIMITING CHARACTER(SPACE TAB OR COMMA)
~Well Information
#_______________________________________________________________________________
#
#PARAMETER_NAME    .UNIT     VALUE                         : DESCRIPTION
#_______________________________________________________________________________
STRT               .M        960                           : First reference value
STOP               .M        1261                          : Last reference value
STEP               .M        0.2                           : Step increment
NULL               .         -9999                         : Missing value
COMP               .                                       : Company
WELL               .         1201                          : Well name
FLD                .         УЗЕНЬ                         : Field
LOC                .                                       : Location
CNTY               .                                       : County
STAT               .                                       : State
CTRY               .                                       : Country
SRVC               .                                       : Service Company
DATE               .                                       : Date
UWI                .                                       : Unique Well ID
Block              .         3а                            : 
Category           .         Нефтяная                      : 
Condition          .         В работе                      : 
Date               .         30.10.1967                    : 
EREF               .m        234.3                         : 100.8
Gorizont           .         15                            : 14
Interpretator      .         Ткачева И.Г.                  : 
Kupol              .         Основной                      : osnovnoi
Mud                .         0                             : 
Mud_density        .         0                             : 
Mud_resistivity    .         0                             : 
NGDU               .         НГДУ-1                        : 
ORIGINALWELLNAME   .         1201                          : 
Spud_date          .         1967                          : 1961
Uslovie            .         15                            : 
Viscosity          .         0                             : 
X                  .m        55429.8                       : 46154
Y                  .m        80454.8                       : 85761.93
YEAR               .         2018                          : 
~Parameter Information Block
#_______________________________________________________________________________
#
#PARAMETER_NAME    .UNIT     VALUE                         : DESCRIPTION
#_______________________________________________________________________________
SET                .         LQC_KAZNIPI_Petrel            : 
TLFamily_CALI      .         Caliper                       : 
TLFamily_COLL      .         Net Reservoir Flag            : 
TLFamily_CSAT      .         Fluid Code                    : 
TLFamily_DEPT      .         Measured Depth                : 
TLFamily_GR        .         Russian Gamma Ray             : 
TLFamily_GZ1       .         Gradient 045                  : 
TLFamily_GZ2       .         Gradient 105                  : 
TLFamily_GZ3       .         Gradient 225                  : 
TLFamily_GZ4       .         Gradient 425                  : 
TLFamily_GZ5       .         Gradient 850                  : 
TLFamily_LLS       .         Lateral Log Resistivity       : 
TLFamily_MINV      .         Micro Gradient Resistivity    : 
TLFamily_MNOR      .         Micro Resistivity             : 
TLFamily_NGLD      .         Neutron Gamma                 : 
TLFamily_OGZ       .         Gradient Inverted 225         : 
TLFamily_PHIE      .         Effective Porosity            : 
TLFamily_PHIEN     .         Effective Porosity            : 
TLFamily_PHIT      .         Porosity                      : 
TLFamily_PRMB      .         Permeability                  : 
TLFamily_PRMB_DGR  .         Permeability                  : 
TLFamily_RT        .         Formation Resistivity         : 
TLFamily_SOIL_ARCHIE .         Oil Saturation                : 
TLFamily_SOIL_DW   .         Oil Saturation                : 
TLFamily_SP        .         Spontaneous Potential         : 
TLFamily_VSH_FIN   .         Shale Volume                  : 
TLFamily_VSH_GR    .         Shale Volume                  : 
TLFamily_VSH_SP    .         Shale Volume                  : 
~Curve Information
#_______________________________________________________________________________
#
#LOGNAME           .UNIT     LOG_ID                        : DESCRIPTION
#_______________________________________________________________________________
DEPT               .M                                      : Колонка глубины 
CALI               .м                                      : Каверномер 
COLL               .unitless                               : Описание 
CSAT               .unitless                               : Описание 
GR                 .uR/h                                   : Гамма каротаж 
GZ1                .Ohmm                                   : Градиент-зонд  длиной 0.45м 
GZ2                .Ohmm                                   : Градиент-зонд  длиной 1.05м 
GZ3                .Ohmm                                   : Градиент-зонд  длиной 2.25м 
GZ4                .Ohmm                                   : Градиент-зонд  длиной 4.5м 
GZ5                .Ohmm                                   : Градиент-зонд  длиной 8.5м 
LLS                .Ohmm                                   : Боковой каротаж 
MINV               .Ohmm                                   : Микро-градиент зонд 
MNOR               .Ohmm                                   : Микро-потенциал зонд 
NGLD               .у.е.                                   : Показания зонда НГК-60 аппаратуры ДРСТ-3-90 
OGZ                .Ohmm                                   : Обращенный градиент-зонд 
PHIE               .v/v                                    : Описание 
PHIEN              .v/v                                    :  
PHIT               .v/v                                    : Описание 
PRMB               .mD                                     :  
PRMB_DGR           .mD                                     :  
RT                 .ohmm                                   : УЭС пласта 
SOIL_ARCHIE        .v/v                                    :  
SOIL_DW            .v/v                                    :  
SP                 .мВ                                     : Потенциал самополяризации 
VSH_FIN            .v/v                                    : Описание 
VSH_GR             .v/v                                    : Shale volume 
VSH_SP             .v/v                                    : Shale Volume 
~Ascii
# ...
997.8      -9999      6          6          3.331      -9999      -9999      3.558      -9999      -9999      -9999      -9999      -9999      1.466      12.112     0.06365437 0.06365437 0.08700002 0.04228549 227.4847   5.501      0          0          -9999      0.07074438 0.07074438 -9999     
998        -9999      6          6          3.065      -9999      -9999      4.435      -9999      -9999      -9999      -9999      -9999      1.529      11.224     0.03479872 0.03479872 0.05549998 0.01235136 305.3595   6.357      0          0          -9999      0.06273108 0.06273108 -9999     
998.2000000000001 -9999      6          6          3.339      -9999      -9999      5.468999   -9999      -9999      -9999      -9999      -9999      1.579      11.022     0.01       0.007069797 0.0305     0.004289259 225.4794   7.31       0          0          -9999      0.07100062 0.07100062 -9999     
998.4      -9999      6          6          3.594      -9999      -9999      6.565001   -9999      -9999      -9999      -9999      -9999      1.623      10.971     0.01       0          0.01       0.004289259 170.0337   8.215      0          0          -9999      0.07967321 0.07967321 -9999     
998.6      -9999      6          6          3.313      -9999      -9999      7.741001   -9999      -9999      -9999      -9999      -9999      1.632      10.719     0.01       0          0.01       0.004289259 232.0622   8.989      0          0          -9999      0.07017121 0.07017121 -9999     
998.8      -9999      6          6          3.613      -9999      -9999      8.916      -9999      -9999      -9999      -9999      -9999      1.631      9.738      0.01       0          0.01       0.004289259 166.4954   9.309      0          0          -9999      0.08036029 0.08036029 -9999     
999        -9999      6          6          3.71       -9999      -9999      10.091     -9999      -9999      -9999      -9999      -9999      1.631      8.756      0.01       0          0.01       0.004289259 149.5468   9.377      0          0          -9999      0.0839615  0.0839615  -9999     
999.2000000000001 -9999      6          6          3.992      -9999      -9999      15.999     -9999      -9999      -9999      -9999      -9999      1.631      7.761      0.01       0          0.01       0.004289259 109.4528   10.452     0          0          -9999      0.09537395 0.09537395 -9999     
999.4      -9999      6          6          4.266      -9999      -9999      15.967     -9999      -9999      -9999      -9999      -9999      1.371      6.118      0.09887759 0.09887759 0.1345     0.1899375  80.82068   8.846      0.396798   0.4746371  -9999      0.1079466  0.1079466  -9999     
999.6      -9999      6          6          4.349      -9999      -9999      12.051     -9999      -9999      -9999      -9999      -9999      1.281      4.475      0.142516   0.142516   0.1795     1.221518   73.72699   6.527      0.4940079  0.5562157  -9999      0.1120727  0.1120727  -9999     
999.8      -9999      1          3          3.773      -9999      -9999      10.989     -9999      -9999      -9999      -9999      -9999      1.162      3.356      0.2104925  0.2104925  0.239      22.18145   139.4744   5.142      0.5970652  0.6406282  -9999      0.08638643 0.08638643 -9999     
1000       -9999      1          3          4.139      -9999      -9999      8.795      -9999      -9999      -9999      -9999      -9999      0.972      2.514      0.3003646  0.3003646  0.334      1024.802   93.01821   3.91       0.663821   0.7077217  -9999      0.1019253  0.1019253  -9999     
1000.2     -9999      1          3          4.488      -9999      -9999      7.443      -9999      -9999      -9999      -9999      -9999      0.976      2.183      0.2926182  0.2926182  0.332      736.472    63.21395   3.376      0.6315482  0.680824   -9999      0.1193389  0.1193389  -9999     
1000.4     -9999      1          3          4.702      -9999      -9999      6.768      -9999      -9999      -9999      -9999      -9999      0.957      1.853      0.298119   0.298119   0.3415     931.2064   49.88255   2.909      0.6112432  0.6643519  -9999      0.1314574  0.1314574  -9999     
1000.6     -9999      1          3          4.82       -9999      -9999      6.094      -9999      -9999      -9999      -9999      -9999      0.962      1.651      0.2932428  0.2932428  0.339      756.3553   43.7753    2.598      0.5841287  0.6408135  -9999      0.1386582  0.1386582  -9999     
1000.8     -9999      1          3          5.038      -9999      -9999      5.420001   -9999      -9999      -9999      -9999      -9999      0.967      1.615      0.2860051  0.2860051  0.3365     555.4777   34.39081   2.489      0.5663425  0.6275301  -9999      0.1530148  0.1530148  -9999     
1001       -9999      1          3          5.1        -9999      -9999      4.938      -9999      -9999      -9999      -9999      -9999      0.949      1.575      0.2935702  0.2935702  0.3455     766.9919   32.11003   2.388      0.5677707  0.6295953  -9999      0.157363   0.157363   -9999     
1001.2     -9999      1          3          5.235      -9999      -9999      4.652999   -9999      -9999      -9999      -9999      -9999      0.948      1.695      0.2908032  0.2908032  0.346      681.6152   27.65347   2.485      0.5722582  0.6357374  -9999      0.1672629  0.1672629  -9999     
1001.4     -9999      1          3          5.256      -9999      -9999      4.367      -9999      -9999      -9999      -9999      -9999      0.943      1.826      0.2927769  0.2927769  0.3485     741.4745   27.01814   2.575      0.5818109  0.6446611  -9999      0.1688579  0.1688579  -9999     
1001.6     -9999      1          3          5.716      -9999      -9999      4.082      -9999      -9999      -9999      -9999      -9999      0.922      1.906      0.2904004  0.2904004  0.359      670.0037   16.23849   2.599      0.5806614  0.6511135  -9999      0.2078778  0.2078778  -9999     
1001.8     -9999      1          3          6.437      -9999      -9999      3.796      -9999      -9999      -9999      -9999      -9999      0.939      1.936      0.2554753  0.2554753  0.3505     151.071    7.311053   2.564      0.5281598  0.624207   -9999      0.2879535  0.2879535  -9999     
1002       -9999      1          3          6.724      -9999      -9999      3.511      -9999      -9999      -9999      -9999      -9999      0.964      1.945      0.229815   0.229815   0.338      50.56951   5.32141    2.503      0.4767125  0.5941277  -9999      0.3278335  0.3278335  -9999     
1002.2     -9999      -9999      -9999      7.022      -9999      -9999      3.262      -9999      -9999      -9999      -9999      -9999      0.965      2.006      0.2137181  0.2137181  0.3375     25.45283   3.82636    2.484      0.440551   0.5799968  -9999      0.3750967  0.3750967  -9999     
1002.4     -9999      -9999      -9999      7.799      -9999      -9999      3.207      -9999      -9999      -9999      -9999      -9999      0.968      2.006      0.1601417  0.1601417  0.336      2.590423   1.619207   2.468      0.278494   0.5268407  -9999      0.532904   0.532904   -9999     
1002.6     -9999      -9999      -9999      8.347      -9999      -9999      3.126      -9999      -9999      -9999      -9999      -9999      0.925      1.956      0.140937   0.140937   0.3575     1.141966   0.972439   2.406      0.1838969  0.5167403  -9999      0.6562515  0.6562515  -9999     
1002.8     -9999      -9999      -9999      8.176      -9999      -9999      2.919      -9999      -9999      -9999      -9999      -9999      0.93       1.981      0.1543809  0.1543809  0.355      2.026131   1.17273    2.36       0.2392942  0.5259857  -9999      0.6079366  0.6079366  -9999     
1003       -9999      -9999      -9999      8.603      -9999      -9999      2.839      -9999      -9999      -9999      -9999      -9999      0.923      1.95       0.1156685  0.1156685  0.3585     0.3887048  0.7346784  2.312      0.01234973 0.4725058  -9999      0.735853   0.735853   -9999     
