~Version
 VERS              .         2.0                           : CWLS LOG ASCII STANDARD - VERSION 2.0
 WRAP              .         NO                            : ONE LINE PER DEPTH STEP
 DLM               .         SPACE                         : DELIMITING CHARACTER(SPACE TAB OR COMMA)
~Well Information
#_______________________________________________________________________________
#
#PARAMETER_NAME    .UNIT     VALUE                         : DESCRIPTION
#_______________________________________________________________________________
STRT               .M        960                           : First reference value
STOP               .M        1261                          : Last reference value
STEP               .M        0.2                           : Step increment
NULL               .         -9999                         : Missing value
COMP               .                                       : Company
WELL               .         1201                          : Well name
FLD                .         УЗЕНЬ                         : Field
LOC                .                                       : Location
CNTY               .                                       : County
STAT               .                                       : State
CTRY               .                                       : Country
SRVC               .                                       : Service Company
DATE               .                                       : Date
UWI                .                                       : Unique Well ID
Block              .         3а                            : 
Category           .         Нефтяная                      : 
Condition          .         В работе                      : 
Date               .         30.10.1967                    : 
EREF               .m        234.3                         : 100.8
Gorizont           .         15                            : 14
Interpretator      .         Ткачева И.Г.                  : 
Kupol              .         Основной                      : osnovnoi
Mud                .         0                             : 
Mud_density        .         0                             : 
Mud_resistivity    .         0                             : 
NGDU               .         НГДУ-1                        : 
ORIGINALWELLNAME   .         1201                          : 
Spud_date          .         1967                          : 1961
Uslovie            .         15                            : 
Viscosity          .         0                             : 
X                  .m        55429.8                       : 46154
Y                  .m        80454.8                       : 85761.93
YEAR               .         2018                          : 
~Parameter Information Block
#_______________________________________________________________________________
#
#PARAMETER_NAME    .UNIT     VALUE                         : DESCRIPTION
#_______________________________________________________________________________
SET                .         LQC_KAZNIPI_Petrel            : 
TLFamily_CALI      .         Caliper                       : 
TLFamily_COLL      .         Net Reservoir Flag            : 
TLFamily_CSAT      .         Fluid Code                    : 
TLFamily_DEPT      .         Measured Depth                : 
TLFamily_GR        .         Russian Gamma Ray             : 
TLFamily_GZ1       .         Gradient 045                  : 
TLFamily_GZ2       .         Gradient 105                  : 
TLFamily_GZ3       .         Gradient 225                  : 
TLFamily_GZ4       .         Gradient 425                  : 
TLFamily_GZ5       .         Gradient 850                  : 
TLFamily_LLS       .         Lateral Log Resistivity       : 
TLFamily_MINV      .         Micro Gradient Resistivity    : 
TLFamily_MNOR      .         Micro Resistivity             : 
TLFamily_NGLD      .         Neutron Gamma                 : 
TLFamily_OGZ       .         Gradient Inverted 225         : 
TLFamily_PHIE      .         Effective Porosity            : 
TLFamily_PHIEN     .         Effective Porosity            : 
TLFamily_PHIT      .         Porosity                      : 
TLFamily_PRMB      .         Permeability                  : 
TLFamily_PRMB_DGR  .         Permeability                  : 
TLFamily_RT        .         Formation Resistivity         : 
TLFamily_SOIL_ARCHIE .         Oil Saturation                : 
TLFamily_SOIL_DW   .         Oil Saturation                : 
TLFamily_SP        .         Spontaneous Potential         : 
TLFamily_VSH_FIN   .         Shale Volume                  : 
TLFamily_VSH_GR    .         Shale Volume                  : 
TLFamily_VSH_SP    .         Shale Volume                  : 
~Curve Information
#_______________________________________________________________________________
#
#LOGNAME           .UNIT     LOG_ID                        : DESCRIPTION
#_______________________________________________________________________________
DEPT               .M                                      : Колонка глубины 
CALI               .м                                      : Каверномер 
COLL               .unitless                               : Описание 
CSAT               .unitless                               : Описание 
GR                 .uR/h                                   : Гамма каротаж 
GZ1                .Ohmm                                   : Градиент-зонд  длиной 0.45м 
GZ2                .Ohmm                                   : Градиент-зонд  длиной 1.05м 
GZ3                .Ohmm                                   : Градиент-зонд  длиной 2.25м 
GZ4                .Ohmm                                   : Градиент-зонд  длиной 4.5м 
GZ5                .Ohmm                                   : Градиент-зонд  длиной 8.5м 
LLS                .Ohmm                                   : Боковой каротаж 
MINV               .Ohmm                                   : Микро-градиент зонд 
MNOR               .Ohmm                                   : Микро-потенциал зонд 
NGLD               .у.е.                                   : Показания зонда НГК-60 аппаратуры ДРСТ-3-90 
OGZ                .Ohmm                                   : Обращенный градиент-зонд 
PHIE               .v/v                                    : Описание 
PHIEN              .v/v                                    :  
PHIT               .v/v                                    : Описание 
PRMB               .mD                                     :  
PRMB_DGR           .mD                                     :  
RT                 .ohmm                                   : УЭС пласта 
SOIL_ARCHIE        .v/v                                    :  
SOIL_DW            .v/v                                    :  
SP                 .мВ                                     : Потенциал самополяризации 
VSH_FIN            .v/v                                    : Описание 
VSH_GR             .v/v                                    : Shale volume 
VSH_SP             .v/v                                    : Shale Volume 
~Ascii
# ...
1132.8     0.241      1          2          8.851      1.609      1.927      1.235      1.35       1.139      1.585      0.857      1.204      1.01       2.443      0.1981444  0.1981444  0.2935     13.10007   9.005273   1.585      0.2621921  0.4109161  32.147     0.2889563  0.2644608  0.3134518 
1133       0.24       1          2          8.945      1.496      1.914      1.245      1.346      1.288      1.512      1.009      1.1        1.002      2.31       0.1941637  0.1941637  0.2987     11.05454   7.606445   1.512      0.2322337  0.3981506  33.971     0.3167768  0.2833337  0.3502198 
1133.2     0.24       -9999      -9999      9.35       1.371      1.827      1.251      1.54       1.489      1.589      1.066      1.084      0.995      2.228      0.1824652  0.1824652  0.30325    6.712065   3.675381   1.589      0.2082077  0.4034327  34.05      0.3660146  0.3813137  0.3507155 
1133.4     0.24       -9999      -9999      9.137      1.293      1.683      1.371      1.943      1.473      1.679      1.254      1.122      0.973      2.135      0.2060729  0.2060729  0.31755    18.37082   5.388049   1.679      0.3059969  0.4624048  34.049     0.3378093  0.3261717  0.3494469 
1133.6     0.242      -9999      -9999      9.455      1.497      2.598      1.458      2.55       1.336      1.518      1.091      1.16       0.976      2.068      0.1900414  0.1900414  0.3156     9.272251   3.043743   1.518      0.2192013  0.4137045  34.091     0.3804807  0.4118343  0.3491271 
1133.8     0.245      -9999      -9999      9.322      1.677      2.166      1.519      3.233      1.143      1.456      1.016      1.01       0.985      2.02       0.1913217  0.1913217  0.30975    9.792629   3.864928   1.456      0.2084143  0.3962335  33.921     0.3588738  0.3735637  0.3441838 
1134       0.247      -9999      -9999      9.741      1.377      1.478      1.631      2.992      0.993      1.554      1.12       0.851      0.996      1.989      0.163701   0.163701   0.3026     3.015076   1.821138   1.554      0.1205782  0.3694707  33.494     0.420906   0.5079342  0.3338778 
1134.2     0.246      -9999      -9999      10.137     1.128      1.135      1.718      1.902      1.004      1.633      1.137      0.905      1.012      1.965      0.1267606  0.1267606  0.2922     0.6238374  0.8943005  1.633      0          0.3070584  33.051     0.5013317  0.6790864  0.3235769 
1134.4     0.246      -9999      -9999      9.804      1.145      1.268      1.787      1.321      1.145      1.843      1.364      1.013      1.008      1.946      0.1584767  0.1584767  0.2948     2.412858   1.626321   1.843      0.1649644  0.4042248  31.583     0.4131007  0.5319509  0.2942506 
1134.6     0.24       1          2          9.452      1.063      1.475      2.283      1.044      1.568      2.054      1.473      1.074      1.002      2.001      0.1942298  0.1942298  0.2987     11.08573   3.060188   2.054      0.335239   0.4836983  26.941     0.3165766  0.4109292  0.222224  
1134.8     0.24       1          2          8.459      1.066      1.559      2.955      0.959      2.197      3.707      1.638      1.244      1.03       2.489      0.2169553  0.2169553  0.2805     29.22112   18.20692   3.707      0.5424034  0.6190089  23.764     0.1925597  0.198389   0.1867304 
1135       0.24       1          2          8.747      1.242      1.483      3.628      1.194      2.961      6.858      1.613      1.581      1.05       3.203      0.2000288  0.2000288  0.2675     14.19635   10.85454   6.858      0.6320128  0.7021075  21.038     0.2044583  0.2450414  0.1638751 
1135.2     0.236      1          2          9.141      1.143      1.71       4.355      1.69       3.981      8.002      1.611      2.059      1.039      3.893      0.1965295  0.1965295  0.27465    12.22818   5.349484   8.002      0.6524101  0.7264526  18.181     0.2367286  0.3271298  0.1463274 
1135.4     0.236      1          2          8.979      1.575      2.57       5.967      2.348      4.894      9.202      1.532      2.182      1.033      4.487      0.2071196  0.2071196  0.27855    19.20949   7.155882   9.202      0.6890156  0.7524531  17.423     0.2164557  0.290487   0.1424245 
1135.6     0.236      8          2          9.301      2.456      3.279      5.381      2.98       5.403      10.626     1.527      2.083      1.041      3.79       0.1888967  0.1888967  0.27335    8.830441   4.013472   10.626     0.6850433  0.7580395  17.815     0.2559192  0.367855   0.1439834 
1135.8     0.236      8          2          9.901      3.316      4.244      4.48       3.536      5.638      10.828     1.445      2.168      1.011      3.252      0.171646   0.171646   0.29285    4.231142   1.366317   10.828     0.6606588  0.7608628  21.197     0.3672849  0.5711682  0.1634016 
1136       0.236      8          2          9.714      3.924      7.323      3.917      4.165      5.46       5.667      1.753      2.421      1.006      2.59       0.1817345  0.1817345  0.2961     6.506126   1.911621   5.667      0.5624899  0.6790388  24.961     0.3465619  0.497976   0.1951479 
1136.2     0.236      8          2          9.553      5.786      11.493     3.354      4.724      4.911      2.738      1.606      2.325      1.012      2.38       0.1830045  0.1830045  0.2922     6.868234   2.552541   2.738      0.3882082  0.5358731  27.157     0.3308956  0.4425207  0.2192705 
1136.4     0.238      8          2          9.34       6.247      14.498     2.817      5.153999   3.98       2.594      1.705      1.854      1.016      2.348      0.18541    0.18541    0.2896     7.610281   3.741984   2.594      0.3795959  0.5231403  29.666     0.3157273  0.3785276  0.252927  
1136.6     0.24       8          2          9.786      4.691      12.509     2.501      4.271      3.429      2.052      1.406      1.509      0.986      2.463      0.1712423  0.1712423  0.3091     4.158923   1.679751   2.052      0.25782    0.4678175  33.071     0.4177506  0.5249755  0.3105257 
1136.8     0.24       -9999      -9999      10.029     2.871      10.024     2.467      2.877      2.878      1.798      1.664      1.56       0.988      2.492      0.1151525  0.1151525  0.3078     0.380244   1.085719   1.798      0          0.3383749  41.962     0.5837802  0.6273782  0.5401824 
1137       0.24       -9999      -9999      10.53      2.546      7.538001   2.432      2.296      2.336      1.618      1.121      1.378      0.985      2.52       0.07949653 0.07949653 0.30975    0.08310492 0.4415341  1.618      0          0.2132691  43.611     0.6977378  0.8        0.5954756 
1137.2     0.242      -9999      -9999      10.527     2.223      5.712      2.363      1.689      1.83       1.553      0.977      1.193      0.957      2.186      0.09205499 0.09205499 0.32795    0.1419841  0.4439186  1.553      0          0.2629974  44.59      0.7148333  0.8        0.6296667 
1137.4     0.243      -9999      -9999      10.524     1.8        3.817      2.417      1.26       1.324      1.723      0.782      1.026      0.931      1.93       0.1089145  0.1089145  0.34485    0.2914202  0.4463171  1.723      0          0.3601497  44.653     0.7149559  0.8        0.6299119 
1137.6     0.242      -9999      -9999      10.533     1.249      2.619      2.473      0.882      1.049      1.897      0.76       0.892      0.904      2.09       0.1265368  0.1265368  0.3624     0.617912   0.4391614  1.897      0          0.4394217  44.698     0.714737   0.8        0.629474  
1137.8     0.244      -9999      -9999      10.171     1.319      1.902      2.53       0.741      0.968      1.997      0.842      0.933      0.872      2.452      0.1599638  0.1599638  0.3832     2.570848   0.8413286  1.997      0.2023413  0.515351   45.46      0.6764733  0.6962306  0.6567159 
1138       0.244      -9999      -9999      10.524     1.204      1.996      2.455      0.916      0.902      2.059      0.814      0.952      0.844      2.733      0.1524778  0.1524778  0.4014     1.868171   0.4463171  2.059      0.1801864  0.5284774  46.796     0.7543098  0.8        0.7086195 
