~Version
 VERS              .         2.0                           : CWLS LOG ASCII STANDARD - VERSION 2.0
 WRAP              .         NO                            : ONE LINE PER DEPTH STEP
 DLM               .         SPACE                         : DELIMITING CHARACTER(SPACE TAB OR COMMA)
~Well Information
#_______________________________________________________________________________
#
#PARAMETER_NAME    .UNIT     VALUE                         : DESCRIPTION
#_______________________________________________________________________________
STRT               .M        960                           : First reference value
STOP               .M        1261                          : Last reference value
STEP               .M        0.2                           : Step increment
NULL               .         -9999                         : Missing value
COMP               .                                       : Company
WELL               .         1201                          : Well name
FLD                .         УЗЕНЬ                         : Field
LOC                .                                       : Location
CNTY               .                                       : County
STAT               .                                       : State
CTRY               .                                       : Country
SRVC               .                                       : Service Company
DATE               .                                       : Date
UWI                .                                       : Unique Well ID
Block              .         3а                            : 
Category           .         Нефтяная                      : 
Condition          .         В работе                      : 
Date               .         30.10.1967                    : 
EREF               .m        234.3                         : 100.8
Gorizont           .         15                            : 14
Interpretator      .         Ткачева И.Г.                  : 
Kupol              .         Основной                      : osnovnoi
Mud                .         0                             : 
Mud_density        .         0                             : 
Mud_resistivity    .         0                             : 
NGDU               .         НГДУ-1                        : 
ORIGINALWELLNAME   .         1201                          : 
Spud_date          .         1967                          : 1961
Uslovie            .         15                            : 
Viscosity          .         0                             : 
X                  .m        55429.8                       : 46154
Y                  .m        80454.8                       : 85761.93
YEAR               .         2018                          : 
~Parameter Information Block
#_______________________________________________________________________________
#
#PARAMETER_NAME    .UNIT     VALUE                         : DESCRIPTION
#_______________________________________________________________________________
SET                .         LQC_KAZNIPI_Petrel            : 
TLFamily_CALI      .         Caliper                       : 
TLFamily_COLL      .         Net Reservoir Flag            : 
TLFamily_CSAT      .         Fluid Code                    : 
TLFamily_DEPT      .         Measured Depth                : 
TLFamily_GR        .         Russian Gamma Ray             : 
TLFamily_GZ1       .         Gradient 045                  : 
TLFamily_GZ2       .         Gradient 105                  : 
TLFamily_GZ3       .         Gradient 225                  : 
TLFamily_GZ4       .         Gradient 425                  : 
TLFamily_GZ5       .         Gradient 850                  : 
TLFamily_LLS       .         Lateral Log Resistivity       : 
TLFamily_MINV      .         Micro Gradient Resistivity    : 
TLFamily_MNOR      .         Micro Resistivity             : 
TLFamily_NGLD      .         Neutron Gamma                 : 
TLFamily_OGZ       .         Gradient Inverted 225         : 
TLFamily_PHIE      .         Effective Porosity            : 
TLFamily_PHIEN     .         Effective Porosity            : 
TLFamily_PHIT      .         Porosity                      : 
TLFamily_PRMB      .         Permeability                  : 
TLFamily_PRMB_DGR  .         Permeability                  : 
TLFamily_RT        .         Formation Resistivity         : 
TLFamily_SOIL_ARCHIE .         Oil Saturation                : 
TLFamily_SOIL_DW   .         Oil Saturation                : 
TLFamily_SP        .         Spontaneous Potential         : 
TLFamily_VSH_FIN   .         Shale Volume                  : 
TLFamily_VSH_GR    .         Shale Volume                  : 
TLFamily_VSH_SP    .         Shale Volume                  : 
~Curve Information
#_______________________________________________________________________________
#
#LOGNAME           .UNIT     LOG_ID                        : DESCRIPTION
#_______________________________________________________________________________
DEPT               .M                                      : Колонка глубины 
CALI               .м                                      : Каверномер 
COLL               .unitless                               : Описание 
CSAT               .unitless                               : Описание 
GR                 .uR/h                                   : Гамма каротаж 
GZ1                .Ohmm                                   : Градиент-зонд  длиной 0.45м 
GZ2                .Ohmm                                   : Градиент-зонд  длиной 1.05м 
GZ3                .Ohmm                                   : Градиент-зонд  длиной 2.25м 
GZ4                .Ohmm                                   : Градиент-зонд  длиной 4.5м 
GZ5                .Ohmm                                   : Градиент-зонд  длиной 8.5м 
LLS                .Ohmm                                   : Боковой каротаж 
MINV               .Ohmm                                   : Микро-градиент зонд 
MNOR               .Ohmm                                   : Микро-потенциал зонд 
NGLD               .у.е.                                   : Показания зонда НГК-60 аппаратуры ДРСТ-3-90 
OGZ                .Ohmm                                   : Обращенный градиент-зонд 
PHIE               .v/v                                    : Описание 
PHIEN              .v/v                                    :  
PHIT               .v/v                                    : Описание 
PRMB               .mD                                     :  
PRMB_DGR           .mD                                     :  
RT                 .ohmm                                   : УЭС пласта 
SOIL_ARCHIE        .v/v                                    :  
SOIL_DW            .v/v                                    :  
SP                 .мВ                                     : Потенциал самополяризации 
VSH_FIN            .v/v                                    : Описание 
VSH_GR             .v/v                                    : Shale volume 
VSH_SP             .v/v                                    : Shale Volume 
~Ascii
# ...
1170.6     0.249      -9999      -9999      10.163     1.627      2.709      1.917      1.6        1.247      1.639      1.1        1.139      0.975      1.746      0.1165417  0.1165417  0.31625    0.4034527  0.9979408  1.639      0          0.3301502  33.32      0.6051767  0.6493512  0.5610021 
1170.8     0.248      -9999      -9999      9.703      1.854      2.257      2.185      1.458      1.304      1.648      1.47       1.282      0.971      2.03       0.1543428  0.1543428  0.31885    2.022838   2.24818    1.648      0.112006   0.4013263  32.382     0.4985066  0.4660684  0.5309448 
1171       0.244      -9999      -9999      9.333      1.938      2.344      2.453      1.283      1.389      1.661      1.361      0.978      0.971      2.385      0.1708789  0.1708789  0.31885    4.094962   4.320618   1.661      0.1903248  0.4268197  32.609     0.4483972  0.3569435  0.5398509 
1171.2     0.245      -9999      -9999      9.506      1.762      2.574      2.721      1.346      1.474      1.841      1.043      0.99       0.956      2.616      0.1657317  0.1657317  0.3286     3.287844   3.183396   1.841      0.2076612  0.4590348  33.813     0.4935404  0.404359   0.5827218 
1171.4     0.248      -9999      -9999      9.649      1.725      2.473      2.741      1.524      1.524      1.771      1.055      0.895      0.955      2.855      0.1541346  0.1541346  0.32925    2.004956   2.47308    1.771      0.1404902  0.4335211  34.605     0.5306528  0.4482723  0.6130333 
1171.6     0.241      -9999      -9999      9.848      1.587      2.28       2.453      1.756      1.51       1.672      0.998      1.143      0.924      2.982      0.1640022  0.1640022  0.3494     3.054051   1.740389   1.672      0.1634298  0.4511698  34.377     0.5618115  0.5174285  0.6061946 
1171.8     0.243      -9999      -9999      10.071     1.474      2.412      2.165      1.905      1.417      1.792      1.309      1.444      0.936      2.337      0.1468     0.1468     0.3416     1.466391   1.173951   1.792      0.1081535  0.4393836  33.407     0.5903031  0.6076782  0.572928  
1172       0.245      -9999      -9999      10.226     1.674      2.211      1.877      1.903      1.297      1.972      1.645      1.744      0.942      2.36       0.1366899  0.1366899  0.3377     0.9527687  0.8928875  1.972      0.0926524  0.4472753  32.361     0.6091214  0.679525   0.5387179 
1172.2     0.247      -9999      -9999      10.485     1.54       1.844      1.926      1.706      1.173      1.99       1.775      1.634      0.964      2.719      0.1041695  0.1041695  0.3234     0.2380286  0.5651929  1.99       0          0.3767219  32.013     0.664335   0.8        0.52867   
1172.4     0.246      -9999      -9999      10.622     1.248      1.661      2.151      1.455      1.117      2.069      1.656      1.537      0.99       2.927      0.09187789 0.09187789 0.3065     0.1409158  0.443757   2.069      0          0.3390447  31.094     0.65037    0.8        0.50074   
1172.6     0.249      -9999      -9999      10.497     1.268      1.94       2.376      1.387      1.184      2.267      1.563      1.553      0.995      3.16       0.08642679 0.08642679 0.30325    0.1116843  0.5533435  2.267      0          0.3509472  31.475     0.65704    0.8        0.51408   
1172.8     0.251      -9999      -9999      10.361     1.334      1.937      2.405      1.473      1.422      2.22       1.563      1.646      0.98       2.931      0.1008831  0.1008831  0.313      0.206899   0.7035241  2.22       0          0.3904164  32.125     0.6427783  0.7489886  0.5365681 
1173       0.25       -9999      -9999      10.49      1.407      2.231      2.237      1.636      1.697      2.062      1.749      1.43       0.997      2.482      0.07019162 0.07019162 0.30195    0.05588267 0.5602251  2.062      0          0.2705426  34.034     0.7022982  0.8        0.6045963 
1173.2     0.247      -9999      -9999      10.397     1.623      2.523      2.069      1.938      1.676      2.024      1.219      1.215      1.005      2.085      0.05966296 0.05966296 0.29675    0.03566652 0.660198   2.024      0          0.2176023  35.654     0.7184456  0.7686828  0.6682083 
1173.4     0.241      -9999      -9999      10.304     1.85       2.7        1.915      2.032      1.489      1.968      1.369      1.362      1.011      1.852      0.06165368 0.06165368 0.29285    0.03882699 0.7780126  1.968      0          0.2067569  35.963     0.7005948  0.7188329  0.6823568 
1173.6     0.244      -9999      -9999      10.046     1.802      2.512      2.326      2.085      1.293      1.91       1.519      1.562      0.992      1.733      0.10279    0.10279    0.3052     0.2244287  1.226932   1.91       0          0.336212   34.584     0.6133636  0.5968233  0.6299039 
1173.8     0.244      -9999      -9999      9.641      1.696      2.399      2.737      1.931      1.244      2.036      1.833      1.763      1.01       1.737      0.1341353  0.1341353  0.2935     0.8544154  2.508262   2.036      0.09134134 0.4018731  31.408     0.4829234  0.4456941  0.5201527 
1174       0.244      1          2          9.699      1.741      2.287      3.148      1.654      1.411      2.321      1.576      1.972      1.023      2.199      0.1377608  0.1377608  0.28505    0.9972933  2.264113   2.321      0.1651414  0.4353702  28.24      0.4463308  0.4647264  0.4279352 
1174.2     0.245      1          2          9.388      1.54       2.148      3.559      1.416      1.776      2.581      1.352      2.202      1.037      2.609      0.1545216  0.1545216  0.27595    2.038324   3.920781   2.581      0.2813042  0.4778347  25.654     0.3679649  0.3713815  0.3645483 
1174.4     0.244      1          2          8.501      1.44       2.047      3.97       1.388      2.14       4.684      1.699      2.345      1.031      3.198      0.1756489  0.1756489  0.27985    11.66377   18.77243   4.684      0.5571427  0.650532   23.325     0.315761   0.1959265  0.3157611 
1174.6     0.239      1          2          8.85       1.475      2.168      4.096      1.614      2.685      6.169      2.096      2.054      1.039      3.479      0.177128   0.177128   0.27465    7.26213    10.13698   6.169      0.590476   0.6845883  22.218     0.295521   0.2519812  0.2955215 
1174.8     0.24       1          2          9.017      1.582      2.437      3.669      1.992      2.778      5.267      1.807      1.884      1.036      3.448      0.1725058  0.1725058  0.2766     5.467445   7.548381   5.267      0.5445857  0.654914   23.223     0.315437   0.2842217  0.3154368 
1175       0.244      8          2          9.289      1.739      2.956      3.242      2.66       2.796      2.503      1.693      2.002      1.026      3.19       0.1778818  0.1778818  0.2831     4.566463   4.669662   2.503      0.3406367  0.5014302  23.352     0.318843   0.3457981  0.3188432 
1175.2     0.244      8          2          9.739      2.536      4.875      2.814      3.37       3.171      2.134      1.715      1.821      1.033      2.652      0.1862965  0.1862965  0.27855    1.951409   2.109728   2.134      0.2096624  0.4274837  21.189     0.279556   0.4783235  0.279556  
1175.4     0.244      8          2          9.616      4.146      5.675      2.387      3.919      2.592      2.493      1.566      1.775      1.012      2.368      0.2036947  0.2036947  0.2922     5.034379   2.621455   2.493      0.3468923  0.5123568  20.467     0.268198   0.437733   0.2681977 
1175.6     0.244      8          2          9.827      3.628      4.751      2.148      3.298      2.133      2.36       1.541      1.752      0.997      2.233      0.2111119  0.2111119  0.30195    4.376531   1.80613    2.36       0.3187719  0.5048407  20.851     0.275267   0.5096536  0.2752672 
1175.8     0.244      8          2          10.006     2.59       4.359      2.374      2.677      1.882      2.15       1.817      1.539      1.01       1.877      0.1951359  0.1951359  0.2935     1.586195   1.316717   2.15       0.1900539  0.4404486  22.1       0.298073   0.5798578  0.2980735 
