~Version
 VERS              .         2.0                           : CWLS LOG ASCII STANDARD - VERSION 2.0
 WRAP              .         NO                            : ONE LINE PER DEPTH STEP
 DLM               .         SPACE                         : DELIMITING CHARACTER(SPACE TAB OR COMMA)
~Well Information
#_______________________________________________________________________________
#
#PARAMETER_NAME    .UNIT     VALUE                         : DESCRIPTION
#_______________________________________________________________________________
STRT               .M        960                           : First reference value
STOP               .M        1261                          : Last reference value
STEP               .M        0.2                           : Step increment
NULL               .         -9999                         : Missing value
COMP               .                                       : Company
WELL               .         1201                          : Well name
FLD                .         УЗЕНЬ                         : Field
LOC                .                                       : Location
CNTY               .                                       : County
STAT               .                                       : State
CTRY               .                                       : Country
SRVC               .                                       : Service Company
DATE               .                                       : Date
UWI                .                                       : Unique Well ID
Block              .         3а                            : 
Category           .         Нефтяная                      : 
Condition          .         В работе                      : 
Date               .         30.10.1967                    : 
EREF               .m        234.3                         : 100.8
Gorizont           .         15                            : 14
Interpretator      .         Ткачева И.Г.                  : 
Kupol              .         Основной                      : osnovnoi
Mud                .         0                             : 
Mud_density        .         0                             : 
Mud_resistivity    .         0                             : 
NGDU               .         НГДУ-1                        : 
ORIGINALWELLNAME   .         1201                          : 
Spud_date          .         1967                          : 1961
Uslovie            .         15                            : 
Viscosity          .         0                             : 
X                  .m        55429.8                       : 46154
Y                  .m        80454.8                       : 85761.93
YEAR               .         2018                          : 
~Parameter Information Block
#_______________________________________________________________________________
#
#PARAMETER_NAME    .UNIT     VALUE                         : DESCRIPTION
#_______________________________________________________________________________
SET                .         LQC_KAZNIPI_Petrel            : 
TLFamily_CALI      .         Caliper                       : 
TLFamily_COLL      .         Net Reservoir Flag            : 
TLFamily_CSAT      .         Fluid Code                    : 
TLFamily_DEPT      .         Measured Depth                : 
TLFamily_GR        .         Russian Gamma Ray             : 
TLFamily_GZ1       .         Gradient 045                  : 
TLFamily_GZ2       .         Gradient 105                  : 
TLFamily_GZ3       .         Gradient 225                  : 
TLFamily_GZ4       .         Gradient 425                  : 
TLFamily_GZ5       .         Gradient 850                  : 
TLFamily_LLS       .         Lateral Log Resistivity       : 
TLFamily_MINV      .         Micro Gradient Resistivity    : 
TLFamily_MNOR      .         Micro Resistivity             : 
TLFamily_NGLD      .         Neutron Gamma                 : 
TLFamily_OGZ       .         Gradient Inverted 225         : 
TLFamily_PHIE      .         Effective Porosity            : 
TLFamily_PHIEN     .         Effective Porosity            : 
TLFamily_PHIT      .         Porosity                      : 
TLFamily_PRMB      .         Permeability                  : 
TLFamily_PRMB_DGR  .         Permeability                  : 
TLFamily_RT        .         Formation Resistivity         : 
TLFamily_SOIL_ARCHIE .         Oil Saturation                : 
TLFamily_SOIL_DW   .         Oil Saturation                : 
TLFamily_SP        .         Spontaneous Potential         : 
TLFamily_VSH_FIN   .         Shale Volume                  : 
TLFamily_VSH_GR    .         Shale Volume                  : 
TLFamily_VSH_SP    .         Shale Volume                  : 
~Curve Information
#_______________________________________________________________________________
#
#LOGNAME           .UNIT     LOG_ID                        : DESCRIPTION
#_______________________________________________________________________________
DEPT               .M                                      : Колонка глубины 
CALI               .м                                      : Каверномер 
COLL               .unitless                               : Описание 
CSAT               .unitless                               : Описание 
GR                 .uR/h                                   : Гамма каротаж 
GZ1                .Ohmm                                   : Градиент-зонд  длиной 0.45м 
GZ2                .Ohmm                                   : Градиент-зонд  длиной 1.05м 
GZ3                .Ohmm                                   : Градиент-зонд  длиной 2.25м 
GZ4                .Ohmm                                   : Градиент-зонд  длиной 4.5м 
GZ5                .Ohmm                                   : Градиент-зонд  длиной 8.5м 
LLS                .Ohmm                                   : Боковой каротаж 
MINV               .Ohmm                                   : Микро-градиент зонд 
MNOR               .Ohmm                                   : Микро-потенциал зонд 
NGLD               .у.е.                                   : Показания зонда НГК-60 аппаратуры ДРСТ-3-90 
OGZ                .Ohmm                                   : Обращенный градиент-зонд 
PHIE               .v/v                                    : Описание 
PHIEN              .v/v                                    :  
PHIT               .v/v                                    : Описание 
PRMB               .mD                                     :  
PRMB_DGR           .mD                                     :  
RT                 .ohmm                                   : УЭС пласта 
SOIL_ARCHIE        .v/v                                    :  
SOIL_DW            .v/v                                    :  
SP                 .мВ                                     : Потенциал самополяризации 
VSH_FIN            .v/v                                    : Описание 
VSH_GR             .v/v                                    : Shale volume 
VSH_SP             .v/v                                    : Shale Volume 
~Ascii
# ...
1208.4     0.242      6          6          8.805      3.01       6.365      3.158      2.946      3.153      2.389      1.947      2.166      1.028      2.118      0.1873018  0.1873018  0.2818     8.24978    10.97526   2.389      0.369727   0.5040598  22.504     0.2863581  0.2439373  0.3287789 
1208.6     0.241      6          6          9.058      2.491      5.198      3.296      2.402      2.58       2.942      1.556      1.519      1.011      2.3        0.1901472  0.1901472  0.29285    9.314201   7.021268   2.942      0.4358535  0.56582    22.559     0.3112205  0.2927484  0.3296927 
1208.8     0.241      -9999      -9999      8.652      2.036      4.096      3.349      1.694      2.006      2.938      1.806      1.942      1.002      2.387      0.1697116  0.1697116  0.2987     3.896085   14.37919   2.938      0.3767311  0.5504687  25.272     0.390874   0.2184603  0.3908736 
1209       0.241      -9999      -9999      8.884      1.994      3.595      3.108      1.829      2.006      2.516      1.826      2.079      0.997      2.187      0.1555511  0.1555511  0.30195    2.129817   9.546364   2.516      0.2768447  0.5005475  27.294     0.443633   0.2582341  0.443633  
1209.2     0.243      -9999      -9999      9.268      2.17       3.296      2.866      1.803      2.136      2.261      1.961      1.968      1.006      2.081      0.1327163  0.1327163  0.2961     0.8042409  4.846052   2.261      0.1269054  0.43324    29.061     0.495102   0.3406021  0.495102  
1209.4     0.245      -9999      -9999      9.406      2.359      3.101      2.625      1.727      2.159      2.284      1.828      1.865      1.015      2.083      0.117699   0.117699   0.29025    0.4238656  3.79813    2.284      0.03523771 0.4028539  29.952     0.522882   0.3762326  0.5228823 
1209.6     0.245      -9999      -9999      9.172      2.092      2.979      2.384      1.578      2.054      2.159      1.781      1.755      1.013      2.092      0.1212452  0.1212452  0.29155    0.4930761  5.74117    2.159      0.03469991 0.3942163  29.751     0.516075   0.3178256  0.5160751 
1209.8     0.245      -9999      -9999      9.344      2.052      2.782      2.211      1.479      1.834      2.175      1.596      1.727      1.005      2.159      0.1283315  0.1283315  0.29675    0.6670672  4.237516   2.175      0.0844706  0.4156005  29.582     0.510359   0.3597855  0.5103585 
1210       0.245      -9999      -9999      8.773      1.942      2.599      2.111      1.422      1.651      2.319      1.801      1.697      0.994      2.329      0.1292495  0.1292495  0.3039     0.6937001  11.61321   2.319      0.1171002  0.443898   30.18      0.529244   0.2383738  0.5292438 
1210.2     0.245      -9999      -9999      9.186      1.715      2.282      2.01       1.462      1.6        2.079      1.752      1.522      1          2.638      0.1140387  0.1140387  0.3        0.3626035  5.600996   2.079      0          0.3799962  31.211     0.563519   0.3210498  0.5635185 
1210.4     0.246      -9999      -9999      8.983      1.838      2.155      1.91       1.549      1.738      2.103      1.636      1.395      0.999      2.973      0.1051052  0.1051052  0.30065    0.2477201  8.0154     2.103      0          0.3661865  32.045     0.59256    0.2773393  0.5925604 
1210.6     0.245      -9999      -9999      8.57       1.908      1.965      1.786      1.473      1.744      2.099      1.789      1.561      0.997      3.256      0.09794897 0.09794897 0.30195    0.1825621  16.61929   2.099      0          0.3515891  32.754     0.618185   0.2059195  0.6181854 
1210.8     0.245      -9999      -9999      9.023      1.669      1.902      1.84       1.448      1.575      1.876      1.698      1.429      0.99       3.565      0.09992989 0.09992989 0.3065     0.1986562  7.468841   1.876      0          0.3254961  32.986     0.62597    0.2854537  0.6259696 
1211       0.245      -9999      -9999      8.835      1.746      1.902      1.905      1.4        1.473      1.834      1.754      1.296      0.985      3.752      0.1729878  0.1729878  0.30975    4.480346   10.40904   1.834      0.2353213  0.4475669  31.742     0.4144309  0.2492708  0.579591  
1211.2     0.248      -9999      -9999      8.742      1.709      2.092      1.956      1.321      1.422      2.02       1.669      1.381      1.001      3.9        0.1788169  0.1788169  0.29935    5.744872   12.26657   2.02       0.2900026  0.4697731  29.285     0.3652518  0.2331053  0.4973983 
1211.4     0.252      1          2          8.378      1.546      2.092      2.072      1.27       1.371      2.373      1.601      1.706      1.027      4.513      0.1912968  0.1912968  0.28245    9.782248   23.32581   2.373      0.379252   0.5073569  24.732     0.276222   0.1793002  0.3731437 
1211.6     0.246      1          2          8.779      1.395      2.029      2.484      1.417      1.468      2.843      1.69       1.993      1.041      5.206      0.1741705  0.1741705  0.27335    4.712134   11.49082   2.843      0.3811796  0.5231644  24.262     0.300544   0.2394073  0.3616808 
1211.8     0.241      1          2          8.362      1.596      1.838      2.927      1.593      1.694      2.873      1.888      1.993      1.038      6.35       0.1871241  0.1871241  0.2753     8.187499   23.99415   2.873      0.4215171  0.5413224  24.087     0.2671996  0.1772438  0.3571554 
1212       0.241      1          2          8.6        1.861      1.851      3.369      1.869      1.945      2.585      2.014      2.059      1.029      7.644      0.1915435  0.1915435  0.28115    9.88573    15.76187   2.585      0.4043534  0.5269589  22.982     0.2715347  0.2104219  0.3326475 
1212.2     0.241      1          2          8.533      2.19       2.2        4.063      1.854      1.956      2.929      1.872      2.126      1.029      7.974      0.200448   0.200448   0.28115    14.45244   17.74121   2.929      0.4600676  0.5638807  20.728     0.2445515  0.2004991  0.2886038 
1212.4     0.241      1          2          8.624      2.16       2.345      4.672      2.016      2.397      2.804      1.841      2.008      1.022      8.264      0.2127751  0.2127751  0.2857     24.44948   15.10794   2.804      0.4768171  0.5692691  16.807     0.2209845  0.2140944  0.2278747 
1212.6     0.236      1          2          8.103      1.997      2.694      5.09       2.166      3.41       2.706      1.692      2.021      1.016      9.487      0.2334204  0.2334204  0.2896     58.97531   37.90585   2.706      0.5092325  0.5816013  13.847     0.1702412  0.1470536  0.1934287 
1212.8     0.233      1          2          7.304      2.15       2.726      5.508      2.722      4.328      6.004      1.564      2.23       1.008      10.634     0.2533953  0.2533953  0.2948     138.2467   155.3734   6.004      0.6856599  0.7315174  11.003     0.1254686  0.08266125 0.1682759 
1213       0.235      1          2          7.218      2.037      2.745      6.035      3.71       5.012      8.23       1.502      2.264      1.012      11.167     0.2531008  0.2531008  0.2922     136.5207   180.8511   8.23       0.7286251  0.7694029  9.751      0.1184826  0.0776917  0.1592734 
1213.2     0.237      1          2          7.151      2.082      2.916      6.353      4.672      5.697      11.096     1.743      2.381      1.016      9.658      0.2524053  0.2524053  0.2896     132.5308   203.5619   11.096     0.7635628  0.8001513  8.485      0.1127111  0.07402806 0.1513942 
1213.4     0.237      1          2          7.036      2.648      3.113      6.562      5.456999   6.381      11.143     1.689      2.409      1.003      8.337      0.2625936  0.2625936  0.29805    204.6579   249.3896   11.143     0.7720253  0.8071234  7.645      0.1074436  0.06813791 0.1467492 
1213.6     0.236      1          2          7.155      4.028      4.184      6.851      5.961999   6.955      10.506     1.799      2.392      0.983      7.445001   0.2747654  0.2747654  0.31105    343.9374   202.1293   10.506     0.7747086  0.8098779  7.454      0.1099534  0.07424187 0.145665  
