~Version
 VERS              .         2.0                           : CWLS LOG ASCII STANDARD - VERSION 2.0
 WRAP              .         NO                            : ONE LINE PER DEPTH STEP
 DLM               .         SPACE                         : DELIMITING CHARACTER(SPACE TAB OR COMMA)
~Well Information
#_______________________________________________________________________________
#
#PARAMETER_NAME    .UNIT     VALUE                         : DESCRIPTION
#_______________________________________________________________________________
STRT               .M        960                           : First reference value
STOP               .M        1261                          : Last reference value
STEP               .M        0.2                           : Step increment
NULL               .         -9999                         : Missing value
COMP               .                                       : Company
WELL               .         1201                          : Well name
FLD                .         УЗЕНЬ                         : Field
LOC                .                                       : Location
CNTY               .                                       : County
STAT               .                                       : State
CTRY               .                                       : Country
SRVC               .                                       : Service Company
DATE               .                                       : Date
UWI                .                                       : Unique Well ID
Block              .         3а                            : 
Category           .         Нефтяная                      : 
Condition          .         В работе                      : 
Date               .         30.10.1967                    : 
EREF               .m        234.3                         : 100.8
Gorizont           .         15                            : 14
Interpretator      .         Ткачева И.Г.                  : 
Kupol              .         Основной                      : osnovnoi
Mud                .         0                             : 
Mud_density        .         0                             : 
Mud_resistivity    .         0                             : 
NGDU               .         НГДУ-1                        : 
ORIGINALWELLNAME   .         1201                          : 
Spud_date          .         1967                          : 1961
Uslovie            .         15                            : 
Viscosity          .         0                             : 
X                  .m        55429.8                       : 46154
Y                  .m        80454.8                       : 85761.93
YEAR               .         2018                          : 
~Parameter Information Block
#_______________________________________________________________________________
#
#PARAMETER_NAME    .UNIT     VALUE                         : DESCRIPTION
#_______________________________________________________________________________
SET                .         LQC_KAZNIPI_Petrel            : 
TLFamily_CALI      .         Caliper                       : 
TLFamily_COLL      .         Net Reservoir Flag            : 
TLFamily_CSAT      .         Fluid Code                    : 
TLFamily_DEPT      .         Measured Depth                : 
TLFamily_GR        .         Russian Gamma Ray             : 
TLFamily_GZ1       .         Gradient 045                  : 
TLFamily_GZ2       .         Gradient 105                  : 
TLFamily_GZ3       .         Gradient 225                  : 
TLFamily_GZ4       .         Gradient 425                  : 
TLFamily_GZ5       .         Gradient 850                  : 
TLFamily_LLS       .         Lateral Log Resistivity       : 
TLFamily_MINV      .         Micro Gradient Resistivity    : 
TLFamily_MNOR      .         Micro Resistivity             : 
TLFamily_NGLD      .         Neutron Gamma                 : 
TLFamily_OGZ       .         Gradient Inverted 225         : 
TLFamily_PHIE      .         Effective Porosity            : 
TLFamily_PHIEN     .         Effective Porosity            : 
TLFamily_PHIT      .         Porosity                      : 
TLFamily_PRMB      .         Permeability                  : 
TLFamily_PRMB_DGR  .         Permeability                  : 
TLFamily_RT        .         Formation Resistivity         : 
TLFamily_SOIL_ARCHIE .         Oil Saturation                : 
TLFamily_SOIL_DW   .         Oil Saturation                : 
TLFamily_SP        .         Spontaneous Potential         : 
TLFamily_VSH_FIN   .         Shale Volume                  : 
TLFamily_VSH_GR    .         Shale Volume                  : 
TLFamily_VSH_SP    .         Shale Volume                  : 
~Curve Information
#_______________________________________________________________________________
#
#LOGNAME           .UNIT     LOG_ID                        : DESCRIPTION
#_______________________________________________________________________________
DEPT               .M                                      : Колонка глубины 
CALI               .м                                      : Каверномер 
COLL               .unitless                               : Описание 
CSAT               .unitless                               : Описание 
GR                 .uR/h                                   : Гамма каротаж 
GZ1                .Ohmm                                   : Градиент-зонд  длиной 0.45м 
GZ2                .Ohmm                                   : Градиент-зонд  длиной 1.05м 
GZ3                .Ohmm                                   : Градиент-зонд  длиной 2.25м 
GZ4                .Ohmm                                   : Градиент-зонд  длиной 4.5м 
GZ5                .Ohmm                                   : Градиент-зонд  длиной 8.5м 
LLS                .Ohmm                                   : Боковой каротаж 
MINV               .Ohmm                                   : Микро-градиент зонд 
MNOR               .Ohmm                                   : Микро-потенциал зонд 
NGLD               .у.е.                                   : Показания зонда НГК-60 аппаратуры ДРСТ-3-90 
OGZ                .Ohmm                                   : Обращенный градиент-зонд 
PHIE               .v/v                                    : Описание 
PHIEN              .v/v                                    :  
PHIT               .v/v                                    : Описание 
PRMB               .mD                                     :  
PRMB_DGR           .mD                                     :  
RT                 .ohmm                                   : УЭС пласта 
SOIL_ARCHIE        .v/v                                    :  
SOIL_DW            .v/v                                    :  
SP                 .мВ                                     : Потенциал самополяризации 
VSH_FIN            .v/v                                    : Описание 
VSH_GR             .v/v                                    : Shale volume 
VSH_SP             .v/v                                    : Shale Volume 
~Ascii
# ...
1149       0.245      -9999      -9999      9.289      1.573      1.397      1.786      1.021      0.966      1.519      1.283      0.892      0.961      2.229      0.1664904  0.1664904  0.32535    3.395973   4.100905   1.519      0.1241114  0.3938814  37.75      0.4813927  0.3646321  0.5981532 
1149.2     0.247      -9999      -9999      9.151      1.7        2.215      1.818      1.221      1.109      1.554      1.206      1.084      0.99       2.64       0.1556548  0.1556548  0.3065     2.139257   5.254269   1.554      0.08111458 0.3620189  37.285     0.4571066  0.3295376  0.5846756 
1149.4     0.257      -9999      -9999      9.183      1.447      2.356      1.999      1.042      1.262      1.996      1.417      1.346      1.016      3.279      0.1500539  0.1500539  0.2896     1.68469    4.960829   1.996      0.1564527  0.4088265  34.921     0.4228669  0.337362   0.5083719 
1149.6     0.248      -9999      -9999      9.018      1.233      1.695      2.257      0.867      1.53       2.915      3.119      2.083      1.038      3.867      0.1553127  0.1553127  0.2753     2.108267   6.671841   2.915      0.3146746  0.502246   32.088     0.363598   0.2989146  0.4282814 
1149.8     0.247      1          2          8.597      1.179      1.395      2.514      1.036      1.87       3.969      2.952      2.901      1.053      3.722      0.1667192  0.1667192  0.26555    3.429269   14.21031   3.969      0.4425719  0.5762396  30.077     0.2994874  0.2195168  0.379458  
1150       0.247      1          2          8.657      1.275      1.458      2.559      1.719      2.209      3.598      3.059      2.83       1.046      3.366      0.1696935  0.1696935  0.2701     3.89308    12.75871   3.598      0.4252219  0.5625479  29.973     0.3042621  0.229391   0.3791333 
1150.2     0.242      1          2          8.21       1.707      1.74       2.601      2.402      2.617      4.496      3.164      2.761      1.075      3.032      0.1613295  0.1613295  0.25125    2.725032   28.47366   4.496      0.4589835  0.5829968  29.906     0.2724863  0.1652785  0.3796941 
1150.4     0.244      1          2          8.631      2.141      2.05       2.52       3.235      2.758      4.266      3.326      2.992      1.048      2.946      0.1702507  0.1702507  0.2688     3.986699   13.36859   4.266      0.4708805  0.5976303  29.5       0.2986344  0.2250587  0.37221   
1150.6     0.245      1          2          8.688      2.607      2.551      2.44       3.513      2.794      4.751      2.74       2.872      1.078      3.071      0.1500637  0.1500637  0.2493     1.685397   12.06781   4.751      0.4385014  0.5803979  29.176     0.3007161  0.2346655  0.3667667 
1150.8     0.245      1          2          8.756      2.848      3.287      2.429      3.79       2.794      4.266      3.007      3.107      1.104      3.223      0.1319671  0.1319671  0.2324     0.7789497  10.68051   4.266      0.3394569  0.5138433  28.879     0.3043421  0.246664   0.3620202 
1151       0.245      1          2          8.731      3.043      4.06       2.55       4.013      3.234      3.06       2.933      2.495      1.095      2.838      0.1289666  0.1289666  0.23825    0.6853811  11.17096   3.06       0.2123829  0.429437   31.15      0.3311618  0.2421831  0.4201404 
1151.2     0.246      -9999      -9999      9.425      3.296      5.008      2.943      3.91       3.722      2.688      2.569      2.21       1.066      2.717      0.1139385  0.1139385  0.2571     0.361056   3.212229   2.688      0.0676172  0.391018   32.668     0.4338229  0.402873   0.4647727 
1151.4     0.246      -9999      -9999      10.009     2.987      5.705      3.667      3.431      4.211      4.334      2.382      2.2        1.07       3.196      0.06613494 0.06613494 0.2545     0.04700431 1.125427   4.334      0          0.4172444  34.486     0.5708031  0.6182437  0.5233626 
1151.6     0.246      -9999      -9999      10.22      2.678      5.531001   4.552      3.805      5.130001   6.925      2.337      2.733      1.092      5.987999   0.02771414 0.02771414 0.2402     0.009130429 0.7704558  6.925      0          0.3931329  35.671     0.6438965  0.7217035  0.5660895 
1151.8     0.246      -9999      -9999      9.853      2.442      4.84       4.069      5.148      4.919      5.446      2.965      3.351      1.091      5.888      0.05773867 0.05773867 0.24085    0.03285628 1.489323   5.446      0          0.4366753  35.356     0.5548829  0.5514129  0.5583529 
1152       0.27       -9999      -9999      9.738      3.519      6.311      3.426      6.466      4.197      2.286      1.979      2.054      1.086      4.793      0.06973652 0.06973652 0.2441     0.05480845 1.830977   2.286      0          0.1885577  35.018     0.5283743  0.5068179  0.5499305 
1152.2     0.274      -9999      -9999      9.545      3.78       8.586      2.782      6.667      3.445      1.852      1.205      1.28       1.082      3.698      0.08385433 0.08385433 0.2467     0.1000791  2.589481   1.852      0          0.158739   34.841     0.4934717  0.4399321  0.5470114 
1152.4     0.271      -9999      -9999      9.376      2.808      7.122001   2          5.171      2.461      1.883      0.977      1.011      1.034      2.112      0.124298   0.124298   0.2779     0.5616418  3.507709   1.883      0          0.3291741  34.609     0.4654604  0.3886537  0.5422671 
1152.6     0.263      -9999      -9999      9.183      1.934      5.244999   2.244      3.218      1.568      1.883      1.131      1.168      1.016      1.325      0.1513363  0.1513363  0.2896     1.779399   4.960829   1.883      0.1394666  0.3933522  33.226     0.4189809  0.337362   0.5005997 
1152.8     0.257      1          2          9.27       1.57       2.853      2.729      1.9        1.199      1.872      1.743      1.157      1.034      0.951      0.1400504  0.1400504  0.2779     1.09959    4.243246   1.872      0.07683994 0.3570042  32.322     0.4177261  0.3595871  0.4758651 
1153       0.25       1          2          9.321      1.54       3.363      3.597      1.056      1.238      2.113      1.828      1.205      1.053      1.379      0.1302288  0.1302288  0.26555    0.7232897  3.871872   2.113      0.07082213 0.3599761  31.226     0.4100642  0.37329    0.4468383 
1153.2     0.25       1          2          8.856      1.572      3.233      4.625      0.917      1.345      2.06       1.795      1.206      1.045      2.005      0.1562176  0.1562176  0.27075    2.191221   8.924767   2.06       0.1974891  0.4032723  30.476     0.3470681  0.2654323  0.4287039 
1153.4     0.246      1          2          8.455      1.485      2.409      6.028      0.889      1.852      2.114      1.761      1.365      1.042      2.285      0.1769606  0.1769606  0.2727     5.307605   18.33818   2.114      0.2887568  0.4420924  28.573     0.2901191  0.1978079  0.3824303 
1153.6     0.239      1          2          8.693      1.369      1.96       7.752      0.889      2.481      2.91       1.938      1.472      1.042      2.63       0.177094   0.177094   0.2727     5.337877   11.95992   2.91       0.3882062  0.524626   26.798     0.2897151  0.2355275  0.3439026 
1153.8     0.237      1          2          7.962      1.319      1.919      8.159      1.083      3.333      6.117      2.127      1.586      1.052      3.457      0.1931822  0.1931822  0.2662     10.60133   44.44986   6.117      0.5997702  0.6790728  24.777     0.2212661  0.1377951  0.3047371 
1154       0.237      1          2          8.163      1.389      2.004      7.099      1.549      4.201      6.913      1.792      1.751      1.043      4.328      0.1999939  0.1999939  0.27205    14.17526   30.98137   6.913      0.6333339  0.7061835  23.143     0.2183518  0.1596791  0.2770244 
1154.2     0.235      1          2          8.316      1.603      2.606      6.733      3.185      5.072001   5.445      1.69       2.413      1.054      3.914      0.1809852  0.1809852  0.2649     6.301482   23.53796   5.445      0.5526009  0.6495745  25.867     0.2542873  0.1786386  0.3299361 
