~Version
 VERS              .         2.0                           : CWLS LOG ASCII STANDARD - VERSION 2.0
 WRAP              .         NO                            : ONE LINE PER DEPTH STEP
 DLM               .         SPACE                         : DELIMITING CHARACTER(SPACE TAB OR COMMA)
~Well Information
#_______________________________________________________________________________
#
#PARAMETER_NAME    .UNIT     VALUE                         : DESCRIPTION
#_______________________________________________________________________________
STRT               .M        960                           : First reference value
STOP               .M        1261                          : Last reference value
STEP               .M        0.2                           : Step increment
NULL               .         -9999                         : Missing value
COMP               .                                       : Company
WELL               .         1201                          : Well name
FLD                .         УЗЕНЬ                         : Field
LOC                .                                       : Location
CNTY               .                                       : County
STAT               .                                       : State
CTRY               .                                       : Country
SRVC               .                                       : Service Company
DATE               .                                       : Date
UWI                .                                       : Unique Well ID
Block              .         3а                            : 
Category           .         Нефтяная                      : 
Condition          .         В работе                      : 
Date               .         30.10.1967                    : 
EREF               .m        234.3                         : 100.8
Gorizont           .         15                            : 14
Interpretator      .         Ткачева И.Г.                  : 
Kupol              .         Основной                      : osnovnoi
Mud                .         0                             : 
Mud_density        .         0                             : 
Mud_resistivity    .         0                             : 
NGDU               .         НГДУ-1                        : 
ORIGINALWELLNAME   .         1201                          : 
Spud_date          .         1967                          : 1961
Uslovie            .         15                            : 
Viscosity          .         0                             : 
X                  .m        55429.8                       : 46154
Y                  .m        80454.8                       : 85761.93
YEAR               .         2018                          : 
~Parameter Information Block
#_______________________________________________________________________________
#
#PARAMETER_NAME    .UNIT     VALUE                         : DESCRIPTION
#_______________________________________________________________________________
SET                .         LQC_KAZNIPI_Petrel            : 
TLFamily_CALI      .         Caliper                       : 
TLFamily_COLL      .         Net Reservoir Flag            : 
TLFamily_CSAT      .         Fluid Code                    : 
TLFamily_DEPT      .         Measured Depth                : 
TLFamily_GR        .         Russian Gamma Ray             : 
TLFamily_GZ1       .         Gradient 045                  : 
TLFamily_GZ2       .         Gradient 105                  : 
TLFamily_GZ3       .         Gradient 225                  : 
TLFamily_GZ4       .         Gradient 425                  : 
TLFamily_GZ5       .         Gradient 850                  : 
TLFamily_LLS       .         Lateral Log Resistivity       : 
TLFamily_MINV      .         Micro Gradient Resistivity    : 
TLFamily_MNOR      .         Micro Resistivity             : 
TLFamily_NGLD      .         Neutron Gamma                 : 
TLFamily_OGZ       .         Gradient Inverted 225         : 
TLFamily_PHIE      .         Effective Porosity            : 
TLFamily_PHIEN     .         Effective Porosity            : 
TLFamily_PHIT      .         Porosity                      : 
TLFamily_PRMB      .         Permeability                  : 
TLFamily_PRMB_DGR  .         Permeability                  : 
TLFamily_RT        .         Formation Resistivity         : 
TLFamily_SOIL_ARCHIE .         Oil Saturation                : 
TLFamily_SOIL_DW   .         Oil Saturation                : 
TLFamily_SP        .         Spontaneous Potential         : 
TLFamily_VSH_FIN   .         Shale Volume                  : 
TLFamily_VSH_GR    .         Shale Volume                  : 
TLFamily_VSH_SP    .         Shale Volume                  : 
~Curve Information
#_______________________________________________________________________________
#
#LOGNAME           .UNIT     LOG_ID                        : DESCRIPTION
#_______________________________________________________________________________
DEPT               .M                                      : Колонка глубины 
CALI               .м                                      : Каверномер 
COLL               .unitless                               : Описание 
CSAT               .unitless                               : Описание 
GR                 .uR/h                                   : Гамма каротаж 
GZ1                .Ohmm                                   : Градиент-зонд  длиной 0.45м 
GZ2                .Ohmm                                   : Градиент-зонд  длиной 1.05м 
GZ3                .Ohmm                                   : Градиент-зонд  длиной 2.25м 
GZ4                .Ohmm                                   : Градиент-зонд  длиной 4.5м 
GZ5                .Ohmm                                   : Градиент-зонд  длиной 8.5м 
LLS                .Ohmm                                   : Боковой каротаж 
MINV               .Ohmm                                   : Микро-градиент зонд 
MNOR               .Ohmm                                   : Микро-потенциал зонд 
NGLD               .у.е.                                   : Показания зонда НГК-60 аппаратуры ДРСТ-3-90 
OGZ                .Ohmm                                   : Обращенный градиент-зонд 
PHIE               .v/v                                    : Описание 
PHIEN              .v/v                                    :  
PHIT               .v/v                                    : Описание 
PRMB               .mD                                     :  
PRMB_DGR           .mD                                     :  
RT                 .ohmm                                   : УЭС пласта 
SOIL_ARCHIE        .v/v                                    :  
SOIL_DW            .v/v                                    :  
SP                 .мВ                                     : Потенциал самополяризации 
VSH_FIN            .v/v                                    : Описание 
VSH_GR             .v/v                                    : Shale volume 
VSH_SP             .v/v                                    : Shale Volume 
~Ascii
# ...
1095       0.257      -9999      -9999      7.655      1.841      2.561      2.019      1.879      1.727      2.092      1.356      1.587      0.997      1.782      0.1751313  0.1751313  0.3215     4.909248   4.92889    2.092      0.2787587  0.4898908  35.55      0.4435415  0.3382529  0.54883   
1095.2     0.268      -9999      -9999      7.776      1.923      2.815      2.111      1.854      1.704      2.074      1.275      1.456      1.024      2.057      0.1669006  0.1669006  0.308      3.455904   4.376585   2.074      0.2448211  0.464128   34.045     0.4275739  0.3550727  0.5000752 
1095.4     0.255      -9999      -9999      7.386      1.907      3.182      2.244      1.93       1.631      1.864      1.105      1.098      1.021      2.106      0.1871373  0.1871373  0.3095     8.192105   6.419395   1.864      0.2813497  0.4613707  31.922     0.3707959  0.3036599  0.437932  
1095.6     0.254      -9999      -9999      6.969      1.876      3.055      2.286      2.006      1.575      1.59       0.967      1.042      0.994      1.715      0.2103735  0.2103735  0.323      22.06915   9.668748   1.59       0.300724   0.4576865  31.471     0.3412924  0.2568944  0.4256905 
1095.8     0.273      -9999      -9999      6.876      1.889      2.802      2.189      1.956      1.535      1.651      0.689      0.872      0.976      1.584      0.2166678  0.2166678  0.332      28.86503   10.59352   1.651      0.3303852  0.4826466  32.408     0.3494914  0.247489   0.4514938 
1096       0.279      -9999      -9999      6.787      1.931      2.874      2.073      1.93       1.473      1.892      0.648      0.885      0.986      1.478      0.2113292  0.2113292  0.327      22.98729   11.56124   1.892      0.3580613  0.5073781  32.783     0.3505175  0.2388108  0.4622243 
1096.2     0.274      -9999      -9999      6.47       1.582      2.298      1.958      1.879      1.422      1.713      0.648      0.943      0.985      1.397      0.2168717  0.2168717  0.3275     29.11707   15.78427   1.713      0.3424084  0.4881636  32.712     0.3352373  0.2102999  0.4601747 
1096.4     0.281      -9999      -9999      6.721      1.371      2.19       1.842      1.721      1.295      1.627      0.6        0.867      0.983      1.426      0.2163636  0.2163636  0.3285     28.49289   12.33552   1.627      0.3249424  0.4752577  32.25      0.3398074  0.2325724  0.4470423 
1096.6     0.266      -9999      -9999      7.152      1.597      2.307      1.727      1.52       1.295      1.575      0.563      0.829      0.967      1.557      0.2181065  0.2181065  0.3365     30.69158   8.078105   1.575      0.3193466  0.4759403  32.036     0.3587683  0.2764581  0.4410784 
1096.8     0.266      -9999      -9999      7.271      1.459      2.106      1.856      1.371      1.295      1.98       0.57       0.865      0.997      1.739      0.1999851  0.1999851  0.3215     14.1699    7.187017   1.98       0.3406772  0.5025898  32.23      0.3682271  0.2899724  0.4464817 
1097       0.269      -9999      -9999      7.449      1.559      2.043      2.052      1.321      1.422      2.386      0.668      0.998      0.994      1.87       0.1926111  0.1926111  0.323      10.34624   6.034216   2.386      0.3758399  0.5412847  33.347     0.3951179  0.3114301  0.4788057 
1097.2     0.277      -9999      -9999      7.69       1.322      1.902      2.249      1.422      1.57       2.826      0.724      1.068      0.974      2.129      0.1923463  0.1923463  0.333      10.23007   4.762331   2.826      0.4228022  0.5859448  34.343     0.4262233  0.3430345  0.5094121 
1097.4     0.283      -9999      -9999      7.682      1.314      1.859      2.374      1.473      1.702      2.357      0.718      1.156      0.963      2.311      0.1950793  0.1950793  0.3385     11.49475   4.799896   2.357      0.379171   0.5535821  34.9       0.4346083  0.3419357  0.5272809 
1097.6     0.276      -9999      -9999      7.045      1.414      2.181      2.484      1.524      1.829      1.964      0.566      0.952      0.951      2.493      0.2133413  0.2133413  0.3445     25.04706   8.973287   1.964      0.3743988  0.5330769  34.985     0.3974506  0.2648453  0.5300559 
1097.8     0.277      -9999      -9999      6.819      1.692      2.427      2.374      1.664      2.032      1.994      0.548      0.845      0.966      1.922      0.2102685  0.2102685  0.337      21.97051   11.20352   1.994      0.3709346  0.5277183  34.866     0.3840349  0.2418954  0.5261744 
1098       0.278      -9999      -9999      7.304      2.113      2.561      2.265      1.839      1.981      1.841      0.569      0.919      0.987      1.486      0.1914929  0.1914929  0.3265     9.864424   6.957807   1.841      0.2914914  0.4799508  34.811     0.4091124  0.2938358  0.524389  
1098.2     0.254      -9999      -9999      7.675      1.95       2.665      2.155      1.879      1.981      1.809      0.626      0.993      0.969      1.439      0.1921407  0.1921407  0.3355     10.14073   4.833011   1.809      0.2877354  0.4845954  34.918     0.4344222  0.3409771  0.5278674 
1098.4     0.265      -9999      -9999      8.254      1.735      2.624      2.062      1.93       2.027      1.925      0.696      1.076      0.993      1.646      0.1633525  0.1633525  0.3235     2.970594   2.736774   1.925      0.2031596  0.4557101  35.301     0.4852954  0.4301054  0.5404855 
1098.6     0.275      -9999      -9999      8.556      1.762      2.624      2.006      1.93       1.827      1.876      0.76       1.128      0.991      1.853      0.1546252  0.1546252  0.3245     2.047352   2.034311   1.876      0.1539532  0.4380135  35.408     0.514772   0.4854863  0.5440577 
1098.8     0.272      -9999      -9999      8.596      1.787      2.283      2.01       1.855      1.626      1.729      0.629      0.996      0.969      1.901      0.1644016  0.1644016  0.3355     3.106522   1.955938   1.729      0.1666366  0.4398102  35.395     0.5184801  0.4933375  0.5436226 
1099       0.245      -9999      -9999      8.972      1.663      2.264      2.09       1.756      1.426      1.776      0.61       0.934      0.96       1.846      0.1579342  0.1579342  0.34       2.357667   1.351973   1.776      0.1477853  0.4433914  34.977     0.5517146  0.5736349  0.5297942 
1099.2     0.245      -9999      -9999      8.725      1.632      2.333      2.247      1.651      1.371      1.786      0.94       1.117      0.989      1.766      0.1540677  0.1540677  0.3255     1.999243   1.723171   1.786      0.1314793  0.4243369  34.658     0.5194918  0.5195333  0.5194502 
1099.4     0.245      -9999      -9999      8.633      1.745      2.257      2.531      1.609      1.515      2.202      1.187      1.393      1.007      1.66       0.1478543  0.1478543  0.3165     1.533836   1.886132   2.202      0.1840232  0.4641576  34.718     0.5110475  0.5007131  0.521382  
1099.6     0.254      -9999      -9999      9.064      1.718      2.193      2.641      1.614      1.549      2.547      1.232      1.594      0.984      1.579      0.1426192  0.1426192  0.328      1.226905   1.235163   2.547      0.213587   0.5061327  34.932     0.5617601  0.5951961  0.528324  
1099.8     0.257      -9999      -9999      8.619      1.567      2.188      2.616      1.727      1.687      2.231      0.967      1.407      0.994      1.472      0.1533425  0.1533425  0.323      1.938354   1.912247   2.231      0.2143566  0.4815407  34.993     0.5141136  0.4979095  0.5303177 
1100       0.247      -9999      -9999      8.588      1.509      2.286      2.511      1.93       1.778      1.925      0.787      1.148      0.963      1.448      0.1723115  0.1723115  0.3385     4.352956   1.971366   1.925      0.2393665  0.4814449  34.533     0.5036017  0.4917573  0.515446  
1100.2     0.242      -9999      -9999      8.194      1.765      2.615      2.405      1.956      1.778      1.69       0.981      1.035      0.956      1.414      0.1920248  0.1920248  0.342      10.09073   2.902903   1.69       0.2642383  0.4727855  33.687     0.4544705  0.419879   0.4890619 
