~Version
 VERS              .         2.0                           : CWLS LOG ASCII STANDARD - VERSION 2.0
 WRAP              .         NO                            : ONE LINE PER DEPTH STEP
 DLM               .         SPACE                         : DELIMITING CHARACTER(SPACE TAB OR COMMA)
~Well Information
#_______________________________________________________________________________
#
#PARAMETER_NAME    .UNIT     VALUE                         : DESCRIPTION
#_______________________________________________________________________________
STRT               .M        960                           : First reference value
STOP               .M        1261                          : Last reference value
STEP               .M        0.2                           : Step increment
NULL               .         -9999                         : Missing value
COMP               .                                       : Company
WELL               .         1201                          : Well name
FLD                .         УЗЕНЬ                         : Field
LOC                .                                       : Location
CNTY               .                                       : County
STAT               .                                       : State
CTRY               .                                       : Country
SRVC               .                                       : Service Company
DATE               .                                       : Date
UWI                .                                       : Unique Well ID
Block              .         3а                            : 
Category           .         Нефтяная                      : 
Condition          .         В работе                      : 
Date               .         30.10.1967                    : 
EREF               .m        234.3                         : 100.8
Gorizont           .         15                            : 14
Interpretator      .         Ткачева И.Г.                  : 
Kupol              .         Основной                      : osnovnoi
Mud                .         0                             : 
Mud_density        .         0                             : 
Mud_resistivity    .         0                             : 
NGDU               .         НГДУ-1                        : 
ORIGINALWELLNAME   .         1201                          : 
Spud_date          .         1967                          : 1961
Uslovie            .         15                            : 
Viscosity          .         0                             : 
X                  .m        55429.8                       : 46154
Y                  .m        80454.8                       : 85761.93
YEAR               .         2018                          : 
~Parameter Information Block
#_______________________________________________________________________________
#
#PARAMETER_NAME    .UNIT     VALUE                         : DESCRIPTION
#_______________________________________________________________________________
SET                .         LQC_KAZNIPI_Petrel            : 
TLFamily_CALI      .         Caliper                       : 
TLFamily_COLL      .         Net Reservoir Flag            : 
TLFamily_CSAT      .         Fluid Code                    : 
TLFamily_DEPT      .         Measured Depth                : 
TLFamily_GR        .         Russian Gamma Ray             : 
TLFamily_GZ1       .         Gradient 045                  : 
TLFamily_GZ2       .         Gradient 105                  : 
TLFamily_GZ3       .         Gradient 225                  : 
TLFamily_GZ4       .         Gradient 425                  : 
TLFamily_GZ5       .         Gradient 850                  : 
TLFamily_LLS       .         Lateral Log Resistivity       : 
TLFamily_MINV      .         Micro Gradient Resistivity    : 
TLFamily_MNOR      .         Micro Resistivity             : 
TLFamily_NGLD      .         Neutron Gamma                 : 
TLFamily_OGZ       .         Gradient Inverted 225         : 
TLFamily_PHIE      .         Effective Porosity            : 
TLFamily_PHIEN     .         Effective Porosity            : 
TLFamily_PHIT      .         Porosity                      : 
TLFamily_PRMB      .         Permeability                  : 
TLFamily_PRMB_DGR  .         Permeability                  : 
TLFamily_RT        .         Formation Resistivity         : 
TLFamily_SOIL_ARCHIE .         Oil Saturation                : 
TLFamily_SOIL_DW   .         Oil Saturation                : 
TLFamily_SP        .         Spontaneous Potential         : 
TLFamily_VSH_FIN   .         Shale Volume                  : 
TLFamily_VSH_GR    .         Shale Volume                  : 
TLFamily_VSH_SP    .         Shale Volume                  : 
~Curve Information
#_______________________________________________________________________________
#
#LOGNAME           .UNIT     LOG_ID                        : DESCRIPTION
#_______________________________________________________________________________
DEPT               .M                                      : Колонка глубины 
CALI               .м                                      : Каверномер 
COLL               .unitless                               : Описание 
CSAT               .unitless                               : Описание 
GR                 .uR/h                                   : Гамма каротаж 
GZ1                .Ohmm                                   : Градиент-зонд  длиной 0.45м 
GZ2                .Ohmm                                   : Градиент-зонд  длиной 1.05м 
GZ3                .Ohmm                                   : Градиент-зонд  длиной 2.25м 
GZ4                .Ohmm                                   : Градиент-зонд  длиной 4.5м 
GZ5                .Ohmm                                   : Градиент-зонд  длиной 8.5м 
LLS                .Ohmm                                   : Боковой каротаж 
MINV               .Ohmm                                   : Микро-градиент зонд 
MNOR               .Ohmm                                   : Микро-потенциал зонд 
NGLD               .у.е.                                   : Показания зонда НГК-60 аппаратуры ДРСТ-3-90 
OGZ                .Ohmm                                   : Обращенный градиент-зонд 
PHIE               .v/v                                    : Описание 
PHIEN              .v/v                                    :  
PHIT               .v/v                                    : Описание 
PRMB               .mD                                     :  
PRMB_DGR           .mD                                     :  
RT                 .ohmm                                   : УЭС пласта 
SOIL_ARCHIE        .v/v                                    :  
SOIL_DW            .v/v                                    :  
SP                 .мВ                                     : Потенциал самополяризации 
VSH_FIN            .v/v                                    : Описание 
VSH_GR             .v/v                                    : Shale volume 
VSH_SP             .v/v                                    : Shale Volume 
~Ascii
# ...
1057.2     0.286      -9999      -9999      9.061      1.755      2.112      1.565      1.321      1.333      1.662      0.513      0.667      0.893      1.448      0.1699007  0.1699007  0.3735     3.927629   1.238808   1.662      0.1750193  0.4720783  34.638     0.6169677  0.5944803  0.639455  
1057.4     0.275      -9999      -9999      9.134      1.578      2.061      1.594      1.346      1.335      1.797      0.559      0.747      0.912      1.448      0.1644535  0.1644535  0.364      3.11341    1.153095   1.797      0.1818115  0.4777091  33.549     0.6046863  0.6121426  0.5972301 
1057.6     0.28       -9999      -9999      9.127      1.301      1.796      1.622      1.346      1.293      1.917      0.492      0.848      0.893      1.469      0.1814156  0.1814156  0.3735     6.418241   1.16105    1.917      0.2712993  0.5205019  32.352     0.5820738  0.6104264  0.5537211 
1057.8     0.296      -9999      -9999      9.351      1.255      2.032      1.651      1.321      1.251      1.663      0.511      0.968      0.911      1.473      0.1703735  0.1703735  0.3645     4.007631   0.9317541  1.663      0.1772459  0.464717   31.02      0.5882623  0.6678047  0.5087199 
1058       0.291      -9999      -9999      9.08       1.331      2.092      1.674      1.321      1.209      1.392      0.61       0.97       0.925      1.498      0.1735236  0.1735236  0.3575     4.58392    1.215904   1.392      0.1197782  0.4119584  31.29      0.5575041  0.5990277  0.5159804 
1058.2     0.289      -9999      -9999      9.048      1.484      2.181      1.697      1.321      1.167      1.374      0.507      0.767      0.902      1.498      0.1804266  0.1804266  0.369      6.153134   1.254726   1.374      0.1439699  0.4281729  32.41      0.5714346  0.591389   0.5514801 
1058.4     0.291      -9999      -9999      9.018      1.749      1.978      1.72       1.359      1.125      1.412      0.483      0.635      0.907      1.473      0.1726692  0.1726692  0.3665     4.419884   1.292249   1.412      0.1218839  0.4239839  33.567     0.587366   0.584316   0.590416  
1058.6     0.279      -9999      -9999      8.665      1.574      2.029      1.743      1.397      1.113      1.604      0.502      0.686      0.874      1.549      0.195352   0.195352   0.383      11.62923   1.827772   1.604      0.2571804  0.498311   34.682     0.5686303  0.5071805  0.6300802 
1058.8     0.269      -9999      -9999      8.921      1.448      1.838      1.752      1.422      1.108      1.71       0.609      0.78       0.882      1.549      0.1776802  0.1776802  0.379      5.473008   1.421421   1.71       0.2170996  0.4928929  35.448     0.61006    0.5620208  0.6580994 
1059       0.266      -9999      -9999      9.005      1.154      1.927      1.803      1.448      1.102      1.773      0.606      0.9        0.888      1.55       0.173433   0.173433   0.376      4.566227   1.308854   1.773      0.2138878  0.4949198  35.19      0.6138394  0.5812775  0.6464014 
1059.2     0.264      -9999      -9999      8.818      1.275      2.023      1.782      1.473      1.097      1.529      0.699      0.978      0.907      1.57       0.1725183  0.1725183  0.3665     4.391535   1.572745   1.529      0.1534379  0.4462776  34.971     0.5878232  0.5392771  0.6363693 
1059.4     0.261      -9999      -9999      8.957      1.275      1.832      1.803      1.473      1.067      1.739      0.624      0.943      0.925      1.575      0.1589549  0.1589549  0.3575     2.462574   1.372039   1.739      0.1441397  0.4561722  34.927     0.6016517  0.5701942  0.633109  
1059.6     0.271      -9999      -9999      9.071      1.399      1.851      1.854      1.448      1.143      1.829      0.739      1.063      0.911      1.575      0.1660204  0.1660204  0.3645     3.328578   1.2267     1.829      0.1952346  0.4845803  34.245     0.6014533  0.5968694  0.6060371 
1059.8     0.283      -9999      -9999      9.354      1.569      1.8        1.846      1.473      1.112      1.624      0.561      1.001      0.897      1.625      0.1673399  0.1673399  0.3715     3.521271   0.9290122  1.624      0.1549121  0.4610805  33.243     0.6186669  0.6686087  0.568725  
1060       0.293      -9999      -9999      9.263      1.409      1.909      1.879      1.515      1.168      1.448      0.572      0.883      0.918      1.575      0.1589663  0.1589663  0.361      2.463772   1.015872   1.448      0.06739718 0.4076711  33.6       0.6122232  0.6446465  0.5798    
1060.2     0.28       -9999      -9999      9.231      1.648      2.116      1.905      1.575      1.208      1.432      0.539      0.825      0.908      1.549      0.1614838  0.1614838  0.366      2.743023   1.048307   1.432      0.07526343 0.4129365  34.288     0.6197461  0.6364261  0.6030662 
1060.4     0.262      -9999      -9999      9.231      1.471      1.915      1.884      1.563      1.256      1.623      0.559      0.716      0.906      1.549      0.1627873  0.1627873  0.367      2.899833   1.048307   1.623      0.1341141  0.4511524  34.279     0.6188264  0.6364261  0.6012267 
1060.6     0.258      -9999      -9999      9.581      1.572      2.054      1.964      1.413      1.27       1.812      0.698      0.794      0.892      1.549      0.1628896  0.1628896  0.374      2.912514   0.7433476  1.812      0.1781858  0.4868064  32.777     0.6397285  0.7323366  0.5471205 
1060.8     0.277      -9999      -9999      9.284      1.474      1.741      1.905      1.397      1.244      1.64       0.827      1.066      0.886      1.549      0.1825068  0.1825068  0.377      6.723986   0.9951317  1.64       0.220014   0.4857465  32.261     0.5893734  0.6500991  0.5286476 
1061       0.291      -9999      -9999      8.919      1.268      1.907      1.922      1.476      1.292      1.505      0.637      0.868      0.902      1.549      0.1874812  0.1874812  0.369      8.313142   1.424216   1.505      0.206728   0.4616159  32.603     0.5500569  0.5615702  0.5385435 
1061.2     0.293      -9999      -9999      9.188      1.382      1.934      1.93       1.625      1.321      1.486      0.546      0.681      0.902      1.549      0.1759094  0.1759094  0.369      5.07489    1.09353    1.486      0.1564524  0.4448039  32.829     0.5851231  0.6255445  0.5447016 
1061.4     0.297      -9999      -9999      9.412      1.565      2.023      1.93       1.776      1.295      1.5        0.629      0.792      0.9        1.549      0.1620241  0.1620241  0.37       2.806964   0.8775686  1.5        0.0978063  0.4310051  33.785     0.6302301  0.6843439  0.5761164 
1061.6     0.277      -9999      -9999      9.579      1.529      1.724      1.976      1.732      1.29       1.827      0.523      0.658      0.903      1.549      0.1475069  0.1475069  0.3685     1.511277   0.7448091  1.827      0.1074863  0.4649495  34.701     0.669676   0.7317495  0.6076025 
1061.8     0.287      -9999      -9999      8.634      1.411      1.804      1.93       1.404      1.219      1.799      0.649      0.857      0.885      1.524      0.2002054  0.2002054  0.3775     14.3037    1.884281   1.799      0.3110006  0.5265943  33.796     0.5372563  0.5009138  0.5735988 
1062       0.288      -9999      -9999      8.251      1.418      1.827      1.956      1.26       1.194      1.488      0.704      0.99       0.885      1.498      0.2119703  0.2119703  0.3775     23.62453   2.744848   1.488      0.283361   0.4909883  33.838     0.501605   0.4295883  0.5736218 
1062.2     0.285      -9999      -9999      7.834      1.32       1.764      1.981      1.486      1.194      1.622      0.514      0.768      0.902      1.498      0.2095611  0.2095611  0.369      21.3176    4.134231   1.622      0.3048936  0.5034655  34.696     0.4831481  0.3634291  0.6028672 
1062.4     0.283      -9999      -9999      8.156      1.534      2.11       1.981      1.549      1.244      1.627      0.59       0.718      0.914      1.52       0.1972774  0.1972774  0.363      12.62447   3.013296   1.627      0.2684027  0.4872318  34.406     0.5021899  0.4135284  0.5908514 
