~Version
 VERS              .         2.0                           : CWLS LOG ASCII STANDARD - VERSION 2.0
 WRAP              .         NO                            : ONE LINE PER DEPTH STEP
 DLM               .         SPACE                         : DELIMITING CHARACTER(SPACE TAB OR COMMA)
~Well Information
#_______________________________________________________________________________
#
#PARAMETER_NAME    .UNIT     VALUE                         : DESCRIPTION
#_______________________________________________________________________________
STRT               .M        960                           : First reference value
STOP               .M        1261                          : Last reference value
STEP               .M        0.2                           : Step increment
NULL               .         -9999                         : Missing value
COMP               .                                       : Company
WELL               .         1201                          : Well name
FLD                .         УЗЕНЬ                         : Field
LOC                .                                       : Location
CNTY               .                                       : County
STAT               .                                       : State
CTRY               .                                       : Country
SRVC               .                                       : Service Company
DATE               .                                       : Date
UWI                .                                       : Unique Well ID
Block              .         3а                            : 
Category           .         Нефтяная                      : 
Condition          .         В работе                      : 
Date               .         30.10.1967                    : 
EREF               .m        234.3                         : 100.8
Gorizont           .         15                            : 14
Interpretator      .         Ткачева И.Г.                  : 
Kupol              .         Основной                      : osnovnoi
Mud                .         0                             : 
Mud_density        .         0                             : 
Mud_resistivity    .         0                             : 
NGDU               .         НГДУ-1                        : 
ORIGINALWELLNAME   .         1201                          : 
Spud_date          .         1967                          : 1961
Uslovie            .         15                            : 
Viscosity          .         0                             : 
X                  .m        55429.8                       : 46154
Y                  .m        80454.8                       : 85761.93
YEAR               .         2018                          : 
~Parameter Information Block
#_______________________________________________________________________________
#
#PARAMETER_NAME    .UNIT     VALUE                         : DESCRIPTION
#_______________________________________________________________________________
SET                .         LQC_KAZNIPI_Petrel            : 
TLFamily_CALI      .         Caliper                       : 
TLFamily_COLL      .         Net Reservoir Flag            : 
TLFamily_CSAT      .         Fluid Code                    : 
TLFamily_DEPT      .         Measured Depth                : 
TLFamily_GR        .         Russian Gamma Ray             : 
TLFamily_GZ1       .         Gradient 045                  : 
TLFamily_GZ2       .         Gradient 105                  : 
TLFamily_GZ3       .         Gradient 225                  : 
TLFamily_GZ4       .         Gradient 425                  : 
TLFamily_GZ5       .         Gradient 850                  : 
TLFamily_LLS       .         Lateral Log Resistivity       : 
TLFamily_MINV      .         Micro Gradient Resistivity    : 
TLFamily_MNOR      .         Micro Resistivity             : 
TLFamily_NGLD      .         Neutron Gamma                 : 
TLFamily_OGZ       .         Gradient Inverted 225         : 
TLFamily_PHIE      .         Effective Porosity            : 
TLFamily_PHIEN     .         Effective Porosity            : 
TLFamily_PHIT      .         Porosity                      : 
TLFamily_PRMB      .         Permeability                  : 
TLFamily_PRMB_DGR  .         Permeability                  : 
TLFamily_RT        .         Formation Resistivity         : 
TLFamily_SOIL_ARCHIE .         Oil Saturation                : 
TLFamily_SOIL_DW   .         Oil Saturation                : 
TLFamily_SP        .         Spontaneous Potential         : 
TLFamily_VSH_FIN   .         Shale Volume                  : 
TLFamily_VSH_GR    .         Shale Volume                  : 
TLFamily_VSH_SP    .         Shale Volume                  : 
~Curve Information
#_______________________________________________________________________________
#
#LOGNAME           .UNIT     LOG_ID                        : DESCRIPTION
#_______________________________________________________________________________
DEPT               .M                                      : Колонка глубины 
CALI               .м                                      : Каверномер 
COLL               .unitless                               : Описание 
CSAT               .unitless                               : Описание 
GR                 .uR/h                                   : Гамма каротаж 
GZ1                .Ohmm                                   : Градиент-зонд  длиной 0.45м 
GZ2                .Ohmm                                   : Градиент-зонд  длиной 1.05м 
GZ3                .Ohmm                                   : Градиент-зонд  длиной 2.25м 
GZ4                .Ohmm                                   : Градиент-зонд  длиной 4.5м 
GZ5                .Ohmm                                   : Градиент-зонд  длиной 8.5м 
LLS                .Ohmm                                   : Боковой каротаж 
MINV               .Ohmm                                   : Микро-градиент зонд 
MNOR               .Ohmm                                   : Микро-потенциал зонд 
NGLD               .у.е.                                   : Показания зонда НГК-60 аппаратуры ДРСТ-3-90 
OGZ                .Ohmm                                   : Обращенный градиент-зонд 
PHIE               .v/v                                    : Описание 
PHIEN              .v/v                                    :  
PHIT               .v/v                                    : Описание 
PRMB               .mD                                     :  
PRMB_DGR           .mD                                     :  
RT                 .ohmm                                   : УЭС пласта 
SOIL_ARCHIE        .v/v                                    :  
SOIL_DW            .v/v                                    :  
SP                 .мВ                                     : Потенциал самополяризации 
VSH_FIN            .v/v                                    : Описание 
VSH_GR             .v/v                                    : Shale volume 
VSH_SP             .v/v                                    : Shale Volume 
~Ascii
# ...
1035.6     0.282      -9999      -9999      6.527      1.936      7.544      4.731      2.582      1.659      2.609      2.144      2.11       1.069      2.376      0.1895378  0.1895378  0.2855     9.075229   7.13736    2.609      0.3930248  0.5247408  33.507     0.2907946  0.2907946  0.581796  
1035.8     0.28       -9999      -9999      6.02       2.041      5.666      4.168      2.717      1.589      1.778      2.223      2.143      1.028      2.094      0.2295056  0.2295056  0.306      49.90664   12.43626   1.778      0.3848951  0.4891984  33.385     0.2318013  0.2318013  0.5782945 
1036       0.322      -9999      -9999      6.152      2.32       4.306      4.038      2.807      1.891      1.636      1.543      1.447      1.031      2.532      0.223354   0.223354   0.3045     38.38984   10.76229   1.636      0.3450787  0.4598948  33.366     0.2458969  0.2458969  0.5784377 
1036.2     0.309      -9999      -9999      5.902      2.599      3.93       4.038      2.632      1.921      1.681      0.72       1.103      1.066      3.001      0.2144376  0.2144376  0.287      26.24599   14.15194   1.681      0.3300094  0.4390013  33.015     0.219886   0.219886   0.5669588 
1036.4     0.302      -9999      -9999      5.58       2.094      3.867      4.029      2.381      1.625      3.174      0.637      0.659      1.089      3.47       0.2126693  0.2126693  0.2755     24.33936   20.13603   3.174      0.4991983  0.5804425  32.595     0.1903961  0.1903961  0.5533285 
1036.6     0.279      -9999      -9999      5.472      1.6        4.359      3.95       2.391      1.676      2.941      0.722      0.888      1.12       3.764      0.2001318  0.2001318  0.26       14.25885   22.66436   2.941      0.4527481  0.5376034  33.667     0.1814188  0.1814188  0.5916344 
1036.8     0.279      -9999      -9999      5.263      1.407      3.824      3.766      2.82       1.727      2.082      1.682      2.366      1.132      3.191      0.199474   0.199474   0.254      13.86439   28.49401   2.082      0.3546004  0.4421563  35.045     0.1652303  0.1652303  0.643922  
1037       0.302      -9999      -9999      5.578      1.719      2.69       3.153      3.021      1.729      1.805      2.5        1.83       1.103      2.618      0.2057254  0.2057254  0.2685     18.10056   20.18018   1.805      0.3281807  0.4273511  36.157     0.1902259  0.1902259  0.6890678 
1037.2     0.323      -9999      -9999      5.31       2.422      2.312      2.771      2.823      1.63       1.751      0.789      0.935      1.101      2.352      0.2138158  0.2138158  0.2695     25.5591    27.06439   1.751      0.34105    0.4291461  36.204     0.1687401  0.1687401  0.6919378 
1037.4     0.309      -9999      -9999      5.067      2.201      2.788      2.488      2.394      1.48       1.849      0.643      0.962      1.132      2.634      0.2040499  0.2040499  0.254      16.85225   35.31669   1.849      0.3309827  0.4136679  34.777     0.1513639  0.1513639  0.6362734 
1037.6     0.284      -9999      -9999      5.199      1.886      2.781      2.472      2.169      1.356      2.115      0.704      1.066      1.161      2.915      0.1865125  0.1865125  0.2395     7.976673   30.56293   2.115      0.3207388  0.410944   33.914     0.1605682  0.1605682  0.604798  
1037.8     0.274      -9999      -9999      5.388      1.633      2.535      2.512      2.159      1.282      2.642      1.287      1.745      1.187      3.306      0.1688391  0.1688391  0.2265     3.753768   24.84837   2.642      0.3326541  0.4324357  33.921     0.17473    0.17473    0.6059014 
1038       0.27       -9999      -9999      5.164      1.42       2.697      2.687      2.245      1.305      2.445      2.108      2.027      1.173      3.724      0.1813354  0.1813354  0.2335     6.396317   31.75722   2.445      0.3496672  0.4374042  33.292     0.1580745  0.1580745  0.5839891 
1038.2     0.27       -9999      -9999      4.973      1.483      2.882      3.126      2.446      1.455      3.384      1.921      1.696      1.198      4.142      0.1731062  0.1731062  0.221      4.503032   39.1463    3.384      0.4186127  0.4965526  32.329     0.1451328  0.1451328  0.5513448 
1038.4     0.27       -9999      -9999      5.016      1.773      2.608      3.565      2.849      1.651      3.297      3.122      1.872      1.22       4.559999   0.1611763  0.1611763  0.21       2.707282   37.34548   3.297      0.3736989  0.4586427  31.569     0.1479507  0.1479507  0.5268723 
1038.6     0.269      -9999      -9999      5.292      1.841      2.386      4.003      3.354      1.932      7.069      2.252      2.095      1.244      4.914      0.1427623  0.1427623  0.198      1.234416   27.60323   7.069      0.5133314  0.5975583  32.486     0.1673872  0.1673872  0.5582622 
1038.8     0.266      -9999      -9999      5.565      2.007      2.405      4.565001   3.885      2.21       3.778      3.895      3.948      1.254      4.308      0.1305894  0.1305894  0.193      0.7344968  20.46956   3.778      0.294286   0.4202882  34.223     0.1891232  0.1891232  0.6213942 
1039       0.271      -9999      -9999      5.387      2.137      2.574      5.168      4.67       2.486      2.579      2.553      2.274      1.205      3.702      0.1598648  0.1598648  0.2175     2.560017   24.8756    2.579      0.2921706  0.3982665  35.345     0.1746519  0.1746519  0.6656263 
1039.2     0.271      -9999      -9999      5.43       2.97       3.569      4.394      5.124001   2.788      2.164      2.002      1.47       1.147      3.096      0.1877458  0.1877458  0.2465     8.407493   23.73126   2.164      0.3318467  0.4289058  35.131     0.178043   0.178043   0.6580732 
1039.4     0.275      -9999      -9999      5.691      4.022      4.691      3.584      4.428      2.65       1.935      0.987      1.188      1.102      2.489      0.2029716  0.2029716  0.269      16.09477   17.83107   1.935      0.342075   0.4444045  35.314     0.200086   0.200086   0.6662272 
1039.6     0.28       -9999      -9999      5.729      3.838      5.666999   3.316      3.389      2.794      1.913      0.903      1.011      1.094      2.679      0.2058399  0.2058399  0.273      18.18917   17.10419   1.913      0.3465703  0.4492391  35.348     0.2035154  0.2035154  0.6684999 
1039.8     0.278      -9999      -9999      5.77       3.068      5.898      3.034      2.757      2.275      2.478      1.235      1.152      1.121      2.904      0.1910971  0.1910971  0.2595     9.699301   16.35314   2.478      0.3825945  0.485886   34.841     0.2072814  0.2072814  0.6494273 
1040       0.271      -9999      -9999      5.592      2.224      5.574      2.728      2.226      1.676      2.896      2.256      2.029      1.142      3.129      0.1858312  0.1858312  0.249      7.748235   19.87313   2.896      0.4120071  0.5071248  35.347     0.1914207  0.1914207  0.6703016 
1040.2     0.271      -9999      -9999      5.963      1.763      5.127      2.667      2.006      1.67       3.109      2.01       2.17       1.16       3.355      0.1654309  0.1654309  0.24       3.245932   13.23737   3.109      0.3706485  0.4899903  36.405     0.225967   0.225967   0.7146804 
1040.4     0.271      -9999      -9999      6.126      1.637      4.342      2.866      2.057      1.806      3.052      1.917      2.382      1.162      3.482      0.1587921  0.1587921  0.239      2.445531   11.07316   3.052      0.342105   0.4752598  36.611     0.2430543  0.2430543  0.7243857 
1040.6     0.271      -9999      -9999      6.064      1.874      3.629      3.237      2.108      1.828      2.59       2.658      2.135      1.135      3.265      0.1744855  0.1744855  0.2525     4.775868   11.85117   2.59       0.3454248  0.4694329  35.691     0.2364077  0.2364077  0.6869875 
1040.8     0.271      -9999      -9999      6.113      2.189      3.161      3.608      2.034      1.775      3.41       2.17       2.379      1.147      3.048      0.1667571  0.1667571  0.2465     3.434816   11.23194   3.41       0.4015335  0.5222064  36.301     0.2416453  0.2416453  0.7132144 
