~Version
 VERS              .         2.0                           : CWLS LOG ASCII STANDARD - VERSION 2.0
 WRAP              .         NO                            : ONE LINE PER DEPTH STEP
 DLM               .         SPACE                         : DELIMITING CHARACTER(SPACE TAB OR COMMA)
~Well Information
#_______________________________________________________________________________
#
#PARAMETER_NAME    .UNIT     VALUE                         : DESCRIPTION
#_______________________________________________________________________________
STRT               .M        960                           : First reference value
STOP               .M        1261                          : Last reference value
STEP               .M        0.2                           : Step increment
NULL               .         -9999                         : Missing value
COMP               .                                       : Company
WELL               .         1201                          : Well name
FLD                .         УЗЕНЬ                         : Field
LOC                .                                       : Location
CNTY               .                                       : County
STAT               .                                       : State
CTRY               .                                       : Country
SRVC               .                                       : Service Company
DATE               .                                       : Date
UWI                .                                       : Unique Well ID
Block              .         3а                            : 
Category           .         Нефтяная                      : 
Condition          .         В работе                      : 
Date               .         30.10.1967                    : 
EREF               .m        234.3                         : 100.8
Gorizont           .         15                            : 14
Interpretator      .         Ткачева И.Г.                  : 
Kupol              .         Основной                      : osnovnoi
Mud                .         0                             : 
Mud_density        .         0                             : 
Mud_resistivity    .         0                             : 
NGDU               .         НГДУ-1                        : 
ORIGINALWELLNAME   .         1201                          : 
Spud_date          .         1967                          : 1961
Uslovie            .         15                            : 
Viscosity          .         0                             : 
X                  .m        55429.8                       : 46154
Y                  .m        80454.8                       : 85761.93
YEAR               .         2018                          : 
~Parameter Information Block
#_______________________________________________________________________________
#
#PARAMETER_NAME    .UNIT     VALUE                         : DESCRIPTION
#_______________________________________________________________________________
SET                .         LQC_KAZNIPI_Petrel            : 
TLFamily_CALI      .         Caliper                       : 
TLFamily_COLL      .         Net Reservoir Flag            : 
TLFamily_CSAT      .         Fluid Code                    : 
TLFamily_DEPT      .         Measured Depth                : 
TLFamily_GR        .         Russian Gamma Ray             : 
TLFamily_GZ1       .         Gradient 045                  : 
TLFamily_GZ2       .         Gradient 105                  : 
TLFamily_GZ3       .         Gradient 225                  : 
TLFamily_GZ4       .         Gradient 425                  : 
TLFamily_GZ5       .         Gradient 850                  : 
TLFamily_LLS       .         Lateral Log Resistivity       : 
TLFamily_MINV      .         Micro Gradient Resistivity    : 
TLFamily_MNOR      .         Micro Resistivity             : 
TLFamily_NGLD      .         Neutron Gamma                 : 
TLFamily_OGZ       .         Gradient Inverted 225         : 
TLFamily_PHIE      .         Effective Porosity            : 
TLFamily_PHIEN     .         Effective Porosity            : 
TLFamily_PHIT      .         Porosity                      : 
TLFamily_PRMB      .         Permeability                  : 
TLFamily_PRMB_DGR  .         Permeability                  : 
TLFamily_RT        .         Formation Resistivity         : 
TLFamily_SOIL_ARCHIE .         Oil Saturation                : 
TLFamily_SOIL_DW   .         Oil Saturation                : 
TLFamily_SP        .         Spontaneous Potential         : 
TLFamily_VSH_FIN   .         Shale Volume                  : 
TLFamily_VSH_GR    .         Shale Volume                  : 
TLFamily_VSH_SP    .         Shale Volume                  : 
~Curve Information
#_______________________________________________________________________________
#
#LOGNAME           .UNIT     LOG_ID                        : DESCRIPTION
#_______________________________________________________________________________
DEPT               .M                                      : Колонка глубины 
CALI               .м                                      : Каверномер 
COLL               .unitless                               : Описание 
CSAT               .unitless                               : Описание 
GR                 .uR/h                                   : Гамма каротаж 
GZ1                .Ohmm                                   : Градиент-зонд  длиной 0.45м 
GZ2                .Ohmm                                   : Градиент-зонд  длиной 1.05м 
GZ3                .Ohmm                                   : Градиент-зонд  длиной 2.25м 
GZ4                .Ohmm                                   : Градиент-зонд  длиной 4.5м 
GZ5                .Ohmm                                   : Градиент-зонд  длиной 8.5м 
LLS                .Ohmm                                   : Боковой каротаж 
MINV               .Ohmm                                   : Микро-градиент зонд 
MNOR               .Ohmm                                   : Микро-потенциал зонд 
NGLD               .у.е.                                   : Показания зонда НГК-60 аппаратуры ДРСТ-3-90 
OGZ                .Ohmm                                   : Обращенный градиент-зонд 
PHIE               .v/v                                    : Описание 
PHIEN              .v/v                                    :  
PHIT               .v/v                                    : Описание 
PRMB               .mD                                     :  
PRMB_DGR           .mD                                     :  
RT                 .ohmm                                   : УЭС пласта 
SOIL_ARCHIE        .v/v                                    :  
SOIL_DW            .v/v                                    :  
SP                 .мВ                                     : Потенциал самополяризации 
VSH_FIN            .v/v                                    : Описание 
VSH_GR             .v/v                                    : Shale volume 
VSH_SP             .v/v                                    : Shale Volume 
~Ascii
# ...
1073.4     0.291      -9999      -9999      9.3        1.395      2.073      2.184      1.346      1.35       1.656      0.489      0.693      0.939      1.498      0.1440273  0.1440273  0.3505     1.302845   0.9796157  1.656      0.04572852 0.4147624  36.852     0.6256749  0.6542841  0.5970657 
1073.6     0.287      -9999      -9999      9.066      1.407      1.82       2.337      1.331      1.338      1.627      0.507      0.78       0.926      1.524      0.1561261  0.1561261  0.357      2.182692   1.232739   1.627      0.1030622  0.433492   37.562     0.6087087  0.5956737  0.6217437 
1073.8     0.274      -9999      -9999      9.318      1.416      1.737      2.328      1.371      1.326      1.656      0.527      0.743      0.945      1.625      0.1339312  0.1339312  0.3475     0.8470112  0.9624488  1.656      0          0.3958248  37.962     0.6471781  0.6590245  0.6353317 
1074       0.27       -9999      -9999      9.22       1.483      1.841      2.248      1.498      1.328      1.696      0.547      0.794      0.962      1.638      0.1280055  0.1280055  0.339      0.657856   1.059694   1.696      0          0.3835101  38.258     0.6393772  0.6336247  0.6451297 
1074.2     0.266      -9999      -9999      8.553      1.46       1.889      2.21       1.549      1.341      1.702      0.742      0.88       0.959      1.625      0.1532457  0.1532457  0.3405     1.930369   2.040313   1.702      0.1074727  0.4254639  38.424     0.5674373  0.4849027  0.6499719 
1074.4     0.268      -9999      -9999      8.491      1.445      1.914      2.138      1.6        1.354      1.704      0.557      0.838      0.955      1.702      0.1564843  0.1564843  0.3425     2.216295   2.168423   1.704      0.1240654  0.432372   38.578     0.5636839  0.4729938  0.6543739 
1074.6     0.269      -9999      -9999      9.164      1.47       1.952      2.083      1.648      1.368      1.831      0.673      0.903      0.954      1.727      0.1316876  0.1316876  0.343      0.7697178  1.119614   1.831      0.01581006 0.4170758  38.791     0.6403407  0.6195522  0.6611292 
1074.8     0.288      -9999      -9999      8.618      1.583      2.029      2.057      1.727      1.321      2.125      0.553      0.952      0.956      1.752      0.1532869  0.1532869  0.342      1.93376    1.914126   2.125      0.1959496  0.4872803  38.446     0.571858   0.4977098  0.6460063 
1075       0.288      -9999      -9999      8.556      1.461      1.918      2.057      1.803      1.363      2.323      0.456      0.736      0.949      1.727      0.162791   0.162791   0.3455     2.900298   2.034311   2.323      0.2682323  0.5236375  37.854     0.5536636  0.4854863  0.621841  
1075.2     0.29       -9999      -9999      8.572      1.441      1.96       2.07       1.854      1.448      2.008      0.503      0.698      0.941      1.727      0.167197   0.167197   0.3495     3.499877   2.002592   2.008      0.2344573  0.4964117  37.746     0.5524333  0.4886116  0.6162548 
1075.4     0.292      -9999      -9999      8.386      1.68       2.225      2.108      1.868      1.422      1.715      0.546      0.719      0.97       1.702      0.1566483  0.1566483  0.335      2.231849   2.403991   1.715      0.1275025  0.4265659  38.085     0.5404596  0.4534887  0.6274305 
1075.6     0.304      -9999      -9999      8.727      1.826      2.454      2.154      1.744      1.473      1.676      0.512      0.711      0.95       1.68       0.1545052  0.1545052  0.345      2.036901   1.719789   1.676      0.1073882  0.4275175  38.314     0.5772569  0.5199502  0.6345635 
1075.8     0.297      -9999      -9999      9.018      1.69       2.214      2.26       1.708      1.397      1.698      0.531      0.728      0.965      1.625      0.1367646  0.1367646  0.3375     0.9558066  1.292249   1.698      0.01340509 0.3967178  38.295     0.6082892  0.584316   0.6322623 
1076       0.298      -9999      -9999      9.142      1.518      2.26       2.286      1.705      1.397      1.684      0.54       0.711      0.886      1.6        0.172837   0.172837   0.377      4.451621   1.14407    1.684      0.1922397  0.4819306  38.098     0.6186759  0.6141099  0.623242  
1076.2     0.282      -9999      -9999      9.489      1.496      2.295      2.26       1.727      1.346      1.697      0.529      0.752      0.921      1.608      0.1393557  0.1393557  0.3595     1.067488   0.813646   1.697      0.02913282 0.4242834  38.276     0.6671041  0.7058075  0.6284006 
1076.4     0.288      -9999      -9999      8.945      1.521      2.307      2.273      1.727      1.323      1.701      0.54       0.779      0.91       1.587      0.1640586  0.1640586  0.365      3.061407   1.388306   1.701      0.1586982  0.4636097  38.889     0.6089134  0.5674567  0.6503701 
1076.6     0.286      -9999      -9999      8.653      1.496      2.22       2.243      1.727      1.275      1.66       0.552      0.775      0.904      1.617      0.171508   0.171508   0.368      4.206315   1.849443   1.66       0.1812947  0.468743   39.827     0.5954304  0.5047454  0.6861155 
1076.8     0.282      -9999      -9999      8.614      1.458      2.117      2.163      1.709      1.27       1.74       0.527      0.794      0.923      1.621      0.1589734  0.1589734  0.3585     2.464509   1.921661   1.74       0.1444569  0.4573026  40.502     0.6046262  0.496912   0.7123404 
1077       0.271      -9999      -9999      8.597      1.42       2.079      2.083      1.534      1.346      1.915      0.603      0.914      0.938      1.803      0.1505553  0.1505553  0.351      1.721107   1.954017   1.915      0.1423888  0.4650656  40.755     0.607408   0.4935355  0.7212806 
1077.2     0.274      -9999      -9999      8.581      1.403      2.011      2.006      1.498      1.283      2.085      0.926      1.079      0.932      1.858      0.1561857  0.1561857  0.354      2.18825    1.984966   2.085      0.2018775  0.4969803  40.493     0.5994372  0.4903786  0.7084957 
1077.4     0.284      -9999      -9999      8.769      1.458      1.909      2.057      1.498      1.28       2.14       0.779      1.202      0.937      1.93       0.1547585  0.1547585  0.3515     2.059018   1.650288   2.14       0.2052405  0.4995647  39.432     0.5961865  0.5287827  0.6635904 
1077.6     0.289      -9999      -9999      8.973      1.527      2.021      2.019      1.524      1.277      1.932      0.682      0.83       0.946      1.93       0.1503479  0.1503479  0.347      1.70595    1.350646   1.932      0.1449123  0.4632947  38.288     0.5959154  0.5738649  0.6179659 
1077.8     0.287      -9999      -9999      9.355      1.665      2.282      1.964      1.575      1.367      1.791      0.486      0.724      0.939      1.854      0.1403379  0.1403379  0.3505     1.113159   0.9281006  1.791      0.05916    0.4318998  37.917     0.6368547  0.6688768  0.6048326 
1078       0.288      -9999      -9999      9.599      1.803      2.425      1.93       1.6        1.295      1.728      0.606      0.781      0.949      1.778      0.125446   0.125446   0.3455     0.5898244  0.7303211  1.728      0          0.392327   37.659     0.6668302  0.7376425  0.596018  
1078.2     0.295      -9999      -9999      9.083      1.773      2.42       1.955      1.576      1.295      1.706      0.491      0.754      0.949      1.727      0.1512986  0.1512986  0.3455     1.776538   1.212326   1.706      0.09847049 0.4286334  37.117     0.5884892  0.599749   0.5772294 
1078.4     0.287      -9999      -9999      9.455      1.572      2.282      1.985      1.571      1.27       1.678      0.564      0.731      0.952      1.723      0.1381736  0.1381736  0.344      1.015006   0.8412763  1.678      0.01672154 0.4026832  36.347     0.6237162  0.6962483  0.5511842 
1078.6     0.282      -9999      -9999      9.332      1.559      2.332      2.066      1.473      1.244      1.675      0.547      0.832      0.954      1.702      0.1382876  0.1382876  0.343      1.019951   0.9493051  1.675      0.0166018  0.4012202  37.105     0.6203407  0.6627352  0.5779462 
