~Version
 VERS              .         2.0                           : CWLS LOG ASCII STANDARD - VERSION 2.0
 WRAP              .         NO                            : ONE LINE PER DEPTH STEP
 DLM               .         SPACE                         : DELIMITING CHARACTER(SPACE TAB OR COMMA)
~Well Information
#_______________________________________________________________________________
#
#PARAMETER_NAME    .UNIT     VALUE                         : DESCRIPTION
#_______________________________________________________________________________
STRT               .M        960                           : First reference value
STOP               .M        1261                          : Last reference value
STEP               .M        0.2                           : Step increment
NULL               .         -9999                         : Missing value
COMP               .                                       : Company
WELL               .         1201                          : Well name
FLD                .         УЗЕНЬ                         : Field
LOC                .                                       : Location
CNTY               .                                       : County
STAT               .                                       : State
CTRY               .                                       : Country
SRVC               .                                       : Service Company
DATE               .                                       : Date
UWI                .                                       : Unique Well ID
Block              .         3а                            : 
Category           .         Нефтяная                      : 
Condition          .         В работе                      : 
Date               .         30.10.1967                    : 
EREF               .m        234.3                         : 100.8
Gorizont           .         15                            : 14
Interpretator      .         Ткачева И.Г.                  : 
Kupol              .         Основной                      : osnovnoi
Mud                .         0                             : 
Mud_density        .         0                             : 
Mud_resistivity    .         0                             : 
NGDU               .         НГДУ-1                        : 
ORIGINALWELLNAME   .         1201                          : 
Spud_date          .         1967                          : 1961
Uslovie            .         15                            : 
Viscosity          .         0                             : 
X                  .m        55429.8                       : 46154
Y                  .m        80454.8                       : 85761.93
YEAR               .         2018                          : 
~Parameter Information Block
#_______________________________________________________________________________
#
#PARAMETER_NAME    .UNIT     VALUE                         : DESCRIPTION
#_______________________________________________________________________________
SET                .         LQC_KAZNIPI_Petrel            : 
TLFamily_CALI      .         Caliper                       : 
TLFamily_COLL      .         Net Reservoir Flag            : 
TLFamily_CSAT      .         Fluid Code                    : 
TLFamily_DEPT      .         Measured Depth                : 
TLFamily_GR        .         Russian Gamma Ray             : 
TLFamily_GZ1       .         Gradient 045                  : 
TLFamily_GZ2       .         Gradient 105                  : 
TLFamily_GZ3       .         Gradient 225                  : 
TLFamily_GZ4       .         Gradient 425                  : 
TLFamily_GZ5       .         Gradient 850                  : 
TLFamily_LLS       .         Lateral Log Resistivity       : 
TLFamily_MINV      .         Micro Gradient Resistivity    : 
TLFamily_MNOR      .         Micro Resistivity             : 
TLFamily_NGLD      .         Neutron Gamma                 : 
TLFamily_OGZ       .         Gradient Inverted 225         : 
TLFamily_PHIE      .         Effective Porosity            : 
TLFamily_PHIEN     .         Effective Porosity            : 
TLFamily_PHIT      .         Porosity                      : 
TLFamily_PRMB      .         Permeability                  : 
TLFamily_PRMB_DGR  .         Permeability                  : 
TLFamily_RT        .         Formation Resistivity         : 
TLFamily_SOIL_ARCHIE .         Oil Saturation                : 
TLFamily_SOIL_DW   .         Oil Saturation                : 
TLFamily_SP        .         Spontaneous Potential         : 
TLFamily_VSH_FIN   .         Shale Volume                  : 
TLFamily_VSH_GR    .         Shale Volume                  : 
TLFamily_VSH_SP    .         Shale Volume                  : 
~Curve Information
#_______________________________________________________________________________
#
#LOGNAME           .UNIT     LOG_ID                        : DESCRIPTION
#_______________________________________________________________________________
DEPT               .M                                      : Колонка глубины 
CALI               .м                                      : Каверномер 
COLL               .unitless                               : Описание 
CSAT               .unitless                               : Описание 
GR                 .uR/h                                   : Гамма каротаж 
GZ1                .Ohmm                                   : Градиент-зонд  длиной 0.45м 
GZ2                .Ohmm                                   : Градиент-зонд  длиной 1.05м 
GZ3                .Ohmm                                   : Градиент-зонд  длиной 2.25м 
GZ4                .Ohmm                                   : Градиент-зонд  длиной 4.5м 
GZ5                .Ohmm                                   : Градиент-зонд  длиной 8.5м 
LLS                .Ohmm                                   : Боковой каротаж 
MINV               .Ohmm                                   : Микро-градиент зонд 
MNOR               .Ohmm                                   : Микро-потенциал зонд 
NGLD               .у.е.                                   : Показания зонда НГК-60 аппаратуры ДРСТ-3-90 
OGZ                .Ohmm                                   : Обращенный градиент-зонд 
PHIE               .v/v                                    : Описание 
PHIEN              .v/v                                    :  
PHIT               .v/v                                    : Описание 
PRMB               .mD                                     :  
PRMB_DGR           .mD                                     :  
RT                 .ohmm                                   : УЭС пласта 
SOIL_ARCHIE        .v/v                                    :  
SOIL_DW            .v/v                                    :  
SP                 .мВ                                     : Потенциал самополяризации 
VSH_FIN            .v/v                                    : Описание 
VSH_GR             .v/v                                    : Shale volume 
VSH_SP             .v/v                                    : Shale Volume 
~Ascii
# ...
1111.2     0.264      -9999      -9999      8.02       1.747      2.292      2.327      1.778      1.422      1.734      0.562      0.806      0.93       2.382      0.220694   0.220694   0.3455     34.2726    26.85896   1.734      0.3560317  0.5106685  41.844     0.3781999  0.1692659  0.5871339 
1111.4     0.256      -9999      -9999      7.796      1.716      2.261      2.349      1.676      1.429      1.897      0.587      0.923      0.94       2.615      0.2150325  0.2150325  0.339      26.92046   41.36853   1.897      0.3684836  0.5218424  42.584     0.3756589  0.1418972  0.6094207 
1111.6     0.252      -9999      -9999      8.006      1.577      2.161      2.225      1.651      1.426      2.143      0.662      1.119      0.95       2.765      0.2045762  0.2045762  0.3325     17.23476   27.59394   2.143      0.3771403  0.5356588  42.669     0.387648   0.1674102  0.6078858 
1111.8     0.267      -9999      -9999      7.794      1.483      2.155      2.101      1.677      1.524      2.44       0.788      1.322      0.954      2.43       0.2095515  0.2095515  0.3299     21.30885   41.52837   2.44       0.4260819  0.5670049  42.24      0.3646925  0.141674   0.587711  
1112       0.272      -9999      -9999      7.424      1.526      2.244      1.977      1.776      1.573      2.48       0.921      1.447      0.962      2.071      0.2107167  0.2107167  0.3247     22.39453   84.75939   2.48       0.4331884  0.5674049  42.289     0.345404   0.1058695  0.5849385 
1112.2     0.271      -9999      -9999      7.421      1.741      2.13       1.956      1.875      1.646      2.255      0.94       1.245      0.955      1.863      0.1998744  0.1998744  0.32925    14.10318   85.25107   2.255      0.3794128  0.5403991  44.878     0.3920473  0.1056197  0.6784748 
1112.4     0.27       -9999      -9999      7.513      1.98       2.272      1.956      1.956      1.676      2.044      0.736      1.144      0.953      1.605      0.1897038  0.1897038  0.33055    9.139701   71.39337   2.044      0.319891   0.5082761  46.476     0.4268067  0.1135544  0.7400591 
1112.6     0.264      -9999      -9999      7.273      2.181      2.638      2.098      2.032      1.676      1.926      0.744      0.971      0.934      1.396      0.2044955  0.2044955  0.3429     17.17556   113.4063   1.926      0.3449157  0.5190828  46.712     0.4194075  0.09400205 0.744813  
1112.8     0.241      -9999      -9999      7.73       2.092      2.84       2.327      2.032      1.676      2.155      0.671      0.863      0.926      1.346      0.205874   0.205874   0.3481     18.21561   46.98284   2.155      0.3821825  0.5506529  46.432     0.4309879  0.1347118  0.727264  
1113       0.237      -9999      -9999      8.1        1.926      2.777      2.555      1.971      1.625      2.171      0.695      1.079      0.96       1.338      0.1765219  0.1765219  0.326      5.209203   23.01952   2.171      0.2960612  0.5050102  46.521     0.4529641  0.1802706  0.7256576 
1113.2     0.249      -9999      -9999      8.307      1.816      2.865      2.784      1.829      1.549      2.239      0.796      1.108      0.974      1.434      0.1604399  0.1604399  0.3169     2.623584   15.44372   2.239      0.2459818  0.4853264  46.73      0.4741214  0.2121813  0.7360616 
1113.4     0.244      -9999      -9999      8.049      1.741      2.735      2.805      1.57       1.371      2.231      0.859      1.113      0.955      1.641      0.181344   0.181344   0.32925    6.398671   25.39831   2.231      0.3211331  0.5197486  46.397     0.4481999  0.1731751  0.7232247 
1113.6     0.243      -9999      -9999      8.48       1.706      2.853      2.629      1.321      1.395      2.312      0.811      1.18       0.984      1.95       0.1574851  0.1574851  0.3104     2.312939   11.06318   2.312      0.2451261  0.4833363  45.411     0.4633785  0.2431438  0.6836131 
1113.8     0.242      -9999      -9999      8.718      1.756      2.656      2.453      1.32       1.295      2.281      0.799      1.066      0.97       2.158      0.1646186  0.1646186  0.3195     3.135408   6.991575   2.281      0.2690817  0.4976511  44.415     0.4693375  0.2932554  0.6454196 
1114       0.251      -9999      -9999      8.576      1.869      2.536      2.277      1.346      1.295      1.988      1.241      1.314      0.975      2.311      0.1731539  0.1731539  0.31625    4.512193   9.193649   1.988      0.2539502  0.4690954  43.31      0.4336246  0.2622346  0.6050146 
1114.2     0.26       -9999      -9999      8.672      2.146      2.709      2.195      1.524      1.416      2.141      1.461      1.45       0.985      2.244      0.1697659  0.1697659  0.30975    3.905123   7.640055   2.141      0.2669533  0.4778877  42.17      0.4241942  0.2828241  0.5655642 
1114.4     0.264      -9999      -9999      8.201      2.026      3.125      2.101      1.667      1.524      1.858      1.11       1.37       0.989      2.166      0.188237   0.188237   0.30715    8.585484   18.946     1.858      0.2839252  0.4593043  40.942     0.3603423  0.1951916  0.525493  
1114.6     0.263      -9999      -9999      7.997      2.004      3.055      1.954      1.817      1.586      1.804      0.741      1.173      0.971      1.766      0.2063555  0.2063555  0.31885    18.59353   28.07695   1.804      0.3297933  0.4829093  40.6       0.3408925  0.1662282  0.5155569 
1114.8     0.266      -9999      -9999      7.796      1.914      3.317      1.842      1.981      1.549      1.784      0.739      1.038      0.983      1.667      0.2057279  0.2057279  0.31105    18.10249   41.36853   1.784      0.3244883  0.4716656  39.957     0.3191578  0.1418972  0.4964184 
1115       0.265      -9999      -9999      8.061      1.7        3.145      1.857      1.608      1.439      1.849      0.871      1.128      0.989      1.752      0.1879738  0.1879738  0.30715    8.48962    24.81737   1.849      0.2814163  0.4576854  41.506     0.3611401  0.1748191  0.547461  
1115.2     0.257      -9999      -9999      8.07       1.638      2.616      1.893      1.422      1.366      1.797      0.77       1.158      0.997      1.955      0.176056   0.176056   0.30195    5.106729   24.39041   1.797      0.2289786  0.429493   42.61      0.3814969  0.1760623  0.5869316 
1115.4     0.266      -9999      -9999      8.216      1.597      2.282      1.938      1.448      1.295      1.841      0.703      1.162      0.97       2.028      0.1854919  0.1854919  0.3195     7.636919   18.40589   1.841      0.2715689  0.4664047  43.337     0.4060851  0.1975104  0.6146597 
1115.6     0.266      -9999      -9999      8.228      1.577      2.442      1.963      1.448      1.219      1.838      0.686      0.978      0.96       1.87       0.1873525  0.1873525  0.326      8.267635   17.9849    1.838      0.2773207  0.4745038  43.997     0.4201439  0.1993854  0.6409025 
1115.8     0.257      -9999      -9999      8.244      1.528      2.58       1.982      1.471      1.168      1.772      0.641      0.991      0.965      1.745      0.1813031  0.1813031  0.32275    6.387498   17.43848   1.772      0.2434925  0.4545226  44.335     0.4286271  0.2019132  0.655341  
1116       0.254      -9999      -9999      7.901      1.509      2.455      2.101      1.371      1.168      1.807      0.584      0.978      0.964      1.676      0.1883243  0.1883243  0.3234     8.6175     33.78638   1.807      0.2748041  0.4685415  44.534     0.4093203  0.1541267  0.6645138 
1116.2     0.26       -9999      -9999      8.29       1.492      2.266      2.307      1.346      1.143      1.83       0.729      0.856      0.993      1.768      0.1612715  0.1612715  0.30455    2.718304   15.95836   1.83       0.1748456  0.4178448  44.361     0.4341772  0.2093601  0.6589944 
1116.4     0.259      -9999      -9999      8.462      1.473      2.13       2.512      1.295      1.168      1.836      0.94       1.035      1.01       2.103      0.1487752  0.1487752  0.2935     1.595273   11.45389   1.836      0.1161568  0.3866172  43.772     0.4385602  0.2397222  0.6373981 
