~Version
 VERS              .         2.0                           : CWLS LOG ASCII STANDARD - VERSION 2.0
 WRAP              .         NO                            : ONE LINE PER DEPTH STEP
 DLM               .         SPACE                         : DELIMITING CHARACTER(SPACE TAB OR COMMA)
~Well Information
#_______________________________________________________________________________
#
#PARAMETER_NAME    .UNIT     VALUE                         : DESCRIPTION
#_______________________________________________________________________________
STRT               .M        960                           : First reference value
STOP               .M        1261                          : Last reference value
STEP               .M        0.2                           : Step increment
NULL               .         -9999                         : Missing value
COMP               .                                       : Company
WELL               .         1201                          : Well name
FLD                .         УЗЕНЬ                         : Field
LOC                .                                       : Location
CNTY               .                                       : County
STAT               .                                       : State
CTRY               .                                       : Country
SRVC               .                                       : Service Company
DATE               .                                       : Date
UWI                .                                       : Unique Well ID
Block              .         3а                            : 
Category           .         Нефтяная                      : 
Condition          .         В работе                      : 
Date               .         30.10.1967                    : 
EREF               .m        234.3                         : 100.8
Gorizont           .         15                            : 14
Interpretator      .         Ткачева И.Г.                  : 
Kupol              .         Основной                      : osnovnoi
Mud                .         0                             : 
Mud_density        .         0                             : 
Mud_resistivity    .         0                             : 
NGDU               .         НГДУ-1                        : 
ORIGINALWELLNAME   .         1201                          : 
Spud_date          .         1967                          : 1961
Uslovie            .         15                            : 
Viscosity          .         0                             : 
X                  .m        55429.8                       : 46154
Y                  .m        80454.8                       : 85761.93
YEAR               .         2018                          : 
~Parameter Information Block
#_______________________________________________________________________________
#
#PARAMETER_NAME    .UNIT     VALUE                         : DESCRIPTION
#_______________________________________________________________________________
SET                .         LQC_KAZNIPI_Petrel            : 
TLFamily_CALI      .         Caliper                       : 
TLFamily_COLL      .         Net Reservoir Flag            : 
TLFamily_CSAT      .         Fluid Code                    : 
TLFamily_DEPT      .         Measured Depth                : 
TLFamily_GR        .         Russian Gamma Ray             : 
TLFamily_GZ1       .         Gradient 045                  : 
TLFamily_GZ2       .         Gradient 105                  : 
TLFamily_GZ3       .         Gradient 225                  : 
TLFamily_GZ4       .         Gradient 425                  : 
TLFamily_GZ5       .         Gradient 850                  : 
TLFamily_LLS       .         Lateral Log Resistivity       : 
TLFamily_MINV      .         Micro Gradient Resistivity    : 
TLFamily_MNOR      .         Micro Resistivity             : 
TLFamily_NGLD      .         Neutron Gamma                 : 
TLFamily_OGZ       .         Gradient Inverted 225         : 
TLFamily_PHIE      .         Effective Porosity            : 
TLFamily_PHIEN     .         Effective Porosity            : 
TLFamily_PHIT      .         Porosity                      : 
TLFamily_PRMB      .         Permeability                  : 
TLFamily_PRMB_DGR  .         Permeability                  : 
TLFamily_RT        .         Formation Resistivity         : 
TLFamily_SOIL_ARCHIE .         Oil Saturation                : 
TLFamily_SOIL_DW   .         Oil Saturation                : 
TLFamily_SP        .         Spontaneous Potential         : 
TLFamily_VSH_FIN   .         Shale Volume                  : 
TLFamily_VSH_GR    .         Shale Volume                  : 
TLFamily_VSH_SP    .         Shale Volume                  : 
~Curve Information
#_______________________________________________________________________________
#
#LOGNAME           .UNIT     LOG_ID                        : DESCRIPTION
#_______________________________________________________________________________
DEPT               .M                                      : Колонка глубины 
CALI               .м                                      : Каверномер 
COLL               .unitless                               : Описание 
CSAT               .unitless                               : Описание 
GR                 .uR/h                                   : Гамма каротаж 
GZ1                .Ohmm                                   : Градиент-зонд  длиной 0.45м 
GZ2                .Ohmm                                   : Градиент-зонд  длиной 1.05м 
GZ3                .Ohmm                                   : Градиент-зонд  длиной 2.25м 
GZ4                .Ohmm                                   : Градиент-зонд  длиной 4.5м 
GZ5                .Ohmm                                   : Градиент-зонд  длиной 8.5м 
LLS                .Ohmm                                   : Боковой каротаж 
MINV               .Ohmm                                   : Микро-градиент зонд 
MNOR               .Ohmm                                   : Микро-потенциал зонд 
NGLD               .у.е.                                   : Показания зонда НГК-60 аппаратуры ДРСТ-3-90 
OGZ                .Ohmm                                   : Обращенный градиент-зонд 
PHIE               .v/v                                    : Описание 
PHIEN              .v/v                                    :  
PHIT               .v/v                                    : Описание 
PRMB               .mD                                     :  
PRMB_DGR           .mD                                     :  
RT                 .ohmm                                   : УЭС пласта 
SOIL_ARCHIE        .v/v                                    :  
SOIL_DW            .v/v                                    :  
SP                 .мВ                                     : Потенциал самополяризации 
VSH_FIN            .v/v                                    : Описание 
VSH_GR             .v/v                                    : Shale volume 
VSH_SP             .v/v                                    : Shale Volume 
~Ascii
960.0      -9999      -9999      -9999      7.862      -9999      -9999      4.851      -9999      -9999      -9999      -9999      -9999      1.212      9.41       0.03306264 0.03306264 0.214      0.01146986 1.51015    6.402      0          0.3385568  -9999      0.548295   0.548295   -9999     
960.2000000000001 -9999      -9999      -9999      7.633      -9999      -9999      7.114      -9999      -9999      -9999      -9999      -9999      1.207      9.916      0.05335218 0.05335218 0.2165     0.02725022 1.945782   8.284      0          0.4961883  -9999      0.4943873  0.4943873  -9999     
960.4      -9999      -9999      -9999      7.042      -9999      -9999      9.377      -9999      -9999      -9999      -9999      -9999      1.31       10.423     0.04009421 0.04009421 0.165      0.01548104 3.742591   9.872      0          0.3917986  -9999      0.3785025  0.3785025  -9999     
960.6      -9999      6          6          6.538      -9999      -9999      12.412     -9999      -9999      -9999      -9999      -9999      1.381      9.565      0.03003732 0.03003732 0.1295     0.01008143 6.537803   10.804     0          0.248626   -9999      0.301402   0.301402   -9999     
960.8      -9999      6          6          6.81       -9999      -9999      13.901     -9999      -9999      -9999      -9999      -9999      1.409      8.474001   0.01       0.00302735 0.1155     0.004289259 4.838254   10.529     0          0          -9999      0.3408262  0.3408262  -9999     
961        -9999      6          6          6.912      -9999      -9999      13.267     -9999      -9999      -9999      -9999      -9999      1.379      7.552999   0.01272126 0.01272126 0.1305     0.004817111 4.321751   9.626      0          0.01897599 -9999      0.3569053  0.3569053  -9999     
961.2000000000001 -9999      6          6          6.204      -9999      -9999      12.632     -9999      -9999      -9999      -9999      -9999      1.338      6.633      0.06547278 0.06547278 0.151      0.04569544 9.461869   8.699      0.129416   0.4189143  -9999      0.2591733  0.2591733  -9999     
961.4      -9999      6          6          5.739      -9999      -9999      12.141     -9999      -9999      -9999      -9999      -9999      1.299      5.799      0.1011835  0.1011835  0.1705     0.209567   15.83034   7.849      0.3746649  0.5199519  -9999      0.2100498  0.2100498  -9999     
961.6      -9999      1          3          5.467      -9999      -9999      11.756     -9999      -9999      -9999      -9999      -9999      1.258      5.022      0.1297015  0.1297015  0.191      0.7072049  21.39111   7.037      0.4697886  0.5714175  -9999      0.1857529  0.1857529  -9999     
961.8      -9999      1          3          5.505      -9999      -9999      11.724     -9999      -9999      -9999      -9999      -9999      1.217      4.244      0.1491397  0.1491397  0.2115     1.620271   20.5101    6.232      0.5029664  0.5950385  -9999      0.1889705  0.1889705  -9999     
962        -9999      1          3          5.161      -9999      -9999      11.692     -9999      -9999      -9999      -9999      -9999      1.181      3.659      0.1761187  0.1761187  0.2295     5.120395   30.0137    5.574      0.5468592  0.6190032  -9999      0.1617616  0.1617616  -9999     
962.2000000000001 -9999      1          3          5.078      -9999      -9999      11.659     -9999      -9999      -9999      -9999      -9999      1.137      3.262      0.200084   0.200084   0.2515     14.22981   32.90148   5.098      0.5771675  0.6419141  -9999      0.1558061  0.1558061  -9999     
962.4      -9999      1          3          4.762      -9999      -9999      8.857      -9999      -9999      -9999      -9999      -9999      1.104      2.865      0.2234266  0.2234266  0.268      38.50893   46.67757   4.33       0.5853264  0.6425064  -9999      0.1350708  0.1350708  -9999     
962.6      -9999      1          3          4.571      -9999      -9999      7.06       -9999      -9999      -9999      -9999      -9999      1.099      2.468      0.2296128  0.2296128  0.2705     50.13546   57.66563   3.658      0.5617251  0.6175829  -9999      0.1239005  0.1239005  -9999     
962.8      -9999      1          3          4.648      -9999      -9999      6.256      -9999      -9999      -9999      -9999      -9999      1.095      2.071      0.2301649  0.2301649  0.2725     51.32997   52.95479   3.112      0.5281733  0.5875648  -9999      0.128288   0.128288   -9999     
963        -9999      1          3          4.457      -9999      -9999      5.452      -9999      -9999      -9999      -9999      -9999      1.059      1.786      0.251666   0.251666   0.2905     128.4173   65.42049   2.691      0.5326687  0.5884154  -9999      0.1176786  0.1176786  -9999     
963.2000000000001 -9999      1          3          4.07       -9999      -9999      5.052      -9999      -9999      -9999      -9999      -9999      1.059      1.712      0.2578973  0.2578973  0.2905     167.5105   100.4002   2.558      0.5315067  0.5822347  -9999      0.09879598 0.09879598 -9999     
963.4      -9999      1          3          4.026      -9999      -9999      4.647      -9999      -9999      -9999      -9999      -9999      1.074      1.637      0.2510392  0.2510392  0.283      125.0299   105.4106   2.421      0.5078289  0.5590467  -9999      0.09685078 0.09685078 -9999     
963.6      -9999      1          3          4.333      -9999      -9999      4.074      -9999      -9999      -9999      -9999      -9999      1.097      1.543      0.2347825  0.2347825  0.2715     62.5027    75.04421   2.239      0.4587885  0.5168315  -9999      0.1112653  0.1112653  -9999     
963.8      -9999      1          3          4.664      -9999      -9999      3.534      -9999      -9999      -9999      -9999      -9999      1.117      1.7        0.2188577  0.2188577  0.2615     31.69086   52.02525   2.296      0.4313945  0.4976883  -9999      0.1292191  0.1292191  -9999     
964        -9999      1          3          4.719      -9999      -9999      3.278      -9999      -9999      -9999      -9999      -9999      1.099      2.237      0.2267845  0.2267845  0.2705     44.43824   48.95277   2.659      0.4854356  0.549096   -9999      0.1324713  0.1324713  -9999     
964.2000000000001 -9999      1          3          4.533      -9999      -9999      3.173      -9999      -9999      -9999      -9999      -9999      1.091      2.59       0.234309   0.234309   0.2745     61.25338   60.14266   2.852      0.516036   0.5742232  -9999      0.1217908  0.1217908  -9999     
964.4      -9999      1          3          4.673      -9999      -9999      3.153      -9999      -9999      -9999      -9999      -9999      1.105      2.932      0.2246839  0.2246839  0.2675     40.6302    51.50962   3.038      0.512692   0.5737613  -9999      0.1297457  0.1297457  -9999     
964.6      -9999      1          3          4.595      -9999      -9999      3.133      -9999      -9999      -9999      -9999      -9999      1.118      3.185      0.2196669  0.2196669  0.261      32.80368   56.15403   3.159      0.5120384  0.5719607  -9999      0.1252517  0.1252517  -9999     
964.8      -9999      1          3          4.516      -9999      -9999      3.113      -9999      -9999      -9999      -9999      -9999      1.114      3.727      0.2231167  0.2231167  0.263      38.00316   61.285     3.392      0.5344262  0.5914454  -9999      0.1208587  0.1208587  -9999     
965        -9999      1          3          4.191      -9999      -9999      3.01       -9999      -9999      -9999      -9999      -9999      1.109      3.913      0.2310648  0.2310648  0.2655     53.33831   87.81587   3.402      0.5490292  0.600256   -9999      0.1043491  0.1043491  -9999     
965.2000000000001 -9999      1          3          4.373      -9999      -9999      2.708      -9999      -9999      -9999      -9999      -9999      1.105      3.731      0.2301127  0.2301127  0.2675     51.21566   71.79436   3.138      0.5299189  0.5848399  -9999      0.113295   0.113295   -9999     
