~Version
 VERS              .         2.0                           : CWLS LOG ASCII STANDARD - VERSION 2.0
 WRAP              .         NO                            : ONE LINE PER DEPTH STEP
 DLM               .         SPACE                         : DELIMITING CHARACTER(SPACE TAB OR COMMA)
~Well Information
#_______________________________________________________________________________
#
#PARAMETER_NAME    .UNIT     VALUE                         : DESCRIPTION
#_______________________________________________________________________________
STRT               .M        960                           : First reference value
STOP               .M        1261                          : Last reference value
STEP               .M        0.2                           : Step increment
NULL               .         -9999                         : Missing value
COMP               .                                       : Company
WELL               .         1201                          : Well name
FLD                .         УЗЕНЬ                         : Field
LOC                .                                       : Location
CNTY               .                                       : County
STAT               .                                       : State
CTRY               .                                       : Country
SRVC               .                                       : Service Company
DATE               .                                       : Date
UWI                .                                       : Unique Well ID
Block              .         3а                            : 
Category           .         Нефтяная                      : 
Condition          .         В работе                      : 
Date               .         30.10.1967                    : 
EREF               .m        234.3                         : 100.8
Gorizont           .         15                            : 14
Interpretator      .         Ткачева И.Г.                  : 
Kupol              .         Основной                      : osnovnoi
Mud                .         0                             : 
Mud_density        .         0                             : 
Mud_resistivity    .         0                             : 
NGDU               .         НГДУ-1                        : 
ORIGINALWELLNAME   .         1201                          : 
Spud_date          .         1967                          : 1961
Uslovie            .         15                            : 
Viscosity          .         0                             : 
X                  .m        55429.8                       : 46154
Y                  .m        80454.8                       : 85761.93
YEAR               .         2018                          : 
~Parameter Information Block
#_______________________________________________________________________________
#
#PARAMETER_NAME    .UNIT     VALUE                         : DESCRIPTION
#_______________________________________________________________________________
SET                .         LQC_KAZNIPI_Petrel            : 
TLFamily_CALI      .         Caliper                       : 
TLFamily_COLL      .         Net Reservoir Flag            : 
TLFamily_CSAT      .         Fluid Code                    : 
TLFamily_DEPT      .         Measured Depth                : 
TLFamily_GR        .         Russian Gamma Ray             : 
TLFamily_GZ1       .         Gradient 045                  : 
TLFamily_GZ2       .         Gradient 105                  : 
TLFamily_GZ3       .         Gradient 225                  : 
TLFamily_GZ4       .         Gradient 425                  : 
TLFamily_GZ5       .         Gradient 850                  : 
TLFamily_LLS       .         Lateral Log Resistivity       : 
TLFamily_MINV      .         Micro Gradient Resistivity    : 
TLFamily_MNOR      .         Micro Resistivity             : 
TLFamily_NGLD      .         Neutron Gamma                 : 
TLFamily_OGZ       .         Gradient Inverted 225         : 
TLFamily_PHIE      .         Effective Porosity            : 
TLFamily_PHIEN     .         Effective Porosity            : 
TLFamily_PHIT      .         Porosity                      : 
TLFamily_PRMB      .         Permeability                  : 
TLFamily_PRMB_DGR  .         Permeability                  : 
TLFamily_RT        .         Formation Resistivity         : 
TLFamily_SOIL_ARCHIE .         Oil Saturation                : 
TLFamily_SOIL_DW   .         Oil Saturation                : 
TLFamily_SP        .         Spontaneous Potential         : 
TLFamily_VSH_FIN   .         Shale Volume                  : 
TLFamily_VSH_GR    .         Shale Volume                  : 
TLFamily_VSH_SP    .         Shale Volume                  : 
~Curve Information
#_______________________________________________________________________________
#
#LOGNAME           .UNIT     LOG_ID                        : DESCRIPTION
#_______________________________________________________________________________
DEPT               .M                                      : Колонка глубины 
CALI               .м                                      : Каверномер 
COLL               .unitless                               : Описание 
CSAT               .unitless                               : Описание 
GR                 .uR/h                                   : Гамма каротаж 
GZ1                .Ohmm                                   : Градиент-зонд  длиной 0.45м 
GZ2                .Ohmm                                   : Градиент-зонд  длиной 1.05м 
GZ3                .Ohmm                                   : Градиент-зонд  длиной 2.25м 
GZ4                .Ohmm                                   : Градиент-зонд  длиной 4.5м 
GZ5                .Ohmm                                   : Градиент-зонд  длиной 8.5м 
LLS                .Ohmm                                   : Боковой каротаж 
MINV               .Ohmm                                   : Микро-градиент зонд 
MNOR               .Ohmm                                   : Микро-потенциал зонд 
NGLD               .у.е.                                   : Показания зонда НГК-60 аппаратуры ДРСТ-3-90 
OGZ                .Ohmm                                   : Обращенный градиент-зонд 
PHIE               .v/v                                    : Описание 
PHIEN              .v/v                                    :  
PHIT               .v/v                                    : Описание 
PRMB               .mD                                     :  
PRMB_DGR           .mD                                     :  
RT                 .ohmm                                   : УЭС пласта 
SOIL_ARCHIE        .v/v                                    :  
SOIL_DW            .v/v                                    :  
SP                 .мВ                                     : Потенциал самополяризации 
VSH_FIN            .v/v                                    : Описание 
VSH_GR             .v/v                                    : Shale volume 
VSH_SP             .v/v                                    : Shale Volume 
~Ascii
# ...
1019.4     0.349      -9999      -9999      7.524      -9999      -9999      2.387      -9999      -9999      1.492      -9999      -9999      0.982      2.191      0.1791214  0.1791214  0.329      5.819978   2.395073   2.285      0.3214605  0.522936   37.603     0.4541775  0.4541775  0.5928091 
1019.6     0.344      -9999      -9999      7.481      -9999      -9999      2.384      -9999      -9999      1.814      0.61       0.838      1.016      2.108      0.1649761  0.1649761  0.312      3.183576   2.510566   2.238      0.2639167  0.4858561  39.11      0.445527   0.445527   0.6492974 
1019.8     0.313      -9999      -9999      7.833      -9999      -9999      2.414      -9999      -9999      2.238      0.638      1.299      1.046      2.083      0.1249106  0.1249106  0.297      0.5765077  1.707435   2.236      0.06170557 0.4106747  40.138     0.5214831  0.5214831  0.6903567 
1020       0.286      -9999      -9999      7.923      -9999      -9999      2.489      -9999      -9999      2.66       1.543      1.897      1.071      2.032      0.1053429  0.1053429  0.2845     0.2502441  1.547164   2.66       0          0.4093255  39.999     0.5429004  0.5429004  0.6846826 
1020.2     0.275      -9999      -9999      7.224      1.537      2.22       2.499      2.044      2.046      2.111      2.243      1.754      1.047      1.991      0.1654391  0.1654391  0.2965     3.247073   3.326692   2.111      0.2453026  0.454545   38.687     0.3971541  0.3971541  0.6330028 
1020.4     0.319      -9999      -9999      7.417      1.925      2.466      2.554      2.192      1.962      1.559      1.007      0.986      1.045      1.995      0.1546245  0.1546245  0.2975     2.04729    2.692855   1.559      0.0771764  0.3496258  37.923     0.4329561  0.4329561  0.6044428 
1020.6     0.334      -9999      -9999      7.615      2.319      2.72       2.598      2.227      1.879      1.459      0.772      0.77       1.068      2.057      0.1298961  0.1298961  0.286      0.7130986  2.167879   1.459      0          0.2637331  38.588     0.4730421  0.4730421  0.6292391 
1020.8     0.324      -9999      -9999      7.491      2.049      2.874      2.613      1.865      1.801      2.05       0.682      0.9        1.085      2.136      0.1298171  0.1298171  0.2775     0.710698   2.483219   2.05       0.05492663 0.3669335  39.752     0.447524   0.447524   0.6746948 
1021       0.287      -9999      -9999      7.359      1.648      2.579      2.692      1.637      1.726      2.553      0.895      1.314      1.105      2.326      0.1282828  0.1282828  0.2675     0.6656811  2.86946    2.553      0.1385238  0.4170236  40.619     0.4218704  0.4218704  0.71029   
1021.2     0.278      -9999      -9999      7.705      1.319      2.232      2.774      1.711      1.651      2.524      1.753      1.869      1.135      2.678      0.08998491 0.08998491 0.2525     0.1299861  1.964387   2.524      0          0.3074682  41.053     0.49247    0.49247    0.7286771 
1021.4     0.291      -9999      -9999      7.488      1.547      2.311      2.971      1.86       1.653      2.147      1.96       1.842      1.124      3.03       0.1105151  0.1105151  0.258      0.3120085  2.491393   2.147      0          0.3123404  41.096     0.4469239  0.4469239  0.7305197 
1021.6     0.309      -9999      -9999      7.114      1.93       2.538      2.971      1.93       1.695      2.334      1.393      1.523      1.134      2.963      0.1282305  0.1282305  0.253      0.6641991  3.752611   2.334      0.1011749  0.3688611  40.99      0.3780895  0.3780895  0.7259843 
1021.8     0.288      -9999      -9999      6.66       2.193      2.829      2.928      1.777      1.737      2.632      1.577      1.561      1.139      2.795      0.1486568  0.1486568  0.2505     1.587242   6.169881   2.632      0.2530746  0.4357533  41.011     0.3086156  0.3086156  0.726881  
1022       0.279      -9999      -9999      7.013      2.016      2.523      2.695      1.7        1.768      2.272      2.145      1.909      1.144      2.627      0.1287407  0.1287407  0.248      0.6788098  4.19154    2.272      0.09288964 0.3534205  41.098     0.3613917  0.3613917  0.7306055 
1022.2     0.287      -9999      -9999      7.082      1.989      2.674      2.564      1.951      1.655      1.96       1.917      1.533      1.127      2.581      0.1335033  0.1335033  0.2565     0.8316942  3.886461   1.96       0.05805822 0.3276118  41.141     0.3727172  0.3727172  0.732452  
1022.4     0.298      -9999      -9999      6.798      2.242      3.115      2.311      1.81       1.524      2.515      1.537      1.376      1.151      2.782      0.1361736  0.1361736  0.2445     0.9320148  5.304418   2.515      0.176392   0.3935504  41.184     0.3282619  0.3282619  0.7343024 
1022.6     0.274      -9999      -9999      6.329      2.159      3.204      2.286      1.702      1.498      2.56       1.662      1.908      1.192      2.983      0.1361697  0.1361697  0.224      0.9318613  8.865745   2.56       0.1831976  0.3663184  41.067     0.2661524  0.2661524  0.7292767 
1022.8     0.274      -9999      -9999      6.574      1.793      2.878      2.3        1.74       1.625      2.379      2.519      2.172      1.223      3.184      0.1104994  0.1104994  0.2085     0.3117991  6.779257   2.379      0          0.2544418  40.478     0.2969715  0.2969715  0.7043986 
1023       0.274      -9999      -9999      6.396      1.952      2.77       2.329      1.915      1.641      2.397      2.365      1.826      1.226      3.085      0.1164982  0.1164982  0.207      0.4027058  8.238482   2.397      0.03496844 0.2692801  39.414     0.2742479  0.2742479  0.6612228 
1023.2     0.274      -9999      -9999      6.618      2.034      3.229      2.46       1.974      1.651      2.638      2.159      1.865      1.232      2.731      0.1040519  0.1040519  0.204      0.2368383  6.460316   2.638      0          0.2655408  38.328     0.302873   0.302873   0.6227422 
1023.4     0.274      -9999      -9999      6.565      2.096      3.229      2.514      1.829      1.702      3.237      1.893      1.893      1.228      2.716      0.108393   0.108393   0.206      0.28501    6.84641    3.237      0.1075354  0.3512756  37.886     0.2957786  0.2957786  0.6095512 
1023.6     0.274      -9999      -9999      6.642      2.092      3.036      2.565      1.956      1.727      3.098      1.793      2.414      1.215      2.641      0.1114734  0.1114734  0.2125     0.3250238  6.292717   3.098      0.1109288  0.3564045  38.449     0.3061413  0.3061413  0.6339865 
1023.8     0.274      -9999      -9999      6.494      2.079      2.968      2.6        2.056      1.727      2.631      2.483      2.239      1.209      2.727      0.1209436  0.1209436  0.2155     0.4867736  7.400034   2.631      0.1058844  0.3293033  39.154     0.2865345  0.2865345  0.6648564 
1024       0.274      -9999      -9999      6.189      2.194      3.094      2.704      2.108      1.752      2.682      2.463      2.049      1.197      2.935      0.1390001  0.1390001  0.2215     1.051423   10.33489   2.682      0.2150402  0.3818642  39.492     0.2499996  0.2499996  0.6819474 
1024.2     0.274      -9999      -9999      6.571      2.421      3.397      2.786      2.133      1.803      2.531      2.664      2.087      1.184      3.124      0.1301308  0.1301308  0.228      0.7202709  6.801567   2.531      0.1457264  0.3579547  39.462     0.2965733  0.2965733  0.6842997 
1024.4     0.274      -9999      -9999      6.871      2.609      3.966      2.819      2.159      1.778      2.4        2.348      1.995      1.209      3.222      0.1035787  0.1035787  0.2155     0.2321067  4.896836   2.4        0          0.254282   39.086     0.3391553  0.3391553  0.6726682 
1024.6     0.274      -9999      -9999      7.01       2.539      3.875      2.895      2.108      1.752      2.742      1.972      1.849      1.228      3.326      0.08690059 0.08690059 0.206      0.113964   4.205334   2.742      0          0.2335869  38.061     0.3609072  0.3609072  0.6359602 
