~Version
 VERS              .         2.0                           : CWLS LOG ASCII STANDARD - VERSION 2.0
 WRAP              .         NO                            : ONE LINE PER DEPTH STEP
 DLM               .         SPACE                         : DELIMITING CHARACTER(SPACE TAB OR COMMA)
~Well Information
#_______________________________________________________________________________
#
#PARAMETER_NAME    .UNIT     VALUE                         : DESCRIPTION
#_______________________________________________________________________________
STRT               .M        960                           : First reference value
STOP               .M        1261                          : Last reference value
STEP               .M        0.2                           : Step increment
NULL               .         -9999                         : Missing value
COMP               .                                       : Company
WELL               .         1201                          : Well name
FLD                .         УЗЕНЬ                         : Field
LOC                .                                       : Location
CNTY               .                                       : County
STAT               .                                       : State
CTRY               .                                       : Country
SRVC               .                                       : Service Company
DATE               .                                       : Date
UWI                .                                       : Unique Well ID
Block              .         3а                            : 
Category           .         Нефтяная                      : 
Condition          .         В работе                      : 
Date               .         30.10.1967                    : 
EREF               .m        234.3                         : 100.8
Gorizont           .         15                            : 14
Interpretator      .         Ткачева И.Г.                  : 
Kupol              .         Основной                      : osnovnoi
Mud                .         0                             : 
Mud_density        .         0                             : 
Mud_resistivity    .         0                             : 
NGDU               .         НГДУ-1                        : 
ORIGINALWELLNAME   .         1201                          : 
Spud_date          .         1967                          : 1961
Uslovie            .         15                            : 
Viscosity          .         0                             : 
X                  .m        55429.8                       : 46154
Y                  .m        80454.8                       : 85761.93
YEAR               .         2018                          : 
~Parameter Information Block
#_______________________________________________________________________________
#
#PARAMETER_NAME    .UNIT     VALUE                         : DESCRIPTION
#_______________________________________________________________________________
SET                .         LQC_KAZNIPI_Petrel            : 
TLFamily_CALI      .         Caliper                       : 
TLFamily_COLL      .         Net Reservoir Flag            : 
TLFamily_CSAT      .         Fluid Code                    : 
TLFamily_DEPT      .         Measured Depth                : 
TLFamily_GR        .         Russian Gamma Ray             : 
TLFamily_GZ1       .         Gradient 045                  : 
TLFamily_GZ2       .         Gradient 105                  : 
TLFamily_GZ3       .         Gradient 225                  : 
TLFamily_GZ4       .         Gradient 425                  : 
TLFamily_GZ5       .         Gradient 850                  : 
TLFamily_LLS       .         Lateral Log Resistivity       : 
TLFamily_MINV      .         Micro Gradient Resistivity    : 
TLFamily_MNOR      .         Micro Resistivity             : 
TLFamily_NGLD      .         Neutron Gamma                 : 
TLFamily_OGZ       .         Gradient Inverted 225         : 
TLFamily_PHIE      .         Effective Porosity            : 
TLFamily_PHIEN     .         Effective Porosity            : 
TLFamily_PHIT      .         Porosity                      : 
TLFamily_PRMB      .         Permeability                  : 
TLFamily_PRMB_DGR  .         Permeability                  : 
TLFamily_RT        .         Formation Resistivity         : 
TLFamily_SOIL_ARCHIE .         Oil Saturation                : 
TLFamily_SOIL_DW   .         Oil Saturation                : 
TLFamily_SP        .         Spontaneous Potential         : 
TLFamily_VSH_FIN   .         Shale Volume                  : 
TLFamily_VSH_GR    .         Shale Volume                  : 
TLFamily_VSH_SP    .         Shale Volume                  : 
~Curve Information
#_______________________________________________________________________________
#
#LOGNAME           .UNIT     LOG_ID                        : DESCRIPTION
#_______________________________________________________________________________
DEPT               .M                                      : Колонка глубины 
CALI               .м                                      : Каверномер 
COLL               .unitless                               : Описание 
CSAT               .unitless                               : Описание 
GR                 .uR/h                                   : Гамма каротаж 
GZ1                .Ohmm                                   : Градиент-зонд  длиной 0.45м 
GZ2                .Ohmm                                   : Градиент-зонд  длиной 1.05м 
GZ3                .Ohmm                                   : Градиент-зонд  длиной 2.25м 
GZ4                .Ohmm                                   : Градиент-зонд  длиной 4.5м 
GZ5                .Ohmm                                   : Градиент-зонд  длиной 8.5м 
LLS                .Ohmm                                   : Боковой каротаж 
MINV               .Ohmm                                   : Микро-градиент зонд 
MNOR               .Ohmm                                   : Микро-потенциал зонд 
NGLD               .у.е.                                   : Показания зонда НГК-60 аппаратуры ДРСТ-3-90 
OGZ                .Ohmm                                   : Обращенный градиент-зонд 
PHIE               .v/v                                    : Описание 
PHIEN              .v/v                                    :  
PHIT               .v/v                                    : Описание 
PRMB               .mD                                     :  
PRMB_DGR           .mD                                     :  
RT                 .ohmm                                   : УЭС пласта 
SOIL_ARCHIE        .v/v                                    :  
SOIL_DW            .v/v                                    :  
SP                 .мВ                                     : Потенциал самополяризации 
VSH_FIN            .v/v                                    : Описание 
VSH_GR             .v/v                                    : Shale volume 
VSH_SP             .v/v                                    : Shale Volume 
~Ascii
# ...
1186.8     0.24       1          2          8.891      2.387      3.256      3.088      2.564      2.911      5.761      1.685      1.956      1.036      15.233     0.200458   0.200458   0.2766     14.45862   9.429106   5.761      0.6069381  0.6860605  13.132     0.2307333  0.2595406  0.2019259 
1187       0.239      1          2          8.629      2.33       2.942      3.991      2.309      3.367      5.417      1.604      2.114      1.057      18.622     0.1946557  0.1946557  0.26295    11.28896   14.97515   5.417      0.5849324  0.6624432  12.873     0.2069523  0.2148676  0.1990371 
1187.2     0.239      1          2          8.704      2.143      3.12       4.46       2.738      3.652      4.842      1.523      2.286      1.055      22.011     0.1913059  0.1913059  0.26425    9.786047   13.1178    4.842      0.5558253  0.6413999  14.322     0.2210428  0.2268059  0.2152798 
1187.4     0.239      1          2          8.788      2.447      4.31       4.733      3.167      3.929      4.1        1.686      2.4        1.052      20.986     0.1885753  0.1885753  0.2662     8.710228   11.30968   4.1        0.5137141  0.6096448  15.458     0.2352264  0.2409657  0.229487  
1187.6     0.239      1          2          8.451      3.171      5.338      4.844      3.388      4.19       5.42       1.868      2.361      1.051      17.537     0.1982276  0.1982276  0.26685    13.1466    20.50505   5.42       0.5915601  0.6679494  15.272     0.2079468  0.1889895  0.2269041 
1187.8     0.239      1          2          8.351      3.451      4.897      4.954      3.416      4.381      10.313     1.799      2.158      1.051      18.04      0.2043579  0.2043579  0.26685    17.07503   24.46474   10.313     0.7058951  0.7623343  13.275     0.1893701  0.1758437  0.2028965 
1188       0.239      1          2          7.968      2.815      6.745999   5.018      3.667      4.658      7.25       1.708      2.203      1.023      19.81      0.2317594  0.2317594  0.28505    54.94189   48.10871   7.25       0.6890235  0.7412608  11.991     0.1614868  0.1334154  0.1895582 
1188.2     0.239      1          2          8.164      3          7.875      5.642      3.944      4.8        5.679      1.714      2.242      1.018      19.759     0.2327214  0.2327214  0.2883     57.2432    34.03547   5.679      0.652517   0.710068   11.321     0.1684198  0.1536651  0.1831745 
1188.4     0.239      1          2          7.893      3.791      8.396      6.973      4.186      4.871      5.423      1.665      2.267      1.028      18.849     0.2309453  0.2309453  0.2818     53.0671    54.92036   5.423      0.6425363  0.6984034  11.181     0.1541051  0.126393   0.1818172 
1188.6     0.236      1          2          8.283      4.797      9.396      8.304      3.858      4.849      7.049      1.613      2.305      1.042      17.685     0.2155652  0.2155652  0.2727     27.53903   27.58561   7.049      0.6643733  0.7224274  10.853     0.1731357  0.1674308  0.1788405 
1188.8     0.239      1          2          8.353      4.751      9.615999   10.057     3.429      4.369      9.127      1.623      2.305      1.043      16.267     0.2144096  0.2144096  0.27205    26.2147    24.37852   9.127      0.7012981  0.7551722  10.193     0.1746678  0.1760974  0.1732381 
1189       0.24       1          2          8.156      4.016      8.672001   12.09      3.026      4.19       11.33      1.648      2.311      1.05       13.833     0.2149273  0.2149273  0.2675     26.79988   34.5196    11.33      0.7306846  0.778336   9.24       0.1593113  0.1527814  0.1658412 
1189.2     0.24       1          2          8.284      3.309      8.177      14.285     2.889      4.317      13.123     1.621      2.328      1.061      11.302     0.2065607  0.2065607  0.26035    18.75701   27.53693   13.123     0.7397808  0.7872465  8.175      0.1629979  0.1675516  0.1584441 
1189.4     0.24       1          2          8.363      3.41       8.684999   16.734     3.115      4.359      13.233     1.709      2.349      1.074      9.473      0.1975155  0.1975155  0.2519     12.75334   23.95185   13.233     0.7304898  0.7799335  7.169      0.1648016  0.1773716  0.1522316 
1189.6     0.24       1          2          8.406      3.832      9.439      19.183     3.378      4.559999   12.775     1.726      2.356      1.086      7.928      0.1893339  0.1893339  0.2441     8.99667    22.2007    12.775     0.715714   0.7678071  6.591      0.1659578  0.1829565  0.1489592 
1189.8     0.24       1          2          8.449      4.547      10.891     21.632     3.541      4.546      12.79      1.717      2.336      1.066      7.492      0.2017991  0.2017991  0.2571     15.30973   20.57757   12.79      0.7312188  0.7807767  6.118      0.1675784  0.1887172  0.1464397 
1190       0.239      1          2          8.076      4.817999   11.962     22.74      3.691      4.546      12.906     1.708      2.318      1.079      6.997      0.2008535  0.2008535  0.24865    14.70454   39.75663   12.906     0.731258   0.7770714  5.932      0.144838   0.1442188  0.1454571 
1190.2     0.239      1          2          7.925      4.94       13.083     23.723     3.942      4.399      12.877     1.72       2.33       1.09       6.587      0.1959988  0.1959988  0.2415     11.9545    51.90339   12.877     0.7251798  0.7706712  6.136      0.1378824  0.1293429  0.1464218 
1190.4     0.24       1          2          8.026      5.052      14.169     24.653     4.168      4.278      12.54      1.638      2.338      1.087      5.888      0.1960506  0.1960506  0.24345    11.98094   43.42596   12.54      0.7218025  0.7687105  6.483      0.1436345  0.1391126  0.1481564 
1190.6     0.24       1          2          8.372      5.198      14.986     24.904     4.445      4.178      12.03      1.744      2.275      1.053      5.233      0.2110727  0.2110727  0.26555    22.73722   23.57425   12.03      0.7339956  0.7823115  7.13       0.1650826  0.1785262  0.1516391 
1190.8     0.24       1          2          8.412      5.388      15.741     25.156     4.721      4.077      9.866      1.653      2.18       1.024      4.758      0.2275513  0.2275513  0.2844     45.91562   21.96677   9.866      0.7265552  0.7761777  8.616      0.1722686  0.1837496  0.1607877 
1191       0.24       1          2          7.849      5.492      16.622     23.98      5.125      3.977      7.781      1.686      2.095      1.042      4.466      0.2237707  0.2237707  0.2727     39.07812   59.35706   7.781      0.6898366  0.7399536  10.417     0.1482706  0.1224465  0.1740947 
1191.2     0.241      1          2          7.977      5.681      17.242     21.618     5.529      3.868      5.869      1.612      1.938      1.025      4.175      0.2293177  0.2293177  0.28375    49.50825   47.35026   5.869      0.6534229  0.7103705  12.77      0.1649465  0.134284   0.195609  
1191.4     0.245      1          2          8.57       5.845      17.877     19.129     6.034      3.769      5.235      1.702      1.635      0.996      3.916      0.229771   0.229771   0.3026     50.47475   16.61929   5.235      0.6349515  0.7047759  16.117     0.220694   0.2059195  0.2354685 
1191.6     0.243      -9999      -9999      9.152      5.927001   17.692     12.529     6.640999   3.518      3.987      1.492      1.702      1.001      3.659      0.1979711  0.1979711  0.29935    13.0036    5.947522   3.987      0.5277245  0.637866   20.194     0.3072086  0.3132759  0.3011414 
1191.8     0.24       -9999      -9999      9.554      5.391      15.099     9.473      7.222      3.038      2.737      1.321      1.903      0.992      3.402      0.1767781  0.1767781  0.3052     5.266451   2.924719   2.737      0.3781477  0.547664   23.04      0.3891572  0.4185973  0.3597171 
1192       0.24       -9999      -9999      9.619      4.923      13.711     8.889      7.054      2.508      2.569      1.44       1.825      1.009      3.52       0.1684874  0.1684874  0.29415    3.697879   2.607606   2.569      0.3320158  0.5134062  21.334     0.380796   0.4386809  0.3229111 
