~Version
 VERS              .         2.0                           : CWLS LOG ASCII STANDARD - VERSION 2.0
 WRAP              .         NO                            : ONE LINE PER DEPTH STEP
 DLM               .         SPACE                         : DELIMITING CHARACTER(SPACE TAB OR COMMA)
~Well Information
#_______________________________________________________________________________
#
#PARAMETER_NAME    .UNIT     VALUE                         : DESCRIPTION
#_______________________________________________________________________________
STRT               .M        960                           : First reference value
STOP               .M        1261                          : Last reference value
STEP               .M        0.2                           : Step increment
NULL               .         -9999                         : Missing value
COMP               .                                       : Company
WELL               .         1201                          : Well name
FLD                .         УЗЕНЬ                         : Field
LOC                .                                       : Location
CNTY               .                                       : County
STAT               .                                       : State
CTRY               .                                       : Country
SRVC               .                                       : Service Company
DATE               .                                       : Date
UWI                .                                       : Unique Well ID
Block              .         3а                            : 
Category           .         Нефтяная                      : 
Condition          .         В работе                      : 
Date               .         30.10.1967                    : 
EREF               .m        234.3                         : 100.8
Gorizont           .         15                            : 14
Interpretator      .         Ткачева И.Г.                  : 
Kupol              .         Основной                      : osnovnoi
Mud                .         0                             : 
Mud_density        .         0                             : 
Mud_resistivity    .         0                             : 
NGDU               .         НГДУ-1                        : 
ORIGINALWELLNAME   .         1201                          : 
Spud_date          .         1967                          : 1961
Uslovie            .         15                            : 
Viscosity          .         0                             : 
X                  .m        55429.8                       : 46154
Y                  .m        80454.8                       : 85761.93
YEAR               .         2018                          : 
~Parameter Information Block
#_______________________________________________________________________________
#
#PARAMETER_NAME    .UNIT     VALUE                         : DESCRIPTION
#_______________________________________________________________________________
SET                .         LQC_KAZNIPI_Petrel            : 
TLFamily_CALI      .         Caliper                       : 
TLFamily_COLL      .         Net Reservoir Flag            : 
TLFamily_CSAT      .         Fluid Code                    : 
TLFamily_DEPT      .         Measured Depth                : 
TLFamily_GR        .         Russian Gamma Ray             : 
TLFamily_GZ1       .         Gradient 045                  : 
TLFamily_GZ2       .         Gradient 105                  : 
TLFamily_GZ3       .         Gradient 225                  : 
TLFamily_GZ4       .         Gradient 425                  : 
TLFamily_GZ5       .         Gradient 850                  : 
TLFamily_LLS       .         Lateral Log Resistivity       : 
TLFamily_MINV      .         Micro Gradient Resistivity    : 
TLFamily_MNOR      .         Micro Resistivity             : 
TLFamily_NGLD      .         Neutron Gamma                 : 
TLFamily_OGZ       .         Gradient Inverted 225         : 
TLFamily_PHIE      .         Effective Porosity            : 
TLFamily_PHIEN     .         Effective Porosity            : 
TLFamily_PHIT      .         Porosity                      : 
TLFamily_PRMB      .         Permeability                  : 
TLFamily_PRMB_DGR  .         Permeability                  : 
TLFamily_RT        .         Formation Resistivity         : 
TLFamily_SOIL_ARCHIE .         Oil Saturation                : 
TLFamily_SOIL_DW   .         Oil Saturation                : 
TLFamily_SP        .         Spontaneous Potential         : 
TLFamily_VSH_FIN   .         Shale Volume                  : 
TLFamily_VSH_GR    .         Shale Volume                  : 
TLFamily_VSH_SP    .         Shale Volume                  : 
~Curve Information
#_______________________________________________________________________________
#
#LOGNAME           .UNIT     LOG_ID                        : DESCRIPTION
#_______________________________________________________________________________
DEPT               .M                                      : Колонка глубины 
CALI               .м                                      : Каверномер 
COLL               .unitless                               : Описание 
CSAT               .unitless                               : Описание 
GR                 .uR/h                                   : Гамма каротаж 
GZ1                .Ohmm                                   : Градиент-зонд  длиной 0.45м 
GZ2                .Ohmm                                   : Градиент-зонд  длиной 1.05м 
GZ3                .Ohmm                                   : Градиент-зонд  длиной 2.25м 
GZ4                .Ohmm                                   : Градиент-зонд  длиной 4.5м 
GZ5                .Ohmm                                   : Градиент-зонд  длиной 8.5м 
LLS                .Ohmm                                   : Боковой каротаж 
MINV               .Ohmm                                   : Микро-градиент зонд 
MNOR               .Ohmm                                   : Микро-потенциал зонд 
NGLD               .у.е.                                   : Показания зонда НГК-60 аппаратуры ДРСТ-3-90 
OGZ                .Ohmm                                   : Обращенный градиент-зонд 
PHIE               .v/v                                    : Описание 
PHIEN              .v/v                                    :  
PHIT               .v/v                                    : Описание 
PRMB               .mD                                     :  
PRMB_DGR           .mD                                     :  
RT                 .ohmm                                   : УЭС пласта 
SOIL_ARCHIE        .v/v                                    :  
SOIL_DW            .v/v                                    :  
SP                 .мВ                                     : Потенциал самополяризации 
VSH_FIN            .v/v                                    : Описание 
VSH_GR             .v/v                                    : Shale volume 
VSH_SP             .v/v                                    : Shale Volume 
~Ascii
# ...
981.6      -9999      1          3          3.866      -9999      -9999      1.727      -9999      -9999      -9999      -9999      -9999      1.067      1.397      0.2567687  0.2567687  0.2865     159.6386   125.8322   1.544      0.4039952  0.4569759  -9999      0.09009467 0.09009467 -9999     
981.8      -9999      1          3          3.899      -9999      -9999      1.727      -9999      -9999      -9999      -9999      -9999      1.088      1.397      0.245822   0.245822   0.276      100.087    121.3192   1.544      0.3809448  0.4348124  -9999      0.09144841 0.09144841 -9999     
982        -9999      1          3          4.067      -9999      -9999      1.702      -9999      -9999      -9999      -9999      -9999      1.11       1.397      0.2324415  0.2324415  0.265      56.5638    100.7341   1.534      0.3480355  0.4055634  -9999      0.09866211 0.09866211 -9999     
982.2000000000001 -9999      1          3          4.206      -9999      -9999      1.676      -9999      -9999      -9999      -9999      -9999      1.109      1.397      0.2308306  0.2308306  0.2655     52.80812   86.37001   1.524      0.3420584  0.4024911  -9999      0.1050588  0.1050588  -9999     
982.4      -9999      1          3          3.615      -9999      -9999      1.676      -9999      -9999      -9999      -9999      -9999      1.103      1.371      0.2419571  0.2419571  0.2685     84.87711   166.1273   1.509      0.3655512  0.415263   -9999      0.08043297 0.08043297 -9999     
982.6      -9999      1          3          3.538      -9999      -9999      1.625      -9999      -9999      -9999      -9999      -9999      1.117      1.346      0.2358649  0.2358649  0.2615     65.45588   180.906    1.473      0.3439102  0.3925563  -9999      0.07768209 0.07768209 -9999     
982.8      -9999      1          3          3.918      -9999      -9999      1.6        -9999      -9999      -9999      -9999      -9999      1.074      1.331      0.2525618  0.2525618  0.283      133.4182   118.7946   1.453      0.377874   0.4322802  -9999      0.09223705 0.09223705 -9999     
983        -9999      1          3          4.002      -9999      -9999      1.556      -9999      -9999      -9999      -9999      -9999      1.068      1.321      0.2543841  0.2543841  0.286      144.201    108.2481   1.428      0.3767016  0.4325252  -9999      0.09580595 0.09580595 -9999     
983.2000000000001 -9999      1          3          3.84       -9999      -9999      1.572      -9999      -9999      -9999      -9999      -9999      1.051      1.295      0.2651161  0.2651161  0.2945     227.9034   129.5059   1.42       0.397148   0.4501934  -9999      0.08904221 0.08904221 -9999     
983.4      -9999      1          3          3.709      -9999      -9999      1.498      -9999      -9999      -9999      -9999      -9999      1.065      1.295      0.2598052  0.2598052  0.2875     181.7108   149.7124   1.389      0.3800406  0.4314883  -9999      0.08392357 0.08392357 -9999     
983.6      -9999      1          3          3.575      -9999      -9999      1.473      -9999      -9999      -9999      -9999      -9999      1.08       1.295      0.2539326  0.2539326  0.28       141.4511   173.6472   1.378      0.3652078  0.4148314  -9999      0.07899199 0.07899199 -9999     
983.8      -9999      1          3          3.653      -9999      -9999      1.473      -9999      -9999      -9999      -9999      -9999      1.078      1.295      0.2539974  0.2539974  0.281      141.8422   159.2852   1.378      0.3653487  0.4160858  -9999      0.08182623 0.08182623 -9999     
984        -9999      1          3          3.87       -9999      -9999      1.448      -9999      -9999      -9999      -9999      -9999      1.058      1.27       0.261215   0.261215   0.291      192.9715   125.2764   1.353      0.3753051  0.4292696  -9999      0.09025768 0.09025768 -9999     
984.2000000000001 -9999      1          3          3.735      -9999      -9999      1.448      -9999      -9999      -9999      -9999      -9999      1.051      1.27       0.2664779  0.2664779  0.2945     241.5322   145.4656   1.353      0.3860644  0.4379802  -9999      0.08491552 0.08491552 -9999     
984.4      -9999      1          3          3.315      -9999      -9999      1.448      -9999      -9999      -9999      -9999      -9999      1.056      1.27       0.2688226  0.2688226  0.292      266.934    231.5491   1.353      0.3907307  0.4373586  -9999      0.07023467 0.07023467 -9999     
984.6      -9999      1          3          3.355      -9999      -9999      1.448      -9999      -9999      -9999      -9999      -9999      1.038      1.27       0.2773997  0.2773997  0.301      384.8349   221.5216   1.353      0.4071714  0.4544284  -9999      0.07151589 0.07151589 -9999     
984.8      -9999      1          3          3.726      -9999      -9999      1.441      -9999      -9999      -9999      -9999      -9999      1.053      1.27       0.2655917  0.2655917  0.2935     232.5733   146.9218   1.35       0.3836388  0.4354561  -9999      0.08457083 0.08457083 -9999     
985        -9999      1          3          3.791      -9999      -9999      1.437      -9999      -9999      -9999      -9999      -9999      1.044      1.27       0.2692596  0.2692596  0.298      271.9563   136.7233   1.348      0.3905342  0.4432108  -9999      0.08709204 0.08709204 -9999     
985.2000000000001 -9999      1          3          3.602      -9999      -9999      1.397      -9999      -9999      -9999      -9999      -9999      1.036      1.27       0.2756126  0.2756126  0.302      356.5923   168.5349   1.33       0.3990088  0.4492445  -9999      0.07996178 0.07996178 -9999     
985.4      -9999      1          3          3.615      -9999      -9999      1.397      -9999      -9999      -9999      -9999      -9999      1.013      1.225      0.2869571  0.2869571  0.3135     578.4955   166.1273   1.306      0.4147762  0.4652759  -9999      0.08043297 0.08043297 -9999     
985.6      -9999      1          3          3.678      -9999      -9999      1.397      -9999      -9999      -9999      -9999      -9999      1.031      1.194      0.2771905  0.2771905  0.3045     381.4159   154.9382   1.287      0.3926953  0.4441116  -9999      0.08275598 0.08275598 -9999     
985.8      -9999      1          3          3.866      -9999      -9999      1.397      -9999      -9999      -9999      -9999      -9999      1.048      1.194      0.2662688  0.2662688  0.296      239.3875   125.8322   1.287      0.3710562  0.4252268  -9999      0.09009467 0.09009467 -9999     
986        -9999      1          3          3.372      -9999      -9999      1.448      -9999      -9999      -9999      -9999      -9999      1.031      1.194      0.2807177  0.2807177  0.3045     443.3345   217.3925   1.308      0.4038916  0.4515784  -9999      0.07206746 0.07206746 -9999     
986.2000000000001 -9999      1          3          3.544      -9999      -9999      1.422      -9999      -9999      -9999      -9999      -9999      1.027      1.27       0.2807953  0.2807953  0.3065     444.8043   179.7086   1.342      0.4111687  0.4606521  -9999      0.07789302 0.07789302 -9999     
986.4      -9999      1          3          3.5        -9999      -9999      1.488      -9999      -9999      -9999      -9999      -9999      1.013      1.27       0.2883014  0.2883014  0.3135     612.6319   188.6768   1.37       0.4300928  0.4789623  -9999      0.07635938 0.07635938 -9999     
986.6      -9999      1          3          3.532      -9999      -9999      1.422      -9999      -9999      -9999      -9999      -9999      1.035      1.251      0.2769344  0.2769344  0.3025     377.2717   182.1113   1.331      0.4017188  0.4510996  -9999      0.07747173 0.07747173 -9999     
986.8      -9999      1          3          3.554      -9999      -9999      1.399      -9999      -9999      -9999      -9999      -9999      1.029      1.217      0.2796789  0.2796789  0.3055     424.1202   177.7306   1.302      0.4006718  0.4504685  -9999      0.07824584 0.07824584 -9999     
