~Version
 VERS              .         2.0                           : CWLS LOG ASCII STANDARD - VERSION 2.0
 WRAP              .         NO                            : ONE LINE PER DEPTH STEP
 DLM               .         SPACE                         : DELIMITING CHARACTER(SPACE TAB OR COMMA)
~Well Information
#_______________________________________________________________________________
#
#PARAMETER_NAME    .UNIT     VALUE                         : DESCRIPTION
#_______________________________________________________________________________
STRT               .M        960                           : First reference value
STOP               .M        1261                          : Last reference value
STEP               .M        0.2                           : Step increment
NULL               .         -9999                         : Missing value
COMP               .                                       : Company
WELL               .         1201                          : Well name
FLD                .         УЗЕНЬ                         : Field
LOC                .                                       : Location
CNTY               .                                       : County
STAT               .                                       : State
CTRY               .                                       : Country
SRVC               .                                       : Service Company
DATE               .                                       : Date
UWI                .                                       : Unique Well ID
Block              .         3а                            : 
Category           .         Нефтяная                      : 
Condition          .         В работе                      : 
Date               .         30.10.1967                    : 
EREF               .m        234.3                         : 100.8
Gorizont           .         15                            : 14
Interpretator      .         Ткачева И.Г.                  : 
Kupol              .         Основной                      : osnovnoi
Mud                .         0                             : 
Mud_density        .         0                             : 
Mud_resistivity    .         0                             : 
NGDU               .         НГДУ-1                        : 
ORIGINALWELLNAME   .         1201                          : 
Spud_date          .         1967                          : 1961
Uslovie            .         15                            : 
Viscosity          .         0                             : 
X                  .m        55429.8                       : 46154
Y                  .m        80454.8                       : 85761.93
YEAR               .         2018                          : 
~Parameter Information Block
#_______________________________________________________________________________
#
#PARAMETER_NAME    .UNIT     VALUE                         : DESCRIPTION
#_______________________________________________________________________________
SET                .         LQC_KAZNIPI_Petrel            : 
TLFamily_CALI      .         Caliper                       : 
TLFamily_COLL      .         Net Reservoir Flag            : 
TLFamily_CSAT      .         Fluid Code                    : 
TLFamily_DEPT      .         Measured Depth                : 
TLFamily_GR        .         Russian Gamma Ray             : 
TLFamily_GZ1       .         Gradient 045                  : 
TLFamily_GZ2       .         Gradient 105                  : 
TLFamily_GZ3       .         Gradient 225                  : 
TLFamily_GZ4       .         Gradient 425                  : 
TLFamily_GZ5       .         Gradient 850                  : 
TLFamily_LLS       .         Lateral Log Resistivity       : 
TLFamily_MINV      .         Micro Gradient Resistivity    : 
TLFamily_MNOR      .         Micro Resistivity             : 
TLFamily_NGLD      .         Neutron Gamma                 : 
TLFamily_OGZ       .         Gradient Inverted 225         : 
TLFamily_PHIE      .         Effective Porosity            : 
TLFamily_PHIEN     .         Effective Porosity            : 
TLFamily_PHIT      .         Porosity                      : 
TLFamily_PRMB      .         Permeability                  : 
TLFamily_PRMB_DGR  .         Permeability                  : 
TLFamily_RT        .         Formation Resistivity         : 
TLFamily_SOIL_ARCHIE .         Oil Saturation                : 
TLFamily_SOIL_DW   .         Oil Saturation                : 
TLFamily_SP        .         Spontaneous Potential         : 
TLFamily_VSH_FIN   .         Shale Volume                  : 
TLFamily_VSH_GR    .         Shale Volume                  : 
TLFamily_VSH_SP    .         Shale Volume                  : 
~Curve Information
#_______________________________________________________________________________
#
#LOGNAME           .UNIT     LOG_ID                        : DESCRIPTION
#_______________________________________________________________________________
DEPT               .M                                      : Колонка глубины 
CALI               .м                                      : Каверномер 
COLL               .unitless                               : Описание 
CSAT               .unitless                               : Описание 
GR                 .uR/h                                   : Гамма каротаж 
GZ1                .Ohmm                                   : Градиент-зонд  длиной 0.45м 
GZ2                .Ohmm                                   : Градиент-зонд  длиной 1.05м 
GZ3                .Ohmm                                   : Градиент-зонд  длиной 2.25м 
GZ4                .Ohmm                                   : Градиент-зонд  длиной 4.5м 
GZ5                .Ohmm                                   : Градиент-зонд  длиной 8.5м 
LLS                .Ohmm                                   : Боковой каротаж 
MINV               .Ohmm                                   : Микро-градиент зонд 
MNOR               .Ohmm                                   : Микро-потенциал зонд 
NGLD               .у.е.                                   : Показания зонда НГК-60 аппаратуры ДРСТ-3-90 
OGZ                .Ohmm                                   : Обращенный градиент-зонд 
PHIE               .v/v                                    : Описание 
PHIEN              .v/v                                    :  
PHIT               .v/v                                    : Описание 
PRMB               .mD                                     :  
PRMB_DGR           .mD                                     :  
RT                 .ohmm                                   : УЭС пласта 
SOIL_ARCHIE        .v/v                                    :  
SOIL_DW            .v/v                                    :  
SP                 .мВ                                     : Потенциал самополяризации 
VSH_FIN            .v/v                                    : Описание 
VSH_GR             .v/v                                    : Shale volume 
VSH_SP             .v/v                                    : Shale Volume 
~Ascii
# ...
1246.2     0.24       1          2          -9999      3.455      3.575      3.698      3.59       3.149      -9999      1.505      2.076      -9999      6.031      -9999      -9999      -9999      -9999      -9999      4.585      -9999      -9999      4.698      0.1431575  -9999      0.1431575 
1246.4     0.24       1          2          -9999      3.756      4.841      3.625      3.733      3.067      -9999      1.459      2.133      -9999      5.335      -9999      -9999      -9999      -9999      -9999      4.317      -9999      -9999      3.989      0.1398159  -9999      0.1398159 
1246.6     0.24       1          2          -9999      3.81       5.819      3.552      3.628      2.95       -9999      1.56       2.04       -9999      4.74       -9999      -9999      -9999      -9999      -9999      4.061      -9999      -9999      3.614      0.1380905  -9999      0.1380905 
1246.8     0.24       1          2          -9999      3.604      6.754      3.481      3.428      2.818      -9999      1.602      2.004      -9999      4.506      -9999      -9999      -9999      -9999      -9999      3.928      -9999      -9999      3.462      0.1373109  -9999      0.1373109 
1247       0.239      1          2          -9999      3.456      7.445001   3.964      3.225      2.643      -9999      1.527      2.124      -9999      4.462      -9999      -9999      -9999      -9999      -9999      4.198      -9999      -9999      3.462      0.1371311  -9999      0.1371311 
1247.2     0.239      1          2          -9999      3.437      7.544      4.446      3.103      2.438      -9999      1.672      2.029      -9999      4.416999   -9999      -9999      -9999      -9999      -9999      4.432      -9999      -9999      3.548      0.1372833  -9999      0.1372833 
1247.4     0.239      1          2          -9999      3.401      7.432001   4.929      2.953      2.311      -9999      1.837      2.084      -9999      4.304      -9999      -9999      -9999      -9999      -9999      4.595      -9999      -9999      3.719      0.1377691  -9999      0.1377691 
1247.6     0.239      1          2          -9999      3.279      7.471      5.411      2.803      2.27       -9999      1.688      2.192      -9999      4.116      -9999      -9999      -9999      -9999      -9999      4.676      -9999      -9999      4.051      0.1389143  -9999      0.1389143 
1247.8     0.239      1          2          -9999      3.147      6.913      5.894      2.654      2.133      -9999      1.62       2.292      -9999      3.929      -9999      -9999      -9999      -9999      -9999      4.715      -9999      -9999      4.97       0.1426943  -9999      0.1426943 
1248       0.239      1          2          -9999      3.081      6.528999   5.622      2.479      2.083      -9999      1.664      2.108      -9999      3.741      -9999      -9999      -9999      -9999      -9999      4.493      -9999      -9999      6.65       0.1509999  -9999      0.1509999 
1248.2     0.239      1          2          -9999      3.081      6.095      5.311      2.354      1.948      -9999      1.524      2.127      -9999      3.554      -9999      -9999      -9999      -9999      -9999      4.258      -9999      -9999      8.975      0.1656167  -9999      0.1656167 
1248.4     0.239      1          2          -9999      3.033      5.959      5          2.23       1.803      -9999      1.43       2.152      -9999      3.322      -9999      -9999      -9999      -9999      -9999      3.992      -9999      -9999      11.487     0.1860342  -9999      0.1860342 
1248.6     0.238      1          2          -9999      2.946      5.6        4.689      2.083      1.676      -9999      1.325      1.975      -9999      3.076      -9999      -9999      -9999      -9999      -9999      3.715      -9999      -9999      14.701     0.2204635  -9999      0.2204635 
1248.8     0.238      1          2          -9999      2.846      5.417      4.382999   1.956      1.575      -9999      1.628      1.762      -9999      2.829      -9999      -9999      -9999      -9999      -9999      3.438      -9999      -9999      18.803     0.2803754  -9999      0.2803754 
1249       0.242      -9999      -9999      -9999      2.707      5.043      4.092999   1.807      1.448      -9999      1.8        1.704      -9999      2.582      -9999      -9999      -9999      -9999      -9999      3.167      -9999      -9999      22.11      0.3435226  -9999      0.3435226 
1249.2     0.246      -9999      -9999      -9999      2.506      4.691      3.804      1.657      1.276      -9999      1.797      1.78       -9999      2.334      -9999      -9999      -9999      -9999      -9999      2.892      -9999      -9999      24.523     0.3987947  -9999      0.3987947 
1249.4     0.245      -9999      -9999      -9999      2.317      4.168      3.524      1.473      1.244      -9999      2.116      1.805      -9999      1.981      -9999      -9999      -9999      -9999      -9999      2.536      -9999      -9999      25.748     0.4295179  -9999      0.4295179 
1249.6     0.244      -9999      -9999      -9999      2.077      3.73       3.421      1.538      1.346      -9999      2.515      1.791      -9999      1.981      -9999      -9999      -9999      -9999      -9999      2.509      -9999      -9999      26.561     0.4506952  -9999      0.4506952 
1249.8     0.243      -9999      -9999      -9999      1.902      3.233      3.318      1.611      1.586      -9999      2.254      1.86       -9999      2.176      -9999      -9999      -9999      -9999      -9999      2.628      -9999      -9999      27.033     0.4628671  -9999      0.4628671 
1250       0.244      -9999      -9999      -9999      1.89       2.853      3.34       1.964      1.778      -9999      -9999      -9999      -9999      2.531      -9999      -9999      -9999      -9999      -9999      2.88       -9999      -9999      27.627     0.4789747  -9999      0.4789747 
1250.2     0.244      -9999      -9999      -9999      1.751      2.662      3.521      2.241      1.956      -9999      -9999      -9999      -9999      2.886      -9999      -9999      -9999      -9999      -9999      3.172      -9999      -9999      28.812     0.5141099  -9999      0.5141099 
1250.4     0.245      -9999      -9999      -9999      1.661      2.599      4.753      3.305      2.463      -9999      -9999      -9999      -9999      3.241      -9999      -9999      -9999      -9999      -9999      3.854      -9999      -9999      30.777     0.5785013  -9999      0.5785013 
1250.6     0.245      -9999      -9999      -9999      1.724      2.472      5.955      5.308001   3.454      -9999      -9999      -9999      -9999      7.125999   -9999      -9999      -9999      -9999      -9999      6.488      -9999      -9999      32.687     0.6475652  -9999      0.6475652 
1250.8     0.245      -9999      -9999      -9999      1.775      2.345      7.014      7.619      4.239      -9999      -9999      -9999      -9999      8.066      -9999      -9999      -9999      -9999      -9999      7.503      -9999      -9999      34.329     0.7120485  -9999      0.7120485 
1251       0.245      -9999      -9999      -9999      1.958      2.536      7.169001   9.905001   4.973      -9999      -9999      -9999      -9999      7.969      -9999      -9999      -9999      -9999      -9999      7.548      -9999      -9999      34.948     0.7421735  -9999      0.7421735 
1251.2     0.245      -9999      -9999      -9999      2.363      2.749      6.33       10.684     5.706      -9999      -9999      -9999      -9999      7.392      -9999      -9999      -9999      -9999      -9999      6.82       -9999      -9999      34.685     0.7345161  -9999      0.7345161 
1251.4     0.245      -9999      -9999      -9999      3.279      3.503      5.492      10.677     6.415      -9999      -9999      -9999      -9999      6.387      -9999      -9999      -9999      -9999      -9999      5.905      -9999      -9999      33.982     0.7083211  -9999      0.7083211 
