~Version
 VERS              .         2.0                           : CWLS LOG ASCII STANDARD - VERSION 2.0
 WRAP              .         NO                            : ONE LINE PER DEPTH STEP
 DLM               .         SPACE                         : DELIMITING CHARACTER(SPACE TAB OR COMMA)
~Well Information
#_______________________________________________________________________________
#
#PARAMETER_NAME    .UNIT     VALUE                         : DESCRIPTION
#_______________________________________________________________________________
STRT               .M        960                           : First reference value
STOP               .M        1261                          : Last reference value
STEP               .M        0.2                           : Step increment
NULL               .         -9999                         : Missing value
COMP               .                                       : Company
WELL               .         1201                          : Well name
FLD                .         УЗЕНЬ                         : Field
LOC                .                                       : Location
CNTY               .                                       : County
STAT               .                                       : State
CTRY               .                                       : Country
SRVC               .                                       : Service Company
DATE               .                                       : Date
UWI                .                                       : Unique Well ID
Block              .         3а                            : 
Category           .         Нефтяная                      : 
Condition          .         В работе                      : 
Date               .         30.10.1967                    : 
EREF               .m        234.3                         : 100.8
Gorizont           .         15                            : 14
Interpretator      .         Ткачева И.Г.                  : 
Kupol              .         Основной                      : osnovnoi
Mud                .         0                             : 
Mud_density        .         0                             : 
Mud_resistivity    .         0                             : 
NGDU               .         НГДУ-1                        : 
ORIGINALWELLNAME   .         1201                          : 
Spud_date          .         1967                          : 1961
Uslovie            .         15                            : 
Viscosity          .         0                             : 
X                  .m        55429.8                       : 46154
Y                  .m        80454.8                       : 85761.93
YEAR               .         2018                          : 
~Parameter Information Block
#_______________________________________________________________________________
#
#PARAMETER_NAME    .UNIT     VALUE                         : DESCRIPTION
#_______________________________________________________________________________
SET                .         LQC_KAZNIPI_Petrel            : 
TLFamily_CALI      .         Caliper                       : 
TLFamily_COLL      .         Net Reservoir Flag            : 
TLFamily_CSAT      .         Fluid Code                    : 
TLFamily_DEPT      .         Measured Depth                : 
TLFamily_GR        .         Russian Gamma Ray             : 
TLFamily_GZ1       .         Gradient 045                  : 
TLFamily_GZ2       .         Gradient 105                  : 
TLFamily_GZ3       .         Gradient 225                  : 
TLFamily_GZ4       .         Gradient 425                  : 
TLFamily_GZ5       .         Gradient 850                  : 
TLFamily_LLS       .         Lateral Log Resistivity       : 
TLFamily_MINV      .         Micro Gradient Resistivity    : 
TLFamily_MNOR      .         Micro Resistivity             : 
TLFamily_NGLD      .         Neutron Gamma                 : 
TLFamily_OGZ       .         Gradient Inverted 225         : 
TLFamily_PHIE      .         Effective Porosity            : 
TLFamily_PHIEN     .         Effective Porosity            : 
TLFamily_PHIT      .         Porosity                      : 
TLFamily_PRMB      .         Permeability                  : 
TLFamily_PRMB_DGR  .         Permeability                  : 
TLFamily_RT        .         Formation Resistivity         : 
TLFamily_SOIL_ARCHIE .         Oil Saturation                : 
TLFamily_SOIL_DW   .         Oil Saturation                : 
TLFamily_SP        .         Spontaneous Potential         : 
TLFamily_VSH_FIN   .         Shale Volume                  : 
TLFamily_VSH_GR    .         Shale Volume                  : 
TLFamily_VSH_SP    .         Shale Volume                  : 
~Curve Information
#_______________________________________________________________________________
#
#LOGNAME           .UNIT     LOG_ID                        : DESCRIPTION
#_______________________________________________________________________________
DEPT               .M                                      : Колонка глубины 
CALI               .м                                      : Каверномер 
COLL               .unitless                               : Описание 
CSAT               .unitless                               : Описание 
GR                 .uR/h                                   : Гамма каротаж 
GZ1                .Ohmm                                   : Градиент-зонд  длиной 0.45м 
GZ2                .Ohmm                                   : Градиент-зонд  длиной 1.05м 
GZ3                .Ohmm                                   : Градиент-зонд  длиной 2.25м 
GZ4                .Ohmm                                   : Градиент-зонд  длиной 4.5м 
GZ5                .Ohmm                                   : Градиент-зонд  длиной 8.5м 
LLS                .Ohmm                                   : Боковой каротаж 
MINV               .Ohmm                                   : Микро-градиент зонд 
MNOR               .Ohmm                                   : Микро-потенциал зонд 
NGLD               .у.е.                                   : Показания зонда НГК-60 аппаратуры ДРСТ-3-90 
OGZ                .Ohmm                                   : Обращенный градиент-зонд 
PHIE               .v/v                                    : Описание 
PHIEN              .v/v                                    :  
PHIT               .v/v                                    : Описание 
PRMB               .mD                                     :  
PRMB_DGR           .mD                                     :  
RT                 .ohmm                                   : УЭС пласта 
SOIL_ARCHIE        .v/v                                    :  
SOIL_DW            .v/v                                    :  
SP                 .мВ                                     : Потенциал самополяризации 
VSH_FIN            .v/v                                    : Описание 
VSH_GR             .v/v                                    : Shale volume 
VSH_SP             .v/v                                    : Shale Volume 
~Ascii
# ...
1224.6     0.243      1          2          7.822      3.251      5.106      5.362      3.933      3.476      3.674      1.402      1.682      0.999      5.565      0.2397712  0.2397712  0.30065    77.32204   62.25525   3.674      0.5846651  0.6525672  18.536     0.1844811  0.120086   0.2488761 
1224.8     0.242      1          2          7.969      3.606      6.085999   5.285      3.841      3.409      3.211      1.403      1.81       1.012      5.206      0.2239188  0.2239188  0.2922     39.32586   48.02384   3.211      0.5304058  0.611129   20.493     0.2069127  0.1335117  0.2803137 
1225       0.242      1          2          8.229      3.677      6.719      5.563      3.615      3.234      3.687      1.588      1.918      1.014      5.105      0.2165188  0.2165188  0.2909     28.68218   30.34517   3.687      0.546828   0.6309941  21.022     0.2253973  0.1610377  0.289757  
1225.2     0.243      1          2          8.257      3.471      6.846      5.902999   3.53       3.138      3.876      1.847      2.069      1.018      5.156      0.2164672  0.2164672  0.2883     28.61911   28.88147   3.876      0.5572432  0.6381837  19.924     0.2176751  0.1643216  0.2710286 
1225.4     0.24       1          2          7.86       3.172      6.393      6.243      3.542      2.909      3.665      1.802      2.173      1.032      5.22       0.2196862  0.2196862  0.2792     32.83066   58.21537   3.665      0.5512654  0.6232789  17.69      0.1803449  0.1234214  0.2372685 
1225.6     0.238      1          2          8.134      2.776      5.455      6.227      3.581      2.65       3.744      1.909      2.29       1.044      5.427      0.2132629  0.2132629  0.2714     24.96347   35.88687   3.744      0.544102   0.6163456  14.817     0.1761729  0.1503772  0.2019685 
1225.8     0.238      1          2          8.128      2.852      4.884      5.906      3.683      2.692      4.151      1.998      2.463      1.038      5.816      0.2210506  0.2210506  0.2753     34.79776   36.26903   4.151      0.5790113  0.6440648  12.453     0.1643922  0.1497282  0.1790561 
1226       0.238      1          2          8.121      2.74       4.691      5.584001   3.788      2.87       4.422      2.105      2.492      1.068      7.035999   0.2039123  0.2039123  0.2558     16.75364   36.72007   4.422      0.5615632  0.627717   10.737     0.1572354  0.1489745  0.1654964 
1226.2     0.238      1          2          7.967      2.944      4.628      5.272      3.937      3.073      4.416      2.171      2.641      1.075      8.157      0.2028377  0.2028377  0.25125    16.00311   48.19373   4.416      0.5592601  0.6227453  9.95       0.1467038  0.1333193  0.1600883 
1226.4     0.238      1          2          8.361      2.717      4.628      5.112      4.061      3.3        4.749      2.197      2.611      1.054      8.924      0.2092204  0.2092204  0.2649     21.01009   24.03657   4.749      0.5853828  0.6517435  9.978      0.168726   0.177116   0.1603359 
1226.6     0.238      1          2          8.714      2.929      4.691      4.99       4.241      3.5        5.057      2.037      2.602      1.052      9.842      0.2017574  0.2017574  0.2662     15.28253   12.88823   5.057      0.5844918  0.6582863  10.231     0.1952804  0.2284468  0.162114  
1226.8     0.238      1          2          8.612      3.106      4.847      4.935999   4.361      3.802      5.076      1.83       2.419      1.042      10.329     0.2107059  0.2107059  0.2727     22.38424   15.43143   5.076      0.6006071  0.6697415  10.417     0.1878608  0.2122503  0.1634714 
1227       0.238      1          2          8.613      3.017      5.239      4.976      4.495      4.231      5.432      1.883      2.47       1.022      11.2       0.223655   0.223655   0.2857     38.88585   15.40423   5.432      0.6326951  0.6969472  10.43      0.1880152  0.2124033  0.1636271 
1227.2     0.238      1          2          8.613      3.173      5.705      5.06       4.711      4.559      6.445      1.841      2.318      1          12.166     0.2379304  0.2379304  0.3        71.48359   15.40423   6.445      0.678801   0.7364964  10.442     0.1880897  0.2124033  0.1637761 
1227.4     0.238      1          2          8.689      3.22       6.159      5.233      4.886      5.147      7.488      1.743      2.249      0.997      12.805     0.2382222  0.2382222  0.30195    72.37875   13.46986   7.488      0.7009517  0.7565752  10.158     0.1931146  0.2243662  0.161863  
1227.6     0.238      1          2          8.036      3.132      7.040999   5.406      5.212999   5.731999   5.67       1.649      2.183      0.983      13.705     0.2616794  0.2616794  0.31105    196.832    42.66594   5.67       0.686024   0.7357427  9.736      0.1496079  0.1401192  0.1590965 
1227.8     0.239      1          2          7.914      3.524      7.923999   5.579      5.592      6.317      8.004      1.754      2.36       0.983      14.73      0.2649092  0.2649092  0.31105    225.9016   52.92132   8.004      0.7357613  0.7787457  8.45       0.1398206  0.1283212  0.15132   
1228       0.243      1          2          8.4        3.778      8.186      6.009      5.868001   6.817      10.963     1.816      2.422      1.004      14.687     0.2429193  0.2429193  0.2974     88.43251   22.43715   10.963     0.754154   0.7987222  7.835      0.1650933  0.1821667  0.1480199 
1228.2     0.245      1          2          8.411      3.73       7.923999   7.349      6.196      7.27       13.242     1.889      2.467      1.014      13.388     0.2366249  0.2366249  0.2909     67.61235   22.00556   13.242     0.7698016  0.8124372  7.295      0.1644697  0.1836172  0.1453223 
1228.4     0.245      1          2          8.422      3.339      8.114      8.69       6.803      7.722001   12.423     1.824      2.389      0.993      9.301999   0.2500604  0.2500604  0.30455    119.9178   21.58231   12.423     0.7739397  0.8157669  7.253      0.1651201  0.1850791  0.145161  
1228.6     0.245      1          2          7.845      3.682      9.101      10.03      7.333      8.174999   11.243     1.848      2.406      0.981      8.699      0.2678301  0.2678301  0.31235    255.8715   59.77776   11.243     0.7768499  0.8146333  7.751      0.1349086  0.1220938  0.1477234 
1228.8     0.245      1          2          7.756      4.095      10.777     11.432     7.965001   8.7        12.08      1.892      2.477      1.009      8.096      0.2499514  0.2499514  0.29415    119.3614   69.94949   12.08      0.770863   0.8093699  8.759      0.1339353  0.1145057  0.1533649 
1229       0.245      1          2          7.689      4.594      13.589     12.917     8.800999   9.502      12.983     1.822      2.394      1.002      7.437      0.2538616  0.2538616  0.2987     141.0235   78.73354   12.983     0.7814595  0.8189331  10.198     0.1358738  0.1091061  0.1626416 
1229.2     0.245      1          2          8.148      4.986      14.787     14.402     9.462001   10.107     13.105     1.885      2.166      1.014      6.496      0.2356641  0.2356641  0.2909     64.89756   35.01066   13.105     0.7678542  0.8111337  12.728     0.1673815  0.1519028  0.1828603 
1229.4     0.246      1          2          8.22       5.086      16.578     15.886     10.074     9.443      9.646      2.055      1.777      0.994      5.555      0.2392894  0.2392894  0.3039     75.7493    30.83121   9.646      0.735491   0.7867253  17.091     0.1957896  0.1599962  0.2315831 
1229.6     0.274      1          2          8.293      5.503      18.081     18.237     10.824     8.59       5.099      1.725      1.302      0.954      3.986      0.2272168  0.2272168  0.3299     45.26519   27.10283   5.099      0.6267985  0.7142463  27.955     0.3111612  0.1686423  0.4536801 
1229.8     0.274      1          2          8.505      6.111001   20.608     13.977     11.203     7.254001   2.018      1.434      1.091      0.918      2.113      0.2347433  0.2347433  0.3533     62.39832   18.64034   2.018      0.4395648  0.5695365  30.199     0.3592629  0.1964923  0.5220334 
