~Version
 VERS              .         2.0                           : CWLS LOG ASCII STANDARD - VERSION 2.0
 WRAP              .         NO                            : ONE LINE PER DEPTH STEP
 DLM               .         SPACE                         : DELIMITING CHARACTER(SPACE TAB OR COMMA)
~Well Information
#_______________________________________________________________________________
#
#PARAMETER_NAME    .UNIT     VALUE                         : DESCRIPTION
#_______________________________________________________________________________
STRT               .м        961                           : First reference value
STOP               .м        1268                          : Last reference value
STEP               .м        0.1                           : Step increment
NULL               .         -9999                         : Missing value
COMP               .                                       : Company
WELL               .         1964                          : Well name
FLD                .         УЗЕНЬ                         : Field
LOC                .                                       : Location
PROV               .                                       : Province
SRVC               .         SCH                           : Service Company
DATE               .         13.01.2010                    : Date
UWI                .                                       : Unique Well ID
Block              .         3а                            : 
Category           .         Нагнетательная                : 
Condition          .         Ликвидированная               : 
CTRY               .                                       : Название страны
Date               .         30.11.1977                    : 
EREF               .m        234.6                         : 100.8
FILE               .                                       : 
Gorizont           .         14                            : 14
Interpretator      .         Алпанова Н.К.                 : 
Kupol              .         основной                      : osnovnoi
Moii_14            .         14_gor                        : 
Mud                .                                       : 
Mud_density        .                                       : 
Mud_resistivity    .                                       : 
NGDU               .         НГДУ-1                        : 
ORIGINALWELLNAME   .         1964                          : 
Spud_date          .         1977                          : 1961
TAPE               .                                       : 
Viscosity          .                                       : 
X                  .m        55520.4                       : 46154
Y                  .m        80718.53                      : 85761.93
YEAR               .         2019                          : 
~Parameter Information Block
#_______________________________________________________________________________
#
#PARAMETER_NAME    .UNIT     VALUE                         : DESCRIPTION
#_______________________________________________________________________________
SET                .         LQC_KAZNIPI_Petrel            : 
PBBOTTOM           .м        1268                          : Глубина подошвы планшета
PBSCALE            .         1 _ 500                       : Вертикальный масштаб планшета
PBTOP              .м        961                           : Глубина кровли планшета
TLFamily_CALI      .         Caliper                       : 
TLFamily_CILD      .         Conductivity                  : 
TLFamily_COLL      .         Net Reservoir Flag            : 
TLFamily_CSAT      .         Fluid Code                    : 
TLFamily_DEPT      .         Measured Depth                : 
TLFamily_GR        .         Russian Gamma Ray             : 
TLFamily_GZ3       .         Gradient 225                  : 
TLFamily_LLS       .         Lateral Log Resistivity       : 
TLFamily_NGLD      .         Neutron Gamma                 : 
TLFamily_OGZ       .         Gradient Inverted 225         : 
TLFamily_PHIE      .         Effective Porosity            : 
TLFamily_PHIEN     .         Effective Porosity            : 
TLFamily_PHIT      .         Porosity                      : 
TLFamily_PRMB      .         Permeability                  : 
TLFamily_PRMB_DGR  .         Permeability                  : 
TLFamily_RT        .         Formation Resistivity         : 
TLFamily_SOIL_ARCHIE .         Oil Saturation                : 
TLFamily_SOIL_DW   .         Oil Saturation                : 
TLFamily_SP        .         Spontaneous Potential         : 
TLFamily_VSH_FIN   .         Shale Volume                  : 
TLFamily_VSH_GR    .         Shale Volume                  : 
TLFamily_VSH_SP    .         Shale Volume                  : 
~Curve Information
#_______________________________________________________________________________
#
#LOGNAME           .UNIT     LOG_ID                        : DESCRIPTION
#_______________________________________________________________________________
DEPT               .м                                      : Колонка глубины 
CALI               .м                                      : Каверномер 
CILD               .мСм/м                                  : Индукционный каротаж 
COLL               .unitless                               : Описание 
CSAT               .unitless                               : Описание 
GR                 .мкР/ч                                  : Гамма каротаж 
GZ3                .Ом·м                                   : 2  GZ3 
LLS                .Ом·м                                   : Боковой каротаж 
NGLD               .у.е.                                   : Показания зонда НГК-60 аппаратуры ДРСТ-3-90 
OGZ                .Ом·м                                   : 3  OGZ3 
PHIE               .v/v                                    : Описание 
PHIEN              .v/v                                    :  
PHIT               .v/v                                    : Описание 
PRMB               .mD                                     :  
PRMB_DGR           .mD                                     :  
RT                 .ohmm                                   : Description 
SOIL_ARCHIE        .v/v                                    :  
SOIL_DW            .v/v                                    :  
SP                 .mv                                     : Потенциал самополяризации 
VSH_FIN            .v/v                                    : Описание 
VSH_GR             .v/v                                    : Shale volume 
VSH_SP             .v/v                                    : Shale Volume 
~Ascii
# ...
1055       0.21       201.039    -9999      -9999      3.970922   3.45035    4.149      1.437003   5.41729    0.1035281  0.1035281  0.205349   0.2316062  23.22798   4.149      0.1732514  0.4155871  35.063     0.308548   0.1796082  0.4374878 
1055.1     0.21       192.667    -9999      -9999      3.958499   3.58914    4.244      1.441678   5.40056    0.1031772  0.1031772  0.2041244  0.2281655  23.66575   4.244      0.1795652  0.4192772  34.909     0.3059007  0.178244   0.4335574 
1055.2     0.21       184.94     -9999      -9999      3.952158   3.79725    4.407      1.444825   5.45212    0.1031063  0.1031063  0.2033003  0.2274771  23.8924    4.407      0.1934651  0.4285481  34.756     0.3036181  0.1775517  0.4296845 
1055.3     0.211      177.826    -9999      -9999      3.952203   3.97452    4.46       1.446582   5.44457    0.1032909  0.1032909  0.2028401  0.2292745  23.89079   4.46       0.1992251  0.4315547  34.6       0.3016644  0.1775566  0.4257722 
1055.4     0.211      171.456    -9999      -9999      3.958226   4.22076    4.482      1.446937   5.37776    0.1036664  0.1036664  0.2027473  0.2329756  23.6755    4.482      0.2035928  0.4335863  34.46      0.3002452  0.1782141  0.4222763 
1055.5     0.211      166.102    -9999      -9999      3.968945   4.44927    4.414      1.445748   5.35525    0.104352   0.104352   0.2030587  0.2398894  23.2971    4.414      0.2024513  0.4312284  34.321     0.299111   0.1793904  0.4188316 
1055.6     0.211      162.983    -9999      -9999      3.982495   4.78112    4.349      1.442807   5.37449    0.1053846  0.1053846  0.2038289  0.2506897  22.82741   4.349      0.2037375  0.4304964  34.196     0.298316   0.1808885  0.4157436 
1055.7     0.21       162.101    -9999      -9999      3.997171   5.19502    4.344      1.437922   5.46123    0.1068381  0.1068381  0.2051084  0.2667225  22.3294    4.344      0.2127562  0.4353543  34.087     0.2977885  0.1825251  0.4130519 
1055.8     0.21       163.76     -9999      -9999      4.011943   5.55683    4.324      1.431      5.52171    0.1087372  0.1087372  0.206921   0.2892247  21.83907   4.324      0.223064   0.4409261  33.999     0.2975267  0.1841875  0.4108659 
1055.9     0.21       167.698    -9999      -9999      4.02669    5.92243    4.205      1.4221     5.77911    0.1110168  0.1110168  0.2092521  0.3187568  21.36033   4.205      0.2269194  0.4414646  33.946     0.2976826  0.1858621  0.4095032 
1056       0.21       169.402    -9999      -9999      4.041923   6.37126    4.062      1.411435   5.62428    0.1136429  0.1136429  0.2120453  0.3565339  20.87685   4.062      0.2301029  0.4414126  33.92      0.298189   0.1876078  0.4087701 
1056.1     0.209      166.074    -9999      -9999      4.058246   6.778319   4.141      1.399337   5.48942    0.1163985  0.1163985  0.2152136  0.4009962  20.37088   4.141      0.252786   0.4568518  33.952     0.2994398  0.1894968  0.4093828 
1056.2     0.209      159.585    -9999      -9999      4.075711   7.13867    4.312      1.386159   5.20504    0.119235   0.119235   0.218665   0.452563   19.84309   4.312      0.2820546  0.4778042  34.03      0.301303   0.1915389  0.4110672 
1056.3     0.209      148.832    -9999      -9999      4.09382    7.528831   4.928      1.372145   4.97974    0.1221456  0.1221456  0.2223353  0.5123782  19.31028   4.928      0.3396785  0.521      34.141     0.3036053  0.1936796  0.413531  
1056.4     0.209      139.214    -9999      -9999      4.112102   7.74904    6.086      1.357331   4.68723    0.1251817  0.1251817  0.2262149  0.5832123  18.78687   6.086      0.4145967  0.5775701  34.271     0.3061613  0.195865   0.4164575 
1056.5     0.21       134.526    -9999      -9999      4.130583   8.017989   7.306      1.341498   4.165359   0.1284306  0.1284306  0.2303617  0.6698906  18.27221   7.306      0.4745534  0.6224995  34.412     0.3088822  0.1980992  0.4196651 
1056.6     0.211      136.644    -9999      -9999      4.150151   8.51888    7.499      1.324204   3.72415    0.1320594  0.1320594  0.2348909  0.78202    17.74262   7.499      0.4933878  0.6357803  34.546     0.3116108  0.2004927  0.4227288 
1056.7     0.212      142.756    -9999      -9999      4.172525   8.77965    7.422      1.304913   3.36127    0.1360499  0.1360499  0.2399434  0.9271114  17.15587   7.422      0.5039579  0.642804   34.704     0.3148288  0.2032648  0.4263928 
1056.8     0.214      153.352    -9999      -9999      4.199699   8.86761    6.797      1.283149   3.06723    0.1406242  0.1406242  0.2456432  1.126834   16.46927   6.797      0.4977297  0.6367843  34.85      0.3182392  0.2066833  0.429795  
1056.9     0.215      164.733    -9999      -9999      4.233107   8.93319    5.78       1.258664   2.85747    0.1456839  0.1456839  0.2520558  1.398224   15.66271   5.78       0.4744689  0.6175991  35.016     0.3223391  0.2109648  0.4337134 
1057       0.216      177.359    -9999      -9999      4.273288   8.934899   4.71       1.231538   2.79304    0.1513241  0.1513241  0.2591601  1.778476   14.74479   4.71       0.4403051  0.5896605  35.168     0.3267756  0.216232   0.4373192 
1057.1     0.217      190.276    -9999      -9999      4.320016   8.832489   3.998      1.202216   2.79607    0.1572261  0.1572261  0.2668396  2.287528   13.74473   3.998      0.4153708  0.5689926  35.354     0.3321622  0.2225231  0.4418012 
1057.2     0.217      204.66     -9999      -9999      4.372885   8.66651    3.421      1.171474   2.86344    0.1633907  0.1633907  0.274891   2.975429   12.69479   3.421      0.3917284  0.5492794  35.523     0.33788    0.229862   0.4458979 
1057.3     0.218      225.842    -9999      -9999      4.431842   8.404659   2.867      1.140334   2.95236    0.1693453  0.1693453  0.2830466  3.835689   11.61824   2.867      0.3594364  0.5230911  35.721     0.3445495  0.2383317  0.4507674 
1057.4     0.219      246.209    -9999      -9999      4.497393   8.02085    2.345      1.109959   3.07876    0.1749549  0.1749549  0.2910016  4.872444   10.52814   2.345      0.3157808  0.4880887  35.9       0.3516569  0.2481155  0.4551982 
1057.5     0.221      264.336    -9999      -9999      4.570286   6.935781   1.896      1.08154    3.1779     0.1796801  0.1796801  0.2984447  5.96032    9.435605   1.896      0.2613648  0.4452001  36.104     0.3598925  0.2594676  0.4603174 
1057.6     0.223      280.421    -9999      -9999      4.650744   6.33462    1.969      1.056167   3.18924    0.1831749  0.1831749  0.3050898  6.918329   8.360832   1.969      0.2864173  0.4668518  36.338     0.3694392  0.2726019  0.4662764 
1057.7     0.225      293.195    -9999      -9999      4.737641   5.84971    2.163      1.034702   3.13322    0.1854692  0.1854692  0.3107116  7.629525   7.337139   2.163      0.3245627  0.499365   36.542     0.3795225  0.287535   0.4715101 
1057.8     0.227      297.33     -9999      -9999      4.828168   5.44393    2.484      1.017656   3.06635    0.1864431  0.1864431  0.3151758  7.95311    6.403743   2.484      0.3699085  0.5377864  36.725     0.390099   0.3039627  0.4762354 
1057.9     0.227      299.243    -9999      -9999      4.918236   4.9491     2.696      1.005124   2.98261    0.1863017  0.1863017  0.3184581  7.905283   5.592958   2.696      0.3932641  0.558956   36.86      0.4004739  0.3212382  0.4797095 
1058       0.225      299.943    -9999      -9999      5.003413   5.08406    2.728      0.9967759  2.93638    0.1852229  0.1852229  0.3206444  7.54979    4.920864   2.728      0.3935546  0.5623465  36.96      0.4103683  0.3384781  0.4822584 
1058.1     0.221      299.582    -9999      -9999      5.079833   5.170801   2.523      0.9919459  3.00585    0.1836746  0.1836746  0.3219094  7.067358   4.386897   2.523      0.3662944  0.5444818  36.995     0.4188933  0.3547316  0.483055  
1058.2     0.218      299.221    -9999      -9999      5.144933   5.10378    2.223      0.9897875  3.13177    0.1816641  0.1816641  0.3224747  6.486602   3.977974   2.223      0.3210312  0.5131193  37.043     0.4266988  0.3691919  0.4842057 
1058.3     0.217      299.496    -9999      -9999      5.197753   4.92569    1.966      0.9894804  3.24872    0.1796054  0.1796054  0.3225551  5.941369   3.674374   1.966      0.2735619  0.4800211  37.078     0.4331807  0.3813563  0.4850051 
