~Version
 VERS              .         2.0                           : CWLS LOG ASCII STANDARD - VERSION 2.0
 WRAP              .         NO                            : ONE LINE PER DEPTH STEP
 DLM               .         SPACE                         : DELIMITING CHARACTER(SPACE TAB OR COMMA)
~Well Information
#_______________________________________________________________________________
#
#PARAMETER_NAME    .UNIT     VALUE                         : DESCRIPTION
#_______________________________________________________________________________
STRT               .м        961                           : First reference value
STOP               .м        1268                          : Last reference value
STEP               .м        0.1                           : Step increment
NULL               .         -9999                         : Missing value
COMP               .                                       : Company
WELL               .         1964                          : Well name
FLD                .         УЗЕНЬ                         : Field
LOC                .                                       : Location
PROV               .                                       : Province
SRVC               .         SCH                           : Service Company
DATE               .         13.01.2010                    : Date
UWI                .                                       : Unique Well ID
Block              .         3а                            : 
Category           .         Нагнетательная                : 
Condition          .         Ликвидированная               : 
CTRY               .                                       : Название страны
Date               .         30.11.1977                    : 
EREF               .m        234.6                         : 100.8
FILE               .                                       : 
Gorizont           .         14                            : 14
Interpretator      .         Алпанова Н.К.                 : 
Kupol              .         основной                      : osnovnoi
Moii_14            .         14_gor                        : 
Mud                .                                       : 
Mud_density        .                                       : 
Mud_resistivity    .                                       : 
NGDU               .         НГДУ-1                        : 
ORIGINALWELLNAME   .         1964                          : 
Spud_date          .         1977                          : 1961
TAPE               .                                       : 
Viscosity          .                                       : 
X                  .m        55520.4                       : 46154
Y                  .m        80718.53                      : 85761.93
YEAR               .         2019                          : 
~Parameter Information Block
#_______________________________________________________________________________
#
#PARAMETER_NAME    .UNIT     VALUE                         : DESCRIPTION
#_______________________________________________________________________________
SET                .         LQC_KAZNIPI_Petrel            : 
PBBOTTOM           .м        1268                          : Глубина подошвы планшета
PBSCALE            .         1 _ 500                       : Вертикальный масштаб планшета
PBTOP              .м        961                           : Глубина кровли планшета
TLFamily_CALI      .         Caliper                       : 
TLFamily_CILD      .         Conductivity                  : 
TLFamily_COLL      .         Net Reservoir Flag            : 
TLFamily_CSAT      .         Fluid Code                    : 
TLFamily_DEPT      .         Measured Depth                : 
TLFamily_GR        .         Russian Gamma Ray             : 
TLFamily_GZ3       .         Gradient 225                  : 
TLFamily_LLS       .         Lateral Log Resistivity       : 
TLFamily_NGLD      .         Neutron Gamma                 : 
TLFamily_OGZ       .         Gradient Inverted 225         : 
TLFamily_PHIE      .         Effective Porosity            : 
TLFamily_PHIEN     .         Effective Porosity            : 
TLFamily_PHIT      .         Porosity                      : 
TLFamily_PRMB      .         Permeability                  : 
TLFamily_PRMB_DGR  .         Permeability                  : 
TLFamily_RT        .         Formation Resistivity         : 
TLFamily_SOIL_ARCHIE .         Oil Saturation                : 
TLFamily_SOIL_DW   .         Oil Saturation                : 
TLFamily_SP        .         Spontaneous Potential         : 
TLFamily_VSH_FIN   .         Shale Volume                  : 
TLFamily_VSH_GR    .         Shale Volume                  : 
TLFamily_VSH_SP    .         Shale Volume                  : 
~Curve Information
#_______________________________________________________________________________
#
#LOGNAME           .UNIT     LOG_ID                        : DESCRIPTION
#_______________________________________________________________________________
DEPT               .м                                      : Колонка глубины 
CALI               .м                                      : Каверномер 
CILD               .мСм/м                                  : Индукционный каротаж 
COLL               .unitless                               : Описание 
CSAT               .unitless                               : Описание 
GR                 .мкР/ч                                  : Гамма каротаж 
GZ3                .Ом·м                                   : 2  GZ3 
LLS                .Ом·м                                   : Боковой каротаж 
NGLD               .у.е.                                   : Показания зонда НГК-60 аппаратуры ДРСТ-3-90 
OGZ                .Ом·м                                   : 3  OGZ3 
PHIE               .v/v                                    : Описание 
PHIEN              .v/v                                    :  
PHIT               .v/v                                    : Описание 
PRMB               .mD                                     :  
PRMB_DGR           .mD                                     :  
RT                 .ohmm                                   : Description 
SOIL_ARCHIE        .v/v                                    :  
SOIL_DW            .v/v                                    :  
SP                 .mv                                     : Потенциал самополяризации 
VSH_FIN            .v/v                                    : Описание 
VSH_GR             .v/v                                    : Shale volume 
VSH_SP             .v/v                                    : Shale Volume 
~Ascii
# ...
1201.2     0.216      450.146    -9999      -9999      7.318616   2.18515    1.807      0.9533383  2.57101    0.1565442  0.1565442  0.3320207  2.221958   2.409454   1.807      0.1599942  0.4453847  45.573     0.531747   0.4530686  0.531747  
1201.3     0.216      452.222    -9999      -9999      7.413895   2.1261     1.882      0.9562986  2.58861    0.1552712  0.1552712  0.3312454  2.104542   2.062831   1.882      0.1699911  0.4540625  45.624     0.5332551  0.4827342  0.5332551 
1201.4     0.216      452.012    -9999      -9999      7.509471   2.06856    1.953      0.9597127  2.60622    0.1543673  0.1543673  0.3303512  2.024953   1.765219   1.953      0.1801315  0.4619842  45.625     0.5332847  0.5144439  0.5332847 
1201.5     0.216      447.236    -9999      -9999      7.595069   2.03581    2.002      0.9634388  2.65073    0.1538599  0.1538599  0.3293754  1.981602   1.535314   2.002      0.1872829  0.4669668  45.577     0.5318651  0.5446075  0.5318651 
1201.6     0.216      441.053    -9999      -9999      7.661388   2.02474    2.015      0.9673105  2.67569    0.153925   0.153925   0.3283614  1.98711    1.377987   2.015      0.190046   0.4677607  45.466     0.5285951  0.569188   0.5285951 
1201.7     0.216      438.353    -9999      -9999      7.701208   2.00809    1.979      0.9711313  2.69329    0.1546714  0.1546714  0.3273607  2.051385   1.291379   1.979      0.1865992  0.462921   45.285     0.523301   0.5844767  0.523301  
1201.8     0.216      437.514    -9999      -9999      7.710315   2.00856    1.926      0.9746847  2.70159    0.1559669  0.1559669  0.3264301  2.167924   1.272349   1.926      0.1821346  0.456363   45.052     0.516555   0.5880306  0.516555  
1201.9     0.216      438.219    -9999      -9999      7.688218   2.02617    1.913      0.9777475  2.75307    0.1579467  0.1579467  0.3256279  2.358929   1.319017   1.913      0.1884955  0.4563316  44.757     0.5081248  0.5794444  0.5081248 
1202       0.216      439.439    -9999      -9999      7.638433   2.04377    1.969      0.9801015  2.82173    0.1603849  0.1603849  0.3250114  2.617437   1.430528   1.969      0.2100196  0.4666528  44.428     0.4988681  0.5605569  0.4988681 
1202.1     0.216      440.613    -9999      -9999      7.568106   2.06138    2.062      0.9815526  2.90075    0.1628918  0.1628918  0.3246314  2.912792   1.604303   2.062      0.2373163  0.4815657  44.112     0.4901199  0.53492    0.4901199 
1202.2     0.216      441.077    -9999      -9999      7.48689    2.09664    2.141      0.9819531  2.93548    0.1653245  0.1653245  0.3245265  3.231235   1.831408   2.141      0.2602666  0.4940408  43.83      0.4824303  0.5067692  0.4824303 
1202.3     0.216      441.054    -9999      -9999      7.405297   2.14798    2.214      0.9812287  2.93039    0.1673892  0.1673892  0.3247162  3.528681   2.091947   2.214      0.2796433  0.5050282  43.619     0.4767485  0.4799793  0.4767485 
1202.4     0.216      441.372    -9999      -9999      7.332765   2.18271    2.268      0.9794061  2.88504    0.1689766  0.1689766  0.3251935  3.775845   2.354516   2.268      0.2935743  0.5131908  43.493     0.4733847  0.4573559  0.4733847 
1202.5     0.216      442.328    -9999      -9999      7.275867   2.23458    2.269      0.9766325  2.81374    0.1702291  0.1702291  0.32592    3.98303    2.583354   2.269      0.2982486  0.5153602  43.433     0.4717905  0.4403579  0.4717905 
1202.6     0.216      443.502    -9999      -9999      7.237204   2.28644    2.238      0.9731818  2.7129     0.1713602  0.1713602  0.3268237  4.179893   2.751417   2.238      0.2977661  0.5140979  43.407     0.4711013  0.4291692  0.4711013 
1202.7     0.216      444.562    -9999      -9999      7.21521    2.33831    2.225      0.9694254  2.61211    0.1722741  0.1722741  0.3278075  4.346026   2.851856   2.225      0.2990982  0.5145829  43.415     0.4713133  0.4229319  0.4713133 
1202.8     0.216      442.349    -9999      -9999      7.20482    2.38809    2.22       0.9657876  2.52721    0.1731481  0.1731481  0.3287602  4.511084   2.900573   2.22       0.3014435  0.5158544  43.424     0.4715519  0.4200167  0.4715519 
1202.9     0.216      437.758    -9999      -9999      7.198864   2.41048    2.216      0.9626807  2.41048    0.1737429  0.1737429  0.3295739  4.626983   2.928871   2.216      0.3029372  0.5167953  43.449     0.4722152  0.4183549  0.4722152 
1203       0.216      430.433    -9999      -9999      7.189792   2.39112    2.209      0.9604381  2.39112    0.1739443  0.1739443  0.3301613  4.666902   2.972508   2.209      0.3026056  0.5167736  43.493     0.4733847  0.4158361  0.4733847 
1203.1     0.216      422.365    -9999      -9999      7.17121    2.36193    2.199      0.9592733  2.36193    0.1738713  0.1738713  0.3304663  4.6524     3.063926   2.199      0.3008637  0.5158684  43.536     0.4745302  0.4107244  0.4745302 
1203.2     0.216      413.912    -9999      -9999      7.139107   2.34068    2.182      0.9592589  2.34068    0.1736462  0.1736462  0.3304701  4.607932   3.228542   2.182      0.2975204  0.5137427  43.562     0.4752241  0.4020405  0.4752241 
1203.3     0.217      408.222    -9999      -9999      7.092445   2.2964     2.155      0.960331   2.2964     0.1734358  0.1734358  0.3301893  4.566785   3.483708   2.155      0.2926577  0.5102206  43.554     0.4750105  0.3897448  0.4750105 
1203.4     0.217      404.036    -9999      -9999      7.033166   2.27311    2.12       0.9623148  2.27311    0.1734528  0.1734528  0.3296697  4.570086   3.837162   2.12       0.2872621  0.5057397  43.493     0.4733847  0.3746652  0.4733847 
1203.5     0.217      401.8      -9999      -9999      6.965612   2.29072    2.08       0.9649581  2.29072    0.1737238  0.1737238  0.3289775  4.623209   4.283871   2.08       0.2818398  0.5006772  43.383     0.4704658  0.3581907  0.4704658 
1203.6     0.217      399.923    -9999      -9999      6.895712   2.33394    2.039      0.9679637  2.33394    0.1743539  0.1743539  0.3281903  4.74914    4.800911   2.039      0.2773814  0.4956642  43.22      0.466171   0.3419062  0.466171  
1203.7     0.218      398.003    -9999      -9999      6.829908   2.45439    2.005      0.9710246  2.45439    0.1753007  0.1753007  0.3273886  4.944851   5.344551   2.005      0.2750843  0.4917331  43.017     0.4608724  0.3272531  0.4608724 
1203.8     0.218      395.594    -9999      -9999      6.774073   2.46344    2.035      0.9738495  2.72278    0.1759771  0.1759771  0.3266488  5.089557   5.853843   2.035      0.2825291  0.4955656  42.851     0.4565811  0.3153133  0.4565811 
1203.9     0.218      392.345    -9999      -9999      6.732307   2.54008    2.154      0.976173   2.85072    0.177922   0.177922   0.3260403  5.529734   6.266284   2.154      0.3080659  0.5112661  42.548     0.4488434  0.3066679  0.4488434 
1204       0.218      386.621    -9999      -9999      6.706084   2.61855    2.27       0.9777746  2.97117    0.1802786  0.1802786  0.3256208  6.114418   6.539966   2.27       0.3325823  0.5260192  42.213     0.440431   0.3013613  0.440431  
1204.1     0.218      384.121    -9999      -9999      6.693987   2.71204    2.352      0.9784927  2.98647    0.1829387  0.1829387  0.3254327  6.848994   6.67022    2.352      0.3519252  0.536891   41.863     0.4318001  0.2989443  0.4318001 
1204.2     0.218      385.123    -9999      -9999      6.692028   2.79536    2.414      0.9782337  2.9107     0.1859047  0.1859047  0.3255006  7.77255    6.691552   2.414      0.3686951  0.5458499  41.5       0.423018   0.2985547  0.423018  
1204.3     0.218      388.575    -9999      -9999      6.694695   2.82553    2.413      0.9769833  2.78485    0.1899934  0.1899934  0.3258281  9.253307   6.662528   2.413      0.3804239  0.5499575  41.018     0.4116202  0.2990851  0.4116202 
1204.4     0.218      394.602    -9999      -9999      6.696545   2.84313    2.369      0.9748061  2.71299    0.1937311  0.1937311  0.3263983  10.85247   6.642463   2.369      0.3855648  0.549803   40.602     0.4020217  0.2994537  0.4020217 
1204.5     0.219      400.783    -9999      -9999      6.693736   2.84361    2.395      0.9718403  2.63432    0.198227   0.198227   0.327175   13.14628   6.672946   2.395      0.400797   0.5569978  40.101     0.3907516  0.2988944  0.3907516 
