~Version
 VERS              .         2.0                           : CWLS LOG ASCII STANDARD - VERSION 2.0
 WRAP              .         NO                            : ONE LINE PER DEPTH STEP
 DLM               .         SPACE                         : DELIMITING CHARACTER(SPACE TAB OR COMMA)
~Well Information
#_______________________________________________________________________________
#
#PARAMETER_NAME    .UNIT     VALUE                         : DESCRIPTION
#_______________________________________________________________________________
STRT               .м        961                           : First reference value
STOP               .м        1268                          : Last reference value
STEP               .м        0.1                           : Step increment
NULL               .         -9999                         : Missing value
COMP               .                                       : Company
WELL               .         1964                          : Well name
FLD                .         УЗЕНЬ                         : Field
LOC                .                                       : Location
PROV               .                                       : Province
SRVC               .         SCH                           : Service Company
DATE               .         13.01.2010                    : Date
UWI                .                                       : Unique Well ID
Block              .         3а                            : 
Category           .         Нагнетательная                : 
Condition          .         Ликвидированная               : 
CTRY               .                                       : Название страны
Date               .         30.11.1977                    : 
EREF               .m        234.6                         : 100.8
FILE               .                                       : 
Gorizont           .         14                            : 14
Interpretator      .         Алпанова Н.К.                 : 
Kupol              .         основной                      : osnovnoi
Moii_14            .         14_gor                        : 
Mud                .                                       : 
Mud_density        .                                       : 
Mud_resistivity    .                                       : 
NGDU               .         НГДУ-1                        : 
ORIGINALWELLNAME   .         1964                          : 
Spud_date          .         1977                          : 1961
TAPE               .                                       : 
Viscosity          .                                       : 
X                  .m        55520.4                       : 46154
Y                  .m        80718.53                      : 85761.93
YEAR               .         2019                          : 
~Parameter Information Block
#_______________________________________________________________________________
#
#PARAMETER_NAME    .UNIT     VALUE                         : DESCRIPTION
#_______________________________________________________________________________
SET                .         LQC_KAZNIPI_Petrel            : 
PBBOTTOM           .м        1268                          : Глубина подошвы планшета
PBSCALE            .         1 _ 500                       : Вертикальный масштаб планшета
PBTOP              .м        961                           : Глубина кровли планшета
TLFamily_CALI      .         Caliper                       : 
TLFamily_CILD      .         Conductivity                  : 
TLFamily_COLL      .         Net Reservoir Flag            : 
TLFamily_CSAT      .         Fluid Code                    : 
TLFamily_DEPT      .         Measured Depth                : 
TLFamily_GR        .         Russian Gamma Ray             : 
TLFamily_GZ3       .         Gradient 225                  : 
TLFamily_LLS       .         Lateral Log Resistivity       : 
TLFamily_NGLD      .         Neutron Gamma                 : 
TLFamily_OGZ       .         Gradient Inverted 225         : 
TLFamily_PHIE      .         Effective Porosity            : 
TLFamily_PHIEN     .         Effective Porosity            : 
TLFamily_PHIT      .         Porosity                      : 
TLFamily_PRMB      .         Permeability                  : 
TLFamily_PRMB_DGR  .         Permeability                  : 
TLFamily_RT        .         Formation Resistivity         : 
TLFamily_SOIL_ARCHIE .         Oil Saturation                : 
TLFamily_SOIL_DW   .         Oil Saturation                : 
TLFamily_SP        .         Spontaneous Potential         : 
TLFamily_VSH_FIN   .         Shale Volume                  : 
TLFamily_VSH_GR    .         Shale Volume                  : 
TLFamily_VSH_SP    .         Shale Volume                  : 
~Curve Information
#_______________________________________________________________________________
#
#LOGNAME           .UNIT     LOG_ID                        : DESCRIPTION
#_______________________________________________________________________________
DEPT               .м                                      : Колонка глубины 
CALI               .м                                      : Каверномер 
CILD               .мСм/м                                  : Индукционный каротаж 
COLL               .unitless                               : Описание 
CSAT               .unitless                               : Описание 
GR                 .мкР/ч                                  : Гамма каротаж 
GZ3                .Ом·м                                   : 2  GZ3 
LLS                .Ом·м                                   : Боковой каротаж 
NGLD               .у.е.                                   : Показания зонда НГК-60 аппаратуры ДРСТ-3-90 
OGZ                .Ом·м                                   : 3  OGZ3 
PHIE               .v/v                                    : Описание 
PHIEN              .v/v                                    :  
PHIT               .v/v                                    : Описание 
PRMB               .mD                                     :  
PRMB_DGR           .mD                                     :  
RT                 .ohmm                                   : Description 
SOIL_ARCHIE        .v/v                                    :  
SOIL_DW            .v/v                                    :  
SP                 .mv                                     : Потенциал самополяризации 
VSH_FIN            .v/v                                    : Описание 
VSH_GR             .v/v                                    : Shale volume 
VSH_SP             .v/v                                    : Shale Volume 
~Ascii
# ...
1017.6     0.223      374.025    -9999      -9999      5.614308   3.77796    2.147      1.037672   2.54149    0.1491928  0.1491928  0.3099338  1.623942   1.964592   2.147      0.1807357  0.4521106  42.667     0.487094   0.492449   0.481739  
1017.7     0.228      386.823    -9999      -9999      5.75019    3.59128    2.104      1.010991   2.4748     0.1472332  0.1472332  0.3169213  1.493738   1.601672   2.104      0.1633416  0.4514018  43.084     0.5142064  0.5352786  0.4931342 
1017.8     0.233      398.481    -9999      -9999      5.872636   3.53677    2.041      0.9895994  2.42506    0.1442827  0.1442827  0.3225239  1.317116   1.332433   2.041      0.1362248  0.4448486  43.445     0.5401248  0.577055   0.5031947 
1017.9     0.236      408.67     -9999      -9999      5.982071   3.58863    1.974      0.9730942  2.37542    0.1405365  0.1405365  0.3268466  1.122624   1.130344   1.974      0.1022529  0.4346942  43.756     0.5645763  0.6171438  0.5120088 
1018       0.238      417.256    -9999      -9999      6.079934   3.70497    1.896      0.9606912  2.34245    0.1360713  0.1360713  0.330095   0.9279591  0.9757305  1.896      0.0590141  0.4199167  44.053     0.5879505  0.6553467  0.5205542 
1018.1     0.238      423.698    -9999      -9999      6.167898   3.77777    1.844      0.951445   2.32534    0.1311609  0.1311609  0.3325166  0.7526211  0.85489    1.844      0.01564247 0.4066334  44.33      0.6101686  0.6916994  0.5286378 
1018.2     0.237      428.29     -9999      -9999      6.246812   3.79911    1.796      0.9444289  2.30885    0.1263016  0.1263016  0.3343541  0.6117446  0.7592732  1.796      0          0.3926811  44.542     0.630462   0.726025   0.5348991 
1018.3     0.237      430.965    -9999      -9999      6.315922   3.77895    1.8        0.9388809  2.29235    0.121456   0.121456   0.3358071  0.4975277  0.6843617  1.8        0          0.3865809  44.767     0.6495489  0.7574823  0.5416154 
1018.4     0.237      431.146    -9999      -9999      6.372781   3.77954    1.825      0.9342632  2.27586    0.1173665  0.1173665  0.3370165  0.4178976  0.628305   1.825      0          0.3848623  44.94      0.665606   0.7843824  0.5468296 
1018.5     0.237      428.949    -9999      -9999      6.413918   3.79722    1.883      0.9302512  2.27645    0.1153999  0.1153999  0.3380672  0.3842769  0.5906324  1.883      0          0.3920723  45.028     0.6747494  0.8        0.5494988 
1018.6     0.238      426.144    -9999      -9999      6.435951   3.86158    1.95       0.9267002  2.27704    0.1163098  0.1163098  0.3389972  0.399483   0.5713936  1.95       0          0.4053022  45.032     0.6748102  0.8        0.5496204 
1018.7     0.238      425.283    -9999      -9999      6.437103   3.93085    2.024      0.9236113  2.29472    0.1172041  0.1172041  0.3398062  0.4150136  0.5704053  2.024      0          0.4187323  45.015     0.6745518  0.8        0.5491037 
1018.8     0.239      424.498    -9999      -9999      6.41834    4.01736    2.126      0.9210771  2.32949    0.1181931  0.1181931  0.3404699  0.4328927  0.5867206  2.126      0          0.4352243  44.95      0.6735662  0.8        0.5471324 
1018.9     0.24       424.705    -9999      -9999      6.383857   4.086649   2.199      0.9192191  2.3774     0.120703   0.120703   0.3409565  0.4818048  0.6179319  2.199      0.02568274 0.4492571  44.884     0.6674348  0.7897326  0.545137  
1019       0.241      426.632    -9999      -9999      6.340312   4.15589    2.225      0.9181602  2.4332     0.1246555  0.1246555  0.3412338  0.570269   0.6597278  2.225      0.05785547 0.458953   44.836     0.6562981  0.7689064  0.5436898 
1019.1     0.243      429.747    -9999      -9999      6.295577   4.193759   2.216      0.9179709  2.48505    0.1282998  0.1282998  0.3412834  0.6661652  0.7056124  2.216      0.07945752 0.4634331  44.804     0.6454049  0.7480828  0.542727  
1019.2     0.244      433.475    -9999      -9999      6.256811   4.126      2.172      0.9186457  2.53691    0.1312631  0.1312631  0.3411067  0.7559076  0.7479477  2.172      0.08905058 0.4622625  44.756     0.6358897  0.730494   0.5412854 
1019.3     0.243      436.728    -9999      -9999      6.228864   4.0127     2.059      0.9201011  2.55459    0.133169   0.133169   0.3407255  0.8199174  0.7800343  2.059      0.07757666 0.4501714  44.708     0.6289593  0.7180715  0.5398471 
1019.4     0.24       438.944    -9999      -9999      6.2134     3.91219    1.971      0.9221974  2.57227    0.1340645  0.1340645  0.3401765  0.8518395  0.7983769  1.971      0.0639546  0.4388134  44.642     0.6245818  0.7112887  0.537875  
1019.5     0.236      440.003    -9999      -9999      6.209199   3.78603    1.944      0.9247622  2.55577    0.1341027  0.1341027  0.3395048  0.8532303  0.8034346  1.944      0.05811028 0.434275   44.559     0.6224304  0.7094569  0.5354039 
1019.6     0.232      440.293    -9999      -9999      6.212964   3.67077    1.96       0.9276175  2.52219    0.1336512  0.1336512  0.338757   0.8369563  0.798901   1.96       0.058966   0.4351064  44.443     0.6215326  0.711098   0.5319671 
1019.7     0.23       440.432    -9999      -9999      6.220899   3.55997    1.976      0.9305838  2.49461    0.1327927  0.1327927  0.3379801  0.8068646  0.7894291  1.976      0.05727287 0.435258   44.342     0.6217801  0.7145698  0.5289904 
1019.8     0.228      440.802    -9999      -9999      6.229884   3.44256    2.016      0.9334859  2.47212    0.1310843  0.1310843  0.33722    0.7501671  0.7788401  2.016      0.05550561 0.4374602  44.403     0.6246537  0.7185209  0.5307865 
1019.9     0.228      441.702    -9999      -9999      6.238      3.32519    2.055      0.9361578  2.47271    0.1296708  0.1296708  0.3365203  0.7062769  0.7693961  2.055      0.05507876 0.4399003  44.428     0.6268167  0.7221093  0.5315241 
1020       0.229      443.038    -9999      -9999      6.244646   3.22469    2.08       0.9384514  2.49039    0.1285393  0.1285393  0.3359196  0.6730044  0.7617496  2.08       0.05322627 0.4408813  44.437     0.6284251  0.7250603  0.5317898 
1020.1     0.229      444.47     -9999      -9999      6.250183   3.14112    2.063      0.9402673  2.52515    0.1275346  0.1275346  0.335444   0.6447742  0.7554362  2.063      0.04305508 0.4364885  44.462     0.6300286  0.7275285  0.5325287 
1020.2     0.23       445.464    -9999      -9999      6.255301   3.05756    2.013      0.9415815  2.5525     0.1267688  0.1267688  0.3350998  0.6240551  0.7496468  2.013      0.02688246 0.4279248  44.471     0.6313062  0.7298175  0.5327949 
1020.3     0.232      445.675    -9999      -9999      6.260698   2.98768    1.976      0.9424765  2.56051    0.1260078  0.1260078  0.3348654  0.6041272  0.7435901  1.976      0.01321302 0.4210894  44.497     0.6329018  0.7322391  0.5335646 
1020.4     0.234      445.886    -9999      -9999      6.266776   2.93701    1.946      0.9431365  2.56111    0.1252563  0.1252563  0.3346925  0.585071   0.7368286  1.946      0.0009116956 0.4152032  44.523     0.6346553  0.7349753  0.5343352 
1020.5     0.236      445.649    -9999      -9999      6.273432   2.90343    1.913      0.9438245  2.5617     0.1245405  0.1245405  0.3345124  0.5674798  0.7294934  1.913      0          0.40877    44.531     0.6362783  0.7379842  0.5345725 
1020.6     0.237      444.763    -9999      -9999      6.279919   2.87549    1.888      0.9448309  2.5452     0.1236638  0.1236638  0.3342488  0.5466539  0.7224159  1.888      0          0.4030679  44.557     0.6381362  0.7409279  0.5353445 
1020.7     0.237      443.365    -9999      -9999      6.284861   2.84263    1.876      0.9464164  2.52871    0.1227546  0.1227546  0.3338335  0.5258608  0.7170697  1.876      0          0.3991087  44.582     0.6396332  0.7431787  0.5360877 
1020.8     0.237      441.626    -9999      -9999      6.286353   2.77601    1.902      0.9487662  2.51222    0.1218942  0.1218942  0.3332181  0.5069148  0.7154633  1.902      0          0.4010269  44.609     0.6403754  0.7438595  0.5368914 
1020.9     0.236      440.227    -9999      -9999      6.282421   2.71785    2.014      0.9519657  2.51281    0.1210864  0.1210864  0.3323802  0.489747   0.7197042  2.014      0          0.415598   44.663     0.6402842  0.7420666  0.5385018 
