~Version
 VERS              .         2.0                           : CWLS LOG ASCII STANDARD - VERSION 2.0
 WRAP              .         NO                            : ONE LINE PER DEPTH STEP
 DLM               .         SPACE                         : DELIMITING CHARACTER(SPACE TAB OR COMMA)
~Well Information
#_______________________________________________________________________________
#
#PARAMETER_NAME    .UNIT     VALUE                         : DESCRIPTION
#_______________________________________________________________________________
STRT               .м        961                           : First reference value
STOP               .м        1268                          : Last reference value
STEP               .м        0.1                           : Step increment
NULL               .         -9999                         : Missing value
COMP               .                                       : Company
WELL               .         1964                          : Well name
FLD                .         УЗЕНЬ                         : Field
LOC                .                                       : Location
PROV               .                                       : Province
SRVC               .         SCH                           : Service Company
DATE               .         13.01.2010                    : Date
UWI                .                                       : Unique Well ID
Block              .         3а                            : 
Category           .         Нагнетательная                : 
Condition          .         Ликвидированная               : 
CTRY               .                                       : Название страны
Date               .         30.11.1977                    : 
EREF               .m        234.6                         : 100.8
FILE               .                                       : 
Gorizont           .         14                            : 14
Interpretator      .         Алпанова Н.К.                 : 
Kupol              .         основной                      : osnovnoi
Moii_14            .         14_gor                        : 
Mud                .                                       : 
Mud_density        .                                       : 
Mud_resistivity    .                                       : 
NGDU               .         НГДУ-1                        : 
ORIGINALWELLNAME   .         1964                          : 
Spud_date          .         1977                          : 1961
TAPE               .                                       : 
Viscosity          .                                       : 
X                  .m        55520.4                       : 46154
Y                  .m        80718.53                      : 85761.93
YEAR               .         2019                          : 
~Parameter Information Block
#_______________________________________________________________________________
#
#PARAMETER_NAME    .UNIT     VALUE                         : DESCRIPTION
#_______________________________________________________________________________
SET                .         LQC_KAZNIPI_Petrel            : 
PBBOTTOM           .м        1268                          : Глубина подошвы планшета
PBSCALE            .         1 _ 500                       : Вертикальный масштаб планшета
PBTOP              .м        961                           : Глубина кровли планшета
TLFamily_CALI      .         Caliper                       : 
TLFamily_CILD      .         Conductivity                  : 
TLFamily_COLL      .         Net Reservoir Flag            : 
TLFamily_CSAT      .         Fluid Code                    : 
TLFamily_DEPT      .         Measured Depth                : 
TLFamily_GR        .         Russian Gamma Ray             : 
TLFamily_GZ3       .         Gradient 225                  : 
TLFamily_LLS       .         Lateral Log Resistivity       : 
TLFamily_NGLD      .         Neutron Gamma                 : 
TLFamily_OGZ       .         Gradient Inverted 225         : 
TLFamily_PHIE      .         Effective Porosity            : 
TLFamily_PHIEN     .         Effective Porosity            : 
TLFamily_PHIT      .         Porosity                      : 
TLFamily_PRMB      .         Permeability                  : 
TLFamily_PRMB_DGR  .         Permeability                  : 
TLFamily_RT        .         Formation Resistivity         : 
TLFamily_SOIL_ARCHIE .         Oil Saturation                : 
TLFamily_SOIL_DW   .         Oil Saturation                : 
TLFamily_SP        .         Spontaneous Potential         : 
TLFamily_VSH_FIN   .         Shale Volume                  : 
TLFamily_VSH_GR    .         Shale Volume                  : 
TLFamily_VSH_SP    .         Shale Volume                  : 
~Curve Information
#_______________________________________________________________________________
#
#LOGNAME           .UNIT     LOG_ID                        : DESCRIPTION
#_______________________________________________________________________________
DEPT               .м                                      : Колонка глубины 
CALI               .м                                      : Каверномер 
CILD               .мСм/м                                  : Индукционный каротаж 
COLL               .unitless                               : Описание 
CSAT               .unitless                               : Описание 
GR                 .мкР/ч                                  : Гамма каротаж 
GZ3                .Ом·м                                   : 2  GZ3 
LLS                .Ом·м                                   : Боковой каротаж 
NGLD               .у.е.                                   : Показания зонда НГК-60 аппаратуры ДРСТ-3-90 
OGZ                .Ом·м                                   : 3  OGZ3 
PHIE               .v/v                                    : Описание 
PHIEN              .v/v                                    :  
PHIT               .v/v                                    : Описание 
PRMB               .mD                                     :  
PRMB_DGR           .mD                                     :  
RT                 .ohmm                                   : Description 
SOIL_ARCHIE        .v/v                                    :  
SOIL_DW            .v/v                                    :  
SP                 .mv                                     : Потенциал самополяризации 
VSH_FIN            .v/v                                    : Описание 
VSH_GR             .v/v                                    : Shale volume 
VSH_SP             .v/v                                    : Shale Volume 
~Ascii
# ...
1109.4     0.223      388.091    -9999      -9999      5.673045   2.04195    1.917      1.001168   4.37991    0.1787749  0.1787749  0.3194941  5.734603   3.594544   1.917      0.2619335  0.4693976  38.709     0.4264219  0.3847921  0.4680516 
1109.5     0.224      376.716    -9999      -9999      5.591872   2.11076    2.098      1.003002   4.36287    0.1817931  0.1817931  0.3190138  6.522409   4.020941   2.098      0.3027708  0.4956845  38.557     0.4158201  0.3675759  0.4640642 
1109.6     0.225      364.819    -9999      -9999      5.507987   2.17959    2.282      1.004697   4.31165    0.1844999  0.1844999  0.3185699  7.320549   4.514798   2.282      0.3383133  0.5188627  38.476     0.4062728  0.3505932  0.4619523 
1109.7     0.227      351.511    -9999      -9999      5.422302   2.26558    2.387      1.006233   4.25701    0.1869165  0.1869165  0.3181677  8.115294   5.081927   2.387      0.3594362  0.5316345  38.455     0.3977311  0.334056   0.4614062 
1109.8     0.23       337.789    -9999      -9999      5.336794   2.35163    2.557      1.007547   4.2434     0.1891111  0.1891111  0.3178235  8.911585   5.71889    2.557      0.3860595  0.5492789  38.468     0.3900374  0.3183307  0.4617441 
1109.9     0.231      325.993    -9999      -9999      5.255002   2.43765    2.667      1.008573   4.26053    0.1910037  0.1910037  0.3175547  9.660741   6.402753   2.667      0.403273   0.5602008  38.516     0.383488   0.3039819  0.4629941 
1110       0.231      317.606    -9999      -9999      5.181817   2.54091    2.737      1.00927    4.2407     0.1925688  0.1925688  0.3173721  10.32759   7.083703   2.737      0.414659   0.5671278  38.581     0.3781919  0.291692   0.4646918 
1110.1     0.232      312.402    -9999      -9999      5.122746   2.64417    2.788      1.009645   4.17307    0.1937101  0.1937101  0.317274   10.84275   7.685782   2.788      0.4226872  0.572041   38.659     0.3744361  0.2821358  0.4667365 
1110.2     0.232      309.805    -9999      -9999      5.082915   2.76464    2.864      1.009735   4.122459   0.1944382  0.1944382  0.3172504  11.18473   8.120391   2.864      0.4317872  0.5783738  38.724     0.3721581  0.2758694  0.4684467 
1110.3     0.23       308.613    -9999      -9999      5.065922   2.85065    2.84       1.009586   4.08984    0.1947068  0.1947068  0.3172895  11.31357   8.313201   2.84       0.4302242  0.5768618  38.771     0.3714628  0.2732386  0.469687  
1110.4     0.227      307.758    -9999      -9999      5.072871   2.94504    2.781      1.009211   4.08896    0.193997   0.193997   0.3173875  10.97623   8.233806   2.781      0.4227502  0.5718487  38.819     0.3739107  0.2743114  0.47351   
1110.5     0.224      305.023    -9999      -9999      5.102077   3.02269    2.786      1.00859    4.05575    0.1929317  0.1929317  0.3175502  10.48869   7.908317   2.786      0.4204639  0.5714191  38.831     0.3776318  0.2788666  0.476397  
1110.6     0.221      300.56     -9999      -9999      5.149017   3.06472    2.782      1.007681   3.98768    0.1916032  0.1916032  0.3177885  9.910924   7.411936   2.782      0.4165725  0.570116   38.81      0.3823796  0.2863466  0.4784127 
1110.7     0.221      295.235    -9999      -9999      5.206873   3.06476    2.783      1.006452   3.83528    0.1900242  0.1900242  0.3181102  9.265459   6.842776   2.783      0.4124514  0.5690308  38.789     0.3881394  0.2958427  0.4804361 
1110.8     0.224      289.903    -9999      -9999      5.267668   3.03062    2.768      1.004932   3.75074    0.1883846  0.1883846  0.3185083  8.639693   6.291733   2.768      0.406497   0.5666937  38.768     0.3943141  0.3061608  0.4824673 
1110.9     0.228      285.139    -9999      -9999      5.323561   3.03947    2.681      1.003222   3.73125    0.1869547  0.1869547  0.3189561  8.12853    5.824362   2.681      0.3935243  0.5587544  38.73      0.4000042  0.3159641  0.4840444 
1111       0.232      282.251    -9999      -9999      5.367924   3.07379    2.533      1.001485   3.73129    0.1858236  0.1858236  0.3194112  7.745739   5.478243   2.533      0.3738456  0.545341   38.693     0.4048108  0.3239681  0.4856535 
1111.1     0.233      280.729    -9999      -9999      5.396393   3.13326    2.426      0.9998993  3.69716    0.185112   0.185112   0.3198264  7.514172   5.267044   2.426      0.3588955  0.5350786  38.655     0.4082254  0.329211   0.4872399 
1111.2     0.234      280.069    -9999      -9999      5.40738    3.21874    2.361      0.9986044  3.61588    0.1849278  0.1849278  0.3201655  7.455379   5.187737   2.361      0.3501094  0.5288374  38.6       0.4098112  0.3312568  0.4883656 
1111.3     0.234      279.925    -9999      -9999      5.401914   3.32518    2.372      0.9976501  3.53134    0.1852412  0.1852412  0.3204154  7.555708   5.227043   2.372      0.3524812  0.5304679  38.527     0.4096188  0.3302374  0.4890002 
1111.4     0.232      279.559    -9999      -9999      5.38308    3.43508    2.495      0.9969829  3.43508    0.1859592  0.1859592  0.3205902  7.79065    5.364773   2.495      0.3697888  0.5430405  38.438     0.4079727  0.3267488  0.4891965 
1111.5     0.231      278.858    -9999      -9999      5.355273   3.55036    2.721      0.9964702  3.34522    0.1869044  0.1869044  0.3207245  8.111118   5.574795   2.721      0.3975834  0.5634193  38.348     0.4055153  0.3216651  0.4893656 
1111.6     0.23       278.345    -9999      -9999      5.323294   3.6461     2.943      0.9959509  3.15032    0.187961   0.187961   0.3208604  8.485003   5.826514   2.943      0.4221958  0.5812554  38.258     0.4027255  0.3159164  0.4895347 
1111.7     0.229      278.345    -9999      -9999      5.291667   3.66772    2.967      0.9953017  3.01603    0.1891784  0.1891784  0.3210305  8.937187   6.086637   2.967      0.4276212  0.5841554  38.134     0.3995518  0.3103321  0.4887716 
1111.8     0.231      279.191    -9999      -9999      5.26435    3.63402    2.944      0.9944754  2.82569    0.1902987  0.1902987  0.3212469  9.374574   6.320629   2.944      0.4284738  0.5836841  38.011     0.3968127  0.3055885  0.488037  
1111.9     0.234      281.224    -9999      -9999      5.244595   3.59495    2.839      0.9935122  2.74051    0.1912351  0.1912351  0.3214992  9.756556   6.49544    2.839      0.4211303  0.5770842  37.887     0.3947395  0.3022031  0.487276  
1112       0.236      284.272    -9999      -9999      5.234852   3.64105    2.642      0.9925038  2.8089     0.1918212  0.1918212  0.3217632  10.00352   6.583424   2.642      0.4028553  0.5623516  37.78      0.3937637  0.3005474  0.48698   
1112.1     0.238      287.865    -9999      -9999      5.236844   3.71466    2.441      0.9915426  2.8773     0.1921156  0.1921156  0.322015   10.12989   6.565346   2.441      0.3810923  0.5451816  37.662     0.3936346  0.3008851  0.4863841 
1112.2     0.239      291.628    -9999      -9999      5.25157    3.86469    2.4        0.9906635  2.91151    0.1918996  0.1918996  0.3222452  10.03699   6.433172   2.4        0.3755415  0.5413041  37.573     0.3949869  0.3033941  0.4865796 
1112.3     0.237      294.888    -9999      -9999      5.279232   3.98518    2.352      0.9898119  2.90587    0.1913079  0.1913079  0.3224683  9.786874   6.192063   2.352      0.3678954  0.5362688  37.483     0.3974558  0.3081636  0.4867479 
1112.4     0.235      297.303    -9999      -9999      5.31923    4.1516     2.356      0.9888461  2.8774     0.1903732  0.1903732  0.3227212  9.404398   5.859308   2.356      0.3656992  0.5359759  37.393     0.4010547  0.3151933  0.4869161 
1112.5     0.234      298.702    -9999      -9999      5.370104   4.21041    2.457      0.9875725  2.84326    0.1893139  0.1893139  0.3230548  8.989      5.461781   2.457      0.3750416  0.5448859  37.27      0.4052752  0.3243665  0.4861839 
1112.6     0.233      299.387    -9999      -9999      5.429315   4.14438    2.544      0.9857987  2.79203    0.1881134  0.1881134  0.3235193  8.540337   5.032947   2.544      0.3817475  0.5519911  37.14      0.4103209  0.3353796  0.4852621 
1112.7     0.234      299.729    -9999      -9999      5.493511   4.02584    2.605      0.9833797  2.75788    0.1869081  0.1869081  0.3241529  8.112407   4.60596    2.605      0.3851513  0.5566601  36.999     0.4158931  0.347743   0.4840432 
