~Version
 VERS              .         2.0                           : CWLS LOG ASCII STANDARD - VERSION 2.0
 WRAP              .         NO                            : ONE LINE PER DEPTH STEP
 DLM               .         SPACE                         : DELIMITING CHARACTER(SPACE TAB OR COMMA)
~Well Information
#_______________________________________________________________________________
#
#PARAMETER_NAME    .UNIT     VALUE                         : DESCRIPTION
#_______________________________________________________________________________
STRT               .м        961                           : First reference value
STOP               .м        1268                          : Last reference value
STEP               .м        0.1                           : Step increment
NULL               .         -9999                         : Missing value
COMP               .                                       : Company
WELL               .         1964                          : Well name
FLD                .         УЗЕНЬ                         : Field
LOC                .                                       : Location
PROV               .                                       : Province
SRVC               .         SCH                           : Service Company
DATE               .         13.01.2010                    : Date
UWI                .                                       : Unique Well ID
Block              .         3а                            : 
Category           .         Нагнетательная                : 
Condition          .         Ликвидированная               : 
CTRY               .                                       : Название страны
Date               .         30.11.1977                    : 
EREF               .m        234.6                         : 100.8
FILE               .                                       : 
Gorizont           .         14                            : 14
Interpretator      .         Алпанова Н.К.                 : 
Kupol              .         основной                      : osnovnoi
Moii_14            .         14_gor                        : 
Mud                .                                       : 
Mud_density        .                                       : 
Mud_resistivity    .                                       : 
NGDU               .         НГДУ-1                        : 
ORIGINALWELLNAME   .         1964                          : 
Spud_date          .         1977                          : 1961
TAPE               .                                       : 
Viscosity          .                                       : 
X                  .m        55520.4                       : 46154
Y                  .m        80718.53                      : 85761.93
YEAR               .         2019                          : 
~Parameter Information Block
#_______________________________________________________________________________
#
#PARAMETER_NAME    .UNIT     VALUE                         : DESCRIPTION
#_______________________________________________________________________________
SET                .         LQC_KAZNIPI_Petrel            : 
PBBOTTOM           .м        1268                          : Глубина подошвы планшета
PBSCALE            .         1 _ 500                       : Вертикальный масштаб планшета
PBTOP              .м        961                           : Глубина кровли планшета
TLFamily_CALI      .         Caliper                       : 
TLFamily_CILD      .         Conductivity                  : 
TLFamily_COLL      .         Net Reservoir Flag            : 
TLFamily_CSAT      .         Fluid Code                    : 
TLFamily_DEPT      .         Measured Depth                : 
TLFamily_GR        .         Russian Gamma Ray             : 
TLFamily_GZ3       .         Gradient 225                  : 
TLFamily_LLS       .         Lateral Log Resistivity       : 
TLFamily_NGLD      .         Neutron Gamma                 : 
TLFamily_OGZ       .         Gradient Inverted 225         : 
TLFamily_PHIE      .         Effective Porosity            : 
TLFamily_PHIEN     .         Effective Porosity            : 
TLFamily_PHIT      .         Porosity                      : 
TLFamily_PRMB      .         Permeability                  : 
TLFamily_PRMB_DGR  .         Permeability                  : 
TLFamily_RT        .         Formation Resistivity         : 
TLFamily_SOIL_ARCHIE .         Oil Saturation                : 
TLFamily_SOIL_DW   .         Oil Saturation                : 
TLFamily_SP        .         Spontaneous Potential         : 
TLFamily_VSH_FIN   .         Shale Volume                  : 
TLFamily_VSH_GR    .         Shale Volume                  : 
TLFamily_VSH_SP    .         Shale Volume                  : 
~Curve Information
#_______________________________________________________________________________
#
#LOGNAME           .UNIT     LOG_ID                        : DESCRIPTION
#_______________________________________________________________________________
DEPT               .м                                      : Колонка глубины 
CALI               .м                                      : Каверномер 
CILD               .мСм/м                                  : Индукционный каротаж 
COLL               .unitless                               : Описание 
CSAT               .unitless                               : Описание 
GR                 .мкР/ч                                  : Гамма каротаж 
GZ3                .Ом·м                                   : 2  GZ3 
LLS                .Ом·м                                   : Боковой каротаж 
NGLD               .у.е.                                   : Показания зонда НГК-60 аппаратуры ДРСТ-3-90 
OGZ                .Ом·м                                   : 3  OGZ3 
PHIE               .v/v                                    : Описание 
PHIEN              .v/v                                    :  
PHIT               .v/v                                    : Описание 
PRMB               .mD                                     :  
PRMB_DGR           .mD                                     :  
RT                 .ohmm                                   : Description 
SOIL_ARCHIE        .v/v                                    :  
SOIL_DW            .v/v                                    :  
SP                 .mv                                     : Потенциал самополяризации 
VSH_FIN            .v/v                                    : Описание 
VSH_GR             .v/v                                    : Shale volume 
VSH_SP             .v/v                                    : Shale Volume 
~Ascii
# ...
1126.4     0.271      455.951    -9999      -9999      5.719135   1.92452    1.647      0.9008092  2.79847    0.1881894  0.1881894  0.3457781  8.568069   3.372885   1.647      0.2420841  0.4652736  37.96      0.4775413  0.394924   0.5601587 
1126.5     0.266      444.364    -9999      -9999      5.773848   1.95542    1.73       0.9059548  2.91876    0.1852426  0.1852426  0.3444304  7.55615    3.127425   1.73       0.2491194  0.4737776  37.939     0.4823874  0.4072985  0.5574762 
1126.6     0.263      433.571    -9999      -9999      5.82172    1.993      1.808      0.9108076  3.09367    0.1824875  0.1824875  0.3431595  6.718458   2.927356   1.808      0.2548369  0.4810666  37.935     0.4868847  0.4184433  0.5553262 
1126.7     0.262      423.39     -9999      -9999      5.858361   2.05845    1.871      0.9153381  3.24536    0.1802132  0.1802132  0.3419729  6.097378   2.782916   1.871      0.2586648  0.4862957  37.931     0.4901812  0.427179   0.5531833 
1126.8     0.26       413.998    -9999      -9999      5.881047   2.16157    1.943      0.9195732  3.31015    0.1784584  0.1784584  0.3408638  5.6577     2.69708    1.943      0.2654517  0.4929767  37.945     0.4921376  0.432679   0.5515963 
1126.9     0.256      405.893    -9999      -9999      5.889377   2.26468    2.042      0.9235715  3.32729    0.1772559  0.1772559  0.3398166  5.374866   2.666232   2.042      0.2781457  0.503186   37.975     0.4926082  0.4347162  0.5505002 
1127       0.25       398.694    -9999      -9999      5.885401   2.36774    2.197      0.9274059  3.30668    0.1764172  0.1764172  0.3388124  5.186005   2.680912   2.197      0.2996212  0.5192797  38.04      0.4921066  0.4337426  0.5504706 
1127.1     0.244      391.828    -9999      -9999      5.873407   2.47085    2.344      0.9311336  3.25583    0.1759333  0.1759333  0.3378361  5.08006    2.725689   2.344      0.3189597  0.5332776  38.104     0.4906147  0.4308189  0.5504106 
1127.2     0.237      386.445    -9999      -9999      5.858892   2.55674    2.45       0.9347817  3.17346    0.1753913  0.1753913  0.3368807  4.963982   2.780875   2.45       0.3311542  0.542146   38.203     0.4893618  0.427307   0.5514166 
1127.3     0.232      382.437    -9999      -9999      5.847281   2.5919     2.493      0.9383372  3.10507    0.1746683  0.1746683  0.3359495  4.813247   2.825826   2.493      0.3342017  0.5446131  38.319     0.488731   0.4245183  0.5529437 
1127.4     0.228      380.76     -9999      -9999      5.842546   2.59194    2.463      0.9417536  3.03521    0.1736218  0.1736218  0.3350548  4.603141   2.844364   2.463      0.3268946  0.540029   38.452     0.4891908  0.4233864  0.5549953 
1127.5     0.225      380.248    -9999      -9999      5.846343   2.57487    2.341      0.9449613  2.95033    0.1722973  0.1722973  0.3342146  4.350337   2.829488   2.341      0.3060426  0.5260659  38.584     0.4906584  0.4242939  0.5570229 
1127.6     0.223      380.698    -9999      -9999      5.857855   2.52519    2.207      0.947885   2.86544    0.170908   0.170908   0.3334489  4.10004    2.784859   2.207      0.281531   0.5096701  38.683     0.4925484  0.4270573  0.5580395 
1127.7     0.223      381.211    -9999      -9999      5.874697   2.47438    2.12       0.950455   2.81442    0.169313   0.169313   0.3327759  3.830413   2.720837   2.12       0.2618392  0.4972722  38.798     0.495342   0.4311323  0.5595517 
1127.8     0.223      381.635    -9999      -9999      5.894272   2.42101    2.084      0.9526108  2.74674    0.1677904  0.1677904  0.3322112  3.589577   2.64827    2.084      0.2500051  0.4906483  38.897     0.4982449  0.4359177  0.5605721 
1127.9     0.223      380.952    -9999      -9999      5.914996   2.38683    2.068      0.9542931  2.69474    0.1664225  0.1664225  0.3317706  3.386148   2.573551   2.068      0.241902   0.486649   38.979     0.501055   0.441042   0.5610681 
1128       0.224      379.926    -9999      -9999      5.937082   2.36976    2.066      0.9554396  2.64346    0.1650414  0.1650414  0.3314704  3.192462   2.496241   2.066      0.2360331  0.4844658  39.078     0.5043301  0.4465692  0.562091  
1128.1     0.224      379.072    -9999      -9999      5.96226    2.35268    2.072      0.9559802  2.62639    0.1636003  0.1636003  0.3313288  3.002146   2.410937   2.072      0.231222   0.4833419  39.192     0.5082682  0.4529548  0.5635816 
1128.2     0.225      378.559    -9999      -9999      5.992839   2.36651    2.055      0.9558512  2.64167    0.1621596  0.1621596  0.3313626  2.823237   2.311247   2.055      0.2222759  0.4794824  39.292     0.5127363  0.460833   0.5646396 
1128.3     0.225      378.992    -9999      -9999      6.030398   2.36985    2.025      0.9550143  2.64356    0.1605814  0.1605814  0.3315818  2.639462   2.194421   2.025      0.2101913  0.4738934  39.391     0.5181829  0.4706975  0.5656682 
1128.4     0.225      379.917    -9999      -9999      6.07491    2.4041     2.007      0.9534817  2.6436     0.1587511  0.1587511  0.3319831  2.441259   2.063591   2.007      0.1989168  0.4696242  39.507     0.5249456  0.4826616  0.5672294 
1128.5     0.225      381.181    -9999      -9999      6.124167   2.42124    1.997      0.9513324  2.66074    0.1569883  0.1569883  0.3325461  2.264447   1.927888   1.997      0.1891896  0.4665993  39.589     0.5319932  0.496256   0.5677304 
1128.6     0.224      382.55     -9999      -9999      6.174158   2.43487    1.976      0.9487071  2.67563    0.1553346  0.1553346  0.3332336  2.110241   1.799282   1.976      0.1776073  0.4623088  39.655     0.5390878  0.5104445  0.5677311 
1128.7     0.223      384.317    -9999      -9999      6.219818   2.4213     1.946      0.9457843  2.67791    0.1539084  0.1539084  0.3339991  1.985708   1.689331   1.946      0.1650009  0.4570664  39.72      0.5457293  0.5237579  0.5677009 
1128.8     0.222      386.198    -9999      -9999      6.256053   2.40423    1.927      0.9427456  2.67795    0.1531932  0.1531932  0.3347949  1.926051   1.606876   1.927      0.1577376  0.4542487  39.733     0.5503083  0.53457    0.5660466 
1128.9     0.22       388.522    -9999      -9999      6.278645   2.38715    1.976      0.9397414  2.67798    0.1532291  0.1532291  0.3355817  1.929004   1.557518   1.976      0.1677739  0.4618939  39.725     0.5525837  0.5414239  0.5637435 
1129       0.219      391.309    -9999      -9999      6.284956   2.38719    2.117      0.9368783  2.64678    0.1540187  0.1540187  0.3363316  1.995066   1.544001   2.117      0.1978595  0.4818487  39.721     0.5524634  0.5433542  0.5615726 
1129.1     0.219      394.93     -9999      -9999      6.274285   2.42143    2.242      0.9342245  2.62673    0.1555169  0.1555169  0.3370266  2.126707   1.566924   2.242      0.2257214  0.4989782  39.735     0.5500295  0.5400943  0.5599647 
1129.2     0.219      398.977    -9999      -9999      6.24786    2.45143    2.312      0.9318309  2.59254    0.157645   0.157645   0.3376535  2.328769   1.62516    2.312      0.2457931  0.5097142  39.765     0.5454801  0.5321061  0.5588541 
1129.3     0.218      403.594    -9999      -9999      6.208688   2.48993    2.317      0.9297488  2.48993    0.1601134  0.1601134  0.3381988  2.587302   1.715498   2.317      0.2566839  0.5136051  39.83      0.5396526  0.520481   0.5588242 
1129.4     0.218      408.559    -9999      -9999      6.160949   2.50707    2.222      0.9280419  2.50707    0.1629177  0.1629177  0.3386458  2.916008   1.832405   2.222      0.2533135  0.5069877  39.881     0.5325096  0.5066566  0.5583625 
1129.5     0.218      413.401    -9999      -9999      6.109223   2.51987    2.014      0.9267745  2.51987    0.1656578  0.1656578  0.3389778  3.277492   1.968086   2.014      0.2293454  0.4857517  39.946     0.5252121  0.4920917  0.5583325 
1129.6     0.218      416.62     -9999      -9999      6.057683   2.54136    1.911      0.9259948  2.54136    0.1682284  0.1682284  0.339182   3.657261   2.113276   1.911      0.2206476  0.4753742  40.004     0.5180411  0.4779954  0.5580868 
1129.7     0.218      417.985    -9999      -9999      6.009407   2.5585     1.87       0.9257174  2.5585     0.1705105  0.1705105  0.3392546  4.031117   2.258965   1.87       0.2218607  0.4724622  40.052     0.511346   0.4651586  0.5575333 
