~Version
 VERS              .         2.0                           : CWLS LOG ASCII STANDARD - VERSION 2.0
 WRAP              .         NO                            : ONE LINE PER DEPTH STEP
 DLM               .         SPACE                         : DELIMITING CHARACTER(SPACE TAB OR COMMA)
~Well Information
#_______________________________________________________________________________
#
#PARAMETER_NAME    .UNIT     VALUE                         : DESCRIPTION
#_______________________________________________________________________________
STRT               .м        961                           : First reference value
STOP               .м        1268                          : Last reference value
STEP               .м        0.1                           : Step increment
NULL               .         -9999                         : Missing value
COMP               .                                       : Company
WELL               .         1964                          : Well name
FLD                .         УЗЕНЬ                         : Field
LOC                .                                       : Location
PROV               .                                       : Province
SRVC               .         SCH                           : Service Company
DATE               .         13.01.2010                    : Date
UWI                .                                       : Unique Well ID
Block              .         3а                            : 
Category           .         Нагнетательная                : 
Condition          .         Ликвидированная               : 
CTRY               .                                       : Название страны
Date               .         30.11.1977                    : 
EREF               .m        234.6                         : 100.8
FILE               .                                       : 
Gorizont           .         14                            : 14
Interpretator      .         Алпанова Н.К.                 : 
Kupol              .         основной                      : osnovnoi
Moii_14            .         14_gor                        : 
Mud                .                                       : 
Mud_density        .                                       : 
Mud_resistivity    .                                       : 
NGDU               .         НГДУ-1                        : 
ORIGINALWELLNAME   .         1964                          : 
Spud_date          .         1977                          : 1961
TAPE               .                                       : 
Viscosity          .                                       : 
X                  .m        55520.4                       : 46154
Y                  .m        80718.53                      : 85761.93
YEAR               .         2019                          : 
~Parameter Information Block
#_______________________________________________________________________________
#
#PARAMETER_NAME    .UNIT     VALUE                         : DESCRIPTION
#_______________________________________________________________________________
SET                .         LQC_KAZNIPI_Petrel            : 
PBBOTTOM           .м        1268                          : Глубина подошвы планшета
PBSCALE            .         1 _ 500                       : Вертикальный масштаб планшета
PBTOP              .м        961                           : Глубина кровли планшета
TLFamily_CALI      .         Caliper                       : 
TLFamily_CILD      .         Conductivity                  : 
TLFamily_COLL      .         Net Reservoir Flag            : 
TLFamily_CSAT      .         Fluid Code                    : 
TLFamily_DEPT      .         Measured Depth                : 
TLFamily_GR        .         Russian Gamma Ray             : 
TLFamily_GZ3       .         Gradient 225                  : 
TLFamily_LLS       .         Lateral Log Resistivity       : 
TLFamily_NGLD      .         Neutron Gamma                 : 
TLFamily_OGZ       .         Gradient Inverted 225         : 
TLFamily_PHIE      .         Effective Porosity            : 
TLFamily_PHIEN     .         Effective Porosity            : 
TLFamily_PHIT      .         Porosity                      : 
TLFamily_PRMB      .         Permeability                  : 
TLFamily_PRMB_DGR  .         Permeability                  : 
TLFamily_RT        .         Formation Resistivity         : 
TLFamily_SOIL_ARCHIE .         Oil Saturation                : 
TLFamily_SOIL_DW   .         Oil Saturation                : 
TLFamily_SP        .         Spontaneous Potential         : 
TLFamily_VSH_FIN   .         Shale Volume                  : 
TLFamily_VSH_GR    .         Shale Volume                  : 
TLFamily_VSH_SP    .         Shale Volume                  : 
~Curve Information
#_______________________________________________________________________________
#
#LOGNAME           .UNIT     LOG_ID                        : DESCRIPTION
#_______________________________________________________________________________
DEPT               .м                                      : Колонка глубины 
CALI               .м                                      : Каверномер 
CILD               .мСм/м                                  : Индукционный каротаж 
COLL               .unitless                               : Описание 
CSAT               .unitless                               : Описание 
GR                 .мкР/ч                                  : Гамма каротаж 
GZ3                .Ом·м                                   : 2  GZ3 
LLS                .Ом·м                                   : Боковой каротаж 
NGLD               .у.е.                                   : Показания зонда НГК-60 аппаратуры ДРСТ-3-90 
OGZ                .Ом·м                                   : 3  OGZ3 
PHIE               .v/v                                    : Описание 
PHIEN              .v/v                                    :  
PHIT               .v/v                                    : Описание 
PRMB               .mD                                     :  
PRMB_DGR           .mD                                     :  
RT                 .ohmm                                   : Description 
SOIL_ARCHIE        .v/v                                    :  
SOIL_DW            .v/v                                    :  
SP                 .mv                                     : Потенциал самополяризации 
VSH_FIN            .v/v                                    : Описание 
VSH_GR             .v/v                                    : Shale volume 
VSH_SP             .v/v                                    : Shale Volume 
~Ascii
# ...
1255.6     0.214      158.273    1          2          -9999      7.21054    4.479      -9999      8.2532     -9999      -9999      -9999      -9999      -9999      4.479      -9999      -9999      27.94      0.1960061  -9999      0.1960061 
1255.7     0.214      158.922    1          2          -9999      7.0018     4.376      -9999      8.41345    -9999      -9999      -9999      -9999      -9999      4.376      -9999      -9999      28.01      0.1965171  -9999      0.1965171 
1255.8     0.214      158.554    1          2          -9999      6.83975    4.2        -9999      8.58699    -9999      -9999      -9999      -9999      -9999      4.2        -9999      -9999      28.051     0.1967595  -9999      0.1967595 
1255.9     0.213      157.158    1          2          -9999      6.71866    4.038      -9999      8.68463    -9999      -9999      -9999      -9999      -9999      4.038      -9999      -9999      28.041     0.1965267  -9999      0.1965267 
1256       0.213      154.638    1          2          -9999      6.6948     3.916      -9999      8.770449   -9999      -9999      -9999      -9999      -9999      3.916      -9999      -9999      27.996     0.1959696  -9999      0.1959696 
1256.1     0.213      151.075    1          2          -9999      6.750781   3.954      -9999      8.93643    -9999      -9999      -9999      -9999      -9999      3.954      -9999      -9999      27.935     0.1952679  -9999      0.1952679 
1256.2     0.212      146.712    1          2          -9999      6.81658    4.122      -9999      8.938809   -9999      -9999      -9999      -9999      -9999      4.122      -9999      -9999      27.844     0.1942967  -9999      0.1942967 
1256.3     0.212      141.826    1          2          -9999      6.88621    4.365      -9999      8.94118    -9999      -9999      -9999      -9999      -9999      4.365      -9999      -9999      27.697     0.192829   -9999      0.192829  
1256.4     0.212      136.855    1          2          -9999      6.973279   4.895      -9999      8.85798    -9999      -9999      -9999      -9999      -9999      4.895      -9999      -9999      27.55      0.1913813  -9999      0.1913813 
1256.5     0.213      132.127    1          2          -9999      7.04292    5.393      -9999      8.68921    -9999      -9999      -9999      -9999      -9999      5.393      -9999      -9999      27.387     0.1898136  -9999      0.1898136 
1256.6     0.213      127.765    1          2          -9999      7.12966    5.65       -9999      8.457471   -9999      -9999      -9999      -9999      -9999      5.65       -9999      -9999      27.205     0.1881061  -9999      0.1881061 
1256.7     0.213      124.093    1          2          -9999      7.198589   5.822      -9999      8.29559    -9999      -9999      -9999      -9999      -9999      5.822      -9999      -9999      27.027     0.1864614  -9999      0.1864614 
1256.8     0.213      121.12     1          2          -9999      7.250401   6.027      -9999      8.13401    -9999      -9999      -9999      -9999      -9999      6.027      -9999      -9999      26.867     0.1849938  -9999      0.1849938 
1256.9     0.212      118.843    1          2          -9999      7.26798    6.086      -9999      8.09927    -9999      -9999      -9999      -9999      -9999      6.086      -9999      -9999      26.674     0.1832784  -9999      0.1832784 
1257       0.212      117.105    1          2          -9999      7.28556    6.314      -9999      8.10248    -9999      -9999      -9999      -9999      -9999      6.314      -9999      -9999      26.516     0.1818756  -9999      0.1818756 
1257.1     0.212      116.043    1          2          -9999      7.33859    6.554      -9999      8.00473    -9999      -9999      -9999      -9999      -9999      6.554      -9999      -9999      26.351     0.1804387  -9999      0.1804387 
1257.2     0.211      115.333    1          2          -9999      7.43323    6.69       -9999      7.69719    -9999      -9999      -9999      -9999      -9999      6.69       -9999      -9999      26.187     0.1790327  -9999      0.1790327 
1257.3     0.212      115.137    1          2          -9999      7.509459   6.705      -9999      7.509459   -9999      -9999      -9999      -9999      -9999      6.705      -9999      -9999      26.054     0.1778872  -9999      0.1778872 
1257.4     0.211      115.283    1          2          -9999      7.66982    6.563      -9999      7.205081   -9999      -9999      -9999      -9999      -9999      6.563      -9999      -9999      26.004     0.177389   -9999      0.177389  
1257.5     0.211      115.945    1          2          -9999      7.78205    6.238      -9999      7.0128     -9999      -9999      -9999      -9999      -9999      6.238      -9999      -9999      25.979     0.1770839  -9999      0.1770839 
1257.6     0.211      117.12     1          2          -9999      7.91399    5.948      -9999      6.83832    -9999      -9999      -9999      -9999      -9999      5.948      -9999      -9999      26.028     0.1773434  -9999      0.1773434 
1257.7     0.21       118.896    1          2          -9999      8.02499    5.673      -9999      6.77233    -9999      -9999      -9999      -9999      -9999      5.673      -9999      -9999      26.137     0.1780647  -9999      0.1780647 
1257.8     0.21       121.335    1          2          -9999      8.39216    5.419      -9999      6.70738    -9999      -9999      -9999      -9999      -9999      5.419      -9999      -9999      26.29      0.1791348  -9999      0.1791348 
1257.9     0.21       124.607    1          2          -9999      8.55134    5.243      -9999      6.65772    -9999      -9999      -9999      -9999      -9999      5.243      -9999      -9999      26.451     0.1802815  -9999      0.1802815 
1258       0.21       128.354    1          2          -9999      8.72487    5.198      -9999      6.60793    -9999      -9999      -9999      -9999      -9999      5.198      -9999      -9999      26.799     0.1829536  -9999      0.1829536 
1258.1     0.21       131.935    1          2          -9999      8.81282    5.276      -9999      6.496729   -9999      -9999      -9999      -9999      -9999      5.276      -9999      -9999      27.164     0.1858483  -9999      0.1858483 
1258.2     0.21       135.253    1          2          -9999      8.90077    5.397      -9999      6.31023    -9999      -9999      -9999      -9999      -9999      5.397      -9999      -9999      27.42      0.1878937  -9999      0.1878937 
1258.3     0.21       137.907    1          2          -9999      8.98872    5.476      -9999      6.05607    -9999      -9999      -9999      -9999      -9999      5.476      -9999      -9999      27.668     0.1899123  -9999      0.1899123 
1258.4     0.21       138.89     1          2          -9999      9.07668    5.486      -9999      5.86041    -9999      -9999      -9999      -9999      -9999      5.486      -9999      -9999      27.864     0.1915085  -9999      0.1915085 
1258.5     0.21       139.873    1          2          -9999      9.167139   5.385      -9999      5.64056    -9999      -9999      -9999      -9999      -9999      5.385      -9999      -9999      28.042     0.1929673  -9999      0.1929673 
1258.6     0.21       141.22     1          2          -9999      9.252641   5.194      -9999      5.43629    -9999      -9999      -9999      -9999      -9999      5.194      -9999      -9999      28.255     0.1947666  -9999      0.1947666 
1258.7     0.21       142.681    1          2          -9999      9.34053    5.007      -9999      5.20782    -9999      -9999      -9999      -9999      -9999      5.007      -9999      -9999      28.434     0.1962798  -9999      0.1962798 
1258.8     0.21       144.472    1          2          -9999      9.42848    4.823      -9999      4.98546    -9999      -9999      -9999      -9999      -9999      4.823      -9999      -9999      28.62      0.1978799  -9999      0.1978799 
1258.9     0.21       147.095    1          2          -9999      9.43085    4.726      -9999      4.76213    -9999      -9999      -9999      -9999      -9999      4.726      -9999      -9999      28.843     0.199857   -9999      0.199857  
