~Version
 VERS              .         2.0                           : CWLS LOG ASCII STANDARD - VERSION 2.0
 WRAP              .         NO                            : ONE LINE PER DEPTH STEP
 DLM               .         SPACE                         : DELIMITING CHARACTER(SPACE TAB OR COMMA)
~Well Information
#_______________________________________________________________________________
#
#PARAMETER_NAME    .UNIT     VALUE                         : DESCRIPTION
#_______________________________________________________________________________
STRT               .м        961                           : First reference value
STOP               .м        1268                          : Last reference value
STEP               .м        0.1                           : Step increment
NULL               .         -9999                         : Missing value
COMP               .                                       : Company
WELL               .         1964                          : Well name
FLD                .         УЗЕНЬ                         : Field
LOC                .                                       : Location
PROV               .                                       : Province
SRVC               .         SCH                           : Service Company
DATE               .         13.01.2010                    : Date
UWI                .                                       : Unique Well ID
Block              .         3а                            : 
Category           .         Нагнетательная                : 
Condition          .         Ликвидированная               : 
CTRY               .                                       : Название страны
Date               .         30.11.1977                    : 
EREF               .m        234.6                         : 100.8
FILE               .                                       : 
Gorizont           .         14                            : 14
Interpretator      .         Алпанова Н.К.                 : 
Kupol              .         основной                      : osnovnoi
Moii_14            .         14_gor                        : 
Mud                .                                       : 
Mud_density        .                                       : 
Mud_resistivity    .                                       : 
NGDU               .         НГДУ-1                        : 
ORIGINALWELLNAME   .         1964                          : 
Spud_date          .         1977                          : 1961
TAPE               .                                       : 
Viscosity          .                                       : 
X                  .m        55520.4                       : 46154
Y                  .m        80718.53                      : 85761.93
YEAR               .         2019                          : 
~Parameter Information Block
#_______________________________________________________________________________
#
#PARAMETER_NAME    .UNIT     VALUE                         : DESCRIPTION
#_______________________________________________________________________________
SET                .         LQC_KAZNIPI_Petrel            : 
PBBOTTOM           .м        1268                          : Глубина подошвы планшета
PBSCALE            .         1 _ 500                       : Вертикальный масштаб планшета
PBTOP              .м        961                           : Глубина кровли планшета
TLFamily_CALI      .         Caliper                       : 
TLFamily_CILD      .         Conductivity                  : 
TLFamily_COLL      .         Net Reservoir Flag            : 
TLFamily_CSAT      .         Fluid Code                    : 
TLFamily_DEPT      .         Measured Depth                : 
TLFamily_GR        .         Russian Gamma Ray             : 
TLFamily_GZ3       .         Gradient 225                  : 
TLFamily_LLS       .         Lateral Log Resistivity       : 
TLFamily_NGLD      .         Neutron Gamma                 : 
TLFamily_OGZ       .         Gradient Inverted 225         : 
TLFamily_PHIE      .         Effective Porosity            : 
TLFamily_PHIEN     .         Effective Porosity            : 
TLFamily_PHIT      .         Porosity                      : 
TLFamily_PRMB      .         Permeability                  : 
TLFamily_PRMB_DGR  .         Permeability                  : 
TLFamily_RT        .         Formation Resistivity         : 
TLFamily_SOIL_ARCHIE .         Oil Saturation                : 
TLFamily_SOIL_DW   .         Oil Saturation                : 
TLFamily_SP        .         Spontaneous Potential         : 
TLFamily_VSH_FIN   .         Shale Volume                  : 
TLFamily_VSH_GR    .         Shale Volume                  : 
TLFamily_VSH_SP    .         Shale Volume                  : 
~Curve Information
#_______________________________________________________________________________
#
#LOGNAME           .UNIT     LOG_ID                        : DESCRIPTION
#_______________________________________________________________________________
DEPT               .м                                      : Колонка глубины 
CALI               .м                                      : Каверномер 
CILD               .мСм/м                                  : Индукционный каротаж 
COLL               .unitless                               : Описание 
CSAT               .unitless                               : Описание 
GR                 .мкР/ч                                  : Гамма каротаж 
GZ3                .Ом·м                                   : 2  GZ3 
LLS                .Ом·м                                   : Боковой каротаж 
NGLD               .у.е.                                   : Показания зонда НГК-60 аппаратуры ДРСТ-3-90 
OGZ                .Ом·м                                   : 3  OGZ3 
PHIE               .v/v                                    : Описание 
PHIEN              .v/v                                    :  
PHIT               .v/v                                    : Описание 
PRMB               .mD                                     :  
PRMB_DGR           .mD                                     :  
RT                 .ohmm                                   : Description 
SOIL_ARCHIE        .v/v                                    :  
SOIL_DW            .v/v                                    :  
SP                 .mv                                     : Потенциал самополяризации 
VSH_FIN            .v/v                                    : Описание 
VSH_GR             .v/v                                    : Shale volume 
VSH_SP             .v/v                                    : Shale Volume 
~Ascii
# ...
1238.6     0.215      349.163    -9999      -9999      6.504945   3.54504    2.874      1.027213   2.59649    0.1606755  0.1606755  0.3126729  2.650069   9.077715   2.874      0.3395202  0.5482778  41.322     0.4605985  0.263597   0.4605985 
1238.7     0.215      353.575    -9999      -9999      6.537976   3.4406     2.737      1.023921   2.56055    0.1609003  0.1609003  0.313535   2.675608   8.601845   2.737      0.3250299  0.5381393  41.39      0.4625292  0.2694569  0.4625292 
1238.8     0.215      356.542    -9999      -9999      6.575024   3.34855    2.626      1.021399   2.5439     0.1609988  0.1609988  0.3141955  2.686873   8.097722   2.626      0.3121553  0.5291966  41.449     0.4642322  0.2761845  0.4642322 
1238.9     0.215      358.678    -9999      -9999      6.615219   3.28054    2.521      1.019675   2.54438    0.160826   0.160826   0.3146471  2.667145   7.584132   2.521      0.2982009  0.5197126  41.515     0.4661244  0.2836738  0.4661244 
1239       0.216      360.762    -9999      -9999      6.656218   3.24678    2.431      1.018702   2.59088    0.1603237  0.1603237  0.314902   2.610606   7.093812   2.431      0.2841783  0.5105492  41.596     0.4684191  0.2915222  0.4684191 
1239.1     0.216      363.096    -9999      -9999      6.694622   3.23013    2.399      1.018369   2.66016    0.1594929  0.1594929  0.3149891  2.519722   6.663315   2.399      0.2764466  0.5063831  41.695     0.4712007  0.2990707  0.4712007 
1239.2     0.216      366.332    -9999      -9999      6.726571   3.22748    2.402      1.018532   2.72945    0.1582721  0.1582721  0.3149464  2.391888   6.32516    2.402      0.2720154  0.505177   41.823     0.4747708  0.3054991  0.4747708 
1239.3     0.216      370.735    -9999      -9999      6.748383   3.23108    2.504      1.019048   2.79873    0.1565959  0.1565959  0.3148114  2.226863   6.104205   2.504      0.2794337  0.5132293  41.991     0.4794411  0.3099671  0.4794411 
1239.4     0.216      375.271    -9999      -9999      6.757129   3.24867    2.656      1.019811   2.83779    0.1549126  0.1549126  0.3146115  2.072601   6.017787   2.656      0.2924591  0.5251999  42.151     0.483936   0.311777   0.483936  
1239.5     0.216      380.715    -9999      -9999      6.75106    3.26626    2.788      1.02077    2.83827    0.1530028  0.1530028  0.3143603  1.91047    6.077629   2.788      0.3008684  0.5341259  42.329     0.4889621  0.3105198  0.4889621 
1239.6     0.215      386.263    -9999      -9999      6.729717   3.28386    2.855      1.021923   2.83874    0.151054   0.151054   0.3140583  1.758102   6.292805   2.855      0.3008538  0.5370765  42.504     0.4939526  0.3061395  0.4939526 
1239.7     0.215      392.447    -9999      -9999      6.694213   3.28433    2.886      1.023291   2.83921    0.1491258  0.1491258  0.3137     1.619308   6.667756   2.886      0.296561   0.53697    42.669     0.4987096  0.2989894  0.4987096 
1239.8     0.215      398.408    -9999      -9999      6.647442   3.30192    2.804      1.024892   2.84942    0.1469118  0.1469118  0.3132809  1.473403   7.196018   2.804      0.277632   0.5271642  42.878     0.5041485  0.2898243  0.5041485 
1239.9     0.216      405.06     -9999      -9999      6.593954   3.3024     2.68       1.026701   2.8744     0.1444285  0.1444285  0.3128071  1.325331   7.851653   2.68       0.2510985  0.5127414  43.108     0.5102382  0.2796866  0.5102382 
1240       0.216      411.946    -9999      -9999      6.539525   3.28575    2.575      1.028642   2.90911    0.1417559  0.1417559  0.3122987  1.182555   8.580157   2.575      0.2244051  0.4988647  43.352     0.5167962  0.2697347  0.5167962 
1240.1     0.216      418.972    -9999      -9999      6.490154   3.25525    2.502      1.030586   2.95287    0.1390196  0.1390196  0.3117895  1.052297   9.299264   2.502      0.2004074  0.487328   43.6       0.5235453  0.2610143  0.5235453 
1240.2     0.216      425.243    -9999      -9999      6.450915   3.21822    2.451      1.032368   3.00478    0.1363387  0.1363387  0.3113228  0.9386038  9.91354    2.451      0.1788334  0.4777251  43.844     0.5302547  0.254285   0.5302547 
1240.3     0.216      430.245    -9999      -9999      6.424881   3.19024    2.44       1.033815   3.06461    0.1343491  0.1343491  0.3109438  0.862241   10.34331   2.44       0.1664941  0.4732564  44.024     0.5351357  0.2499164  0.5351357 
1240.4     0.216      433.402    -9999      -9999      6.412529   3.13357    2.435      1.034768   3.13357    0.132693   0.132693   0.3106943  0.8034419  10.5537    2.435      0.1566299  0.4700006  44.182     0.539398   0.24787    0.539398  
1240.5     0.216      434.313    -9999      -9999      6.411968   3.0998     2.408      1.035104   3.11692    0.131675   0.131675   0.3106064  0.7693065  10.56336   2.408      0.1464999  0.4654108  44.291     0.5422161  0.2477774  0.5422161 
1240.6     0.216      433.775    -9999      -9999      6.41988    3.06603    2.369      1.034752   3.13451    0.1314893  0.1314893  0.3106985  0.7632349  10.42799   2.369      0.1388766  0.4608454  44.334     0.5430583  0.2490858  0.5430583 
1240.7     0.216      432.45     -9999      -9999      6.43273    2.96379    2.326      1.0337     3.13499    0.1320026  0.1320026  0.3109739  0.7801278  10.21182   2.326      0.1343849  0.4569753  44.325     0.5423372  0.2512255  0.5423372 
1240.8     0.215      431.646    -9999      -9999      6.447855   2.90983    2.284      1.032001   3.15258    0.1348036  0.1348036  0.3114188  0.8791201  9.963111   2.284      0.1427727  0.4567717  44.101     0.5351976  0.2537676  0.5351976 
1240.9     0.215      431.917    -9999      -9999      6.464108   2.84364    2.244      1.029767   3.15305    0.1387227  0.1387227  0.3120041  1.039056   9.702611   2.244      0.156943   0.4584535  43.773     0.5250951  0.2565279  0.5250951 
1241       0.215      433.093    -9999      -9999      6.4816     2.79401    2.225      1.027164   3.15353    0.1421889  0.1421889  0.3126856  1.204594   9.429846   2.225      0.1715717  0.461925   43.497     0.5166569  0.2595323  0.5166569 
1241.1     0.215      434.242    -9999      -9999      6.500796   2.71131    2.204      1.024395   3.13688    0.1456496  0.1456496  0.3134108  1.396182   9.139331   2.204      0.185124   0.4650528  43.222     0.5083675  0.2628699  0.5083675 
1241.2     0.215      434.491    -9999      -9999      6.521311   2.64517    2.173      1.021669   3.13735    0.1500175  0.1500175  0.314125   1.682077   8.838729   2.173      0.2005307  0.4680476  42.843     0.4972955  0.2664843  0.4972955 
1241.3     0.214      433.575    -9999      -9999      6.541136   2.57288    2.13       1.019166   3.14081    0.1545067  0.1545067  0.3147803  2.037025   8.557644   2.13       0.2134575  0.4694434  42.436     0.4856777  0.2700243  0.4856777 
1241.4     0.214      431.012    -9999      -9999      6.556403   2.51281    2.057      1.017013   3.19272    0.1592626  0.1592626  0.3153444  2.495102   8.347295   2.057      0.2213149  0.4669939  41.979     0.4729751  0.2727824  0.4729751 
1241.5     0.214      426.464    -9999      -9999      6.561978   2.454      1.971      1.015253   3.31423    0.1639433  0.1639433  0.3158053  3.046394   8.271776   1.971      0.2253436  0.4620775  41.507     0.4601879  0.2737966  0.4601879 
1241.6     0.214      420.205    -9999      -9999      6.552749   2.41421    1.899      1.013858   3.47057    0.1689806  0.1689806  0.3161706  3.776498   8.397171   1.899      0.2322036  0.4588158  40.968     0.4460302  0.2721196  0.4460302 
1241.7     0.214      412.574    -9999      -9999      6.525146   2.36935    1.908      1.012749   3.63508    0.1742357  0.1742357  0.3164611  4.725263   8.783648   1.908      0.254069   0.4668711  40.376     0.4309861  0.2671654  0.4309861 
1241.8     0.214      404.361    1          2          6.478075   2.3527     2.193      1.011836   3.80067    0.1795684  0.1795684  0.3167002  5.931986   9.484191   2.193      0.3193502  0.5088553  39.747     0.4155512  0.258924   0.4155512 
1241.9     0.214      395.017    1          2          6.413136   2.3703     2.644      1.01106    3.97442    0.1846746  0.1846746  0.3169035  7.375297   10.54327   2.644      0.3915807  0.5578486  39.12      0.4006936  0.24797    0.4006936 
