~Version
 VERS              .         2.0                           : CWLS LOG ASCII STANDARD - VERSION 2.0
 WRAP              .         NO                            : ONE LINE PER DEPTH STEP
 DLM               .         SPACE                         : DELIMITING CHARACTER(SPACE TAB OR COMMA)
~Well Information
#_______________________________________________________________________________
#
#PARAMETER_NAME    .UNIT     VALUE                         : DESCRIPTION
#_______________________________________________________________________________
STRT               .м        961                           : First reference value
STOP               .м        1268                          : Last reference value
STEP               .м        0.1                           : Step increment
NULL               .         -9999                         : Missing value
COMP               .                                       : Company
WELL               .         1964                          : Well name
FLD                .         УЗЕНЬ                         : Field
LOC                .                                       : Location
PROV               .                                       : Province
SRVC               .         SCH                           : Service Company
DATE               .         13.01.2010                    : Date
UWI                .                                       : Unique Well ID
Block              .         3а                            : 
Category           .         Нагнетательная                : 
Condition          .         Ликвидированная               : 
CTRY               .                                       : Название страны
Date               .         30.11.1977                    : 
EREF               .m        234.6                         : 100.8
FILE               .                                       : 
Gorizont           .         14                            : 14
Interpretator      .         Алпанова Н.К.                 : 
Kupol              .         основной                      : osnovnoi
Moii_14            .         14_gor                        : 
Mud                .                                       : 
Mud_density        .                                       : 
Mud_resistivity    .                                       : 
NGDU               .         НГДУ-1                        : 
ORIGINALWELLNAME   .         1964                          : 
Spud_date          .         1977                          : 1961
TAPE               .                                       : 
Viscosity          .                                       : 
X                  .m        55520.4                       : 46154
Y                  .m        80718.53                      : 85761.93
YEAR               .         2019                          : 
~Parameter Information Block
#_______________________________________________________________________________
#
#PARAMETER_NAME    .UNIT     VALUE                         : DESCRIPTION
#_______________________________________________________________________________
SET                .         LQC_KAZNIPI_Petrel            : 
PBBOTTOM           .м        1268                          : Глубина подошвы планшета
PBSCALE            .         1 _ 500                       : Вертикальный масштаб планшета
PBTOP              .м        961                           : Глубина кровли планшета
TLFamily_CALI      .         Caliper                       : 
TLFamily_CILD      .         Conductivity                  : 
TLFamily_COLL      .         Net Reservoir Flag            : 
TLFamily_CSAT      .         Fluid Code                    : 
TLFamily_DEPT      .         Measured Depth                : 
TLFamily_GR        .         Russian Gamma Ray             : 
TLFamily_GZ3       .         Gradient 225                  : 
TLFamily_LLS       .         Lateral Log Resistivity       : 
TLFamily_NGLD      .         Neutron Gamma                 : 
TLFamily_OGZ       .         Gradient Inverted 225         : 
TLFamily_PHIE      .         Effective Porosity            : 
TLFamily_PHIEN     .         Effective Porosity            : 
TLFamily_PHIT      .         Porosity                      : 
TLFamily_PRMB      .         Permeability                  : 
TLFamily_PRMB_DGR  .         Permeability                  : 
TLFamily_RT        .         Formation Resistivity         : 
TLFamily_SOIL_ARCHIE .         Oil Saturation                : 
TLFamily_SOIL_DW   .         Oil Saturation                : 
TLFamily_SP        .         Spontaneous Potential         : 
TLFamily_VSH_FIN   .         Shale Volume                  : 
TLFamily_VSH_GR    .         Shale Volume                  : 
TLFamily_VSH_SP    .         Shale Volume                  : 
~Curve Information
#_______________________________________________________________________________
#
#LOGNAME           .UNIT     LOG_ID                        : DESCRIPTION
#_______________________________________________________________________________
DEPT               .м                                      : Колонка глубины 
CALI               .м                                      : Каверномер 
CILD               .мСм/м                                  : Индукционный каротаж 
COLL               .unitless                               : Описание 
CSAT               .unitless                               : Описание 
GR                 .мкР/ч                                  : Гамма каротаж 
GZ3                .Ом·м                                   : 2  GZ3 
LLS                .Ом·м                                   : Боковой каротаж 
NGLD               .у.е.                                   : Показания зонда НГК-60 аппаратуры ДРСТ-3-90 
OGZ                .Ом·м                                   : 3  OGZ3 
PHIE               .v/v                                    : Описание 
PHIEN              .v/v                                    :  
PHIT               .v/v                                    : Описание 
PRMB               .mD                                     :  
PRMB_DGR           .mD                                     :  
RT                 .ohmm                                   : Description 
SOIL_ARCHIE        .v/v                                    :  
SOIL_DW            .v/v                                    :  
SP                 .mv                                     : Потенциал самополяризации 
VSH_FIN            .v/v                                    : Описание 
VSH_GR             .v/v                                    : Shale volume 
VSH_SP             .v/v                                    : Shale Volume 
~Ascii
# ...
1034.6     0.221      408.644    -9999      -9999      5.438761   3.50191    1.532      1.05398    2.19911    0.150206   0.150206   0.3056628  1.695653   2.557778   1.532      0.04578666 0.3474976  38.91      0.4710812  0.4421505  0.5000119 
1034.7     0.226      416.747    -9999      -9999      5.510634   3.3974     1.787      1.032762   2.25294    0.151657   0.151657   0.3112197  1.803908   2.295867   1.787      0.1196989  0.4047215  38.978     0.4835232  0.462091   0.5049555 
1034.8     0.228      423.624    -9999      -9999      5.582024   3.28456    2.01       1.012322   2.33785    0.1526361  0.1526361  0.3165729  1.880827   2.062272   2.01       0.1716169  0.4459644  39.075     0.4967782  0.4827877  0.5107687 
1034.9     0.229      430.787    -9999      -9999      5.654478   3.21068    2.181      0.993489   2.42455    0.1529582  0.1529582  0.3215052  1.906844   1.849486   2.181      0.2042183  0.4736195  39.176     0.5107486  0.5047406  0.5167565 
1035       0.23       439.151    -9999      -9999      5.727427   3.2033     2.272      0.9771256  2.52853    0.1524897  0.1524897  0.3257908  1.86912    1.657421   2.272      0.2172489  0.4878961  39.265     0.5251549  0.5278522  0.5224576 
1035.1     0.231      445.435    -9999      -9999      5.79814    3.2381     2.253      0.9640272  2.61523    0.1511265  0.1511265  0.3292213  1.763551   1.490301   2.253      0.2079882  0.4873489  39.35      0.5396811  0.5512653  0.5280968 
1035.2     0.231      448.527    -9999      -9999      5.862487   3.28078    2.176      0.9547892  2.68466    0.1489475  0.1489475  0.3316407  1.607041   1.352916   2.176      0.18471    0.4778969  39.434     0.5536158  0.5734716  0.53376   
1035.3     0.23       446.497    -9999      -9999      5.916014   3.33261    2.097      0.9496742  2.75403    0.1460751  0.1460751  0.3329803  1.421749   1.248332   2.097      0.1562487  0.4656231  39.54      0.5663795  0.5926241  0.540135  
1035.4     0.229      439.962    -9999      -9999      5.955107   3.36737    1.947      0.9485166  2.80613    0.1429609  0.1429609  0.3332835  1.244918   1.177096   1.947      0.1097929  0.4412856  39.642     0.5767351  0.6070149  0.5464554 
1035.5     0.226      430.186    -9999      -9999      5.977799   3.342      1.79       0.9507115  2.82136    0.1399278  0.1399278  0.3327087  1.093859   1.137625   1.79       0.05651166 0.4120264  39.744     0.5841842  0.615528   0.5528404 
1035.6     0.222      422.906    -9999      -9999      5.984084   3.29238    1.669      0.9552912  2.80487    0.1372768  0.1372768  0.3315092  0.9769183  1.12693    1.669      0.008630672 0.3853879  39.845     0.588583   0.6179066  0.5592594 
1035.7     0.218      419.631    -9999      -9999      5.975224   3.22586    1.601      0.9610845  2.77054    0.1350626  0.1350626  0.329992   0.8888825  1.142038   1.601      0          0.3668852  39.981     0.5906952  0.6145557  0.5668348 
1035.8     0.218      422.501    -9999      -9999      5.953008   3.12566    1.601      0.9669127  2.6703     0.1337333  0.1337333  0.3284656  0.8398932  1.180815   1.601      0          0.362721   40.1       0.5900976  0.6062334  0.5739618 
1035.9     0.219      431.65     -9999      -9999      5.919206   2.99174    1.638      0.971785   2.5701     0.133354   0.133354   0.3271895  0.8264143  1.242358   1.638      0          0.3677454  40.213     0.5873803  0.5937861  0.5809745 
1036       0.223      444.824    -9999      -9999      5.875384   2.85781    1.676      0.9750394  2.50364    0.1339005  0.1339005  0.3263372  0.845902   1.326941   1.676      0          0.374854   40.332     0.5831415  0.578029   0.5882539 
1036.1     0.227      460.805    -9999      -9999      5.823186   2.74072    1.688      0.9764024  2.51746    0.1353366  0.1353366  0.3259802  0.8993321  1.43524    1.688      0.00158107 0.3790799  40.451     0.5777079  0.5598048  0.5956112 
1036.2     0.229      472.562    -9999      -9999      5.765298   2.63762    1.693      0.9759845  2.58638    0.1373835  0.1373835  0.3260897  0.9813706  1.565712   1.693      0.01591615 0.3835413  40.581     0.5718369  0.5402649  0.603409  
1036.3     0.23       480.039    -9999      -9999      5.705981   2.58697    1.691      0.9742028  2.62113    0.1398899  0.1398899  0.3265563  1.092092   1.711717   1.691      0.03075348 0.3878334  40.683     0.5656556  0.5209501  0.6103612 
1036.4     0.23       482.718    -9999      -9999      5.650952   2.50758    1.711      0.9716755  2.68694    0.1422203  0.1422203  0.3272182  1.206213   1.859312   1.711      0.04985759 0.3959082  40.79      0.5605995  0.5036497  0.6175492 
1036.5     0.23       481.278    -9999      -9999      5.606572   2.46859    1.734      0.9690995  2.70772    0.1438966  0.1438966  0.3278928  1.295606   1.98757    1.734      0.06537972 0.4033096  40.903     0.5575643  0.4901164  0.6250121 
1036.6     0.228      475.263    -9999      -9999      5.578267   2.43502    1.77       0.9671282  2.72539    0.144624   0.144624   0.3284091  1.336426   2.073951   1.77       0.07840446 0.4110987  41.005     0.5569248  0.4816757  0.6321738 
1036.7     0.227      470.971    -9999      -9999      5.568904   2.40938    1.778      0.9662656  2.7089     0.1442777  0.1442777  0.328635   1.316832   2.103342   1.778      0.07843044 0.4121538  41.078     0.5586587  0.4789158  0.6384016 
1036.8     0.227      467.396    -9999      -9999      5.57768    2.38496    1.779      0.9667984  2.70949    0.1427097  0.1427097  0.3284955  1.231654   2.075782   1.779      0.06986369 0.4097686  41.145     0.5629871  0.4815022  0.6444719 
1036.9     0.228      463.895    -9999      -9999      5.600035   2.38555    1.744      0.9687679  2.72717    0.1402778  0.1402778  0.3279797  1.110308   2.007195   1.744      0.04699003 0.399472   41.179     0.5687935  0.4881539  0.6494331 
1037       0.228      457.643    -9999      -9999      5.628574   2.36907    1.758      0.9719884  2.76192    0.1380724  0.1380724  0.3271362  1.010633   1.922915   1.758      0.03736418 0.3973798  41.174     0.5729208  0.4967796  0.649062  
1037.1     0.227      449.145    -9999      -9999      5.654722   2.36966    1.777      0.9761106  2.81375    0.1358088  0.1358088  0.3260566  0.9176258  1.848807   1.777      0.02831863 0.3956919  41.155     0.5765087  0.5048164  0.648201  
1037.2     0.225      439.597    -9999      -9999      5.670425   2.35317    1.802      0.9807035  2.86153    0.1340334  0.1340334  0.3248537  0.8507088  1.805681   1.802      0.02354089 0.3955817  41.12      0.5782437  0.5097052  0.6467821 
1037.3     0.223      431.701    -9999      -9999      5.66977    2.35376    1.804      0.9853425  2.88326    0.1330859  0.1330859  0.3236388  0.8170196  1.807461   1.804      0.01800075 0.3929055  41.085     0.5774329  0.5095001  0.6453657 
1037.4     0.221      425.748    -9999      -9999      5.64967    2.36       1.799      0.989673   2.90093    0.1331239  0.1331239  0.3225046  0.8183421  1.8629     1.799      0.01696491 0.3907719  41.066     0.5738812  0.5032534  0.644509  
1037.5     0.222      424.429    -9999      -9999      5.609897   2.38911    1.783      0.9934475  2.90152    0.1341181  0.1341181  0.3215161  0.8537896  1.97766    1.783      0.01921192 0.388526   41.075     0.5678727  0.4911177  0.6446277 
1037.6     0.224      426.71     -9999      -9999      5.552516   2.41232    1.788      0.9965194  2.91919    0.1360119  0.1360119  0.3207116  0.9256096  2.155797   1.788      0.03238875 0.3915642  41.099     0.559696   0.4741229  0.645269  
1037.7     0.227      431.539    -9999      -9999      5.481008   2.42978    1.812      0.998819   2.93687    0.1386052  0.1386052  0.3201093  1.033862   2.400409   1.812      0.05411278 0.3991059  41.133     0.5500124  0.4537649  0.6462599 
1037.8     0.229      436.295    -9999      -9999      5.399642   2.44213    1.865      1.000327   2.96651    0.1416012  0.1416012  0.3197142  1.17478    2.712678   1.865      0.08404336 0.4119449  41.183     0.5397364  0.4316613  0.6478115 
1037.9     0.231      440.515    -9999      -9999      5.312968   2.44272    1.928      1.001054   2.97221    0.1446996  0.1446996  0.3195239  1.340741   3.090122   1.928      0.1150531  0.4260851  41.258     0.5297709  0.4092991  0.6502426 
