~Version
 VERS              .         2.0                           : CWLS LOG ASCII STANDARD - VERSION 2.0
 WRAP              .         NO                            : ONE LINE PER DEPTH STEP
 DLM               .         SPACE                         : DELIMITING CHARACTER(SPACE TAB OR COMMA)
~Well Information
#_______________________________________________________________________________
#
#PARAMETER_NAME    .UNIT     VALUE                         : DESCRIPTION
#_______________________________________________________________________________
STRT               .м        961                           : First reference value
STOP               .м        1268                          : Last reference value
STEP               .м        0.1                           : Step increment
NULL               .         -9999                         : Missing value
COMP               .                                       : Company
WELL               .         1964                          : Well name
FLD                .         УЗЕНЬ                         : Field
LOC                .                                       : Location
PROV               .                                       : Province
SRVC               .         SCH                           : Service Company
DATE               .         13.01.2010                    : Date
UWI                .                                       : Unique Well ID
Block              .         3а                            : 
Category           .         Нагнетательная                : 
Condition          .         Ликвидированная               : 
CTRY               .                                       : Название страны
Date               .         30.11.1977                    : 
EREF               .m        234.6                         : 100.8
FILE               .                                       : 
Gorizont           .         14                            : 14
Interpretator      .         Алпанова Н.К.                 : 
Kupol              .         основной                      : osnovnoi
Moii_14            .         14_gor                        : 
Mud                .                                       : 
Mud_density        .                                       : 
Mud_resistivity    .                                       : 
NGDU               .         НГДУ-1                        : 
ORIGINALWELLNAME   .         1964                          : 
Spud_date          .         1977                          : 1961
TAPE               .                                       : 
Viscosity          .                                       : 
X                  .m        55520.4                       : 46154
Y                  .m        80718.53                      : 85761.93
YEAR               .         2019                          : 
~Parameter Information Block
#_______________________________________________________________________________
#
#PARAMETER_NAME    .UNIT     VALUE                         : DESCRIPTION
#_______________________________________________________________________________
SET                .         LQC_KAZNIPI_Petrel            : 
PBBOTTOM           .м        1268                          : Глубина подошвы планшета
PBSCALE            .         1 _ 500                       : Вертикальный масштаб планшета
PBTOP              .м        961                           : Глубина кровли планшета
TLFamily_CALI      .         Caliper                       : 
TLFamily_CILD      .         Conductivity                  : 
TLFamily_COLL      .         Net Reservoir Flag            : 
TLFamily_CSAT      .         Fluid Code                    : 
TLFamily_DEPT      .         Measured Depth                : 
TLFamily_GR        .         Russian Gamma Ray             : 
TLFamily_GZ3       .         Gradient 225                  : 
TLFamily_LLS       .         Lateral Log Resistivity       : 
TLFamily_NGLD      .         Neutron Gamma                 : 
TLFamily_OGZ       .         Gradient Inverted 225         : 
TLFamily_PHIE      .         Effective Porosity            : 
TLFamily_PHIEN     .         Effective Porosity            : 
TLFamily_PHIT      .         Porosity                      : 
TLFamily_PRMB      .         Permeability                  : 
TLFamily_PRMB_DGR  .         Permeability                  : 
TLFamily_RT        .         Formation Resistivity         : 
TLFamily_SOIL_ARCHIE .         Oil Saturation                : 
TLFamily_SOIL_DW   .         Oil Saturation                : 
TLFamily_SP        .         Spontaneous Potential         : 
TLFamily_VSH_FIN   .         Shale Volume                  : 
TLFamily_VSH_GR    .         Shale Volume                  : 
TLFamily_VSH_SP    .         Shale Volume                  : 
~Curve Information
#_______________________________________________________________________________
#
#LOGNAME           .UNIT     LOG_ID                        : DESCRIPTION
#_______________________________________________________________________________
DEPT               .м                                      : Колонка глубины 
CALI               .м                                      : Каверномер 
CILD               .мСм/м                                  : Индукционный каротаж 
COLL               .unitless                               : Описание 
CSAT               .unitless                               : Описание 
GR                 .мкР/ч                                  : Гамма каротаж 
GZ3                .Ом·м                                   : 2  GZ3 
LLS                .Ом·м                                   : Боковой каротаж 
NGLD               .у.е.                                   : Показания зонда НГК-60 аппаратуры ДРСТ-3-90 
OGZ                .Ом·м                                   : 3  OGZ3 
PHIE               .v/v                                    : Описание 
PHIEN              .v/v                                    :  
PHIT               .v/v                                    : Описание 
PRMB               .mD                                     :  
PRMB_DGR           .mD                                     :  
RT                 .ohmm                                   : Description 
SOIL_ARCHIE        .v/v                                    :  
SOIL_DW            .v/v                                    :  
SP                 .mv                                     : Потенциал самополяризации 
VSH_FIN            .v/v                                    : Описание 
VSH_GR             .v/v                                    : Shale volume 
VSH_SP             .v/v                                    : Shale Volume 
~Ascii
# ...
1163.8     0.216      128.072    1          2          6.147913   7.297511   9.246      1.064523   5.0227     0.2154847  0.2154847  0.3029016  27.44461   18.51694   9.246      0.7002286  0.7686982  37.032     0.2648996  0.1970259  0.3327733 
1163.9     0.216      124.774    1          2          6.138407   6.66846    10.709     1.063704   4.45111    0.2136309  0.2136309  0.3031161  25.35838   18.80012   10.709     0.7180828  0.7844002  37.742     0.271167   0.1958087  0.3465253 
1164       0.216      126.677    1          2          6.140263   5.88055    11.342     1.062812   3.8013     0.2113089  0.2113089  0.3033496  22.96735   18.7445    11.342     0.7229541  0.7896537  38.496     0.2789111  0.1960457  0.3617766 
1164.1     0.216      134.317    1          2          6.154331   5.3923     10.876     1.061525   3.28307    0.2086895  0.2086895  0.3036867  20.53973   18.3282    10.876     0.7143594  0.7842327  39.258     0.2878701  0.1978519  0.3778882 
1164.2     0.216      146.743    1          2          6.181736   4.78758    9.927      1.059476   2.9341     0.2060856  0.2060856  0.3042233  18.38074   17.54362   9.927      0.6985772  0.7732264  39.959     0.2973869  0.2014182  0.3933556 
1164.3     0.216      163.146    1          2          6.223695   4.41075    7.879      1.056325   2.58939    0.2036555  0.2036555  0.3050486  16.57109   16.40694   7.879      0.6605686  0.7446269  40.576     0.3072518  0.2070036  0.4075001 
1164.4     0.215      181.108    1          2          6.280946   4.10122    5.603      1.051817   2.33706    0.2010827  0.2010827  0.3062291  14.849     14.97386   5.603      0.59725    0.6962923  41.203     0.3186256  0.2148751  0.4223761 
1164.5     0.215      198.817    1          2          6.353069   3.89785    3.85       1.045835   2.20093    0.1983781  0.1983781  0.3077958  13.23129   13.34531   3.85       0.5140086  0.6327112  41.836     0.3315687  0.2252189  0.4379184 
1164.6     0.215      215.438    -9999      -9999      6.437898   3.75501    2.996      1.038423   2.17131    0.1955534  0.1955534  0.309737   11.72956   11.65505   2.996      0.4464398  0.5827837  42.469     0.346011   0.2380241  0.4539979 
1164.7     0.215      231.721    -9999      -9999      6.531982   3.68716    2.473      1.029786   2.20557    0.1926578  0.1926578  0.311999   10.36687   10.02958   2.473      0.3863715  0.5400149  43.086     0.3616399  0.2530795  0.4702003 
1164.8     0.215      247.444    -9999      -9999      6.63131    3.66228    2.363      1.020263   2.23983    0.1897196  0.1897196  0.3144932  9.145889   8.558846   2.363      0.3646817  0.5287729  43.676     0.3781017  0.2700088  0.4861946 
1164.9     0.215      263.473    -9999      -9999      6.73233    3.64454    2.28       1.010287   2.23983    0.1869865  0.1869865  0.3171057  8.139571   7.284086   2.28       0.3457145  0.5198768  44.178     0.3943007  0.2883883  0.5002131 
1165       0.215      280.593    -9999      -9999      6.832558   3.64454    2.166      1.000345   2.2227     0.1843969  0.1843969  0.3197095  7.288453   6.207038   2.166      0.3215843  0.5071005  44.597     0.4100384  0.3078598  0.5122169 
1165.1     0.215      298.553    -9999      -9999      6.930778   3.64454    2.045      0.9909271  2.16758    0.1818087  0.1818087  0.3221762  6.526738   5.306222   2.045      0.2944013  0.4922469  44.948     0.425356   0.3282162  0.5224958 
1165.2     0.215      315.948    -9999      -9999      7.02656    3.62741    1.94       0.9824913  2.05038    0.1792267  0.1792267  0.3243856  5.846168   4.55383    1.94       0.2676642  0.4779091  45.212     0.4398753  0.3493631  0.5303876 
1165.3     0.216      332.726    -9999      -9999      7.119344   3.59315    1.922      0.9754309  1.88694    0.176781   0.176781   0.3262346  5.267087   3.926871   1.922      0.2555987  0.4744548  45.35      0.4528899  0.3711462  0.5346336 
1165.4     0.216      348.765    -9999      -9999      7.207682   3.52463    1.929      0.9700507  1.72791    0.1750017  0.1750017  0.3276437  4.882174   3.41035    1.929      0.2502911  0.4747128  45.254     0.4625517  0.3931466  0.5319568 
1165.5     0.216      364.165    -9999      -9999      7.289104   3.45157    1.969      0.9665452  1.5927     0.173235   0.173235   0.3285618  4.527843   2.994655   1.969      0.2508864  0.4789075  45.073     0.4706872  0.4145776  0.5267966 
1165.6     0.216      378.579    -9999      -9999      7.360528   3.42586    2.008      0.9649893  1.48608    0.171671   0.171671   0.3289693  4.235659   2.671938   2.008      0.2518631  0.4825633  44.799     0.4766616  0.4343369  0.5189863 
1165.7     0.216      391.892    -9999      -9999      7.419044   3.4561     2.03       0.9653304  1.50321    0.1704145  0.1704145  0.32888    4.014649   2.433635   2.03       0.2509013  0.4838208  44.451     0.4801984  0.4512251  0.5091718 
1165.8     0.216      404.009    -9999      -9999      7.463195   3.42184    2.027      0.967397   1.5684     0.1694939  0.1694939  0.3283387  3.86008    2.268004   2.027      0.2468365  0.4818315  44.059     0.481348   0.4644007  0.4982952 
1165.9     0.216      414.977    -9999      -9999      7.493921   3.33379    1.999      0.9709156  1.6195     0.1688588  0.1688588  0.3274172  3.756933   2.159437   1.999      0.2394217  0.4765554  43.65      0.4804799  0.4737964  0.4871635 
1166       0.216      424.91     -9999      -9999      7.514914   3.18059    1.958      0.9755361  1.65739    0.1685167  0.1685167  0.3262071  3.702507   2.088267   1.958      0.2306312  0.4694854  43.208     0.4778497  0.4803246  0.4753748 
1166.1     0.216      433.867    -9999      -9999      7.532077   3.04395    1.907      0.980864   1.72175    0.1680282  0.1680282  0.3248117  3.626163   2.031825   1.907      0.2190713  0.4604182  42.79      0.4751017  0.4857289  0.4644745 
1166.2     0.216      442.887    -9999      -9999      7.552255   2.90874    1.872      0.9864904  1.80727    0.1671483  0.1671483  0.3233382  3.492611   1.967416   1.872      0.2086431  0.4527664  42.397     0.4733026  0.4921602  0.4544449 
1166.3     0.216      451.992    -9999      -9999      7.581714   2.75514    1.868      0.9920192  1.86296    0.1655732  0.1655732  0.3218902  3.265697   1.87703    1.868      0.2012892  0.4486549  42.046     0.4736877  0.5017031  0.4456724 
1166.4     0.216      461.677    -9999      -9999      7.624543   2.60194    1.913      0.9970815  1.89722    0.1632475  0.1632475  0.3205644  2.957312   1.752979   1.913      0.2003699  0.4508027  41.714     0.4767179  0.5159076  0.4375282 
1166.5     0.216      471.863    -9999      -9999      7.681439   2.46582    1.961      1.001359   1.94861    0.1601029  0.1601029  0.3194441  2.58614    1.60077    1.961      0.1961115  0.4523084  41.414     0.4828523  0.5354018  0.4303027 
1166.6     0.216      483.362    -9999      -9999      7.749609   2.37687    2.011      1.004587   2.01179    0.156476   0.156476   0.3185987  2.215508   1.435703   2.011      0.1895395  0.4534924  41.099     0.4912809  0.559731   0.4228309 
1166.7     0.215      495.476    -9999      -9999      7.823561   2.40719    2.04       1.006563   2.33825    0.1524226  0.1524226  0.3180811  1.86378    1.275825   2.04       0.1763525  0.4513771  40.832     0.5019954  0.5873759  0.416615  
1166.8     0.215      514.652    -9999      -9999      7.896361   2.67362    2.037      1.007149   2.67362    0.1486275  0.1486275  0.3179276  1.585261   1.135838   2.037      0.1574837  0.4455299  40.55      0.5130305  0.6159232  0.4101379 
1166.9     0.215      532.863    -9999      -9999      7.961437   3.03589    1.978      1.006268   3.03589    0.1454389  0.1454389  0.3181583  1.383692   1.023759   1.978      0.1294944  0.4329552  40.286     0.5233921  0.6426138  0.4041705 
1167       0.215      537.455    -9999      -9999      8.014072   3.56995    1.908      1.003895   3.56995    0.1432102  0.1432102  0.3187798  1.258228   0.9412476  1.908      0.1026629  0.4199981  40.054     0.5320289  0.6650461  0.3990118 
1167.1     0.215      535.893    -9999      -9999      8.05211    4.26332    1.846      1.00005    4.26332    0.1421813  0.1421813  0.319787   1.204204   0.8857911  1.846      0.08290236 0.409912   39.855     0.5381992  0.6817427  0.3946558 
