~Version
 VERS              .         2.0                           : CWLS LOG ASCII STANDARD - VERSION 2.0
 WRAP              .         NO                            : ONE LINE PER DEPTH STEP
 DLM               .         SPACE                         : DELIMITING CHARACTER(SPACE TAB OR COMMA)
~Well Information
#_______________________________________________________________________________
#
#PARAMETER_NAME    .UNIT     VALUE                         : DESCRIPTION
#_______________________________________________________________________________
STRT               .м        961                           : First reference value
STOP               .м        1268                          : Last reference value
STEP               .м        0.1                           : Step increment
NULL               .         -9999                         : Missing value
COMP               .                                       : Company
WELL               .         1964                          : Well name
FLD                .         УЗЕНЬ                         : Field
LOC                .                                       : Location
PROV               .                                       : Province
SRVC               .         SCH                           : Service Company
DATE               .         13.01.2010                    : Date
UWI                .                                       : Unique Well ID
Block              .         3а                            : 
Category           .         Нагнетательная                : 
Condition          .         Ликвидированная               : 
CTRY               .                                       : Название страны
Date               .         30.11.1977                    : 
EREF               .m        234.6                         : 100.8
FILE               .                                       : 
Gorizont           .         14                            : 14
Interpretator      .         Алпанова Н.К.                 : 
Kupol              .         основной                      : osnovnoi
Moii_14            .         14_gor                        : 
Mud                .                                       : 
Mud_density        .                                       : 
Mud_resistivity    .                                       : 
NGDU               .         НГДУ-1                        : 
ORIGINALWELLNAME   .         1964                          : 
Spud_date          .         1977                          : 1961
TAPE               .                                       : 
Viscosity          .                                       : 
X                  .m        55520.4                       : 46154
Y                  .m        80718.53                      : 85761.93
YEAR               .         2019                          : 
~Parameter Information Block
#_______________________________________________________________________________
#
#PARAMETER_NAME    .UNIT     VALUE                         : DESCRIPTION
#_______________________________________________________________________________
SET                .         LQC_KAZNIPI_Petrel            : 
PBBOTTOM           .м        1268                          : Глубина подошвы планшета
PBSCALE            .         1 _ 500                       : Вертикальный масштаб планшета
PBTOP              .м        961                           : Глубина кровли планшета
TLFamily_CALI      .         Caliper                       : 
TLFamily_CILD      .         Conductivity                  : 
TLFamily_COLL      .         Net Reservoir Flag            : 
TLFamily_CSAT      .         Fluid Code                    : 
TLFamily_DEPT      .         Measured Depth                : 
TLFamily_GR        .         Russian Gamma Ray             : 
TLFamily_GZ3       .         Gradient 225                  : 
TLFamily_LLS       .         Lateral Log Resistivity       : 
TLFamily_NGLD      .         Neutron Gamma                 : 
TLFamily_OGZ       .         Gradient Inverted 225         : 
TLFamily_PHIE      .         Effective Porosity            : 
TLFamily_PHIEN     .         Effective Porosity            : 
TLFamily_PHIT      .         Porosity                      : 
TLFamily_PRMB      .         Permeability                  : 
TLFamily_PRMB_DGR  .         Permeability                  : 
TLFamily_RT        .         Formation Resistivity         : 
TLFamily_SOIL_ARCHIE .         Oil Saturation                : 
TLFamily_SOIL_DW   .         Oil Saturation                : 
TLFamily_SP        .         Spontaneous Potential         : 
TLFamily_VSH_FIN   .         Shale Volume                  : 
TLFamily_VSH_GR    .         Shale Volume                  : 
TLFamily_VSH_SP    .         Shale Volume                  : 
~Curve Information
#_______________________________________________________________________________
#
#LOGNAME           .UNIT     LOG_ID                        : DESCRIPTION
#_______________________________________________________________________________
DEPT               .м                                      : Колонка глубины 
CALI               .м                                      : Каверномер 
CILD               .мСм/м                                  : Индукционный каротаж 
COLL               .unitless                               : Описание 
CSAT               .unitless                               : Описание 
GR                 .мкР/ч                                  : Гамма каротаж 
GZ3                .Ом·м                                   : 2  GZ3 
LLS                .Ом·м                                   : Боковой каротаж 
NGLD               .у.е.                                   : Показания зонда НГК-60 аппаратуры ДРСТ-3-90 
OGZ                .Ом·м                                   : 3  OGZ3 
PHIE               .v/v                                    : Описание 
PHIEN              .v/v                                    :  
PHIT               .v/v                                    : Описание 
PRMB               .mD                                     :  
PRMB_DGR           .mD                                     :  
RT                 .ohmm                                   : Description 
SOIL_ARCHIE        .v/v                                    :  
SOIL_DW            .v/v                                    :  
SP                 .mv                                     : Потенциал самополяризации 
VSH_FIN            .v/v                                    : Описание 
VSH_GR             .v/v                                    : Shale volume 
VSH_SP             .v/v                                    : Shale Volume 
~Ascii
# ...
1180.8     0.216      183.499    1          2          6.510952   4.46135    4.166      1.024835   6.44481    0.2190434  0.2190434  0.3132958  31.94279   10.37202   4.166      0.5703946  0.6644554  35.476     0.2856133  0.2496337  0.3215928 
1180.9     0.216      171.723    1          2          6.537473   4.95294    4.368      1.020998   6.539609   0.2201995  0.2201995  0.3143007  33.55723   9.942042   4.368      0.5817567  0.6736307  35.177     0.2851551  0.2539871  0.3163232 
1181       0.216      159.138    1          2          6.545455   5.36664    6.092      1.018908   6.433731   0.2213097  0.2213097  0.3148479  35.18443   9.816148   6.092      0.6437714  0.7244966  34.903     0.2834492  0.2553122  0.3115862 
1181.1     0.217      146.601    1          2          6.538828   6.11597    8.185      1.018208   5.93912    0.2222982  0.2222982  0.3150313  36.6995    9.920559   8.185      0.691073   0.7628345  34.68      0.2810093  0.2542115  0.3078072 
1181.2     0.217      134.73     1          2          6.522476   6.89683    10.56      1.018473   5.706171   0.2233111  0.2233111  0.3149619  38.31963   10.18295   10.56      0.7269673  0.7915648  34.449     0.2777298  0.251516   0.3039436 
1181.3     0.217      128.007    1          2          6.501361   8.01285    12.732     1.019264   5.51677    0.2242553  0.2242553  0.3147547  39.89424   10.53206   12.732     0.7508281  0.8104314  34.234     0.2742406  0.2480778  0.3004034 
1181.4     0.218      125.781    1          2          6.479707   9.81394    14.633     1.020179   5.2631     0.2246184  0.2246184  0.3145152  40.51679   10.90251   14.633     0.7669085  0.8232123  34.218     0.2724146  0.2446005  0.3002286 
1181.5     0.218      129.118    1          2          6.460555   10.91834   14.641     1.020899   4.98667    0.2245925  0.2245925  0.3143265  40.47206   11.241     14.641     0.7669448  0.8231899  34.334     0.2719214  0.2415657  0.3022771 
1181.6     0.218      133.417    1          2          6.445793   12.02941   14.19      1.021231   4.75579    0.2242873  0.2242873  0.3142397  39.94866   11.50906   14.19      0.7632175  0.8202721  34.542     0.2725832  0.2392523  0.3059141 
1181.7     0.219      137.613    1          2          6.436598   13.07243   13.457     1.021133   4.62099    0.2236009  0.2236009  0.3142653  38.79627   11.67927   13.457     0.7566015  0.8152173  34.868     0.2747405  0.2378224  0.3116586 
1181.8     0.219      137.02     1          2          6.433905   14.01917   12.826     1.020711   4.56959    0.2224929  0.2224929  0.3143758  37.00556   11.72958   12.826     0.7499745  0.8103774  35.302     0.2784328  0.2374053  0.3194604 
1181.9     0.219      132.955    1          2          6.438648   14.53961   12.338     1.02018    4.5182     0.2212886  0.2212886  0.314515   35.15273   11.64111   12.338     0.7441751  0.8062811  35.703     0.2825042  0.2381404  0.326868  
1182       0.219      133.467    1          2          6.451628   13.53211   11.974     1.019791   4.43255    0.2195909  0.2195909  0.3146169  32.69754   11.40235   11.974     0.7388087  0.802772   36.172     0.2879573  0.2401641  0.3357506 
1182.1     0.218      143.463    1          2          6.473133   12.50119   11.215     1.019749   3.9015     0.2171654  0.2171654  0.3146277  29.48413   11.01754   11.215     0.7280395  0.7952792  36.755     0.2953402  0.2435546  0.3471257 
1182.2     0.218      160.481    1          2          6.502479   10.88134   9.783      1.020141   2.865      0.2144371  0.2144371  0.3145252  26.24544   10.51328   9.783      0.7068242  0.7796258  37.31      0.3032971  0.2482586  0.3583356 
1182.3     0.218      184.706    1          2          6.537857   9.17198    8.1        1.020877   2.35774    0.211353   0.211353   0.3143322  23.01061   9.935956   8.1        0.6755997  0.7562832  37.872     0.3120582  0.2540506  0.3700658 
1182.4     0.218      202.303    1          2          6.576823   8.75683    6.069      1.021706   1.75137    0.2080792  0.2080792  0.3141151  20.01196   9.336697   6.069      0.6234552  0.7165259  38.428     0.3213208  0.2605865  0.3820552 
1182.5     0.218      220.85     1          2          6.617064   8.02998    4.233      1.022259   1.606      0.2050737  0.2050737  0.3139703  17.60436   8.755739   4.233      0.5484093  0.6584629  38.896     0.3299898  0.2675128  0.3924667 
1182.6     0.218      257.481    1          2          6.657387   6.935441   2.88       1.022135   1.45182    0.2026779  0.2026779  0.3140029  15.89441   8.209854   2.88       0.4533908  0.5839834  39.228     0.3373484  0.2746379  0.4000589 
1182.7     0.218      290.692    1          2          6.698245   6.07539    2.232      1.020996   1.34376    0.2003735  0.2003735  0.3143012  14.40662   7.691435   2.232      0.3777731  0.5255114  39.587     0.3452353  0.2820511  0.4084195 
1182.8     0.218      321.757    -9999      -9999      6.741724   5.52937    1.827      1.018643   1.3101     0.1982834  0.1982834  0.3149174  13.17796   7.175657   1.827      0.3102049  0.4739383  39.936     0.3534363  0.2901598  0.4167129 
1182.9     0.218      348.603    -9999      -9999      6.790538   5.05533    1.816      1.015059   1.29764    0.1963505  0.1963505  0.315856   12.13516   6.637701   1.816      0.30232    0.4712     40.267     0.3621381  0.2995414  0.4247347 
1183       0.219      374.213    -9999      -9999      6.846782   4.59211    1.816      1.010398   1.31478    0.1944786  0.1944786  0.3170768  11.20401   6.067671   1.816      0.2964749  0.4703826  40.573     0.3715098  0.3107278  0.4322918 
1183.1     0.219      395.408    -9999      -9999      6.910686   4.31039    1.825      1.004951   1.33536    0.1925302  0.1925302  0.3185034  10.31063   5.479177   1.825      0.2919228  0.4709777  40.861     0.381737   0.3239456  0.4395283 
1183.2     0.219      416.183    -9999      -9999      6.980171   4.14149    1.817      0.9990829  1.36932    0.1904814  0.1904814  0.3200402  9.447913   4.903879   1.817      0.2838192  0.4690782  41.124     0.3926024  0.3389564  0.4462484 
1183.3     0.219      437.247    -9999      -9999      7.051146   3.98715    1.808      0.9931803  1.43773    0.1883975  0.1883975  0.3215861  8.644438   4.378552   1.808      0.2752377  0.4669675  41.353     0.4036018  0.3550074  0.4521962 
1183.4     0.219      461.42     -9999      -9999      7.118864   3.8696     1.78       0.9876009  1.53747    0.1863704  0.1863704  0.3230473  7.928498   3.929881   1.78       0.2629986  0.4619506  41.547     0.4141724  0.3710302  0.4573146 
1183.5     0.219      479.09     -9999      -9999      7.179481   3.7848     1.757      0.9826443  1.609      0.1844465  0.1844465  0.3243454  7.303884   3.567402   1.757      0.2517548  0.457526   41.718     0.4239363  0.385985   0.4618877 
1183.6     0.22       496.622    -9999      -9999      7.231396   3.71707    1.757      0.9785404  1.68044    0.182693   0.182693   0.3254203  6.777606   3.283656   1.757      0.245504   0.4565651  41.86      0.4325068  0.3992713  0.4657422 
1183.7     0.22       512.607    -9999      -9999      7.275697   3.66167    1.77       0.975444   1.79752    0.1810765  0.1810765  0.3262312  6.326076   3.059441   1.77       0.2422667  0.457485   41.969     0.4398628  0.4109702  0.4687553 
1183.8     0.22       527.672    -9999      -9999      7.315516   3.64454    1.782      0.9734325  1.90038    0.1794993  0.1794993  0.326758   5.914534   2.871009   1.782      0.2388883  0.457984   42.037     0.4462386  0.4217775  0.4706997 
1183.9     0.22       540.522    -9999      -9999      7.354558   3.64454    1.77       0.9725121  1.98598    0.1777033  0.1777033  0.3269991  5.478398   2.697527   1.77       0.2297545  0.4542461  42.087     0.4524116  0.4326497  0.4721735 
1184       0.22       552.293    -9999      -9999      7.395515   3.66167    1.732      0.9726231  2.06852    0.1756172  0.1756172  0.32697    5.012039   2.526787   1.732      0.2138259  0.4457078  42.11      0.458645   0.4443569  0.4729331 
1184.1     0.22       561.957    -9999      -9999      7.438724   3.66167    1.674      0.9736488  2.14006    0.1732251  0.1732251  0.3267014  4.525921   2.358362   1.674      0.1915599  0.4328788  42.111     0.4650797  0.4570512  0.4731082 
