~Version
 VERS              .         2.0                           : CWLS LOG ASCII STANDARD - VERSION 2.0
 WRAP              .         NO                            : ONE LINE PER DEPTH STEP
 DLM               .         SPACE                         : DELIMITING CHARACTER(SPACE TAB OR COMMA)
~Well Information
#_______________________________________________________________________________
#
#PARAMETER_NAME    .UNIT     VALUE                         : DESCRIPTION
#_______________________________________________________________________________
STRT               .м        961                           : First reference value
STOP               .м        1268                          : Last reference value
STEP               .м        0.1                           : Step increment
NULL               .         -9999                         : Missing value
COMP               .                                       : Company
WELL               .         1964                          : Well name
FLD                .         УЗЕНЬ                         : Field
LOC                .                                       : Location
PROV               .                                       : Province
SRVC               .         SCH                           : Service Company
DATE               .         13.01.2010                    : Date
UWI                .                                       : Unique Well ID
Block              .         3а                            : 
Category           .         Нагнетательная                : 
Condition          .         Ликвидированная               : 
CTRY               .                                       : Название страны
Date               .         30.11.1977                    : 
EREF               .m        234.6                         : 100.8
FILE               .                                       : 
Gorizont           .         14                            : 14
Interpretator      .         Алпанова Н.К.                 : 
Kupol              .         основной                      : osnovnoi
Moii_14            .         14_gor                        : 
Mud                .                                       : 
Mud_density        .                                       : 
Mud_resistivity    .                                       : 
NGDU               .         НГДУ-1                        : 
ORIGINALWELLNAME   .         1964                          : 
Spud_date          .         1977                          : 1961
TAPE               .                                       : 
Viscosity          .                                       : 
X                  .m        55520.4                       : 46154
Y                  .m        80718.53                      : 85761.93
YEAR               .         2019                          : 
~Parameter Information Block
#_______________________________________________________________________________
#
#PARAMETER_NAME    .UNIT     VALUE                         : DESCRIPTION
#_______________________________________________________________________________
SET                .         LQC_KAZNIPI_Petrel            : 
PBBOTTOM           .м        1268                          : Глубина подошвы планшета
PBSCALE            .         1 _ 500                       : Вертикальный масштаб планшета
PBTOP              .м        961                           : Глубина кровли планшета
TLFamily_CALI      .         Caliper                       : 
TLFamily_CILD      .         Conductivity                  : 
TLFamily_COLL      .         Net Reservoir Flag            : 
TLFamily_CSAT      .         Fluid Code                    : 
TLFamily_DEPT      .         Measured Depth                : 
TLFamily_GR        .         Russian Gamma Ray             : 
TLFamily_GZ3       .         Gradient 225                  : 
TLFamily_LLS       .         Lateral Log Resistivity       : 
TLFamily_NGLD      .         Neutron Gamma                 : 
TLFamily_OGZ       .         Gradient Inverted 225         : 
TLFamily_PHIE      .         Effective Porosity            : 
TLFamily_PHIEN     .         Effective Porosity            : 
TLFamily_PHIT      .         Porosity                      : 
TLFamily_PRMB      .         Permeability                  : 
TLFamily_PRMB_DGR  .         Permeability                  : 
TLFamily_RT        .         Formation Resistivity         : 
TLFamily_SOIL_ARCHIE .         Oil Saturation                : 
TLFamily_SOIL_DW   .         Oil Saturation                : 
TLFamily_SP        .         Spontaneous Potential         : 
TLFamily_VSH_FIN   .         Shale Volume                  : 
TLFamily_VSH_GR    .         Shale Volume                  : 
TLFamily_VSH_SP    .         Shale Volume                  : 
~Curve Information
#_______________________________________________________________________________
#
#LOGNAME           .UNIT     LOG_ID                        : DESCRIPTION
#_______________________________________________________________________________
DEPT               .м                                      : Колонка глубины 
CALI               .м                                      : Каверномер 
CILD               .мСм/м                                  : Индукционный каротаж 
COLL               .unitless                               : Описание 
CSAT               .unitless                               : Описание 
GR                 .мкР/ч                                  : Гамма каротаж 
GZ3                .Ом·м                                   : 2  GZ3 
LLS                .Ом·м                                   : Боковой каротаж 
NGLD               .у.е.                                   : Показания зонда НГК-60 аппаратуры ДРСТ-3-90 
OGZ                .Ом·м                                   : 3  OGZ3 
PHIE               .v/v                                    : Описание 
PHIEN              .v/v                                    :  
PHIT               .v/v                                    : Описание 
PRMB               .mD                                     :  
PRMB_DGR           .mD                                     :  
RT                 .ohmm                                   : Description 
SOIL_ARCHIE        .v/v                                    :  
SOIL_DW            .v/v                                    :  
SP                 .mv                                     : Потенциал самополяризации 
VSH_FIN            .v/v                                    : Описание 
VSH_GR             .v/v                                    : Shale volume 
VSH_SP             .v/v                                    : Shale Volume 
~Ascii
# ...
1072       0.242      674.871    -9999      -9999      6.443738   1.8371     1.283      0.7844859  1.59915    0.1968547  0.1968547  0.3762431  12.39894   1.239989   1.283      0.1806057  0.4345795  38.134     0.5436014  0.594249   0.4929537 
1072.1     0.245      682.17     -9999      -9999      6.426978   1.78732    1.262      0.7822996  1.58462    0.1983887  0.1983887  0.3768157  13.23724   1.269023   1.262      0.1797991  0.4321398  38.131     0.5406881  0.5886594  0.4927167 
1072.2     0.247      686.847    -9999      -9999      6.403513   1.76888    1.254      0.7809618  1.56568    0.2000503  0.2000503  0.3771661  14.2094    1.310819   1.254      0.1833023  0.4324999  38.129     0.5367144  0.5809215  0.4925073 
1072.3     0.248      689.48     -9999      -9999      6.379481   1.73678    1.238      0.7805136  1.53187    0.2014333  0.2014333  0.3772835  15.07271   1.355052   1.238      0.1832813  0.4304844  38.14      0.5328794  0.5731023  0.4926564 
1072.4     0.248      690.741    -9999      -9999      6.359932   1.70297    1.217      0.7808582  1.51513    0.2024143  0.2024143  0.3771932  15.71673   1.392133   1.217      0.1801745  0.4265963  38.138     0.5296331  0.5668191  0.4924471 
1072.5     0.249      691.56     -9999      -9999      6.347584   1.70331    1.19       0.7817913  1.51547    0.2028762  0.2028762  0.3769489  16.02939   1.416075   1.19       0.1731406  0.420415   38.131     0.527493   0.5628862  0.4920999 
1072.6     0.25       693.311    -9999      -9999      6.342475   1.68657    1.156      0.7830644  1.53289    0.2028444  0.2028444  0.3766154  16.0077    1.426101   1.156      0.1617019  0.4116003  38.129     0.5265788  0.5612669  0.4918908 
1072.7     0.25       696.456    -9999      -9999      6.342422   1.70244    1.115      0.7844517  1.55031    0.2025184  0.2025184  0.3762521  15.78665   1.426206   1.115      0.1461799  0.4001505  38.127     0.5264658  0.56125    0.4916816 
1072.8     0.252      701.418    -9999      -9999      6.344015   1.70433    1.143      0.7857993  1.58161    0.2021803  0.2021803  0.3758992  15.56064   1.423072   1.143      0.1548305  0.4068173  38.111     0.5264208  0.5617544  0.4910872 
1072.9     0.254      707.139    -9999      -9999      6.343767   1.72175    1.252      0.7870466  1.60222    0.201901   0.201901   0.3755725  15.3764    1.423559   1.252      0.1892192  0.43262    38.109     0.5262772  0.5616758  0.4908785 
1073       0.255      713.547    -9999      -9999      6.338882   1.70306    1.348      0.7882032  1.70306    0.2018875  0.2018875  0.3752696  15.36756   1.433196   1.348      0.2168009  0.4529134  38.107     0.5254002  0.5601307  0.4906697 
1073.1     0.255      717.052    -9999      -9999      6.327776   1.72243    1.409      0.7893049  1.72243    0.2022104  0.2022104  0.374981   15.58063   1.455346   1.409      0.2339661  0.4649704  38.105     0.5235475  0.5566339  0.490461  
1073.2     0.254      716.698    -9999      -9999      6.310349   1.70789    1.44       0.7903736  1.70789    0.2028676  0.2028676  0.3747012  16.02353   1.490796   1.44       0.2438893  0.4711916  38.102     0.5207078  0.5511904  0.4902251 
1073.3     0.249      713.237    -9999      -9999      6.287976   1.68896    1.445      0.7913765  1.68896    0.2037795  0.2037795  0.3744385  16.65902   1.537575   1.445      0.2480613  0.4728085  38.1       0.5171484  0.5442803  0.4900165 
1073.4     0.244      707.228    -9999      -9999      6.263543   1.65515    1.371      0.7922224  1.65515    0.2048212  0.2048212  0.3742169  17.41584   1.590342   1.371      0.2326964  0.459654   38.098     0.5133203  0.5368325  0.4898081 
1073.5     0.242      701.994    -9999      -9999      6.241066   1.63842    1.304      0.792769   1.63842    0.2059095  0.2059095  0.3740738  18.24324   1.64048    1.304      0.2180591  0.4469688  38.078     0.5095887  0.5300713  0.4891062 
1073.6     0.24       700.465    -9999      -9999      6.224922   1.60854    1.271      0.7928635  1.60854    0.2068653  0.2068653  0.374049   19.00225   1.677465   1.271      0.2117824  0.4408312  38.042     0.5066175  0.5252677  0.4879673 
1073.7     0.238      703.259    -9999      -9999      6.218893   1.59217    1.271      0.7923767  1.59217    0.2074024  0.2074024  0.3741765  19.44257   1.691491   1.271      0.2135605  0.4415165  38.022     0.5053762  0.5234848  0.4872677 
1073.8     0.239      709.489    -9999      -9999      6.22529    1.58822    1.23       0.7912447  1.53702    0.2074975  0.2074975  0.374473   19.52158   1.676613   1.23       0.2016847  0.4326597  38.003     0.5059865  0.5253766  0.4865963 
1073.9     0.24       718.488    -9999      -9999      6.244185   1.62271    1.177      0.7894961  1.50318    0.2069845  0.2069845  0.374931   19.0991    1.63343    1.177      0.1832538  0.4198927  38.018     0.5089288  0.5310044  0.4868531 
1074       0.241      726.594    -9999      -9999      6.273482   1.64013    1.126      0.7872596  1.50352    0.2059917  0.2059917  0.3755167  18.30728   1.568661   1.126      0.162599   0.4063431  38.05      0.5137122  0.5398499  0.4875745 
1074.1     0.243      732.081    -9999      -9999      6.309551   1.65755    1.105      0.7847483  1.52094    0.2045417  0.2045417  0.3761744  17.20944   1.49244    1.105      0.1499545  0.3997058  38.117     0.5200992  0.5509425  0.4892557 
1074.2     0.247      735.017    -9999      -9999      6.348074   1.67496    1.106      0.7822183  1.55543    0.2030113  0.2030113  0.376837   16.12205   1.415117   1.106      0.1447392  0.3988559  38.166     0.5267445  0.5630417  0.4904473 
1074.3     0.252      734.273    -9999      -9999      6.38489    1.65386    1.108      0.7799201  1.607      0.2013901  0.2013901  0.3774389  15.04495   1.344969   1.108      0.1394757  0.3981014  38.232     0.5334814  0.5748528  0.4921099 
1074.4     0.256      730.717    -9999      -9999      6.416467   1.6714     1.12       0.7780413  1.60734    0.2000578  0.2000578  0.377931   14.21395   1.287578   1.12       0.138851   0.4002612  38.264     0.5390095  0.5851807  0.4928383 
1074.5     0.257      725.053    -9999      -9999      6.440022   1.67599    1.139      0.776671   1.62476    0.1990053  0.1990053  0.3782899  13.58999   1.246367   1.139      0.1416878  0.4044081  38.296     0.5432866  0.5930054  0.4935677 
1074.6     0.257      721.203    -9999      -9999      6.453303   1.65925    1.167      0.775789   1.65925    0.1985354  0.1985354  0.3785208  13.32033   1.223717   1.167      0.1496648  0.4112753  38.294     0.5454105  0.597463   0.493358  
1074.7     0.253      719.371    -9999      -9999      6.454575   1.63064    1.231      0.7752762  1.63064    0.1986336  0.1986336  0.3786552  13.37623   1.22157    1.231      0.1710616  0.4270179  38.292     0.5455199  0.5978916  0.4931483 
1074.8     0.25       721.027    -9999      -9999      6.442667   1.60871    1.242      0.7749518  1.60871    0.1995726  0.1995726  0.3787401  13.92281   1.241824   1.242      0.1778988  0.430684   38.255     0.5429319  0.5938902  0.4919734 
1074.9     0.248      725.978    -9999      -9999      6.4172     1.5749     1.229      0.7746224  1.5749     0.2013221  0.2013221  0.3788264  15.00139   1.286275   1.229      0.1800859  0.4297016  38.202     0.5378919  0.5854226  0.4903611 
1075       0.247      733.295    -9999      -9999      6.378779   1.54109    1.207      0.77412    1.54109    0.2039473  0.2039473  0.378958   16.77863   1.356367   1.207      0.1823845  0.4275509  38.114     0.5303355  0.5728753  0.4877956 
1075.1     0.247      741.842    -9999      -9999      6.329101   1.51442    1.202      0.7733353  1.51442    0.2071853  0.2071853  0.3791635  19.26334   1.452685   1.202      0.1919523  0.4300755  38.026     0.5211462  0.5570498  0.4852425 
1075.2     0.249      747.632    -9999      -9999      6.270755   1.50762    1.277      0.7722344  1.54177    0.2107917  0.2107917  0.3794518  22.46632   1.57458    1.277      0.2262971  0.4510534  37.955     0.5110912  0.5390204  0.483162  
1075.3     0.251      750.348    -9999      -9999      6.207024   1.49089    1.369      0.7708611  1.55919    0.2147086  0.2147086  0.3798115  26.55108   1.719444   1.369      0.2630593  0.4739551  37.867     0.5003117  0.5199928  0.4806307 
