~Version
 VERS              .         2.0                           : CWLS LOG ASCII STANDARD - VERSION 2.0
 WRAP              .         NO                            : ONE LINE PER DEPTH STEP
 DLM               .         SPACE                         : DELIMITING CHARACTER(SPACE TAB OR COMMA)
~Well Information
#_______________________________________________________________________________
#
#PARAMETER_NAME    .UNIT     VALUE                         : DESCRIPTION
#_______________________________________________________________________________
STRT               .м        961                           : First reference value
STOP               .м        1268                          : Last reference value
STEP               .м        0.1                           : Step increment
NULL               .         -9999                         : Missing value
COMP               .                                       : Company
WELL               .         1964                          : Well name
FLD                .         УЗЕНЬ                         : Field
LOC                .                                       : Location
PROV               .                                       : Province
SRVC               .         SCH                           : Service Company
DATE               .         13.01.2010                    : Date
UWI                .                                       : Unique Well ID
Block              .         3а                            : 
Category           .         Нагнетательная                : 
Condition          .         Ликвидированная               : 
CTRY               .                                       : Название страны
Date               .         30.11.1977                    : 
EREF               .m        234.6                         : 100.8
FILE               .                                       : 
Gorizont           .         14                            : 14
Interpretator      .         Алпанова Н.К.                 : 
Kupol              .         основной                      : osnovnoi
Moii_14            .         14_gor                        : 
Mud                .                                       : 
Mud_density        .                                       : 
Mud_resistivity    .                                       : 
NGDU               .         НГДУ-1                        : 
ORIGINALWELLNAME   .         1964                          : 
Spud_date          .         1977                          : 1961
TAPE               .                                       : 
Viscosity          .                                       : 
X                  .m        55520.4                       : 46154
Y                  .m        80718.53                      : 85761.93
YEAR               .         2019                          : 
~Parameter Information Block
#_______________________________________________________________________________
#
#PARAMETER_NAME    .UNIT     VALUE                         : DESCRIPTION
#_______________________________________________________________________________
SET                .         LQC_KAZNIPI_Petrel            : 
PBBOTTOM           .м        1268                          : Глубина подошвы планшета
PBSCALE            .         1 _ 500                       : Вертикальный масштаб планшета
PBTOP              .м        961                           : Глубина кровли планшета
TLFamily_CALI      .         Caliper                       : 
TLFamily_CILD      .         Conductivity                  : 
TLFamily_COLL      .         Net Reservoir Flag            : 
TLFamily_CSAT      .         Fluid Code                    : 
TLFamily_DEPT      .         Measured Depth                : 
TLFamily_GR        .         Russian Gamma Ray             : 
TLFamily_GZ3       .         Gradient 225                  : 
TLFamily_LLS       .         Lateral Log Resistivity       : 
TLFamily_NGLD      .         Neutron Gamma                 : 
TLFamily_OGZ       .         Gradient Inverted 225         : 
TLFamily_PHIE      .         Effective Porosity            : 
TLFamily_PHIEN     .         Effective Porosity            : 
TLFamily_PHIT      .         Porosity                      : 
TLFamily_PRMB      .         Permeability                  : 
TLFamily_PRMB_DGR  .         Permeability                  : 
TLFamily_RT        .         Formation Resistivity         : 
TLFamily_SOIL_ARCHIE .         Oil Saturation                : 
TLFamily_SOIL_DW   .         Oil Saturation                : 
TLFamily_SP        .         Spontaneous Potential         : 
TLFamily_VSH_FIN   .         Shale Volume                  : 
TLFamily_VSH_GR    .         Shale Volume                  : 
TLFamily_VSH_SP    .         Shale Volume                  : 
~Curve Information
#_______________________________________________________________________________
#
#LOGNAME           .UNIT     LOG_ID                        : DESCRIPTION
#_______________________________________________________________________________
DEPT               .м                                      : Колонка глубины 
CALI               .м                                      : Каверномер 
CILD               .мСм/м                                  : Индукционный каротаж 
COLL               .unitless                               : Описание 
CSAT               .unitless                               : Описание 
GR                 .мкР/ч                                  : Гамма каротаж 
GZ3                .Ом·м                                   : 2  GZ3 
LLS                .Ом·м                                   : Боковой каротаж 
NGLD               .у.е.                                   : Показания зонда НГК-60 аппаратуры ДРСТ-3-90 
OGZ                .Ом·м                                   : 3  OGZ3 
PHIE               .v/v                                    : Описание 
PHIEN              .v/v                                    :  
PHIT               .v/v                                    : Описание 
PRMB               .mD                                     :  
PRMB_DGR           .mD                                     :  
RT                 .ohmm                                   : Description 
SOIL_ARCHIE        .v/v                                    :  
SOIL_DW            .v/v                                    :  
SP                 .mv                                     : Потенциал самополяризации 
VSH_FIN            .v/v                                    : Описание 
VSH_GR             .v/v                                    : Shale volume 
VSH_SP             .v/v                                    : Shale Volume 
~Ascii
# ...
1089       0.255      546.155    -9999      -9999      6.308853   1.91334    1.621      0.9495869  2.23778    0.1583469  0.1583469  0.3330032  2.399529   1.493879   1.621      0.1124907  0.4103955  39.615     0.5292616  0.5507257  0.5077974 
1089.1     0.262      544.078    -9999      -9999      6.262427   1.92611    1.566      0.9499729  2.23812    0.1605826  0.1605826  0.3329021  2.639592   1.592794   1.566      0.1089448  0.4032102  39.623     0.5221804  0.536495   0.5078658 
1089.2     0.27       540.639    -9999      -9999      6.232506   1.9311     1.528      0.9502611  2.23846    0.1621031  0.1621031  0.3328266  2.816447   1.659987   1.528      0.1059824  0.3979193  39.604     0.5173439  0.5275189  0.5071689 
1089.3     0.276      536.496    -9999      -9999      6.21912    1.93144    1.51       0.9507365  2.25588    0.1627481  0.1627481  0.3327021  2.894989   1.69096    1.51       0.1041006  0.39512    39.585     0.5150123  0.5235519  0.5064728 
1089.4     0.281      531.834    -9999      -9999      6.220187   1.91471    1.5        0.951626   2.25622    0.1625824  0.1625824  0.3324691  2.874611   1.688469   1.5        0.1005055  0.392608   39.565     0.5148082  0.5238671  0.5057495 
1089.5     0.284      527.116    -9999      -9999      6.231904   1.90342    1.497      0.9530477  2.23949    0.1618028  0.1618028  0.3320968  2.780603   1.661368   1.497      0.095883   0.3904599  39.535     0.5160424  0.5273398  0.5047449 
1089.6     0.286      522.036    -9999      -9999      6.249498   1.88702    1.49       0.9549863  2.22275    0.1604861  0.1604861  0.3315891  2.628754   1.621488   1.49       0.08742081 0.386541   39.528     0.5184939  0.5325978  0.5043899 
1089.7     0.288      515.898    -9999      -9999      6.268595   1.8645     1.481      0.9573023  2.20602    0.1590424  0.1590424  0.3309825  2.471772   1.579284   1.481      0.07759115 0.3818569  39.509     0.5210308  0.5383642  0.5036974 
1089.8     0.289      508.451    -9999      -9999      6.286527   1.84777    1.476      0.9597638  2.20636    0.1576137  0.1576137  0.3303379  2.325658   1.540655   1.476      0.06883672 0.3779306  39.489     0.5234066  0.5438357  0.5029775 
1089.9     0.29       500.202    -9999      -9999      6.303119   1.82084    1.5        0.9620901  2.2067     0.1561172  0.1561172  0.3297286  2.181867   1.505756   1.5        0.06814772 0.3799779  39.504     0.526095   0.5489477  0.5032423 
1090       0.288      492.1      -9999      -9999      6.320634   1.79722    1.535      0.9639929  2.22135    0.1546205  0.1546205  0.3292302  2.046936   1.46977    1.535      0.07041226 0.384267   39.531     0.5291206  0.5543966  0.5038445 
1090.1     0.284      484.835    -9999      -9999      6.342803   1.76342    1.596      0.9652118  2.22446    0.1530883  0.1530883  0.328911   1.91745    1.425457   1.596      0.07930602 0.3935036  39.55      0.5327963  0.5613704  0.5042222 
1090.2     0.275      481.2      -9999      -9999      6.373348   1.76376    1.643      0.9655392  2.25895    0.1511866  0.1511866  0.3288253  1.768072   1.366578   1.643      0.08181852 0.399318   39.6       0.5382991  0.5711235  0.5054747 
1090.3     0.265      480.847    -9999      -9999      6.414423   1.79825    1.672      0.9648406  2.29097    0.1490382  0.1490382  0.3290083  1.613272   1.291217   1.672      0.07790401 0.4015446  39.632     0.5453637  0.5845065  0.5062209 
1090.4     0.255      484.416    -9999      -9999      6.465621   1.83274    1.664      0.9630763  2.31086    0.1467107  0.1467107  0.3294703  1.460818   1.203076   1.664      0.06306959 0.3970902  39.63      0.553817   0.6016277  0.5060063 
1090.5     0.248      491.083    -9999      -9999      6.523829   1.86724    1.637      0.9602993  2.32828    0.1441936  0.1441936  0.3301976  1.31212    1.110152   1.637      0.041511   0.3890495  39.621     0.5636485  0.621703   0.5055941 
1090.6     0.243      500.832    -9999      -9999      6.584034   1.85798    1.58       0.9566552  2.3457     0.141641   0.141641   0.331152   1.176773   1.021585   1.58       0.01015798 0.3751291  39.619     0.5742758  0.6431718  0.5053797 
1090.7     0.241      510.531    -9999      -9999      6.640346   1.83377    1.528      0.952359   2.33154    0.1393775  0.1393775  0.3322772  1.068485   0.945151   1.528      0          0.3621643  39.617     0.5845444  0.6639231  0.5051656 
1090.8     0.241      520.004    -9999      -9999      6.687449   1.79996    1.477      0.9476625  2.32931    0.1375358  0.1375358  0.3335072  0.987768   0.8856277  1.477      0          0.3495918  39.649     0.5938526  0.681794   0.5059112 
1090.9     0.241      527.903    -9999      -9999      6.721664   1.8003     1.431      0.9428183  2.31257    0.1363963  0.1363963  0.3347759  0.9409103  0.8447543  1.431      0          0.338801   39.701     0.6011503  0.6950764  0.5072242 
1091       0.24       533.493    -9999      -9999      6.741542   1.81772    1.395      0.9380511  2.32999    0.1359098  0.1359098  0.3360244  0.9215888  0.8218803  1.395      0          0.331034   39.801     0.6064079  0.7029115  0.5099044 
1091.1     0.24       536.048    -9999      -9999      6.747863   1.8439     1.366      0.9335461  2.39613    0.1361463  0.1361463  0.3372043  0.9309303  0.8147371  1.366      0          0.3259019  39.919     0.6092668  0.7054214  0.5131121 
1091.2     0.24       535.561    -9999      -9999      6.743167   1.89586    1.357      0.9294486  2.46535    0.1369949  0.1369949  0.3382774  0.9652426  0.8200372  1.357      0          0.3265614  40.037     0.6099469  0.7035561  0.5163378 
1091.3     0.241      531.764    -9999      -9999      6.730812   1.94782    1.369      0.9258757  2.53592    0.138273   0.138273   0.3392132  1.019319   0.8341495  1.369      0          0.3329588  40.14      0.6089095  0.6986713  0.5191476 
1091.4     0.242      525.39     -9999      -9999      6.713966   1.98984    1.413      0.9229292  2.60386    0.1396928  0.1396928  0.3399848  1.082947   0.8537827  1.413      0          0.3468164  40.238     0.6069456  0.6920657  0.5218257 
1091.5     0.243      517.73     -9999      -9999      6.694811   2.02433    1.477      0.9206974  2.63906    0.1413774  0.1413774  0.3405693  1.16362    0.876669   1.477      0          0.3646171  40.27      0.6036119  0.6846305  0.5225933 
1091.6     0.244      509.538    -9999      -9999      6.674027   2.02467    1.614      0.9192488  2.6394     0.1431094  0.1431094  0.3409487  1.25283    0.9021962  1.614      0.02876215 0.3953215  40.268     0.599513   0.6766534  0.5223727 
1091.7     0.246      502.322    -9999      -9999      6.65101    2.00794    1.722      0.9186145  2.58852    0.1449194  0.1449194  0.3411148  1.353374   0.9313337  1.722      0.06809547 0.4174759  40.231     0.5945316  0.6679277  0.5211356 
1091.8     0.246      497.748    -9999      -9999      6.624416   1.99121    1.806      0.9187738  2.50585    0.1468125  0.1468125  0.3410732  1.467175   0.9661742  1.806      0.09893558 0.4338646  40.175     0.5886686  0.6579858  0.5193514 
1091.9     0.246      496.046    -9999      -9999      6.593123   1.94865    1.842      0.9196464  2.45259    0.1488525  0.1488525  0.3408446  1.600546   1.008842   1.842      0.1179086  0.4420533  40.103     0.5817941  0.6464769  0.5171114 
1092       0.244      496.646    -9999      -9999      6.556944   1.89843    1.839      0.9211019  2.41878    0.150989   0.150989   0.3404634  1.753236   1.060527   1.839      0.1281225  0.4441656  40.032     0.574165   0.6334213  0.5149087 
1092.1     0.242      499.3      -9999      -9999      6.517      1.8727     1.764      0.9229795  2.41912    0.1531021  0.1531021  0.3399717  1.918586   1.120672   1.764      0.1216166  0.4349043  39.979     0.5662712  0.6193132  0.5132293 
1092.2     0.24       502.346    -9999      -9999      6.475543   1.83889    1.703      0.9251115  2.43654    0.1550258  0.1550258  0.3394133  2.082626   1.186705   1.703      0.1166486  0.4269746  39.959     0.5587501  0.605003   0.5124972 
1092.3     0.239      504.312    -9999      -9999      6.435485   1.83923    1.651      0.927344   2.47104    0.1567867  0.1567867  0.3388286  2.245056   1.254202   1.651      0.1124739  0.4198685  39.94      0.5516423  0.59149    0.5117947 
