~Version
 VERS              .         2.0                           : CWLS LOG ASCII STANDARD - VERSION 2.0
 WRAP              .         NO                            : ONE LINE PER DEPTH STEP
 DLM               .         SPACE                         : DELIMITING CHARACTER(SPACE TAB OR COMMA)
~Well Information
#_______________________________________________________________________________
#
#PARAMETER_NAME    .UNIT     VALUE                         : DESCRIPTION
#_______________________________________________________________________________
STRT               .м        961                           : First reference value
STOP               .м        1268                          : Last reference value
STEP               .м        0.1                           : Step increment
NULL               .         -9999                         : Missing value
COMP               .                                       : Company
WELL               .         1964                          : Well name
FLD                .         УЗЕНЬ                         : Field
LOC                .                                       : Location
PROV               .                                       : Province
SRVC               .         SCH                           : Service Company
DATE               .         13.01.2010                    : Date
UWI                .                                       : Unique Well ID
Block              .         3а                            : 
Category           .         Нагнетательная                : 
Condition          .         Ликвидированная               : 
CTRY               .                                       : Название страны
Date               .         30.11.1977                    : 
EREF               .m        234.6                         : 100.8
FILE               .                                       : 
Gorizont           .         14                            : 14
Interpretator      .         Алпанова Н.К.                 : 
Kupol              .         основной                      : osnovnoi
Moii_14            .         14_gor                        : 
Mud                .                                       : 
Mud_density        .                                       : 
Mud_resistivity    .                                       : 
NGDU               .         НГДУ-1                        : 
ORIGINALWELLNAME   .         1964                          : 
Spud_date          .         1977                          : 1961
TAPE               .                                       : 
Viscosity          .                                       : 
X                  .m        55520.4                       : 46154
Y                  .m        80718.53                      : 85761.93
YEAR               .         2019                          : 
~Parameter Information Block
#_______________________________________________________________________________
#
#PARAMETER_NAME    .UNIT     VALUE                         : DESCRIPTION
#_______________________________________________________________________________
SET                .         LQC_KAZNIPI_Petrel            : 
PBBOTTOM           .м        1268                          : Глубина подошвы планшета
PBSCALE            .         1 _ 500                       : Вертикальный масштаб планшета
PBTOP              .м        961                           : Глубина кровли планшета
TLFamily_CALI      .         Caliper                       : 
TLFamily_CILD      .         Conductivity                  : 
TLFamily_COLL      .         Net Reservoir Flag            : 
TLFamily_CSAT      .         Fluid Code                    : 
TLFamily_DEPT      .         Measured Depth                : 
TLFamily_GR        .         Russian Gamma Ray             : 
TLFamily_GZ3       .         Gradient 225                  : 
TLFamily_LLS       .         Lateral Log Resistivity       : 
TLFamily_NGLD      .         Neutron Gamma                 : 
TLFamily_OGZ       .         Gradient Inverted 225         : 
TLFamily_PHIE      .         Effective Porosity            : 
TLFamily_PHIEN     .         Effective Porosity            : 
TLFamily_PHIT      .         Porosity                      : 
TLFamily_PRMB      .         Permeability                  : 
TLFamily_PRMB_DGR  .         Permeability                  : 
TLFamily_RT        .         Formation Resistivity         : 
TLFamily_SOIL_ARCHIE .         Oil Saturation                : 
TLFamily_SOIL_DW   .         Oil Saturation                : 
TLFamily_SP        .         Spontaneous Potential         : 
TLFamily_VSH_FIN   .         Shale Volume                  : 
TLFamily_VSH_GR    .         Shale Volume                  : 
TLFamily_VSH_SP    .         Shale Volume                  : 
~Curve Information
#_______________________________________________________________________________
#
#LOGNAME           .UNIT     LOG_ID                        : DESCRIPTION
#_______________________________________________________________________________
DEPT               .м                                      : Колонка глубины 
CALI               .м                                      : Каверномер 
CILD               .мСм/м                                  : Индукционный каротаж 
COLL               .unitless                               : Описание 
CSAT               .unitless                               : Описание 
GR                 .мкР/ч                                  : Гамма каротаж 
GZ3                .Ом·м                                   : 2  GZ3 
LLS                .Ом·м                                   : Боковой каротаж 
NGLD               .у.е.                                   : Показания зонда НГК-60 аппаратуры ДРСТ-3-90 
OGZ                .Ом·м                                   : 3  OGZ3 
PHIE               .v/v                                    : Описание 
PHIEN              .v/v                                    :  
PHIT               .v/v                                    : Описание 
PRMB               .mD                                     :  
PRMB_DGR           .mD                                     :  
RT                 .ohmm                                   : Description 
SOIL_ARCHIE        .v/v                                    :  
SOIL_DW            .v/v                                    :  
SP                 .mv                                     : Потенциал самополяризации 
VSH_FIN            .v/v                                    : Описание 
VSH_GR             .v/v                                    : Shale volume 
VSH_SP             .v/v                                    : Shale Volume 
~Ascii
# ...
1218.2     0.217      229.038    -9999      -9999      6.818668   6.480629   3.772      1.042192   6.94912    0.1995943  0.1995943  0.3087499  13.9357    5.443388   3.772      0.5187131  0.6356481  36.755     0.3307745  0.3248136  0.3307745 
1218.3     0.217      231.675    -9999      -9999      6.869566   6.2176     3.605      1.040818   6.74183    0.2007631  0.2007631  0.3091097  14.64799   5.009961   3.605      0.51087    0.6284481  36.617     0.3283228  0.3360071  0.3283228 
1218.4     0.217      232.487    -9999      -9999      6.902689   5.98783    3.489      1.039536   6.549749   0.201616   0.201616   0.3094456  15.19063   4.746624   3.489      0.5051355  0.6232179  36.526     0.3267561  0.3434976  0.3267561 
1218.5     0.217      230.72     -9999      -9999      6.915013   5.80537    3.478      1.038494   6.52326    0.2022153  0.2022153  0.3097184  15.5839    4.652209   3.478      0.5056812  0.6232765  36.466     0.3257668  0.3463272  0.3257668 
1218.6     0.217      227.16     -9999      -9999      6.904516   5.549339   3.558      1.037911   7.13437    0.2029108  0.2029108  0.309871   16.05305   4.732501   3.558      0.5123885  0.6281668  36.37      0.324122   0.3439158  0.324122  
1218.7     0.217      221.492    -9999      -9999      6.870762   5.357591   3.622      1.038027   7.410319   0.2037139  0.2037139  0.3098408  16.61243   5.000204   3.622      0.5181115  0.6320407  36.225     0.3215968  0.3362747  0.3215968 
1218.8     0.217      214.476    -9999      -9999      6.815261   5.1751     3.675      1.039042   7.51817    0.2046707  0.2046707  0.3095749  17.30434   5.473698   3.675      0.5233346  0.6352195  36.013     0.3178917  0.3240779  0.3178917 
1218.9     0.217      206.247    -9999      -9999      6.741605   4.99252    3.591      1.041065   7.50151    0.2058654  0.2058654  0.3090451  18.20894   6.172023   3.591      0.5205709  0.6314854  35.712     0.3126658  0.3085718  0.3126658 
1219       0.217      197.37     1          2          6.655015   4.84354    3.486      1.044079   7.51597    0.2074439  0.2074439  0.3082558  19.477     7.107729   3.486      0.5170712  0.6265863  35.292     0.3054906  0.291289   0.3054906 
1219.1     0.218      187.884    1          2          6.561662   4.72697    3.46       1.047938   7.65192    0.2088716  0.2088716  0.3072451  20.69987   8.276038   3.46       0.5182582  0.6255195  34.848     0.2981015  0.273739   0.2981015 
1219.2     0.218      177.773    1          2          6.467983   4.64296    3.61       1.052393   7.71072    0.2101344  0.2101344  0.3060783  21.84529   9.641503   3.61       0.5302299  0.6334733  34.393     0.2907391  0.2571906  0.2907391 
1219.3     0.218      167.455    1          2          6.37995    4.7276     3.921      1.057131   7.64409    0.2113981  0.2113981  0.3048374  23.05495   11.12936   3.921      0.5504523  0.6483414  33.91      0.2831492  0.2425523  0.2831492 
1219.4     0.218      155.961    1          2          6.302466   4.988491   4.822      1.061825   7.515369   0.2125407  0.2125407  0.3036081  24.20625   12.62776   4.822      0.5939469  0.6828487  33.438     0.2759617  0.2303594  0.2759617 
1219.5     0.218      147.011    1          2          6.238773   5.29145    5.742      1.066171   7.349569   0.2134533  0.2134533  0.3024698  25.16702   14.00939   5.742      0.6272866  0.7092412  33.017     0.269747   0.2207969  0.269747  
1219.6     0.217      140.777    1          2          6.190278   5.56959    6.501      1.069915   7.190061   0.2143481  0.2143481  0.3014893  26.14597   15.16188   6.501      0.6496585  0.726696   32.621     0.2640643  0.2137831  0.2640643 
1219.7     0.217      137.462    1          2          6.156443   5.81755    7.04       1.07287    7.092539   0.2151964  0.2151964  0.3007155  27.1092    16.02166   7.04       0.6636707  0.737403   32.269     0.2591488  0.209022   0.2591488 
1219.8     0.217      137.056    1          2          6.135126   6.02679    7.43       1.074917   6.91914    0.2156985  0.2156985  0.3001792  27.69598   16.58819   7.43       0.6727386  0.7443688  32.037     0.2560024  0.206077   0.2560024 
1219.9     0.218      140.457    1          2          6.123228   6.19812    7.185      1.076007   6.78806    0.2158892  0.2158892  0.2998938  27.9222    16.91308   7.185      0.6678044  0.739998   31.926     0.2545593  0.2044513  0.2545593 
1220       0.218      143.047    1          2          6.117576   6.35375    6.839      1.076161   6.65462    0.2157978  0.2157978  0.2998534  27.81356   17.06961   6.839      0.6598955  0.7334343  31.931     0.254714   0.2036836  0.254714  
1220.1     0.218      144.393    1          2          6.115741   6.49209    6.45       1.075467   6.49209    0.2155281  0.2155281  0.3000353  27.49545   17.12077   6.45       0.6500386  0.7254681  32.024     0.2560824  0.2034349  0.2560824 
1220.2     0.218      144.077    1          2          6.116587   6.59994    6.039      1.07407    6.411561   0.2151351  0.2151351  0.3004012  27.03848   17.09718   6.039      0.6384829  0.7162666  32.183     0.258382   0.2035495  0.258382  
1220.3     0.218      140.997    1          2          6.120252   6.63466    5.564      1.072161   6.26643    0.2146146  0.2146146  0.300901   26.44484   16.99532   5.564      0.6235212  0.7043931  32.396     0.2614739  0.2040468  0.2614739 
1220.4     0.218      138.025    1          2          6.127769   6.60093    4.998      1.069947   6.17968    0.2142348  0.2142348  0.301481   26.01991   16.78833   4.998      0.6034719  0.6882257  32.593     0.2643824  0.2050703  0.2643824 
1220.5     0.218      136.641    1          2          6.140377   6.83765    4.683      1.067614   6.283411   0.2140266  0.2140266  0.302092   25.78997   16.4468    4.683      0.5908254  0.6781622  32.758     0.2668647  0.2067986  0.2668647 
1220.6     0.218      137.725    1          2          6.158578   7.129371   4.631      1.065293   6.552879   0.2140388  0.2140388  0.3026997  25.80339   15.96596   4.631      0.5886962  0.6767484  32.875     0.2686694  0.2093194  0.2686694 
1220.7     0.218      142.142    1          2          6.181648   7.445519   4.879      1.063042   6.951399   0.2142135  0.2142135  0.3032893  25.99632   15.37667   4.879      0.5989279  0.6855358  32.954     0.2699265  0.2125586  0.2699265 
1220.8     0.218      150.399    1          2          6.207624   7.74755    5.185      1.060833   7.18191    0.2143306  0.2143306  0.3038678  26.12645   14.73913   5.185      0.6104001  0.6953653  33.042     0.2713249  0.2162659  0.2713249 
1220.9     0.218      159.641    1          2          6.233463   8.02468    5.617      1.058581   7.170681   0.2141738  0.2141738  0.3044577  25.95233   14.13119   5.617      0.6245206  0.7075578  33.187     0.2735876  0.2200178  0.2735876 
1221       0.218      169.753    1          2          6.25561    8.87224    5.871      1.056162   6.98557    0.2139677  0.2139677  0.3050912  25.72524   13.63012   5.871      0.6319246  0.7141879  33.349     0.2761317  0.2232853  0.2761317 
1221.1     0.218      180.87     1          2          6.270963   8.96089    5.946      1.053453   6.75795    0.2129247  0.2129247  0.3058007  24.60592   13.29321   5.946      0.6325501  0.7158083  33.688     0.2814426  0.225579   0.2814426 
1221.2     0.218      193.092    1          2          6.277653   9.04811    5.781      1.050362   6.53066    0.2115461  0.2115461  0.3066102  23.20089   13.14902   5.781      0.6255529  0.7114542  34.102     0.2880732  0.2265858  0.2880732 
1221.3     0.218      206.021    1          2          6.275527   8.79288    5.56       1.046857   6.32618    0.2100575  0.2100575  0.3075281  21.77373   13.19468   5.56       0.6162881  0.7054346  34.545     0.2953655  0.2262653  0.2953655 
1221.4     0.218      220.91     -9999      -9999      6.266364   8.368021   5.375      1.042986   6.177341   0.2087282  0.2087282  0.3085419  20.5736    13.39324   5.375      0.6079847  0.7002046  34.964     0.3024659  0.2248895  0.3024659 
1221.5     0.218      231.969    -9999      -9999      6.253692   8.02718    4.792      1.038897   6.02849    0.2074834  0.2074834  0.3096128  19.50982   13.67279   4.792      0.584124   0.6823579  35.367     0.3094831  0.2230005  0.3094831 
