~Version
 VERS              .         2.0                           : CWLS LOG ASCII STANDARD - VERSION 2.0
 WRAP              .         NO                            : ONE LINE PER DEPTH STEP
 DLM               .         SPACE                         : DELIMITING CHARACTER(SPACE TAB OR COMMA)
~Well Information
#_______________________________________________________________________________
#
#PARAMETER_NAME    .UNIT     VALUE                         : DESCRIPTION
#_______________________________________________________________________________
STRT               .м        961                           : First reference value
STOP               .м        1268                          : Last reference value
STEP               .м        0.1                           : Step increment
NULL               .         -9999                         : Missing value
COMP               .                                       : Company
WELL               .         1964                          : Well name
FLD                .         УЗЕНЬ                         : Field
LOC                .                                       : Location
PROV               .                                       : Province
SRVC               .         SCH                           : Service Company
DATE               .         13.01.2010                    : Date
UWI                .                                       : Unique Well ID
Block              .         3а                            : 
Category           .         Нагнетательная                : 
Condition          .         Ликвидированная               : 
CTRY               .                                       : Название страны
Date               .         30.11.1977                    : 
EREF               .m        234.6                         : 100.8
FILE               .                                       : 
Gorizont           .         14                            : 14
Interpretator      .         Алпанова Н.К.                 : 
Kupol              .         основной                      : osnovnoi
Moii_14            .         14_gor                        : 
Mud                .                                       : 
Mud_density        .                                       : 
Mud_resistivity    .                                       : 
NGDU               .         НГДУ-1                        : 
ORIGINALWELLNAME   .         1964                          : 
Spud_date          .         1977                          : 1961
TAPE               .                                       : 
Viscosity          .                                       : 
X                  .m        55520.4                       : 46154
Y                  .m        80718.53                      : 85761.93
YEAR               .         2019                          : 
~Parameter Information Block
#_______________________________________________________________________________
#
#PARAMETER_NAME    .UNIT     VALUE                         : DESCRIPTION
#_______________________________________________________________________________
SET                .         LQC_KAZNIPI_Petrel            : 
PBBOTTOM           .м        1268                          : Глубина подошвы планшета
PBSCALE            .         1 _ 500                       : Вертикальный масштаб планшета
PBTOP              .м        961                           : Глубина кровли планшета
TLFamily_CALI      .         Caliper                       : 
TLFamily_CILD      .         Conductivity                  : 
TLFamily_COLL      .         Net Reservoir Flag            : 
TLFamily_CSAT      .         Fluid Code                    : 
TLFamily_DEPT      .         Measured Depth                : 
TLFamily_GR        .         Russian Gamma Ray             : 
TLFamily_GZ3       .         Gradient 225                  : 
TLFamily_LLS       .         Lateral Log Resistivity       : 
TLFamily_NGLD      .         Neutron Gamma                 : 
TLFamily_OGZ       .         Gradient Inverted 225         : 
TLFamily_PHIE      .         Effective Porosity            : 
TLFamily_PHIEN     .         Effective Porosity            : 
TLFamily_PHIT      .         Porosity                      : 
TLFamily_PRMB      .         Permeability                  : 
TLFamily_PRMB_DGR  .         Permeability                  : 
TLFamily_RT        .         Formation Resistivity         : 
TLFamily_SOIL_ARCHIE .         Oil Saturation                : 
TLFamily_SOIL_DW   .         Oil Saturation                : 
TLFamily_SP        .         Spontaneous Potential         : 
TLFamily_VSH_FIN   .         Shale Volume                  : 
TLFamily_VSH_GR    .         Shale Volume                  : 
TLFamily_VSH_SP    .         Shale Volume                  : 
~Curve Information
#_______________________________________________________________________________
#
#LOGNAME           .UNIT     LOG_ID                        : DESCRIPTION
#_______________________________________________________________________________
DEPT               .м                                      : Колонка глубины 
CALI               .м                                      : Каверномер 
CILD               .мСм/м                                  : Индукционный каротаж 
COLL               .unitless                               : Описание 
CSAT               .unitless                               : Описание 
GR                 .мкР/ч                                  : Гамма каротаж 
GZ3                .Ом·м                                   : 2  GZ3 
LLS                .Ом·м                                   : Боковой каротаж 
NGLD               .у.е.                                   : Показания зонда НГК-60 аппаратуры ДРСТ-3-90 
OGZ                .Ом·м                                   : 3  OGZ3 
PHIE               .v/v                                    : Описание 
PHIEN              .v/v                                    :  
PHIT               .v/v                                    : Описание 
PRMB               .mD                                     :  
PRMB_DGR           .mD                                     :  
RT                 .ohmm                                   : Description 
SOIL_ARCHIE        .v/v                                    :  
SOIL_DW            .v/v                                    :  
SP                 .mv                                     : Потенциал самополяризации 
VSH_FIN            .v/v                                    : Описание 
VSH_GR             .v/v                                    : Shale volume 
VSH_SP             .v/v                                    : Shale Volume 
~Ascii
# ...
997.3      0.214      501.316    1          3          3.559007   2.00786    1.615      1.183793   1.75673    0.2457213  0.2457213  0.2716645  99.65797   1760.174   1.615      0.393652   0.4422522  22.701     0.07861587 0.03067931 0.1265524 
997.4      0.214      503.906    1          3          3.54139    1.99095    1.62       1.181193   1.73459    0.2464517  0.2464517  0.2723455  102.8116   1800.005   1.62       0.3960942  0.4446167  22.691     0.07846582 0.03040027 0.1265314 
997.5      0.214      507.067    1          3          3.526508   1.99114    1.601      1.178538   1.71768    0.2471778  0.2471778  0.273041   106.045    1834.354   1.601      0.3942954  0.4428474  22.714     0.07837319 0.03016652 0.1265799 
997.6      0.214      510.473    1          3          3.515519   2.00841    1.556      1.175842   1.73495    0.2479097  0.2479097  0.273747   109.4075   1860.139   1.556      0.3877162  0.4363964  22.721     0.07829485 0.02999507 0.1265946 
997.7000000000001 0.214      513.886    1          3          3.508077   2.0086     1.49       1.173126   1.76932    0.2486375  0.2486375  0.2744582  112.8569   1877.804   1.49       0.3767289  0.4256246  22.728     0.07824448 0.02987952 0.1266094 
997.8      0.214      517.289    1          3          3.502686   2.00878    1.423      1.170432   1.80368    0.2493545  0.2493545  0.2751639  116.3615   1890.708   1.423      0.3647213  0.413844   22.735     0.07821016 0.02979608 0.1266242 
997.9      0.214      520.644    1          3          3.4972     2.00896    1.369      1.167842   1.83805    0.2500443  0.2500443  0.2758421  119.8353   1903.927   1.369      0.3546374  0.4039415  22.742     0.07817525 0.02971143 0.1266391 
998        0.214      524        1          3          3.489492   1.99206    1.339      1.165487   1.85532    0.2506841  0.2506841  0.2764589  123.1503   1922.661   1.339      0.3493419  0.3987288  22.732     0.07810538 0.02959288 0.1266179 
998.1      0.214      527.502    1          3          3.47787    1.99224    1.332      1.16353    1.8555     0.2512299  0.2512299  0.2769715  126.0509   1951.253   1.332      0.348974   0.3983501  22.721     0.07800483 0.02941504 0.1265946 
998.2000000000001 0.214      531.534    1          3          3.46143    1.97533    1.341      1.162124   1.84701    0.2516368  0.2516368  0.2773396  128.2575   1992.428   1.341      0.3519421  0.4012428  22.728     0.07788736 0.02916529 0.1266094 
998.3      0.214      536.009    1          3          3.440053   1.95842    1.354      1.16137    1.81368    0.251879   0.251879   0.2775372  129.5892   2047.269   1.354      0.3554097  0.4046121  22.752     0.07775198 0.0288437  0.1266603 
998.4      0.214      540.886    1          3          3.414303   1.94151    1.352      1.16127    1.78768    0.2519599  0.2519599  0.2775634  130.037    2115.336   1.352      0.3551428  0.404286   22.776     0.07758614 0.02846105 0.1267112 
998.5      0.214      546.466    1          3          3.385336   1.92461    1.335      1.161707   1.75368    0.251901   0.251901   0.2774489  129.7108   2194.617   1.335      0.3511702  0.4003037  22.817     0.07741769 0.02803664 0.1267987 
998.6      0.214      552.452    1          3          3.354765   1.8906     1.308      1.16246    1.71968    0.2517622  0.2517622  0.2772518  128.9452   2281.514   1.308      0.3446047  0.3937566  22.858     0.07724115 0.02759559 0.1268867 
998.7000000000001 0.214      558.852    1          3          3.32453    1.8566     1.286      1.163253   1.70277    0.2516107  0.2516107  0.277044   128.1146   2370.838   1.286      0.3390206  0.3881732  22.899     0.0770707  0.02716622 0.1269752 
998.8      0.214      565.317    1          3          3.296788   1.8226     1.289      1.163828   1.70295    0.2515157  0.2515157  0.2768936  127.5965   2455.87    1.289      0.3395257  0.388597   22.923     0.07690266 0.02677813 0.1270272 
998.9      0.214      572.231    1          3          3.273866   1.76641    1.316      1.16401    1.75439    0.2515055  0.2515055  0.2768459  127.5412   2528.424   1.316      0.3458965  0.3948315  22.964     0.07678904 0.02646166 0.1271164 
999        0.214      578.627    1          3          3.258035   1.75006    1.34       1.163766   1.75006    0.2515963  0.2515963  0.2769096  128.0358   2579.781   1.34       0.3516242  0.400447   22.988     0.07670707 0.02624528 0.1271689 
999.1      0.214      584.793    1          3          3.251259   1.7337     1.359      1.16321    1.7337     0.2517424  0.2517424  0.2770554  128.836    2602.081   1.359      0.3562194  0.4049799  23.029     0.07670604 0.0261532  0.1272589 
999.2000000000001 0.214      590.504    1          3          3.254718   1.68659    1.366      1.162563   1.79314    0.2518952  0.2518952  0.2772246  129.6784   2590.674   1.366      0.358109   0.4068678  23.053     0.07675597 0.02620016 0.1273118 
999.3      0.214      595.873    1          3          3.268366   1.66967    1.352      1.162086   1.81011    0.2519764  0.2519764  0.2773497  130.1283   2546.149   1.352      0.3551795  0.4040407  23.089     0.07688888 0.02638628 0.1273915 
999.4      0.214      600.779    1          3          3.290699   1.66986    1.324      1.161984   1.8237     0.2519435  0.2519435  0.2773764  129.946    2474.937   1.324      0.3487418  0.3977713  23.113     0.07706926 0.0266937  0.1274448 
999.5      0.214      605.467    1          3          3.318789   1.65294    1.29       1.162337   1.80678    0.2517713  0.2517713  0.2772839  128.9951   2388.188   1.29       0.3403498  0.3895914  23.154     0.07731089 0.02708546 0.1275363 
999.6      0.214      609.986    1          3          3.34875    1.65313    1.25       1.163061   1.78987    0.251503   0.251503   0.2770945  127.5274   2299.011   1.25       0.329905   0.379376   23.178     0.07754988 0.02750964 0.1275901 
999.7000000000001 0.214      614.415    1          3          3.376667   1.65331    1.219      1.163928   1.78822    0.2511944  0.2511944  0.2768673  125.8601   2218.916   1.219      0.3212362  0.3709085  23.219     0.07779665 0.02791087 0.1276824 
999.8      0.214      618.765    1          3          3.39964    1.6364     1.186      1.164639   1.77315    0.2509426  0.2509426  0.2766811  124.5154   2155.103   1.186      0.3118371  0.3616967  23.247     0.07799559 0.02824542 0.1277458 
999.9      0.214      623.003    1          3          3.416557   1.63658    1.162      1.164919   1.75623    0.2508187  0.2508187  0.2766077  123.8594   2109.29    1.162      0.3049046  0.3549044  23.272     0.07814842 0.02849434 0.1278025 
1000       0.214      627.352    1          3          3.428383   1.61967    1.151      1.164606   1.75673    0.2508696  0.2508696  0.2766898  124.1287   2077.843   1.151      0.3019187  0.3519954  23.278     0.0782429  0.02866964 0.1278162 
1000.1     0.214      631.734    1          3          3.437767   1.58607    1.157      1.163699   1.7741     0.2510813  0.2510813  0.2769272  125.2543   2053.222   1.157      0.3041311  0.3542279  23.285     0.07832081 0.02880953 0.1278321 
1000.2     0.214      636.154    1          3          3.448099   1.56957    1.178      1.162354   1.77469    0.2514119  0.2514119  0.2772795  127.0327   2026.453   1.178      0.3107704  0.3608352  23.275     0.07838683 0.02896432 0.1278093 
1000.3     0.214      640.672    1          3          3.462352   1.55307    1.215      1.160812   1.7582     0.2517903  0.2517903  0.2776833  129.0998   1990.096   1.215      0.32159    0.3715709  23.248     0.07846364 0.02917924 0.127748  
1000.4     0.214      645.241    1          3          3.482167   1.53657    1.261      1.159317   1.7246     0.2521356  0.2521356  0.2780749  131.0149   1940.634   1.261      0.3341129  0.3839981  23.239     0.07860415 0.02948066 0.1277276 
1000.5     0.214      649.911    1          3          3.507368   1.52007    1.328      1.158027   1.69101    0.2524253  0.2524253  0.2784127  132.6441   1879.496   1.328      0.3507444  0.4004498  23.196     0.07874956 0.02986854 0.1276306 
