~Version
 VERS              .         2.0                           : CWLS LOG ASCII STANDARD - VERSION 2.0
 WRAP              .         NO                            : ONE LINE PER DEPTH STEP
 DLM               .         SPACE                         : DELIMITING CHARACTER(SPACE TAB OR COMMA)
~Well Information
#_______________________________________________________________________________
#
#PARAMETER_NAME    .UNIT     VALUE                         : DESCRIPTION
#_______________________________________________________________________________
STRT               .м        961                           : First reference value
STOP               .м        1268                          : Last reference value
STEP               .м        0.1                           : Step increment
NULL               .         -9999                         : Missing value
COMP               .                                       : Company
WELL               .         1964                          : Well name
FLD                .         УЗЕНЬ                         : Field
LOC                .                                       : Location
PROV               .                                       : Province
SRVC               .         SCH                           : Service Company
DATE               .         13.01.2010                    : Date
UWI                .                                       : Unique Well ID
Block              .         3а                            : 
Category           .         Нагнетательная                : 
Condition          .         Ликвидированная               : 
CTRY               .                                       : Название страны
Date               .         30.11.1977                    : 
EREF               .m        234.6                         : 100.8
FILE               .                                       : 
Gorizont           .         14                            : 14
Interpretator      .         Алпанова Н.К.                 : 
Kupol              .         основной                      : osnovnoi
Moii_14            .         14_gor                        : 
Mud                .                                       : 
Mud_density        .                                       : 
Mud_resistivity    .                                       : 
NGDU               .         НГДУ-1                        : 
ORIGINALWELLNAME   .         1964                          : 
Spud_date          .         1977                          : 1961
TAPE               .                                       : 
Viscosity          .                                       : 
X                  .m        55520.4                       : 46154
Y                  .m        80718.53                      : 85761.93
YEAR               .         2019                          : 
~Parameter Information Block
#_______________________________________________________________________________
#
#PARAMETER_NAME    .UNIT     VALUE                         : DESCRIPTION
#_______________________________________________________________________________
SET                .         LQC_KAZNIPI_Petrel            : 
PBBOTTOM           .м        1268                          : Глубина подошвы планшета
PBSCALE            .         1 _ 500                       : Вертикальный масштаб планшета
PBTOP              .м        961                           : Глубина кровли планшета
TLFamily_CALI      .         Caliper                       : 
TLFamily_CILD      .         Conductivity                  : 
TLFamily_COLL      .         Net Reservoir Flag            : 
TLFamily_CSAT      .         Fluid Code                    : 
TLFamily_DEPT      .         Measured Depth                : 
TLFamily_GR        .         Russian Gamma Ray             : 
TLFamily_GZ3       .         Gradient 225                  : 
TLFamily_LLS       .         Lateral Log Resistivity       : 
TLFamily_NGLD      .         Neutron Gamma                 : 
TLFamily_OGZ       .         Gradient Inverted 225         : 
TLFamily_PHIE      .         Effective Porosity            : 
TLFamily_PHIEN     .         Effective Porosity            : 
TLFamily_PHIT      .         Porosity                      : 
TLFamily_PRMB      .         Permeability                  : 
TLFamily_PRMB_DGR  .         Permeability                  : 
TLFamily_RT        .         Formation Resistivity         : 
TLFamily_SOIL_ARCHIE .         Oil Saturation                : 
TLFamily_SOIL_DW   .         Oil Saturation                : 
TLFamily_SP        .         Spontaneous Potential         : 
TLFamily_VSH_FIN   .         Shale Volume                  : 
TLFamily_VSH_GR    .         Shale Volume                  : 
TLFamily_VSH_SP    .         Shale Volume                  : 
~Curve Information
#_______________________________________________________________________________
#
#LOGNAME           .UNIT     LOG_ID                        : DESCRIPTION
#_______________________________________________________________________________
DEPT               .м                                      : Колонка глубины 
CALI               .м                                      : Каверномер 
CILD               .мСм/м                                  : Индукционный каротаж 
COLL               .unitless                               : Описание 
CSAT               .unitless                               : Описание 
GR                 .мкР/ч                                  : Гамма каротаж 
GZ3                .Ом·м                                   : 2  GZ3 
LLS                .Ом·м                                   : Боковой каротаж 
NGLD               .у.е.                                   : Показания зонда НГК-60 аппаратуры ДРСТ-3-90 
OGZ                .Ом·м                                   : 3  OGZ3 
PHIE               .v/v                                    : Описание 
PHIEN              .v/v                                    :  
PHIT               .v/v                                    : Описание 
PRMB               .mD                                     :  
PRMB_DGR           .mD                                     :  
RT                 .ohmm                                   : Description 
SOIL_ARCHIE        .v/v                                    :  
SOIL_DW            .v/v                                    :  
SP                 .mv                                     : Потенциал самополяризации 
VSH_FIN            .v/v                                    : Описание 
VSH_GR             .v/v                                    : Shale volume 
VSH_SP             .v/v                                    : Shale Volume 
~Ascii
# ...
1146.8     0.214      167.613    1          2          6.373656   5.28746    5.863      1.034146   6.9997     0.2266558  0.2266558  0.3108571  44.1951    12.91383   5.863      0.6447709  0.7198343  33.134     0.2551553  0.2282618  0.2820487 
1146.9     0.214      162.075    1          2          6.403238   5.17235    5.948      1.034001   6.77926    0.2263438  0.2263438  0.3108951  43.61088   12.31814   5.948      0.6467385  0.7217045  33.004     0.2562158  0.2327064  0.2797253 
1147       0.214      159.404    1          2          6.440442   5.02409    5.813      1.034379   6.507861   0.2256214  0.2256214  0.3107963  42.28768   11.60782   5.813      0.6419165  0.7180659  32.898     0.2581056  0.2384191  0.2777922 
1147.1     0.214      159.101    1          2          6.477586   4.75324    5.581      1.035286   6.302441   0.2246506  0.2246506  0.3105586  40.57253   10.93949   5.581      0.6336334  0.7116222  32.826     0.2603274  0.2442626  0.2763923 
1147.2     0.214      159.994    1          2          6.507304   4.51368    5.349      1.036615   6.18099    0.223786   0.223786   0.3102105  39.10376   10.4326    5.349      0.6250035  0.7047704  32.737     0.2618923  0.2490408  0.2747438 
1147.3     0.214      161.175    1          2          6.524189   4.39706    5.027      1.038185   6.09269    0.2231826  0.2231826  0.3097993  38.11028   10.15513   5.027      0.6130084  0.6948842  32.651     0.2624748  0.2517972  0.2731524 
1147.4     0.214      161.5      1          2          6.525804   4.50229    4.575      1.039804   6.1066     0.2229535  0.2229535  0.3093753  37.73962   10.12899   4.575      0.5951526  0.6797738  32.574     0.2618843  0.2520623  0.2717063 
1147.5     0.214      161.474    1          2          6.513056   4.63971    4.105      1.041316   6.29232    0.2231681  0.2231681  0.3089794  38.0867    10.33724   4.105      0.5743827  0.6618192  32.485     0.2600342  0.2499764  0.2700921 
1147.6     0.214      161.127    1          2          6.489727   4.87002    3.675      1.042637   6.582241   0.2237937  0.2237937  0.3086333  39.11648   10.7295    3.675      0.5527901  0.642761   32.361     0.2570898  0.2462035  0.2679761 
1147.7     0.214      159.756    1          2          6.461546   5.086699   3.246      1.043755   6.89234    0.2246267  0.2246267  0.3083405  40.53127   11.22323   3.246      0.5274982  0.62026    32.22      0.2536781  0.2417219  0.2656342 
1147.8     0.214      157.89     1          2          6.434951   5.344581   3.085      1.044702   7.08476    0.2254512  0.2254512  0.3080925  41.98182   11.71001   3.085      0.5176245  0.6108851  32.077     0.2504283  0.2375673  0.2632892 
1147.9     0.214      154.968    1          2          6.415719   5.60797    3.189      1.04552    7.35812    0.2259674  0.2259674  0.3078783  42.91637   12.07512   3.189      0.5260167  0.6174899  31.994     0.248215   0.2346075  0.2618225 
1148       0.214      150.353    1          2          6.407801   5.855309   3.405      1.046216   7.52987    0.2259906  0.2259906  0.3076959  42.95874   12.22872   3.405      0.5404128  0.6297085  32.011     0.247592   0.2333996  0.2617844 
1148.1     0.214      144.89     1          2          6.412687   6.11351    3.675      1.046742   7.6853     0.2256989  0.2256989  0.3075584  42.42763   12.13371   3.675      0.5560797  0.6432862  32.044     0.2480591  0.2341442  0.261974  
1148.2     0.214      139.769    1          2          6.429211   6.32871    3.979      1.046983   7.82247    0.2251835  0.2251835  0.3074951  41.50531   11.81781   3.979      0.5714789  0.656817   32.078     0.249429   0.23668    0.2621781 
1148.3     0.214      135.836    1          2          6.453847   6.500259   4.244      1.046796   7.89178    0.2246467  0.2246467  0.3075442  40.56577   11.36203   4.244      0.5833849  0.667406   32.078     0.2512047  0.2405117  0.2618977 
1148.4     0.214      134.29     1          2          6.481502   6.55579    4.44       1.046047   7.80859    0.2241998  0.2241998  0.3077402  39.79993   10.87132   4.44       0.5914106  0.6746828  32.064     0.2531528  0.2448869  0.2614187 
1148.5     0.214      135.128    1          2          6.506499   6.487329   4.714      1.044676   7.604459   0.2239013  0.2239013  0.3080992  39.29638   10.44601   4.714      0.6022711  0.6843201  32.081     0.2551454  0.2489102  0.2613806 
1148.6     0.214      137.5      1          2          6.523593   6.326291   4.876      1.04274    7.26692    0.2239944  0.2239944  0.3086065  39.45278   10.1648    4.876      0.6086694  0.6899608  32.081     0.2564003  0.2516993  0.2611013 
1148.7     0.214      141.887    1          2          6.528928   6.127851   4.826      1.040423   7.056311   0.2245421  0.2245421  0.3092132  40.38525   10.07859   4.826      0.6076075  0.6890319  32.064     0.256579   0.2525762  0.2605817 
1148.8     0.214      147.364    1          2          6.520463   5.92865    4.651      1.038018   6.825891   0.22541    0.22541    0.3098432  41.90814   10.21573   4.651      0.6020863  0.6841183  32.08      0.255858   0.2511863  0.2605297 
1148.9     0.214      149.919    1          2          6.498214   5.82635    4.44       1.035853   6.54248    0.2265077  0.2265077  0.3104102  43.91674   10.58511   4.44       0.5950389  0.6776951  32.128     0.25425    0.2475694  0.2609306 
1149       0.214      152.466    1          2          6.463946   5.75106    4.054      1.034209   6.18079    0.2277672  0.2277672  0.3108406  46.34034   11.18031   4.054      0.5794173  0.6637474  32.179     0.2517377  0.2421004  0.261375  
1149.1     0.214      156.586    1          2          6.420647   5.80978    3.713      1.033241   5.80978    0.2289791  0.2289791  0.3110942  48.79853   11.98049   3.713      0.5637347  0.649586   32.264     0.2488335  0.2353624  0.2623047 
1149.2     0.214      159.515    1          2          6.371664   5.81225    3.586      1.032927   5.60363    0.2300021  0.2300021  0.3111764  50.97481   12.95496   3.586      0.5582696  0.6441495  32.402     0.2459826  0.2279657  0.2639996 
1149.3     0.214      160.644    1          2          6.320125   5.83687    3.614      1.03307    5.408549   0.2308489  0.2308489  0.311139   52.84945   14.06596   3.614      0.5612854  0.6460468  32.572     0.2433033  0.2204338  0.2661729 
1149.4     0.214      159.961    1          2          6.268425   5.8198     3.726      1.033349   5.2726     0.2315341  0.2315341  0.311066   54.41665   15.2762    3.726      0.5686388  0.6517887  32.777     0.2410057  0.2131284  0.268883  
1149.5     0.214      158.462    1          2          6.218358   5.802721   3.867      1.033404   5.16125    0.2320284  0.2320284  0.3110515  55.57591   16.54733   3.867      0.5768789  0.6584897  33.05      0.239464   0.2062847  0.2726433 
1149.6     0.214      156.753    1          2          6.171373   5.77679    4.025      1.032935   5.08331    0.232426   0.232426   0.3111744  56.52654   17.83628   4.025      0.5853748  0.6655753  33.371     0.2386313  0.2000622  0.2772004 
1149.7     0.214      155.386    1          2          6.129197   5.81158    4.176      1.031772   5.0491     0.2328045  0.2328045  0.3114789  57.44623   19.07859   4.176      0.593056   0.6720867  33.713     0.2384072  0.1946366  0.2821778 
1149.8     0.214      154.315    1          2          6.094028   5.93162    4.34       1.029927   5.01489    0.2332239  0.2332239  0.311962   58.48301   20.18038   4.34       0.6009719  0.6788735  34.037     0.2386004  0.1902252  0.2869756 
1149.9     0.214      153.354    1          2          6.068362   6.085989   4.416      1.02759    5.01494    0.2335947  0.2335947  0.3125741  59.41542   21.02445   4.416      0.6047567  0.6822232  34.344     0.2393315  0.1870689  0.2915941 
1150       0.214      151.538    1          2          6.054348   6.18061    4.452      1.025083   5.04924    0.2339407  0.2339407  0.3132308  60.2986    21.50013   4.452      0.6067669  0.6840928  34.583     0.2402729  0.1853677  0.2951781 
1150.1     0.214      148.697    1          2          6.053111   6.59445    4.541      1.022804   5.08351    0.2340476  0.2340476  0.3138275  60.57422   21.54264   4.541      0.6105576  0.6876107  34.791     0.2417572  0.1852182  0.2982962 
