~Version
 VERS              .         2.0                           : CWLS LOG ASCII STANDARD - VERSION 2.0
 WRAP              .         NO                            : ONE LINE PER DEPTH STEP
 DLM               .         SPACE                         : DELIMITING CHARACTER(SPACE TAB OR COMMA)
~Well Information
#_______________________________________________________________________________
#
#PARAMETER_NAME    .UNIT     VALUE                         : DESCRIPTION
#_______________________________________________________________________________
STRT               .м        961                           : First reference value
STOP               .м        1268                          : Last reference value
STEP               .м        0.1                           : Step increment
NULL               .         -9999                         : Missing value
COMP               .                                       : Company
WELL               .         1964                          : Well name
FLD                .         УЗЕНЬ                         : Field
LOC                .                                       : Location
PROV               .                                       : Province
SRVC               .         SCH                           : Service Company
DATE               .         13.01.2010                    : Date
UWI                .                                       : Unique Well ID
Block              .         3а                            : 
Category           .         Нагнетательная                : 
Condition          .         Ликвидированная               : 
CTRY               .                                       : Название страны
Date               .         30.11.1977                    : 
EREF               .m        234.6                         : 100.8
FILE               .                                       : 
Gorizont           .         14                            : 14
Interpretator      .         Алпанова Н.К.                 : 
Kupol              .         основной                      : osnovnoi
Moii_14            .         14_gor                        : 
Mud                .                                       : 
Mud_density        .                                       : 
Mud_resistivity    .                                       : 
NGDU               .         НГДУ-1                        : 
ORIGINALWELLNAME   .         1964                          : 
Spud_date          .         1977                          : 1961
TAPE               .                                       : 
Viscosity          .                                       : 
X                  .m        55520.4                       : 46154
Y                  .m        80718.53                      : 85761.93
YEAR               .         2019                          : 
~Parameter Information Block
#_______________________________________________________________________________
#
#PARAMETER_NAME    .UNIT     VALUE                         : DESCRIPTION
#_______________________________________________________________________________
SET                .         LQC_KAZNIPI_Petrel            : 
PBBOTTOM           .м        1268                          : Глубина подошвы планшета
PBSCALE            .         1 _ 500                       : Вертикальный масштаб планшета
PBTOP              .м        961                           : Глубина кровли планшета
TLFamily_CALI      .         Caliper                       : 
TLFamily_CILD      .         Conductivity                  : 
TLFamily_COLL      .         Net Reservoir Flag            : 
TLFamily_CSAT      .         Fluid Code                    : 
TLFamily_DEPT      .         Measured Depth                : 
TLFamily_GR        .         Russian Gamma Ray             : 
TLFamily_GZ3       .         Gradient 225                  : 
TLFamily_LLS       .         Lateral Log Resistivity       : 
TLFamily_NGLD      .         Neutron Gamma                 : 
TLFamily_OGZ       .         Gradient Inverted 225         : 
TLFamily_PHIE      .         Effective Porosity            : 
TLFamily_PHIEN     .         Effective Porosity            : 
TLFamily_PHIT      .         Porosity                      : 
TLFamily_PRMB      .         Permeability                  : 
TLFamily_PRMB_DGR  .         Permeability                  : 
TLFamily_RT        .         Formation Resistivity         : 
TLFamily_SOIL_ARCHIE .         Oil Saturation                : 
TLFamily_SOIL_DW   .         Oil Saturation                : 
TLFamily_SP        .         Spontaneous Potential         : 
TLFamily_VSH_FIN   .         Shale Volume                  : 
TLFamily_VSH_GR    .         Shale Volume                  : 
TLFamily_VSH_SP    .         Shale Volume                  : 
~Curve Information
#_______________________________________________________________________________
#
#LOGNAME           .UNIT     LOG_ID                        : DESCRIPTION
#_______________________________________________________________________________
DEPT               .м                                      : Колонка глубины 
CALI               .м                                      : Каверномер 
CILD               .мСм/м                                  : Индукционный каротаж 
COLL               .unitless                               : Описание 
CSAT               .unitless                               : Описание 
GR                 .мкР/ч                                  : Гамма каротаж 
GZ3                .Ом·м                                   : 2  GZ3 
LLS                .Ом·м                                   : Боковой каротаж 
NGLD               .у.е.                                   : Показания зонда НГК-60 аппаратуры ДРСТ-3-90 
OGZ                .Ом·м                                   : 3  OGZ3 
PHIE               .v/v                                    : Описание 
PHIEN              .v/v                                    :  
PHIT               .v/v                                    : Описание 
PRMB               .mD                                     :  
PRMB_DGR           .mD                                     :  
RT                 .ohmm                                   : Description 
SOIL_ARCHIE        .v/v                                    :  
SOIL_DW            .v/v                                    :  
SP                 .mv                                     : Потенциал самополяризации 
VSH_FIN            .v/v                                    : Описание 
VSH_GR             .v/v                                    : Shale volume 
VSH_SP             .v/v                                    : Shale Volume 
~Ascii
# ...
980.8      0.211      309.06     1          3          -9999      2.89951    3.372      -9999      3.24097    -9999      -9999      -9999      -9999      -9999      3.372      -9999      -9999      24.227     -4999.435  -9999      0.1301168 
980.9      0.211      299.712    1          3          4.608837   2.95092    3.474      -9999      3.22409    -9999      -9999      -9999      -9999      -9999      3.474      -9999      -9999      24.475     0.09182522 0.0528837  0.1307667 
981        0.211      290.537    1          3          4.644274   2.99052    3.523      -9999      3.16648    -9999      -9999      -9999      -9999      -9999      3.523      -9999      -9999      24.475     0.09231573 0.0538647  0.1307667 
981.1      0.211      281.839    1          3          4.666849   3.05374    3.495      -9999      3.05374    -9999      -9999      -9999      -9999      -9999      3.495      -9999      -9999      24.723     0.09296854 0.05449907 0.131438  
981.2000000000001 0.211      273.81     1          3          4.67914    3.12222    3.372      -9999      2.9474     -9999      -9999      -9999      -9999      -9999      3.372      -9999      -9999      24.723     0.09314281 0.05484762 0.131438  
981.3      0.211      267.036    1          3          4.67874    3.19623    3.127      -9999      2.84068    -9999      -9999      -9999      -9999      -9999      3.127      -9999      -9999      24.767     0.0931978  0.05483624 0.1315594 
981.4      0.211      261.787    1          3          4.66443    3.3164     2.814      -9999      2.72676    -9999      -9999      -9999      -9999      -9999      2.814      -9999      -9999      24.774     0.09300474 0.05443074 0.1315787 
981.5      0.211      258.537    1          3          4.636094   3.44313    2.458      -9999      2.59336    -9999      -9999      -9999      -9999      -9999      2.458      -9999      -9999      24.764     0.09259385 0.05363663 0.1315511 
981.6      0.211      257.949    1          3          4.594615   3.59117    2.264      1.279195   2.49325    0.2163163  0.2163163  0.2466789  28.43547   472.3627   2.264      0.4217848  0.4742963  24.753     0.09200785 0.05249504 0.1315207 
981.7000000000001 0.211      259.987    1          3          4.541706   3.71914    2.144      1.272647   2.35969    0.2182702  0.2182702  0.2483938  30.90663   505.1986   2.144      0.411445   0.4639868  24.743     0.09128357 0.05107407 0.1314931 
981.8      0.211      264.468    1          3          4.479672   3.84873    2.084      1.265501   2.20539    0.2204209  0.2204209  0.2502654  33.87564   546.6155   2.084      0.408625   0.4609207  24.716     0.09043785 0.04945695 0.1314188 
981.9      0.211      271.277    1          3          4.411168   3.89189    2.025      1.25958    2.10429    0.2222762  0.2222762  0.251816   36.66509   596.3093   2.025      0.404961   0.457003   24.672     0.08951438 0.04773057 0.1312982 
982        0.211      279.82     1          3          4.338917   3.86748    2.03       1.254815   2.01392    0.2238351  0.2238351  0.253064   39.1856    653.6237   2.03       0.4092559  0.4608179  24.625     0.0885726  0.04597502 0.1311702 
982.1      0.211      289.581    1          3          4.265413   3.82399    1.875      1.251133   1.97995    0.2251104  0.2251104  0.2540284  41.37602   717.5887   1.875      0.3898488  0.4415524  24.564     0.08763021 0.04425526 0.1310052 
982.2000000000001 0.211      300.476    1          3          4.192584   3.79003    1.848      1.248515   2.00708    0.2261021  0.2261021  0.254714   43.16367   787.1382   1.848      0.3880291  0.4394095  24.484     0.08670275 0.04261475 0.1307907 
982.3      0.211      312.238    1          3          4.121753   3.81316    2.067      1.247005   2.07565    0.2267857  0.2267857  0.2551094  44.44053   861.2393   2.067      0.4208851  0.4710917  24.405     0.08582939 0.04107761 0.1305812 
982.4      0.211      324.122    1          3          4.053461   3.8758     2.376      1.246665   2.16832    0.2271447  0.2271447  0.2551983  45.12629   939.2828   2.376      0.4582822  0.5071135  24.326     0.08501092 0.03964809 0.1303737 
982.5      0.211      335.442    1          3          3.987474   3.84836    2.657      1.247492   2.20266    0.2271883  0.2271883  0.2549819  45.21016   1021.402   2.657      0.4860508  0.533717   24.233     0.08422319 0.03831411 0.1301323 
982.6      0.211      345.664    1          3          3.923015   3.69802    2.779      1.249343   2.18577    0.2269448  0.2269448  0.2544971  44.74311   1108.55    2.779      0.4962947  0.5433607  24.154     0.08349189 0.03705434 0.1299294 
982.7000000000001 0.211      355.098    1          3          3.859193   3.44807    2.728      1.251893   2.16       0.2265012  0.2265012  0.2538293  43.90466   1202.158   2.728      0.4910309  0.5380321  24.094     0.08281232 0.03584785 0.1297768 
982.8      0.211      364.458    1          3          3.795386   3.27922    2.536      1.254644   2.17765    0.2259919  0.2259919  0.2531086  42.96115   1303.647   2.536      0.4722645  0.5196208  24.049     0.082172   0.03468091 0.1296631 
982.9      0.212      373.333    1          3          3.731879   3.12553    2.209      1.257      2.27237    0.2255719  0.2255719  0.2524917  42.19857   1413.166   2.209      0.4360329  0.4841625  24.021     0.08157492 0.03355717 0.1295927 
983        0.212      380.459    1          3          3.67023    3.27821    1.947      1.25837    2.41801    0.2253982  0.2253982  0.2521329  41.887     1528.273   1.947      0.4012095  0.449922   23.995     0.08101434 0.03250115 0.1295275 
983.1      0.212      385.825    1          3          3.613286   3.51938    1.729      1.258286   2.5726     0.2255878  0.2255878  0.2521549  42.22712   1642.908   1.729      0.3673592  0.4165122  23.967     0.08050645 0.03155528 0.1294576 
983.2000000000001 0.212      387.793    1          3          3.564577   3.76108    1.572      1.256491   2.71       0.2261989  0.2261989  0.252625   43.34209   1747.765   1.572      0.3400144  0.3894272  23.94      0.08007926 0.03076807 0.1293904 
983.3      0.212      388.104    1          3          3.527444   3.89686    1.518      1.252995   2.78471    0.2272277  0.2272277  0.2535407  45.28631   1832.174   1.518      0.3317458  0.3811499  23.9       0.07973627 0.03018117 0.1292914 
983.4      0.212      388.076    1          3          3.504004   3.9802     1.556      1.248083   2.62785    0.2285922  0.2285922  0.2548271  47.9998    1887.544   1.556      0.3428896  0.3920799  23.856     0.07949972 0.02981646 0.129183  
983.5      0.212      389.88     1          3          3.49444    3.79086    1.613      1.242274   2.4118     0.2301608  0.2301608  0.2563484  51.32103   1910.616   1.613      0.3577274  0.4066866  23.799     0.07935621 0.02966892 0.1290435 
983.6      0.212      395.671    1          3          3.49684    3.57521    1.771      1.236246   2.2446     0.2317579  0.2317579  0.2579271  54.93857   1904.799   1.771      0.3889749  0.4374238  23.738     0.07930063 0.02970588 0.1288954 
983.7000000000001 0.211      406.944    1          3          3.507894   3.16393    1.994      1.230744   2.06052    0.2331954  0.2331954  0.2593682  58.41206   1878.241   1.994      0.4251558  0.472898   23.676     0.07931138 0.02987668 0.1287461 
983.8      0.211      421.155    1          3          3.523845   2.71101    2.14       1.226461   1.8765     0.234295   0.234295   0.2604898  61.21672   1840.568   2.14       0.4461787  0.4934715  23.628     0.0793781  0.03012489 0.1286313 
983.9      0.211      436.679    1          3          3.541377   2.4159     2.167      1.223936   1.76126    0.2349285  0.2349285  0.261151   62.89327   1800.036   2.167      0.4507209  0.497947   23.583     0.07946222 0.03040005 0.1285244 
984        0.211      452.994    1          3          3.558102   2.21135    2.177      1.223459   1.76178    0.2350162  0.2350162  0.2612762  63.1289    1762.198   2.177      0.4520844  0.4993186  23.567     0.07957571 0.03066492 0.1284865 
