~Version
 VERS              .         2.0                           : CWLS LOG ASCII STANDARD - VERSION 2.0
 WRAP              .         NO                            : ONE LINE PER DEPTH STEP
 DLM               .         SPACE                         : DELIMITING CHARACTER(SPACE TAB OR COMMA)
~Well Information
#_______________________________________________________________________________
#
#PARAMETER_NAME    .UNIT     VALUE                         : DESCRIPTION
#_______________________________________________________________________________
STRT               .M        960                           : First reference value
STOP               .M        1410                          : Last reference value
STEP               .M        0.2                           : Step increment
NULL               .         -9999                         : Missing value
COMP               .                                       : Company
WELL               .         4123                          : Well name
FLD                .         Узень                         : Field
LOC                .                                       : Location
CNTY               .                                       : County
STAT               .                                       : State
CTRY               .         Казахстан                     : Country
SRVC               .                                       : Service Company
DATE               .         21.07.1982                    : Date
UWI                .                                       : Unique Well ID
Block              .         3а                            : 
Cartographic_reference_system .         GCS_WGS_1984                  : ESRI,PE_10_3_1- <?xml version="1.0" encoding="utf-16"?><ILateBoundCoordinateReferenceSystem name="GCS_WGS_1984"><AuthorityCode>EPSG,4326</AuthorityCode></ILateBoundCoordinateReferenceSystem>
Category           .         Нефтяная                      : 
Condition          .         В работе                      : 
Date               .         21.07.1982                    : 
EREF               .m        234.2                         : 100.8
Gorizont           .         18                            : 14
HZCS               .GCS_WGS_1984 WGS_1984_EASE-Grid_2.0_Global : ESRI,PE_10_3_1- <?xml version="1.0" encoding="utf-16"?><ILateBoundCoordinateReferenceSystem name="WGS_1984_EASE-Grid_2.0_Global"><AuthorityCode>EPSG,6933</AuthorityCode></ILateBoundCoordinateReferenceSystem>
Interpretator      .         Картбаева Г.Е.                : 
Kupol              .         Основной                      : osnovnoi
LATI               .dega     0.6341814074                  : GCS_WGS_1984
LONG               .dega     0.5748008925                  : GCS_WGS_1984
Mud                .         0                             : 
Mud_density        .         0                             : 
Mud_resistivity    .         0                             : 
My_wells           .         18                            : 
NGDU               .         НГДУ-1                        : 
ORIGINALWELLNAME   .         4123                          : 
Spud_date          .         1982                          : 1961
Viscosity          .         0                             : 
X                  .m        55460.4                       : 46154
Y                  .m        80903                         : 85761.93
YEAR               .         2018                          : 
~Parameter Information Block
#_______________________________________________________________________________
#
#PARAMETER_NAME    .UNIT     VALUE                         : DESCRIPTION
#_______________________________________________________________________________
SET                .         LQC_KAZNIPI_Petrel            : 
TLFamily_CALI      .         Caliper                       : 
TLFamily_CILD      .         Conductivity                  : 
TLFamily_COLL      .         Net Reservoir Flag            : 
TLFamily_CSAT      .         Fluid Code                    : 
TLFamily_DEPT      .         Measured Depth                : 
TLFamily_GR        .         Russian Gamma Ray             : 
TLFamily_GZ3       .         Gradient 225                  : 
TLFamily_LLS       .         Lateral Log Resistivity       : 
TLFamily_MINV      .         Micro Gradient Resistivity    : 
TLFamily_MNOR      .         Micro Resistivity             : 
TLFamily_NGLD      .         Neutron Far                   : 
TLFamily_OGZ       .         Gradient Inverted 225         : 
TLFamily_PHIE      .         Effective Porosity            : 
TLFamily_PHIEN     .         Effective Porosity            : 
TLFamily_PHIT      .         Porosity                      : 
TLFamily_PRMB      .         Permeability                  : 
TLFamily_PRMB_DGR  .         Permeability                  : 
TLFamily_RT        .         Formation Resistivity         : 
TLFamily_SOIL_ARCHIE .         Oil Saturation                : 
TLFamily_SOIL_DW   .         Oil Saturation                : 
TLFamily_SP        .         Spontaneous Potential         : 
TLFamily_VSH_FIN   .         Shale Volume                  : 
TLFamily_VSH_GR    .         Shale Volume                  : 
TLFamily_VSH_SP    .         Shale Volume                  : 
~Curve Information
#_______________________________________________________________________________
#
#LOGNAME           .UNIT     LOG_ID                        : DESCRIPTION
#_______________________________________________________________________________
DEPT               .M                                      : Колонка глубины 
CALI               .м                                      : Каверномер 
CILD               .мСм/м                                  : Индукционный каротаж 
COLL               .unitless                               : Описание 
CSAT               .unitless                               : Описание 
GR                 .uR/h                                   : Гамма каротаж 
GZ3                .Ohmm                                   : Градиент-зонд  длиной 2.25м 
LLS                .Ohmm                                   : Боковой каротаж 
MINV               .Ohmm                                   : Микро-градиент зонд 
MNOR               .Ohmm                                   : Микро-потенциал зонд 
NGLD               .у.е.                                   : Показания зонда НГК-60 аппаратуры ДРСТ-3-90 
OGZ                .Ohmm                                   : Обращенный градиент-зонд 
PHIE               .v/v                                    : Описание 
PHIEN              .v/v                                    :  
PHIT               .v/v                                    : Описание 
PRMB               .mD                                     :  
PRMB_DGR           .mD                                     :  
RT                 .ohmm                                   : УЭС пласта 
SOIL_ARCHIE        .v/v                                    :  
SOIL_DW            .v/v                                    :  
SP                 .мВ                                     : Потенциал самополяризации 
VSH_FIN            .v/v                                    : Описание 
VSH_GR             .v/v                                    : Shale volume 
VSH_SP             .v/v                                    : Shale Volume 
~Ascii
# ...
1319.6     0.218      291.339    1          2          8.880061   5.974      3.312      1.134      1.44       1.238      9.423      0.2354598  0.2354598  0.28955    64.33456   29.05951   3.432      0.5833952  0.6465842  27.804     0.1639097  0.1639097  0.190179  
1319.8     0.216      293.646    1          2          8.765261   5.771      3.138      1.068      1.336      1.238      9.683      0.2404569  0.2404569  0.28955    79.61646   36.84561   3.405      0.589427   0.6483865  27.722     0.148767   0.148767   0.1890253 
1320       0.218      291.869    1          2          8.669258   5.609      3.068      0.977      1.466      1.205      9.818      0.2533544  0.2533544  0.298625   138.0056   44.93676   3.426      0.6088221  0.6632496  27.468     0.1371835  0.1371835  0.1855342 
1320.2     0.218      270.198    1          2          8.579849   5.366      3.18       1.218      1.544      1.223      9.779      0.2516963  0.2516963  0.293675   128.5831   54.06249   3.701      0.6205778  0.6719877  27.24      0.1272081  0.1272081  0.1825053 
1320.4     0.218      257.191    1          2          8.480667   5.176      3.525      1.303      1.59       1.22       9.854      0.2558937  0.2558937  0.2945     153.7908   66.36932   3.888      0.6345556  0.6827676  26.961     0.1169888  0.1169888  0.178931  
1320.6     0.218      222.067    1          2          8.379087   5.175      4.13       1.252      1.576      1.229      9.914      0.256592   0.256592   0.292025   158.4399   81.88262   4.503      0.6596993  0.7041678  26.45      0.1073728  0.1073728  0.1727512 
1320.8     0.218      196.772    1          2          8.305054   5.45       4.973      1.186      1.557      1.227      10.462     0.2592892  0.2592892  0.292575   177.7553   95.42856   5.082      0.6813925  0.7230893  26.368     0.1008662  0.1008662  0.1718026 
1321       0.218      175.83     1          2          8.288056   5.994      6.232      1.303      1.622      1.257      10.773     0.2515135  0.2515135  0.284325   127.5845   98.84232   5.687      0.6896513  0.7304207  26.84      0.09942885 0.09942885 0.1774253 
1321.2     0.219      152.265    1          2          8.330654   6.437      6.912      1.081      1.498      1.259      11.142     0.2497618  0.2497618  0.283775   118.4004   90.50814   6.567      0.7081417  0.7480923  27.435     0.1030703  0.1030703  0.1850897 
1321.4     0.218      146.231    1          2          8.395267   6.941      7.295      0.99       1.485      1.295      13.194     0.2379546  0.2379546  0.273875   71.55736   79.18831   6.838      0.7012907  0.7427691  27.859     0.1088498  0.1088498  0.1909602 
1321.6     0.218      144.378    1          2          8.428176   7.356      8.076      0.971      1.446      1.314      13.686     0.2317175  0.2317175  0.26865    54.84379   73.97882   6.926      0.6961289  0.7386097  28.099     0.1119168  0.1119168  0.1944391 
1321.8     0.218      145.219    1          2          8.397492   7.89       9.883      0.936      1.416      1.353      14.572     0.221937   0.221937   0.257925   36.13849   78.82481   6.886      0.6836398  0.7266681  28.406     0.1090545  0.1090545  0.1990575 
1322       0.218      141.16     6          6          8.311599   9.62       11.819     0.893      1.381      1.413      15.969     0.2079547  0.2079547  0.241425   19.90599   94.14569   7.084      0.6696163  0.7122269  28.878     0.1014251  0.1014251  0.2065366 
1322.2     0.218      137.32     6          6          8.204377   10.321     9.511      0.801      1.59       1.448      16.812     0.2012268  0.2012268  0.2318     14.94057   117.5146   7.282      0.6643859  0.7053803  28.891     0.09264601 0.09264601 0.2067492 
1322.4     0.219      137.761    6          6          8.102482   11.442     6.968      1.896      2.13       1.484      18.5       0.1938473  0.1938473  0.2219     10.90637   145.0773   7.259      0.6527702  0.6925902  28.971     0.08500823 0.08500823 0.2080655 
1322.6     0.22       159.201    6          6          8.014962   13.073     5.53       1.844      2.554      1.505      19.153     0.1900706  0.1900706  0.216125   9.283826   173.859    6.281      0.6219481  0.6616793  29.318     0.07895268 0.07895268 0.2139342 
1322.8     0.22       164.343    6          6          7.955782   14.468     6.829      1.704      2.215      1.515      19.747     0.1885906  0.1885906  0.213375   8.715915   196.4919   6.085      0.6136604  0.6525995  29.609     0.07510435 0.07510435 0.2190587 
1323       0.22       182.677    6          6          7.951322   17.075     13.676     1.166      1.726      1.55       19.838     0.1790587  0.1790587  0.20375    5.804441   198.3126   5.474      0.5752315  0.6154668  29.329     0.07482202 0.07482202 0.2141245 
1323.2     0.221      196.266    6          6          8.007807   18.052     13.14      1.257      2.013      1.585      19.286     0.1682275  0.1682275  0.194125   3.657128   176.4507   5.095      0.5361513  0.5791028  28.776     0.07847711 0.07847711 0.2048809 
1323.4     0.22       212.602    6          6          8.095962   20.633     12.428     0.945      1.648      1.618      18.026     0.1571513  0.1571513  0.18505    2.280244   147.0466   4.704      0.4890118  0.5364246  28.565     0.0845415  0.0845415  0.2015252 
1323.6     0.22       233.779    6          6          8.179416   21.318     17.313     1.238      1.837      1.65       15.604     0.1463145  0.1463145  0.17625    1.436339   123.7396   4.278      0.4314309  0.4845752  28.451     0.09071376 0.09071376 0.1997506 
1323.8     0.22       250.292    6          6          8.239319   20.541     3.844      1.655      2.261      1.518      13.751     0.1810614  0.1810614  0.21255    6.321988   109.3231   3.995      0.51232    0.5626345  28.144     0.09542014 0.09542014 0.1951041 
1324       0.219      256.355    1          2          8.274493   17.493     3.554      0.853      2.697      1.437      12.623     0.2023871  0.2023871  0.234825   15.6985    101.6537   3.901      0.5524198  0.6014067  27.633     0.09829666 0.09829666 0.1877879 
1324.2     0.219      259.805    1          2          8.29859    15.301     3.588      1.075      1.459      1.351      11.977     0.2253704  0.2253704  0.258475   41.83733   96.71268   3.849      0.5898714  0.6372734  27.358     0.1003171  0.1003171  0.1840606 
1324.4     0.22       258.03     1          2          8.323274   13.133     3.713      0.984      1.349      1.279      13.9       0.2444731  0.2444731  0.278275   94.49162   91.90004   3.876      0.619179   0.665359   27.298     0.1024299  0.1024299  0.1832665 
1324.6     0.22       251.478    1          2          8.329759   11.321     4.269      1.075      1.459      1.284      14.441     0.2429125  0.2429125  0.2769     88.40711   90.67589   3.976      0.6215993  0.6677436  27.302     0.1029923  0.1029923  0.1833193 
1324.8     0.22       239.68     1          2          8.289191   10.711     4.465      1.14       1.557      1.273      13.116     0.247082   0.247082   0.279925   105.6128   98.61063   4.172      0.6354913  0.680006   27.134     0.09952419 0.09952419 0.1811304 
1325       0.22       215.4      1          2          8.21617    10.109     4.935      0.847      1.362      1.269      11.804     0.2501459  0.2501459  0.281025   120.3556   114.6835   4.643      0.6570371  0.6989622  26.881     0.09357317 0.09357317 0.1779325 
1325.2     0.22       176.756    1          2          8.174959   9.852      5.158      0.625      1.042      1.247      10.684     0.2572519  0.2572519  0.287075   162.9623   124.8851   5.658      0.6949586  0.7338253  26.631     0.09037305 0.09037305 0.1748868 
1325.4     0.22       144.941    1          2          8.215364   9.507      5.606      0.723      1.309      1.233      10.002     0.2600669  0.2600669  0.290925   183.75     114.8749   6.899      0.7246863  0.7618877  26.46      0.09350944 0.09350944 0.1728677 
1325.6     0.22       133.803    1          2          8.322275   9.337      6.241      1.049      1.505      1.231      9.832      0.2577016  0.2577016  0.291475   166.1183   92.08999   7.474      0.7327186  0.7705618  26.378     0.1023436  0.1023436  0.1719176 
