~Version
 VERS              .         2.0                           : CWLS LOG ASCII STANDARD - VERSION 2.0
 WRAP              .         NO                            : ONE LINE PER DEPTH STEP
 DLM               .         SPACE                         : DELIMITING CHARACTER(SPACE TAB OR COMMA)
~Well Information
#_______________________________________________________________________________
#
#PARAMETER_NAME    .UNIT     VALUE                         : DESCRIPTION
#_______________________________________________________________________________
STRT               .M        960                           : First reference value
STOP               .M        1410                          : Last reference value
STEP               .M        0.2                           : Step increment
NULL               .         -9999                         : Missing value
COMP               .                                       : Company
WELL               .         4123                          : Well name
FLD                .         Узень                         : Field
LOC                .                                       : Location
CNTY               .                                       : County
STAT               .                                       : State
CTRY               .         Казахстан                     : Country
SRVC               .                                       : Service Company
DATE               .         21.07.1982                    : Date
UWI                .                                       : Unique Well ID
Block              .         3а                            : 
Cartographic_reference_system .         GCS_WGS_1984                  : ESRI,PE_10_3_1- <?xml version="1.0" encoding="utf-16"?><ILateBoundCoordinateReferenceSystem name="GCS_WGS_1984"><AuthorityCode>EPSG,4326</AuthorityCode></ILateBoundCoordinateReferenceSystem>
Category           .         Нефтяная                      : 
Condition          .         В работе                      : 
Date               .         21.07.1982                    : 
EREF               .m        234.2                         : 100.8
Gorizont           .         18                            : 14
HZCS               .GCS_WGS_1984 WGS_1984_EASE-Grid_2.0_Global : ESRI,PE_10_3_1- <?xml version="1.0" encoding="utf-16"?><ILateBoundCoordinateReferenceSystem name="WGS_1984_EASE-Grid_2.0_Global"><AuthorityCode>EPSG,6933</AuthorityCode></ILateBoundCoordinateReferenceSystem>
Interpretator      .         Картбаева Г.Е.                : 
Kupol              .         Основной                      : osnovnoi
LATI               .dega     0.6341814074                  : GCS_WGS_1984
LONG               .dega     0.5748008925                  : GCS_WGS_1984
Mud                .         0                             : 
Mud_density        .         0                             : 
Mud_resistivity    .         0                             : 
My_wells           .         18                            : 
NGDU               .         НГДУ-1                        : 
ORIGINALWELLNAME   .         4123                          : 
Spud_date          .         1982                          : 1961
Viscosity          .         0                             : 
X                  .m        55460.4                       : 46154
Y                  .m        80903                         : 85761.93
YEAR               .         2018                          : 
~Parameter Information Block
#_______________________________________________________________________________
#
#PARAMETER_NAME    .UNIT     VALUE                         : DESCRIPTION
#_______________________________________________________________________________
SET                .         LQC_KAZNIPI_Petrel            : 
TLFamily_CALI      .         Caliper                       : 
TLFamily_CILD      .         Conductivity                  : 
TLFamily_COLL      .         Net Reservoir Flag            : 
TLFamily_CSAT      .         Fluid Code                    : 
TLFamily_DEPT      .         Measured Depth                : 
TLFamily_GR        .         Russian Gamma Ray             : 
TLFamily_GZ3       .         Gradient 225                  : 
TLFamily_LLS       .         Lateral Log Resistivity       : 
TLFamily_MINV      .         Micro Gradient Resistivity    : 
TLFamily_MNOR      .         Micro Resistivity             : 
TLFamily_NGLD      .         Neutron Far                   : 
TLFamily_OGZ       .         Gradient Inverted 225         : 
TLFamily_PHIE      .         Effective Porosity            : 
TLFamily_PHIEN     .         Effective Porosity            : 
TLFamily_PHIT      .         Porosity                      : 
TLFamily_PRMB      .         Permeability                  : 
TLFamily_PRMB_DGR  .         Permeability                  : 
TLFamily_RT        .         Formation Resistivity         : 
TLFamily_SOIL_ARCHIE .         Oil Saturation                : 
TLFamily_SOIL_DW   .         Oil Saturation                : 
TLFamily_SP        .         Spontaneous Potential         : 
TLFamily_VSH_FIN   .         Shale Volume                  : 
TLFamily_VSH_GR    .         Shale Volume                  : 
TLFamily_VSH_SP    .         Shale Volume                  : 
~Curve Information
#_______________________________________________________________________________
#
#LOGNAME           .UNIT     LOG_ID                        : DESCRIPTION
#_______________________________________________________________________________
DEPT               .M                                      : Колонка глубины 
CALI               .м                                      : Каверномер 
CILD               .мСм/м                                  : Индукционный каротаж 
COLL               .unitless                               : Описание 
CSAT               .unitless                               : Описание 
GR                 .uR/h                                   : Гамма каротаж 
GZ3                .Ohmm                                   : Градиент-зонд  длиной 2.25м 
LLS                .Ohmm                                   : Боковой каротаж 
MINV               .Ohmm                                   : Микро-градиент зонд 
MNOR               .Ohmm                                   : Микро-потенциал зонд 
NGLD               .у.е.                                   : Показания зонда НГК-60 аппаратуры ДРСТ-3-90 
OGZ                .Ohmm                                   : Обращенный градиент-зонд 
PHIE               .v/v                                    : Описание 
PHIEN              .v/v                                    :  
PHIT               .v/v                                    : Описание 
PRMB               .mD                                     :  
PRMB_DGR           .mD                                     :  
RT                 .ohmm                                   : УЭС пласта 
SOIL_ARCHIE        .v/v                                    :  
SOIL_DW            .v/v                                    :  
SP                 .мВ                                     : Потенциал самополяризации 
VSH_FIN            .v/v                                    : Описание 
VSH_GR             .v/v                                    : Shale volume 
VSH_SP             .v/v                                    : Shale Volume 
~Ascii
# ...
1139.8     0.26       360.683    -9999      -9999      9.646408   8.223      2.212      0.182      0.293      1.199      4.911      0.08149826 0.08149826 0.300275   0.09051145 1.171465   2.773      0          0.3910292  70.054     0.6629598  0.6082046  0.7177151 
1140       0.26       336.707    -9999      -9999      9.825219   6.339      2.08       0.163      0.358      1.169      4.372      0.06837705 0.06837705 0.308525   0.05172099 0.7558782  2.97       0          0.3901934  70.222     0.727721   0.7273549  0.7280872 
1140.2     0.259      329.012    -9999      -9999      9.905172   5.785      1.95       0.261      0.541      1.148      3.635      0.06330429 0.06330429 0.3143     0.04165883 0.6214004  3.039      0          0.3914733  70.305     0.7605931  0.7879297  0.7332564 
1140.4     0.25       326.89     -9999      -9999      9.861465   4.979      2.128      0.328      0.58       1.177      3.43       0.06179607 0.06179607 0.306325   0.0390635  0.6916414  3.059      0          0.3779579  70.217     0.7409967  0.7542165  0.7277769 
1140.6     0.251      326.9      -9999      -9999      9.728473   4.339      2.377      0.384      0.612      1.163      3.705      0.08205944 0.08205944 0.310175   0.0927039  0.9580807  3.059      0          0.4340855  70.128     0.6912593  0.6602498  0.7222687 
1140.8     0.248      324.027    -9999      -9999      9.584214   3.921      2.735      0.306      0.495      1.131      3.94       0.1077537  0.1077537  0.318975   0.2773439  1.364305   3.086      0.08258836 0.4948807  69.905     0.6400644  0.571512   0.7086169 
1141       0.241      324.322    -9999      -9999      9.508293   3.66       3.141      0.293      0.417      1.1        3.961      0.1315483  0.1315483  0.3275     0.7651581  1.64324    3.083      0.2285781  0.5371306  69.044     0.5937931  0.5297077  0.6578786 
1141.2     0.232      311.908    -9999      -9999      9.530293   3.712      3.353      0.3        0.554      1.12       3.894      0.1366458  0.1366458  0.322      0.9509774  1.557004   3.206      0.2672789  0.5475478  67.644     0.5616793  0.5414967  0.5818619 
1141.4     0.226      297.985    -9999      -9999      9.604126   3.917      3.101      0.267      0.554      1.129      4.088      0.1382631  0.1382631  0.319525   1.018888   1.29934    3.356      0.2901455  0.5575508  66.288     0.5492785  0.5830118  0.5155451 
1141.6     0.226      289.287    -9999      -9999      9.651015   4.205      2.725      0.423      0.71       1.129      4.705      0.1393809  0.1393809  0.319525   1.068638   1.158315   3.457      0.3048465  0.5653638  65.514     0.5458912  0.6110146  0.4807678 
1141.8     0.233      290.476    -9999      -9999      9.633155   4.373      2.82       0.358      0.606      1.13       5.043      0.1468858  0.1468858  0.31925    1.471765   1.210131   3.443      0.3346187  0.5727168  64.649     0.5223159  0.600193   0.4444388 
1142       0.233      300.84     -9999      -9999      9.575718   4.373      3.107      0.409      0.712      1.137      4.999      0.1549415  0.1549415  0.317325   2.075154   1.393004   3.324      0.3542813  0.5722568  63.963     0.4920713  0.5666744  0.4174683 
1142.2     0.231      307.603    -9999      -9999      9.516731   4.326      3.057      0.476      0.853      1.146      4.867      0.1583769  0.1583769  0.31485    2.402601   1.609614   3.251      0.3598614  0.5690287  63.875     0.474161   0.5341986  0.4141234 
1142.4     0.226      312.838    -9999      -9999      9.463966   4.279      2.948      0.749      0.847      1.156      4.7        0.160707   0.160707   0.3121     2.653642   1.831767   3.197      0.3629655  0.5655127  63.787     0.4587665  0.5067286  0.4108044 
1142.6     0.228      317.959    -9999      -9999      9.416788   4.293      2.894      0.521      0.938      1.135      4.559      0.1749093  0.1749093  0.317875   4.862978   2.05624    3.145      0.4036885  0.5808756  63.024     0.4332295  0.4833655  0.3830935 
1142.8     0.23       323.307    -9999      -9999      9.400629   4.391      2.764      0.28       0.71       1.114      4.45       0.1871959  0.1871959  0.32365    8.212582   2.139288   3.093      0.4335098  0.5930018  62.08      0.4134974  0.4756136  0.3513813 
1143       0.224      331.566    -9999      -9999      9.442069   4.424      2.777      0.436      0.684      1.097      4.346      0.1916595  0.1916595  0.328325   9.934755   1.932733   3.016      0.4384134  0.5951934  61.476     0.4141378  0.4957477  0.332528  
1143.2     0.224      336.799    -9999      -9999      9.52695    4.457      2.714      0.332      0.619      1.109      4.288      0.184431   0.184431   0.325025   7.299072   1.569813   2.969      0.4149952  0.5832031  60.789     0.4260425  0.5396882  0.3123967 
1143.4     0.234      356.217    -9999      -9999      9.610685   4.541      2.528      0.303      0.56       1.1        4.201      0.1829481  0.1829481  0.3275     6.851746   1.278624   2.807      0.3951497  0.5719475  59.934     0.438036   0.5868506  0.2892214 
1143.6     0.235      371.94     -9999      -9999      9.667266   4.615      2.335      0.267      0.489      1.105      4.131      0.1777435  0.1777435  0.326125   5.48781    1.113099   2.689      0.3671262  0.5565377  59.501     0.4496409  0.6210303  0.2782514 
1143.8     0.235      377.344    -9999      -9999      9.7127     4.702      2.246      0.521      0.801      1.081      4.037      0.1806013  0.1806013  0.332725   6.19916    0.9958329  2.65       0.3715637  0.5614464  59.247     0.4609808  0.6499122  0.2720495 
1144       0.234      377.767    -9999      -9999      9.774349   4.736      2.324      0.723      0.834      1.039      3.894      0.1849973  0.1849973  0.344275   7.477524   0.8562168  2.647      0.3842628  0.5742451  59.33      0.4826595  0.6912616  0.2740574 
1144.2     0.233      378.224    -9999      -9999      9.842398   4.66       2.539      0.723      0.853      1.049      3.416      0.173183   0.173183   0.341525   4.517806   0.724722   2.644      0.3474885  0.5608014  59.583     0.5101272  0.7399642  0.2802902 
1144.4     0.235      373.88     -9999      -9999      9.875476   4.52       2.85       0.593      0.853      1.057      2.747      0.1665311  0.1665311  0.339325   3.401877   0.6683012  2.675      0.3285288  0.5549666  59.666     0.5236177  0.7648633  0.2823722 
1144.6     0.234      370.844    -9999      -9999      9.852228   4.255      3.108      0.638      0.775      1.082      2.773      0.1643007  0.1643007  0.33245    3.093179   0.7074742  2.697      0.3232028  0.5488284  59.237     0.5095434  0.7472781  0.2718087 
1144.8     0.232      374.77     -9999      -9999      9.799222   4.133      2.944      0.734      0.629      1.077      2.934      0.1730541  0.1730541  0.333825   4.493041   0.8055937  2.668      0.3498281  0.5564945  58.979     0.4871844  0.7086799  0.265689  
1145       0.233      381.746    -9999      -9999      9.767238   4.109      2.929      0.84       0.469      1.074      3.027      0.1778997  0.1778997  0.33465    5.524497   0.871267   2.62       0.3598488  0.5578955  58.891     0.4750008  0.6863606  0.263641  
1145.2     0.235      393.946    -9999      -9999      9.787797   4.178      3.032      0.886      0.691      1.085      3.214      0.1722024  0.1722024  0.331625   4.332764   0.8284638  2.538      0.3315412  0.542559   58.974     0.4830986  0.7006252  0.265572  
1145.4     0.228      424.324    -9999      -9999      9.845903   4.305      2.891      0.671      0.782      1.105      3.313      0.1584505  0.1584505  0.326125   2.410162   0.7185237  2.357      0.2558951  0.5048044  59.313     0.5081044  0.7425643  0.2736446 
1145.6     0.228      452.159    -9999      -9999      9.888146   4.421      1.961      0.664      0.912      1.095      3.313      0.1538171  0.1538171  0.328875   1.977993   0.6478719  2.212      0.2133174  0.4857175  59.822     0.5304783  0.7746212  0.2863353 
1145.8     0.232      507.608    -9999      -9999      9.870639   4.56       1.56       0.541      0.723      1.09       3.416      0.1528585  0.1528585  0.33025    1.89875    0.6762688  1.97       0.1648256  0.4551716  60.843     0.5375501  0.7611707  0.3139295 
