~Version
 VERS              .         2.0                           : CWLS LOG ASCII STANDARD - VERSION 2.0
 WRAP              .         NO                            : ONE LINE PER DEPTH STEP
 DLM               .         SPACE                         : DELIMITING CHARACTER(SPACE TAB OR COMMA)
~Well Information
#_______________________________________________________________________________
#
#PARAMETER_NAME    .UNIT     VALUE                         : DESCRIPTION
#_______________________________________________________________________________
STRT               .M        960                           : First reference value
STOP               .M        1410                          : Last reference value
STEP               .M        0.2                           : Step increment
NULL               .         -9999                         : Missing value
COMP               .                                       : Company
WELL               .         4123                          : Well name
FLD                .         Узень                         : Field
LOC                .                                       : Location
CNTY               .                                       : County
STAT               .                                       : State
CTRY               .         Казахстан                     : Country
SRVC               .                                       : Service Company
DATE               .         21.07.1982                    : Date
UWI                .                                       : Unique Well ID
Block              .         3а                            : 
Cartographic_reference_system .         GCS_WGS_1984                  : ESRI,PE_10_3_1- <?xml version="1.0" encoding="utf-16"?><ILateBoundCoordinateReferenceSystem name="GCS_WGS_1984"><AuthorityCode>EPSG,4326</AuthorityCode></ILateBoundCoordinateReferenceSystem>
Category           .         Нефтяная                      : 
Condition          .         В работе                      : 
Date               .         21.07.1982                    : 
EREF               .m        234.2                         : 100.8
Gorizont           .         18                            : 14
HZCS               .GCS_WGS_1984 WGS_1984_EASE-Grid_2.0_Global : ESRI,PE_10_3_1- <?xml version="1.0" encoding="utf-16"?><ILateBoundCoordinateReferenceSystem name="WGS_1984_EASE-Grid_2.0_Global"><AuthorityCode>EPSG,6933</AuthorityCode></ILateBoundCoordinateReferenceSystem>
Interpretator      .         Картбаева Г.Е.                : 
Kupol              .         Основной                      : osnovnoi
LATI               .dega     0.6341814074                  : GCS_WGS_1984
LONG               .dega     0.5748008925                  : GCS_WGS_1984
Mud                .         0                             : 
Mud_density        .         0                             : 
Mud_resistivity    .         0                             : 
My_wells           .         18                            : 
NGDU               .         НГДУ-1                        : 
ORIGINALWELLNAME   .         4123                          : 
Spud_date          .         1982                          : 1961
Viscosity          .         0                             : 
X                  .m        55460.4                       : 46154
Y                  .m        80903                         : 85761.93
YEAR               .         2018                          : 
~Parameter Information Block
#_______________________________________________________________________________
#
#PARAMETER_NAME    .UNIT     VALUE                         : DESCRIPTION
#_______________________________________________________________________________
SET                .         LQC_KAZNIPI_Petrel            : 
TLFamily_CALI      .         Caliper                       : 
TLFamily_CILD      .         Conductivity                  : 
TLFamily_COLL      .         Net Reservoir Flag            : 
TLFamily_CSAT      .         Fluid Code                    : 
TLFamily_DEPT      .         Measured Depth                : 
TLFamily_GR        .         Russian Gamma Ray             : 
TLFamily_GZ3       .         Gradient 225                  : 
TLFamily_LLS       .         Lateral Log Resistivity       : 
TLFamily_MINV      .         Micro Gradient Resistivity    : 
TLFamily_MNOR      .         Micro Resistivity             : 
TLFamily_NGLD      .         Neutron Far                   : 
TLFamily_OGZ       .         Gradient Inverted 225         : 
TLFamily_PHIE      .         Effective Porosity            : 
TLFamily_PHIEN     .         Effective Porosity            : 
TLFamily_PHIT      .         Porosity                      : 
TLFamily_PRMB      .         Permeability                  : 
TLFamily_PRMB_DGR  .         Permeability                  : 
TLFamily_RT        .         Formation Resistivity         : 
TLFamily_SOIL_ARCHIE .         Oil Saturation                : 
TLFamily_SOIL_DW   .         Oil Saturation                : 
TLFamily_SP        .         Spontaneous Potential         : 
TLFamily_VSH_FIN   .         Shale Volume                  : 
TLFamily_VSH_GR    .         Shale Volume                  : 
TLFamily_VSH_SP    .         Shale Volume                  : 
~Curve Information
#_______________________________________________________________________________
#
#LOGNAME           .UNIT     LOG_ID                        : DESCRIPTION
#_______________________________________________________________________________
DEPT               .M                                      : Колонка глубины 
CALI               .м                                      : Каверномер 
CILD               .мСм/м                                  : Индукционный каротаж 
COLL               .unitless                               : Описание 
CSAT               .unitless                               : Описание 
GR                 .uR/h                                   : Гамма каротаж 
GZ3                .Ohmm                                   : Градиент-зонд  длиной 2.25м 
LLS                .Ohmm                                   : Боковой каротаж 
MINV               .Ohmm                                   : Микро-градиент зонд 
MNOR               .Ohmm                                   : Микро-потенциал зонд 
NGLD               .у.е.                                   : Показания зонда НГК-60 аппаратуры ДРСТ-3-90 
OGZ                .Ohmm                                   : Обращенный градиент-зонд 
PHIE               .v/v                                    : Описание 
PHIEN              .v/v                                    :  
PHIT               .v/v                                    : Описание 
PRMB               .mD                                     :  
PRMB_DGR           .mD                                     :  
RT                 .ohmm                                   : УЭС пласта 
SOIL_ARCHIE        .v/v                                    :  
SOIL_DW            .v/v                                    :  
SP                 .мВ                                     : Потенциал самополяризации 
VSH_FIN            .v/v                                    : Описание 
VSH_GR             .v/v                                    : Shale volume 
VSH_SP             .v/v                                    : Shale Volume 
~Ascii
# ...
1115       0.319      637.814    -9999      -9999      8.979908   1.882      1.355      0.188      0.257      1.013      2.473      0.1376805  0.1376805  0.351425   0.9938804  0.4348765  1.568      0          0.3896507  57.625     0.6477107  0.9115519  0.3838696 
1115.2     0.307      633.865    -9999      -9999      8.931982   1.969      1.293      0.195      0.293      1.006      2.446      0.1443633  0.1443633  0.35335    1.321653   0.4743393  1.578      0.02585631 0.4040526  57.708     0.6332929  0.8797873  0.3867984 
1115.4     0.291      619.812    -9999      -9999      8.947664   2.02       1.342      0.221      0.352      0.976      2.055      0.151431   0.151431   0.3616     1.786603   0.4610471  1.613      0.07514639 0.4291985  57.62      0.6368757  0.8900575  0.3836939 
1115.6     0.295      622.553    -9999      -9999      9.044003   2.004      1.491      0.235      0.339      0.976      1.921      0.1415788  0.1415788  0.3616     1.173658   0.3871819  1.606      0.01733483 0.4137534  57.446     0.6667308  0.9558331  0.3776284 
1115.8     0.286      655.674    -9999      -9999      9.164723   2.003      1.484      0.228      0.326      0.975      2.018      0.1271266  0.1271266  0.361875   0.6336513  0.3110961  1.525      0          0.3752041  57.444     0.7113589  1.045159   0.3775593 
1116       0.273      663.525    -9999      -9999      9.242679   2.073      1.465      0.208      0.345      0.978      2.294      0.1155846  0.1155846  0.36105    0.3873162  0.2701064  1.507      0          0.3495221  57.527     0.7438345  1.107229   0.38044   
1116.2     0.273      656.307    -9999      -9999      9.255737   2.155      1.59       0.189      0.365      0.982      2.283      0.1131515  0.1131515  0.35995    0.3491395  0.2637886  1.524      0          0.347161   57.45      0.7478741  1.117981   0.3777668 
1116.4     0.29       611.874    -9999      -9999      9.213628   2.008      1.605      0.182      0.365      0.988      2.371      0.1159571  0.1159571  0.3583     0.3935183  0.2847089  1.634      0          0.3728432  57.659     0.7343724  1.083678   0.3850667 
1116.6     0.295      616.049    -9999      -9999      9.129787   2.003      1.511      0.176      0.274      0.954      2.627      0.1358721  0.1358721  0.36765    0.9201082  0.3314311  1.623      0          0.4144398  57.692     0.7023573  1.018482   0.3862321 
1116.8     0.272      624.998    -9999      -9999      9.029642   2.09       1.475      0.169      0.3        0.966      2.707      0.1440904  0.1440904  0.36435    1.306356   0.3973924  1.6        0.03056833 0.4191946  57.775     0.6674533  0.945728   0.3891788 
1117       0.289      571.2      -9999      -9999      8.9574     2.045      1.568      0.176      0.306      0.974      2.561      0.1495242  0.1495242  0.36215    1.647056   0.4529833  1.751      0.1002203  0.4501273  57.858     0.6443207  0.8964938  0.3921476 
1117.2     0.275      556.396    -9999      -9999      8.955637   2.003      1.588      0.195      0.306      0.992      2.263      0.1433056  0.1433056  0.3572     1.263356   0.454433   1.797      0.0776009  0.4438897  58.102     0.6481648  0.8953246  0.401005  
1117.4     0.265      566.479    -9999      -9999      9.033081   2.02       1.573      0.221      0.41       0.969      2.13       0.1403448  0.1403448  0.363525   1.113486   0.3949229  1.765      0.05272199 0.4409164  58.196     0.6763036  0.948138   0.4044691 
1117.6     0.259      571.226    -9999      -9999      9.151833   2.09       1.677      0.378      0.664      0.955      2.144      0.130359   0.130359   0.367375   0.727317   0.31845    1.751      0          0.4276622  58.108     0.7182302  1.035235   0.4012252 
1117.8     0.259      576.463    -9999      -9999      9.25521    2.09       1.792      0.3        0.56       0.97       2.077      0.1116212  0.1116212  0.36325    0.3270802  0.2640407  1.735      0          0.3890395  58.277     0.7625114  1.117545   0.4074776 
1118       0.266      592.746    -9999      -9999      9.305669   2.033      1.787      0.306      0.45       0.986      2.212      0.1002175  0.1002175  0.35885    0.2011081  0.240965   1.687      0          0.3526929  58.275     0.7837348  1.160066   0.4074031 
1118.2     0.28       601.749    -9999      -9999      9.286252   1.967      1.62       0.254      0.371      0.964      2.287      0.1087643  0.1087643  0.3649     0.2895589  0.2495959  1.662      0          0.3722349  58.313     0.7761688  1.143516   0.4088216 
1118.4     0.285      601.758    -9999      -9999      9.185047   2.108      1.595      0.195      0.261      0.968      2.251      0.1215446  0.1215446  0.3638     0.4994129  0.2998456  1.662      0          0.3942004  58.27      0.7341071  1.060997   0.4072168 
1118.6     0.268      592.41     -9999      -9999      9.012489   2.382      1.836      0.241      0.365      0.971      2.172      0.1417259  0.1417259  0.362975   1.181043   0.4099404  1.688      0.04089949 0.4297689  58.267     0.6704518  0.9337986  0.4071049 
1118.8     0.238      567.522    -9999      -9999      8.821823   2.351      2.154      0.534      0.573      0.982      2.058      0.15899    0.15899    0.35995    2.466261   0.5791581  1.762      0.149564   0.4620851  58.265     0.6089696  0.8109087  0.4070305 
1119       0.243      583.01     -9999      -9999      8.67197    2.054      1.95       0.208      0.345      0.989      2.043      0.1705985  0.1705985  0.358025   4.046283   0.7598864  1.715      0.1899799  0.4672628  58.348     0.5679591  0.7257857  0.4101325 
1119.2     0.277      603.262    -9999      -9999      8.575145   1.933      1.6        0.189      0.326      1.004      2.565      0.1747669  0.1747669  0.3539     4.833543   0.9056529  1.658      0.1941517  0.4592907  58.346     0.5428275  0.6755975  0.4100575 
1119.4     0.294      628.776    -9999      -9999      8.509422   1.879      1.402      0.176      0.3        1.019      2.524      0.1764766  0.1764766  0.349775   5.199145   1.020218   1.59       0.1850972  0.4459248  58.258     0.5251468  0.6435236  0.4067699 
1119.6     0.305      648.859    -9999      -9999      8.476406   1.861      1.368      0.169      0.274      1.034      2.141      0.1754528  0.1754528  0.34565    4.977019   1.08313    1.541      0.1688376  0.4317934  58.17      0.5157491  0.6279902  0.403508  
1119.8     0.294      648.868    -9999      -9999      8.51285    1.914      1.361      0.189      0.267      1.017      1.901      0.1784189  0.1784189  0.350325   5.64818    1.0139     1.541      0.180885   0.4400958  57.984     0.5209277  0.6451581  0.3966973 
1120       0.285      644.519    -9999      -9999      8.635733   2.053      1.402      0.801      0.528      0.998      1.858      0.1743901  0.1743901  0.35555    4.756489   0.8114692  1.552      0.1672126  0.4422717  57.836     0.5489693  0.7065801  0.3913584 
1120.2     0.278      648.013    -9999      -9999      8.798717   2.071      1.467      0.632      0.502      1.02       1.862      0.1544908  0.1544908  0.3495     2.035648   0.6039273  1.543      0.07199929 0.4081573  57.649     0.590937   0.7971598  0.3847142 
1120.4     0.262      659.551    -9999      -9999      8.915025   1.894      1.525      0.912      0.827      1.028      1.938      0.1409771  0.1409771  0.3473     1.14392    0.489144   1.516      0          0.3799347  57.561     0.625221   0.8688155  0.3816264 
1120.6     0.284      730.723    -9999      -9999      8.925155   1.64       1.39       0.971      0.567      1.039      2.256      0.1383549  0.1383549  0.344275   1.022883   0.4802451  1.369      0          0.3393506  57.301     0.6240004  0.8753533  0.3726474 
1120.8     0.286      752.592    -9999      -9999      8.838305   1.669      1.197      0.241      0.228      1.048      2.486      0.1448824  0.1448824  0.3418     1.351238   0.5621128  1.329      0          0.3376932  57.299     0.59672    0.8208608  0.3725792 
1121       0.261      708.306    -9999      -9999      8.70733    2          1.246      0.41       0.528      1.025      2.474      0.1623421  0.1623421  0.348125   2.845297   0.7127163  1.412      0.07342773 0.3912263  57.541     0.5629785  0.7450289  0.3809281 
