~Version
 VERS              .         2.0                           : CWLS LOG ASCII STANDARD - VERSION 2.0
 WRAP              .         NO                            : ONE LINE PER DEPTH STEP
 DLM               .         SPACE                         : DELIMITING CHARACTER(SPACE TAB OR COMMA)
~Well Information
#_______________________________________________________________________________
#
#PARAMETER_NAME    .UNIT     VALUE                         : DESCRIPTION
#_______________________________________________________________________________
STRT               .M        960                           : First reference value
STOP               .M        1410                          : Last reference value
STEP               .M        0.2                           : Step increment
NULL               .         -9999                         : Missing value
COMP               .                                       : Company
WELL               .         4123                          : Well name
FLD                .         Узень                         : Field
LOC                .                                       : Location
CNTY               .                                       : County
STAT               .                                       : State
CTRY               .         Казахстан                     : Country
SRVC               .                                       : Service Company
DATE               .         21.07.1982                    : Date
UWI                .                                       : Unique Well ID
Block              .         3а                            : 
Cartographic_reference_system .         GCS_WGS_1984                  : ESRI,PE_10_3_1- <?xml version="1.0" encoding="utf-16"?><ILateBoundCoordinateReferenceSystem name="GCS_WGS_1984"><AuthorityCode>EPSG,4326</AuthorityCode></ILateBoundCoordinateReferenceSystem>
Category           .         Нефтяная                      : 
Condition          .         В работе                      : 
Date               .         21.07.1982                    : 
EREF               .m        234.2                         : 100.8
Gorizont           .         18                            : 14
HZCS               .GCS_WGS_1984 WGS_1984_EASE-Grid_2.0_Global : ESRI,PE_10_3_1- <?xml version="1.0" encoding="utf-16"?><ILateBoundCoordinateReferenceSystem name="WGS_1984_EASE-Grid_2.0_Global"><AuthorityCode>EPSG,6933</AuthorityCode></ILateBoundCoordinateReferenceSystem>
Interpretator      .         Картбаева Г.Е.                : 
Kupol              .         Основной                      : osnovnoi
LATI               .dega     0.6341814074                  : GCS_WGS_1984
LONG               .dega     0.5748008925                  : GCS_WGS_1984
Mud                .         0                             : 
Mud_density        .         0                             : 
Mud_resistivity    .         0                             : 
My_wells           .         18                            : 
NGDU               .         НГДУ-1                        : 
ORIGINALWELLNAME   .         4123                          : 
Spud_date          .         1982                          : 1961
Viscosity          .         0                             : 
X                  .m        55460.4                       : 46154
Y                  .m        80903                         : 85761.93
YEAR               .         2018                          : 
~Parameter Information Block
#_______________________________________________________________________________
#
#PARAMETER_NAME    .UNIT     VALUE                         : DESCRIPTION
#_______________________________________________________________________________
SET                .         LQC_KAZNIPI_Petrel            : 
TLFamily_CALI      .         Caliper                       : 
TLFamily_CILD      .         Conductivity                  : 
TLFamily_COLL      .         Net Reservoir Flag            : 
TLFamily_CSAT      .         Fluid Code                    : 
TLFamily_DEPT      .         Measured Depth                : 
TLFamily_GR        .         Russian Gamma Ray             : 
TLFamily_GZ3       .         Gradient 225                  : 
TLFamily_LLS       .         Lateral Log Resistivity       : 
TLFamily_MINV      .         Micro Gradient Resistivity    : 
TLFamily_MNOR      .         Micro Resistivity             : 
TLFamily_NGLD      .         Neutron Far                   : 
TLFamily_OGZ       .         Gradient Inverted 225         : 
TLFamily_PHIE      .         Effective Porosity            : 
TLFamily_PHIEN     .         Effective Porosity            : 
TLFamily_PHIT      .         Porosity                      : 
TLFamily_PRMB      .         Permeability                  : 
TLFamily_PRMB_DGR  .         Permeability                  : 
TLFamily_RT        .         Formation Resistivity         : 
TLFamily_SOIL_ARCHIE .         Oil Saturation                : 
TLFamily_SOIL_DW   .         Oil Saturation                : 
TLFamily_SP        .         Spontaneous Potential         : 
TLFamily_VSH_FIN   .         Shale Volume                  : 
TLFamily_VSH_GR    .         Shale Volume                  : 
TLFamily_VSH_SP    .         Shale Volume                  : 
~Curve Information
#_______________________________________________________________________________
#
#LOGNAME           .UNIT     LOG_ID                        : DESCRIPTION
#_______________________________________________________________________________
DEPT               .M                                      : Колонка глубины 
CALI               .м                                      : Каверномер 
CILD               .мСм/м                                  : Индукционный каротаж 
COLL               .unitless                               : Описание 
CSAT               .unitless                               : Описание 
GR                 .uR/h                                   : Гамма каротаж 
GZ3                .Ohmm                                   : Градиент-зонд  длиной 2.25м 
LLS                .Ohmm                                   : Боковой каротаж 
MINV               .Ohmm                                   : Микро-градиент зонд 
MNOR               .Ohmm                                   : Микро-потенциал зонд 
NGLD               .у.е.                                   : Показания зонда НГК-60 аппаратуры ДРСТ-3-90 
OGZ                .Ohmm                                   : Обращенный градиент-зонд 
PHIE               .v/v                                    : Описание 
PHIEN              .v/v                                    :  
PHIT               .v/v                                    : Описание 
PRMB               .mD                                     :  
PRMB_DGR           .mD                                     :  
RT                 .ohmm                                   : УЭС пласта 
SOIL_ARCHIE        .v/v                                    :  
SOIL_DW            .v/v                                    :  
SP                 .мВ                                     : Потенциал самополяризации 
VSH_FIN            .v/v                                    : Описание 
VSH_GR             .v/v                                    : Shale volume 
VSH_SP             .v/v                                    : Shale Volume 
~Ascii
# ...
1232.8     0.223      573.772    -9999      -9999      9.820697   2.191      2.098      0.775      0.632      1.144      3.158      0.1849715  0.1849715  0.3154     7.469274   3.366328   1.743      0.2612198  0.454227   37.819     0.3952379  0.3952379  0.5242161 
1233       0.227      581.938    -9999      -9999      9.859586   2.094      2.71       0.893      0.717      1.115      3.325      0.1886028  0.1886028  0.323375   8.720458   3.106797   1.718      0.2686829  0.4626391  37.811     0.4084006  0.4084006  0.52384   
1233.2     0.221      583.363    -9999      -9999      9.92934    2.017      3.635      0.586      0.834      1.101      3.574      0.184296   0.184296   0.327225   7.257156   2.690384   1.714      0.2530038  0.4608825  37.297     0.4331183  0.4331183  0.5001662 
1233.4     0.215      577.276    -9999      -9999      9.969737   1.974      4.692      0.736      0.697      1.136      3.829      0.1697232  0.1697232  0.3176     3.89802    2.475255   1.732      0.201367   0.435848   36.782     0.4481114  0.4481114  0.4774137 
1233.6     0.219      552.178    -9999      -9999      9.941886   2.035      4.57       0.795      0.821      1.147      4.451      0.1701274  0.1701274  0.314575   3.965794   2.621645   1.811      0.2195273  0.4455981  35.828     0.4377201  0.4377201  0.4377533 
1233.8     0.22       514.51     -9999      -9999      9.85555    2.243      3.535      0.704      0.827      1.158      5.377      0.1772352  0.1772352  0.31155    5.37013    3.132772   1.944      0.2714944  0.4704247  34.441     0.4070144  0.4070144  0.3856172 
1234       0.219      424.484    1          2          9.730674   2.421      2.756      0.599      0.997      1.17       5.889      0.187347   0.187347   0.30825    8.265697   4.053356   2.356      0.3657329  0.5265228  33.23      0.3663727  0.3663727  0.3451647 
1234.2     0.218      387.502    1          2          9.566119   2.931      2.679      1.068      1.368      1.166      5.654      0.2040972  0.2040972  0.30935    16.88625   5.691828   2.581      0.4359827  0.5640346  32.063     0.3189479  0.3189479  0.3103855 
1234.4     0.218      366.614    1          2          9.36586    3.135      2.653      0.964      1.212      1.153      4.883      0.2240115  0.2240115  0.312925   39.48165   8.603577   2.728      0.4932565  0.5946719  31.29      0.2694347  0.2694347  0.289499  
1234.6     0.215      362.268    1          2          9.166529   3.214      2.563      1.049      1.238      1.145      4.307      0.2399556  0.2399556  0.315125   77.93254   12.98001   2.76       0.5253163  0.6100321  30.666     0.2277859  0.2277859  0.2738315 
1234.8     0.215      363.145    1          2          9.014757   3.167      2.477      1.101      1.388      1.155      4.021      0.2462274  0.2462274  0.312375   101.8326   17.75246   2.754      0.5353901  0.6118603  30.087     0.2004473  0.2004473  0.260212  
1235       0.217      364.894    1          2          8.929755   3.035      2.581      1.127      1.068      1.166      3.891      0.2477734  0.2477734  0.30935    108.7734   21.15525   2.741      0.5368889  0.6097828  29.657     0.1865957  0.1865957  0.2506511 
1235.2     0.217      369.254    1          2          8.906397   2.989      3.005      1.401      1.655      1.17       3.778      0.2478732  0.2478732  0.30825    109.2376   22.19967   2.708      0.5344125  0.6066722  29.584     0.1829599  0.1829599  0.2490738 
1235.4     0.217      373.614    1          2          8.936775   3.009      3.393      1.29       1.433      1.159      3.641      0.2493332  0.2493332  0.311275   116.2555   20.85108   2.677      0.5342783  0.6075996  29.662     0.1877025  0.1877025  0.2507596 
1235.6     0.219      378.216    1          2          9.014607   3.075      3.473      1.199      1.479      1.142      3.452      0.2498107  0.2498107  0.31595    118.6476   17.75795   2.644      0.5323396  0.608858   29.74      0.200422   0.200422   0.2524605 
1235.8     0.218      378.663    1          2          9.124725   3.179      3.312      0.853      1.153      1.151      3.535      0.2409067  0.2409067  0.313475   81.15867   14.14913   2.641      0.5170634  0.6007918  29.74      0.2199039  0.2199039  0.2524605 
1236       0.217      371.023    1          2          9.236019   3.566      3.177      0.795      1.16       1.163      3.712      0.2304739  0.2304739  0.310175   52.01082   11.24639   2.695      0.502823   0.5949249  29.567     0.2415185  0.2415185  0.2487084 
1236.2     0.216      363.324    1          2          9.314145   4.226      3.107      1.114      1.368      1.19       3.619      0.2176269  0.2176269  0.30275    30.07021   9.572252   2.752      0.4824644  0.5835977  29.566     0.2579487  0.2579487  0.2486869 
1236.4     0.216      367.554    1          2          9.346105   4.618      3.077      1.14       1.407      1.214      3.391      0.208704   0.208704   0.29615    20.55242   8.961469   2.721      0.4603845  0.5683616  29.882     0.2649878  0.2649878  0.2555959 
1236.6     0.217      374.452    1          2          9.352619   4.638      2.816      1.349      1.472      1.22       3.112      0.2065728  0.2065728  0.2945     18.76668   8.841834   2.671      0.4507796  0.5610496  30.08      0.2664461  0.2664461  0.2600526 
1236.8     0.218      383.189    1          2          9.367002   4.548      2.42       1.524      1.642      1.229      2.991      0.203026   0.203026   0.292025   16.13215   8.583338   2.61       0.4363548  0.5505376  30.25      0.2696939  0.2696939  0.2639585 
1237       0.219      390.212    1          2          9.40848    4.427      1.752      1.551      1.632      1.231      2.87       0.1993113  0.1993113  0.291475   13.76848   7.879392   2.563      0.422311   0.5424574  30.507     0.2792841  0.2792841  0.2700047 
1237.2     0.218      397.146    -9999      -9999      9.485476   4.357      1.676      1.407      1.537      1.214      2.802      0.1978101  0.1978101  0.29615    12.91458   6.722107   2.518      0.4136407  0.5412647  30.935     0.2979999  0.2979999  0.2804576 
1237.4     0.218      423.892    -9999      -9999      9.60706    4.305      1.643      1.472      1.59       1.197      2.716      0.1918788  0.1918788  0.300825   10.02809   5.230814   2.359      0.3791706  0.5245422  31.449     0.3301401  0.3301401  0.2936596 
1237.6     0.217      455.537    -9999      -9999      9.765552   4.219      1.615      1.244      0.573      1.2        2.585      0.175492   0.175492   0.3        4.985344   3.771943   2.195      0.3058975  0.4881681  32.049     0.377297   0.377297   0.3099923 
1237.8     0.217      489.242    -9999      -9999      9.914071   4.001      1.568      0.3        0.704      1.21       2.455      0.1561477  0.1561477  0.29725    2.1847     2.776485   2.044      0.2054426  0.4413882  32.859     0.4275828  0.4275828  0.3336728 
1238       0.219      526.177    -9999      -9999      9.989225   3.685      1.615      0.335      0.682      1.212      2.439      0.1463755  0.1463755  0.2967     1.44008    2.37771    1.901      0.1303356  0.4053423  33.72      0.4555289  0.4555289  0.3609827 
1238.2     0.223      542.617    -9999      -9999      9.97421    3.135      1.639      0.365      0.664      1.188      2.603      0.154865   0.154865   0.3033     2.068398   2.45252    1.843      0.1598804  0.4170221  35.479     0.449803   0.449803   0.4240303 
1238.4     0.234      565.513    -9999      -9999      9.914352   2.954      1.624      0.241      0.381      1.188      2.837      0.1621642  0.1621642  0.3033     2.823795   2.774874   1.768      0.1770233  0.4154122  36.452     0.4276841  0.4276841  0.4633337 
1238.6     0.242      573.363    -9999      -9999      9.865905   2.865      1.616      0.222      0.487      1.183      3.11       0.1691835  0.1691835  0.304675   3.809309   3.066557   1.744      0.2017388  0.4227484  38.573     0.4105805  0.4105805  0.5607553 
1238.8     0.257      580.946    -9999      -9999      9.847714   2.764      1.633      0.261      0.625      1.153      3.21       0.1794939  0.1794939  0.312925   5.91317    3.183825   1.721      0.2370883  0.4414743  38.909     0.4043367  0.4043367  0.5777383 
