~Version
 VERS              .         2.0                           : CWLS LOG ASCII STANDARD - VERSION 2.0
 WRAP              .         NO                            : ONE LINE PER DEPTH STEP
 DLM               .         SPACE                         : DELIMITING CHARACTER(SPACE TAB OR COMMA)
~Well Information
#_______________________________________________________________________________
#
#PARAMETER_NAME    .UNIT     VALUE                         : DESCRIPTION
#_______________________________________________________________________________
STRT               .M        960                           : First reference value
STOP               .M        1410                          : Last reference value
STEP               .M        0.2                           : Step increment
NULL               .         -9999                         : Missing value
COMP               .                                       : Company
WELL               .         4123                          : Well name
FLD                .         Узень                         : Field
LOC                .                                       : Location
CNTY               .                                       : County
STAT               .                                       : State
CTRY               .         Казахстан                     : Country
SRVC               .                                       : Service Company
DATE               .         21.07.1982                    : Date
UWI                .                                       : Unique Well ID
Block              .         3а                            : 
Cartographic_reference_system .         GCS_WGS_1984                  : ESRI,PE_10_3_1- <?xml version="1.0" encoding="utf-16"?><ILateBoundCoordinateReferenceSystem name="GCS_WGS_1984"><AuthorityCode>EPSG,4326</AuthorityCode></ILateBoundCoordinateReferenceSystem>
Category           .         Нефтяная                      : 
Condition          .         В работе                      : 
Date               .         21.07.1982                    : 
EREF               .m        234.2                         : 100.8
Gorizont           .         18                            : 14
HZCS               .GCS_WGS_1984 WGS_1984_EASE-Grid_2.0_Global : ESRI,PE_10_3_1- <?xml version="1.0" encoding="utf-16"?><ILateBoundCoordinateReferenceSystem name="WGS_1984_EASE-Grid_2.0_Global"><AuthorityCode>EPSG,6933</AuthorityCode></ILateBoundCoordinateReferenceSystem>
Interpretator      .         Картбаева Г.Е.                : 
Kupol              .         Основной                      : osnovnoi
LATI               .dega     0.6341814074                  : GCS_WGS_1984
LONG               .dega     0.5748008925                  : GCS_WGS_1984
Mud                .         0                             : 
Mud_density        .         0                             : 
Mud_resistivity    .         0                             : 
My_wells           .         18                            : 
NGDU               .         НГДУ-1                        : 
ORIGINALWELLNAME   .         4123                          : 
Spud_date          .         1982                          : 1961
Viscosity          .         0                             : 
X                  .m        55460.4                       : 46154
Y                  .m        80903                         : 85761.93
YEAR               .         2018                          : 
~Parameter Information Block
#_______________________________________________________________________________
#
#PARAMETER_NAME    .UNIT     VALUE                         : DESCRIPTION
#_______________________________________________________________________________
SET                .         LQC_KAZNIPI_Petrel            : 
TLFamily_CALI      .         Caliper                       : 
TLFamily_CILD      .         Conductivity                  : 
TLFamily_COLL      .         Net Reservoir Flag            : 
TLFamily_CSAT      .         Fluid Code                    : 
TLFamily_DEPT      .         Measured Depth                : 
TLFamily_GR        .         Russian Gamma Ray             : 
TLFamily_GZ3       .         Gradient 225                  : 
TLFamily_LLS       .         Lateral Log Resistivity       : 
TLFamily_MINV      .         Micro Gradient Resistivity    : 
TLFamily_MNOR      .         Micro Resistivity             : 
TLFamily_NGLD      .         Neutron Far                   : 
TLFamily_OGZ       .         Gradient Inverted 225         : 
TLFamily_PHIE      .         Effective Porosity            : 
TLFamily_PHIEN     .         Effective Porosity            : 
TLFamily_PHIT      .         Porosity                      : 
TLFamily_PRMB      .         Permeability                  : 
TLFamily_PRMB_DGR  .         Permeability                  : 
TLFamily_RT        .         Formation Resistivity         : 
TLFamily_SOIL_ARCHIE .         Oil Saturation                : 
TLFamily_SOIL_DW   .         Oil Saturation                : 
TLFamily_SP        .         Spontaneous Potential         : 
TLFamily_VSH_FIN   .         Shale Volume                  : 
TLFamily_VSH_GR    .         Shale Volume                  : 
TLFamily_VSH_SP    .         Shale Volume                  : 
~Curve Information
#_______________________________________________________________________________
#
#LOGNAME           .UNIT     LOG_ID                        : DESCRIPTION
#_______________________________________________________________________________
DEPT               .M                                      : Колонка глубины 
CALI               .м                                      : Каверномер 
CILD               .мСм/м                                  : Индукционный каротаж 
COLL               .unitless                               : Описание 
CSAT               .unitless                               : Описание 
GR                 .uR/h                                   : Гамма каротаж 
GZ3                .Ohmm                                   : Градиент-зонд  длиной 2.25м 
LLS                .Ohmm                                   : Боковой каротаж 
MINV               .Ohmm                                   : Микро-градиент зонд 
MNOR               .Ohmm                                   : Микро-потенциал зонд 
NGLD               .у.е.                                   : Показания зонда НГК-60 аппаратуры ДРСТ-3-90 
OGZ                .Ohmm                                   : Обращенный градиент-зонд 
PHIE               .v/v                                    : Описание 
PHIEN              .v/v                                    :  
PHIT               .v/v                                    : Описание 
PRMB               .mD                                     :  
PRMB_DGR           .mD                                     :  
RT                 .ohmm                                   : УЭС пласта 
SOIL_ARCHIE        .v/v                                    :  
SOIL_DW            .v/v                                    :  
SP                 .мВ                                     : Потенциал самополяризации 
VSH_FIN            .v/v                                    : Описание 
VSH_GR             .v/v                                    : Shale volume 
VSH_SP             .v/v                                    : Shale Volume 
~Ascii
# ...
1257.6     0.26       696.435    -9999      -9999      9.826168   1.658      1.517      1.283      0.788      1.062      1.921      0.2069189  0.2069189  0.33795    19.04577   3.328543   1.436      0.266181   0.4484735  39.662     0.3970638  0.3970638  0.6174055 
1257.8     0.256      690.926    -9999      -9999      9.747857   1.676      1.488      0.879      0.814      1.067      1.914      0.2139091  0.2139091  0.336575   25.66105   3.912181   1.447      0.2896593  0.4566108  39.786     0.3717147  0.3717147  0.6241542 
1258       0.251      685.696    -9999      -9999      9.707704   1.695      1.46       0.71       0.619      1.069      1.922      0.217439   0.217439   0.336025   29.83023   4.250065   1.458      0.3021977  0.4617426  40.092     0.3593514  0.3593514  0.6410741 
1258.2     0.251      681.904    -9999      -9999      9.71438    1.71       1.445      0.749      0.573      1.068      1.914      0.2170452  0.2170452  0.3363     29.33334   4.191923   1.466      0.3028873  0.463076   40.203     0.3613783  0.3613783  0.6473058 
1258.4     0.251      680.463    -9999      -9999      9.746773   1.693      1.432      0.515      0.423      1.094      1.931      0.2065962  0.2065962  0.32915    18.78538   3.920942   1.47       0.2732076  0.445914   40.351     0.3713753  0.3713753  0.6556935 
1258.6     0.256      680.459    -9999      -9999      9.765837   1.676      1.432      0.378      0.476      1.101      1.948      0.2026871  0.2026871  0.327225   15.90064   3.769724   1.47       0.2610145  0.439655   40.524     0.3773876  0.3773876  0.6656121 
1258.8     0.255      680.456    -9999      -9999      9.746295   1.658      1.432      0.599      0.567      1.068      1.944      0.2137955  0.2137955  0.3363     25.53695   3.924809   1.47       0.2945701  0.4605005  40.61      0.3712259  0.3712259  0.6705891 
1259       0.266      680.453    -9999      -9999      9.693997   1.641      1.425      0.912      0.769      1.049      1.888      0.2243004  0.2243004  0.341525   39.97106   4.371957   1.47       0.3234334  0.4757655  40.525     0.355226   0.355226   0.66567   
1259.2     0.271      683.934    -9999      -9999      9.639178   1.624      1.426      0.899      0.795      1.029      1.853      0.2350908  0.2350908  0.347025   63.33006   4.895448   1.462      0.3488959  0.4892085  40.268     0.3391945  0.3391945  0.6509786 
1259.4     0.27       686.496    -9999      -9999      9.610974   1.589      1.433      0.827      0.651      1.031      1.801      0.2371689  0.2371689  0.346475   69.19938   5.188749   1.457      0.3528281  0.4897093  39.84      0.3312305  0.3312305  0.6271126 
1259.6     0.268      696.106    -9999      -9999      9.612052   1.606      1.44       0.769      0.638      1.056      1.775      0.2301947  0.2301947  0.3396     51.39512   5.177225   1.437      0.3314617  0.4736459  39.509     0.3315313  0.3315313  0.6091636 
1259.8     0.269      703.061    -9999      -9999      9.618086   1.589      1.448      0.827      0.704      1.077      1.775      0.2238621  0.2238621  0.333825   39.23088   5.113178   1.422      0.3116393  0.4593397  39.326     0.3332208  0.3332208  0.5994282 
1260       0.259      709.141    -9999      -9999      9.598289   1.606      1.455      0.879      0.717      1.094      1.792      0.2210058  0.2210058  0.32915    34.7313    5.326328   1.41       0.3011234  0.4496176  39.241     0.3277098  0.3277098  0.5949515 
1260.2     0.258      711.8      -9999      -9999      9.537477   1.606      1.477      1.036      0.769      1.114      1.792      0.2209065  0.2209065  0.32365    34.58452   6.038301   1.405      0.2996833  0.4430422  39.301     0.3113441  0.3113441  0.5981085 
1260.4     0.261      717.896    -9999      -9999      9.448638   1.611      1.515      1.114      0.743      1.085      1.84       0.23629    0.23629    0.331625   66.65335   7.252904   1.393      0.3369006  0.4637213  39.672     0.2888939  0.2888939  0.6179476 
1260.6     0.26       717.893    -9999      -9999      9.369007   1.624      1.522      1.127      0.893      1.088      1.972      0.2416505  0.2416505  0.3308     83.77442   8.547894   1.393      0.3497303  0.4679311  40.188     0.27015    0.27015    0.6464608 
1260.8     0.259      714.405    -9999      -9999      9.337151   1.643      1.537      1.277      0.853      1.1        2.074      0.2407111  0.2407111  0.3275     80.48451   9.128551   1.4        0.3490537  0.4652846  40.48      0.2629965  0.2629965  0.6630778 
1261       0.25       707.291    -9999      -9999      9.363719   1.658      1.53       1.147      0.821      1.073      2.187      0.2461718  0.2461718  0.334925   101.5913   8.641664   1.414      0.3646216  0.4797366  40.591     0.2689492  0.2689492  0.6694868 
1261.2     0.249      700.93     -9999      -9999      9.425299   1.71       1.515      1.277      0.743      1.076      2.32       0.2406211  0.2406211  0.3341     80.17611   7.610676   1.427      0.3546524  0.4764137  40.533     0.2832693  0.2832693  0.6661317 
1261.4     0.249      694.633    -9999      -9999      9.48093    1.712      1.516      1.107      0.717      1.089      2.453      0.2325609  0.2325609  0.330525   56.85269   6.785451   1.44       0.3380382  0.4680203  40.276     0.2968608  0.2968608  0.6514318 
1261.6     0.253      686.51     -9999      -9999      9.493495   1.693      1.551      1.036      0.762      1.094      2.566      0.1948697  0.1948697  0.32915    11.39248   6.61182    1.457      0.2430758  0.4381772  39.919     0.4069099  0.3000196  0.5138003 
1261.8     0.252      677.736    -9999      -9999      9.450831   1.675      1.62       0.645      0.684      1.113      2.632      0.1932196  0.1932196  0.323925   10.61829   7.220156   1.476      0.2420711  0.4345187  39.677     0.3960768  0.2894282  0.5027253 
1262       0.255      669.888    -9999      -9999      9.377093   1.658      1.726      1.251      0.925      1.088      2.726      0.2048948  0.2048948  0.3308     17.47053   8.406483   1.493      0.2836865  0.4577924  39.417     0.381531   0.2719965  0.4910655 
1262.2     0.254      661.069    -9999      -9999      9.318108   1.63       1.849      1.694      1.098      1.084      2.779      0.2106182  0.2106182  0.3319     22.30071   9.494324   1.513      0.3050235  0.4684611  39.078     0.3675205  0.2588112  0.4762298 
1262.4     0.253      653.382    -9999      -9999      9.300843   1.606      1.931      2.033      1.296      1.129      2.779      0.2006705  0.2006705  0.319525   14.59021   9.838579   1.53       0.2789026  0.4486135  38.821     0.3601653  0.2550743  0.4652563 
1262.6     0.241      649.021    -9999      -9999      9.310459   1.584      2.018      2.02       1.329      1.182      2.684      0.1898181  0.1898181  0.30495    9.184379   9.645325   1.541      0.2456658  0.4222275  38.223     0.3488845  0.257149   0.44062   
1262.8     0.241      637.166    -9999      -9999      9.309402   1.502      1.951      1.922      1.309      1.241      2.554      0.1785919  0.1785919  0.288725   5.690023   9.66637    1.569      0.2112249  0.393676   37.449     0.3337365  0.2569202  0.4105528 
1263       0.24       625.559    -9999      -9999      9.271732   1.468      1.886      1.648      1.264      1.266      2.442      0.1781349  0.1781349  0.28185    5.580182   10.44756   1.599      0.2164576  0.3901276  36.595     0.3142882  0.2488951  0.3796813 
1263.2     0.24       611.536    -9999      -9999      9.202352   1.474      1.849      1.407      1.199      1.246      2.418      0.1911357  0.1911357  0.28735    9.715255   12.05531   1.635      0.2707436  0.4207225  35.654     0.2915586  0.2347648  0.3483524 
1263.4     0.238      595.322    -9999      -9999      9.132072   1.519      1.831      1.394      1.244      1.237      2.424      0.1993344  0.1993344  0.289825   13.78208   13.93628   1.68       0.3058389  0.4412011  34.966     0.274214   0.2212691  0.3271588 
1263.6     0.235      582.162    -9999      -9999      9.100698   1.577      1.832      1.655      1.244      1.258      2.442      0.1969974  0.1969974  0.28405    12.47464   14.86816   1.718      0.3059948  0.4381302  34.447     0.2637957  0.2154976  0.3120939 
