~Version
 VERS              .         2.0                           : CWLS LOG ASCII STANDARD - VERSION 2.0
 WRAP              .         NO                            : ONE LINE PER DEPTH STEP
 DLM               .         SPACE                         : DELIMITING CHARACTER(SPACE TAB OR COMMA)
~Well Information
#_______________________________________________________________________________
#
#PARAMETER_NAME    .UNIT     VALUE                         : DESCRIPTION
#_______________________________________________________________________________
STRT               .M        960                           : First reference value
STOP               .M        1410                          : Last reference value
STEP               .M        0.2                           : Step increment
NULL               .         -9999                         : Missing value
COMP               .                                       : Company
WELL               .         4123                          : Well name
FLD                .         Узень                         : Field
LOC                .                                       : Location
CNTY               .                                       : County
STAT               .                                       : State
CTRY               .         Казахстан                     : Country
SRVC               .                                       : Service Company
DATE               .         21.07.1982                    : Date
UWI                .                                       : Unique Well ID
Block              .         3а                            : 
Cartographic_reference_system .         GCS_WGS_1984                  : ESRI,PE_10_3_1- <?xml version="1.0" encoding="utf-16"?><ILateBoundCoordinateReferenceSystem name="GCS_WGS_1984"><AuthorityCode>EPSG,4326</AuthorityCode></ILateBoundCoordinateReferenceSystem>
Category           .         Нефтяная                      : 
Condition          .         В работе                      : 
Date               .         21.07.1982                    : 
EREF               .m        234.2                         : 100.8
Gorizont           .         18                            : 14
HZCS               .GCS_WGS_1984 WGS_1984_EASE-Grid_2.0_Global : ESRI,PE_10_3_1- <?xml version="1.0" encoding="utf-16"?><ILateBoundCoordinateReferenceSystem name="WGS_1984_EASE-Grid_2.0_Global"><AuthorityCode>EPSG,6933</AuthorityCode></ILateBoundCoordinateReferenceSystem>
Interpretator      .         Картбаева Г.Е.                : 
Kupol              .         Основной                      : osnovnoi
LATI               .dega     0.6341814074                  : GCS_WGS_1984
LONG               .dega     0.5748008925                  : GCS_WGS_1984
Mud                .         0                             : 
Mud_density        .         0                             : 
Mud_resistivity    .         0                             : 
My_wells           .         18                            : 
NGDU               .         НГДУ-1                        : 
ORIGINALWELLNAME   .         4123                          : 
Spud_date          .         1982                          : 1961
Viscosity          .         0                             : 
X                  .m        55460.4                       : 46154
Y                  .m        80903                         : 85761.93
YEAR               .         2018                          : 
~Parameter Information Block
#_______________________________________________________________________________
#
#PARAMETER_NAME    .UNIT     VALUE                         : DESCRIPTION
#_______________________________________________________________________________
SET                .         LQC_KAZNIPI_Petrel            : 
TLFamily_CALI      .         Caliper                       : 
TLFamily_CILD      .         Conductivity                  : 
TLFamily_COLL      .         Net Reservoir Flag            : 
TLFamily_CSAT      .         Fluid Code                    : 
TLFamily_DEPT      .         Measured Depth                : 
TLFamily_GR        .         Russian Gamma Ray             : 
TLFamily_GZ3       .         Gradient 225                  : 
TLFamily_LLS       .         Lateral Log Resistivity       : 
TLFamily_MINV      .         Micro Gradient Resistivity    : 
TLFamily_MNOR      .         Micro Resistivity             : 
TLFamily_NGLD      .         Neutron Far                   : 
TLFamily_OGZ       .         Gradient Inverted 225         : 
TLFamily_PHIE      .         Effective Porosity            : 
TLFamily_PHIEN     .         Effective Porosity            : 
TLFamily_PHIT      .         Porosity                      : 
TLFamily_PRMB      .         Permeability                  : 
TLFamily_PRMB_DGR  .         Permeability                  : 
TLFamily_RT        .         Formation Resistivity         : 
TLFamily_SOIL_ARCHIE .         Oil Saturation                : 
TLFamily_SOIL_DW   .         Oil Saturation                : 
TLFamily_SP        .         Spontaneous Potential         : 
TLFamily_VSH_FIN   .         Shale Volume                  : 
TLFamily_VSH_GR    .         Shale Volume                  : 
TLFamily_VSH_SP    .         Shale Volume                  : 
~Curve Information
#_______________________________________________________________________________
#
#LOGNAME           .UNIT     LOG_ID                        : DESCRIPTION
#_______________________________________________________________________________
DEPT               .M                                      : Колонка глубины 
CALI               .м                                      : Каверномер 
CILD               .мСм/м                                  : Индукционный каротаж 
COLL               .unitless                               : Описание 
CSAT               .unitless                               : Описание 
GR                 .uR/h                                   : Гамма каротаж 
GZ3                .Ohmm                                   : Градиент-зонд  длиной 2.25м 
LLS                .Ohmm                                   : Боковой каротаж 
MINV               .Ohmm                                   : Микро-градиент зонд 
MNOR               .Ohmm                                   : Микро-потенциал зонд 
NGLD               .у.е.                                   : Показания зонда НГК-60 аппаратуры ДРСТ-3-90 
OGZ                .Ohmm                                   : Обращенный градиент-зонд 
PHIE               .v/v                                    : Описание 
PHIEN              .v/v                                    :  
PHIT               .v/v                                    : Описание 
PRMB               .mD                                     :  
PRMB_DGR           .mD                                     :  
RT                 .ohmm                                   : УЭС пласта 
SOIL_ARCHIE        .v/v                                    :  
SOIL_DW            .v/v                                    :  
SP                 .мВ                                     : Потенциал самополяризации 
VSH_FIN            .v/v                                    : Описание 
VSH_GR             .v/v                                    : Shale volume 
VSH_SP             .v/v                                    : Shale Volume 
~Ascii
# ...
966.2000000000001 0.222      179.052    -9999      -9999      8.008736   14.431     4.027      0.495      1.088      1.304      5.863      0.1959786  0.1959786  0.2714     11.94418   5.249863   5.585      0.7908121  0.8368572  43.552     0.2285498  0.3296505  0.1274492 
966.4      0.224      172.942    -9999      -9999      8.230133   12.616     4.534      1.355      1.694      1.269      5.601      0.1966722  0.1966722  0.281025   12.30283   3.621147   5.782      0.7948198  0.8428136  43.592     0.2556144  0.3836354  0.1275935 
966.6      0.225      174.404    -9999      -9999      8.378546   12.647     8.355      3.974      2.775      1.223      5.871      0.2026493  0.2026493  0.293675   15.87504   2.823047   5.734      0.7993172  0.8479349  43.42      0.2758354  0.4246889  0.1269818 
966.8      0.225      180.218    -9999      -9999      8.451031   13.871     7.438      3.27       2.632      1.125      6.163      0.2260316  0.2260316  0.320625   43.03392   2.499817   5.549      0.8146939  0.8598555  43.421     0.2866468  0.4463083  0.1269853 
967        0.222      214.216    -9999      -9999      8.490576   15.065     6.034      1.974      2.28       0.98       6.279      0.2638344  0.2638344  0.3605     215.7802   2.33936    4.668      0.8243579  0.8665167  43.507     0.292926   0.4585635  0.1272884 
967.2000000000001 0.226      223.567    -9999      -9999      8.565845   15.108     4.172      1.349      1.57       0.946      5.769      0.2690246  0.2690246  0.36985    269.244    2.061856   4.473      0.8238201  0.8666948  43.766     0.3055316  0.4828275  0.1282356 
967.4      0.238      273.697    -9999      -9999      8.70506    13.091     2.265      0.632      0.599      0.914      4.722      0.2696841  0.2696841  0.37865    276.9253   1.632419   3.654      0.8066939  0.8544772  44.031     0.3301996  0.5311385  0.1292606 
967.6      0.248      285.65     -9999      -9999      8.871236   10.381     1.674      0.248      0.397      0.932      3.857      0.2540573  0.2540573  0.3737     142.205    1.235271   3.501      0.7922499  0.8459727  44.197     0.3625538  0.5951748  0.1299327 
967.8      0.242      422.916    -9999      -9999      8.997188   7.921      1.676      0.235      0.319      0.958      2.952      0.2379991  0.2379991  0.36655    71.69337   0.9999965  2.365      0.7356481  0.8047028  44.283     0.3895481  0.6488059  0.1302903 
968        0.248      419.477    -9999      -9999      9.028492   6.26       1.797      0.221      0.248      0.991      2.526      0.226603   0.226603   0.357475   44.09562   0.9488361  2.384      0.7251401  0.798251   44.284     0.3965818  0.662869   0.1302945 
968.2000000000001 0.295      362.919    -9999      -9999      8.955552   4.565      2.207      0.876      1.587      1.04       2.299      0.2185121  0.2185121  0.344      31.22715   1.07234    2.755      0.7349139  0.8051665  44.206     0.3802664  0.6305628  0.1299699 
968.4      0.312      337.078    -9999      -9999      8.835846   5.052      3.863      2.137      3.961      1.074      3.817      0.217358   0.217358   0.33465    29.72726   1.310829   2.967      0.7427936  0.8090467  44.199     0.3554304  0.5809198  0.129941  
968.6      0.296      315.212    -9999      -9999      8.774488   8.145      4.887      0.638      0.762      1.042      5.458      0.2301611  0.2301611  0.34345    51.32165   1.452944   3.172      0.7628533  0.8227172  44.113     0.3432996  0.5570095  0.1295897 
968.8      0.247      390.751    -9999      -9999      8.858466   9.668      3.839      0.391      0.319      1.003      6.949      0.2354727  0.2354727  0.354175   64.3701    1.262019   2.559      0.7428705  0.807873   44.07      0.3597039  0.5899913  0.1294164 
969        0.223      396.185    -9999      -9999      9.098926   9.35       2.374      0.717      0.586      0.986      7.681      0.2227435  0.2227435  0.35885    37.40316   0.8430938  2.524      0.7283689  0.8027139  44.029     0.4124439  0.6956351  0.1292527 
969.2000000000001 0.229      403.867    -9999      -9999      9.423894   4.435      2.249      0.541      0.306      0.968      6.358      0.1990186  0.1990186  0.3638     13.59769   0.4887828  2.476      0.6976625  0.791393   44.115     0.4993376  0.8690774  0.1295978 
969.4      0.249      409.098    -9999      -9999      9.723433   4.061      2.078      0.808      0.495      0.934      4.829      0.1756935  0.1756935  0.37315    5.028378   0.2957213  2.444      0.6609258  0.7803189  44.138     0.598353   1.067015   0.1296912 
969.6      0.263      410.349    -9999      -9999      9.91488    3.711      1.999      0.58       0.456      0.942      3.899      0.1487201  0.1487201  0.37095    1.591533   0.2144874  2.437      0.6074238  0.7614863  44.288     0.6734239  1.216536   0.1303113 
969.8      0.248      409.476    -9999      -9999      9.9878     3.305      2.039      0.425      0.37       0.948      3.851      0.1367125  0.1367125  0.3693     0.9536853  0.1897906  2.442      0.5779638  0.7516873  44.397     0.7048106  1.278847   0.1307744 
970        0.251      411.023    -9999      -9999      9.992936   2.899      1.969      0.261      0.28       0.965      3.743      0.1312481  0.1312481  0.364625   0.755424   0.1881623  2.433      0.5619423  0.7447667  44.461     0.7072029  1.283355   0.1310513 
970.2000000000001 0.27       382.417    -9999      -9999      9.989729   2.712      2.219      0.248      0.443      0.99       3.579      0.124837   0.124837   0.35775    0.5747023  0.1891774  2.615      0.5576437  0.7454773  44.462     0.7057968  1.280538   0.1310557 
970.4      0.307      317.444    -9999      -9999      9.997651   3.017      2.928      1.296      1.42       1.019      3.502      0.1157123  0.1157123  0.349775   0.3894308  0.18668    3.15       0.5669405  0.7569507  44.462     0.7092809  1.287506   0.1310557 
970.6      0.307      315.019    -9999      -9999      9.989966   3.639      3.318      0.293      0.697      1.028      3.675      0.1144132  0.1144132  0.3473     0.3684415  0.1891021  3.174      0.5642161  0.7556795  44.377     0.7057175  1.280746   0.1306887 
970.8      0.259      351.87     -9999      -9999      9.938248   4.181      2.918      0.189      0.352      1.01       5.208      0.1268955  0.1268955  0.35225    0.6274385  0.2062418  2.842      0.5806072  0.7556392  44.12      0.6828923  1.236167   0.129618  
971        0.244      336.16     -9999      -9999      9.865296   4.09       2.971      0.221      0.352      1.032      5.222      0.1308091  0.1308091  0.3462     0.741414   0.2330914  2.975      0.6002296  0.7622684  44.088     0.6526996  1.17591    0.1294888 
971.2000000000001 0.255      309.299    -9999      -9999      9.831161   4.146      3.457      0.261      0.358      1.052      4.738      0.1297714  0.1297714  0.3407     0.7093137  0.2468286  3.233      0.6128544  0.7691289  44.121     0.6391777  1.148733   0.1296221 
971.4      0.263      296.699    -9999      -9999      9.851507   4.484      4.038      0.423      0.664      1.066      4.442      0.123235   0.123235   0.33685    0.5367471  0.2385463  3.37       0.602841   0.7669971  44.16      0.6473181  1.164855   0.1297809 
971.6      0.268      298.589    -9999      -9999      9.860346   5.142      4.562      0.99       1.472      1.027      4.789      0.1327603  0.1327603  0.347575   0.8057501  0.2350353  3.349      0.6266836  0.7779358  44.208     0.6509538  1.171929   0.1299781 
971.8      0.266      313.466    -9999      -9999      9.777039   5.279      3.631      0.28       0.658      0.988      5.505      0.1542111  0.1542111  0.3583     2.011511   0.2702886  3.19       0.6647748  0.791166   44.208     0.6184511  1.106924   0.1299781 
972        0.239      315.314    -9999      -9999      9.595805   5.121      3.172      1.446      1.368      0.959      5.716      0.1835089  0.1835089  0.366275   7.017606   0.3663259  3.171      0.711091   0.8091641  44.209     0.5538365  0.9776908  0.1299822 
972.2000000000001 0.24       333.54     -9999      -9999      9.400764   4.875      3.219      1.524      2.013      0.954      5.142      0.2051166  0.2051166  0.36765    17.63664   0.508121   2.998      0.7307911  0.8141423  44.124     0.4925253  0.8554164  0.1296343 
