~Version
 VERS              .         2.0                           : CWLS LOG ASCII STANDARD - VERSION 2.0
 WRAP              .         NO                            : ONE LINE PER DEPTH STEP
 DLM               .         SPACE                         : DELIMITING CHARACTER(SPACE TAB OR COMMA)
~Well Information
#_______________________________________________________________________________
#
#PARAMETER_NAME    .UNIT     VALUE                         : DESCRIPTION
#_______________________________________________________________________________
STRT               .M        960                           : First reference value
STOP               .M        1410                          : Last reference value
STEP               .M        0.2                           : Step increment
NULL               .         -9999                         : Missing value
COMP               .                                       : Company
WELL               .         4123                          : Well name
FLD                .         Узень                         : Field
LOC                .                                       : Location
CNTY               .                                       : County
STAT               .                                       : State
CTRY               .         Казахстан                     : Country
SRVC               .                                       : Service Company
DATE               .         21.07.1982                    : Date
UWI                .                                       : Unique Well ID
Block              .         3а                            : 
Cartographic_reference_system .         GCS_WGS_1984                  : ESRI,PE_10_3_1- <?xml version="1.0" encoding="utf-16"?><ILateBoundCoordinateReferenceSystem name="GCS_WGS_1984"><AuthorityCode>EPSG,4326</AuthorityCode></ILateBoundCoordinateReferenceSystem>
Category           .         Нефтяная                      : 
Condition          .         В работе                      : 
Date               .         21.07.1982                    : 
EREF               .m        234.2                         : 100.8
Gorizont           .         18                            : 14
HZCS               .GCS_WGS_1984 WGS_1984_EASE-Grid_2.0_Global : ESRI,PE_10_3_1- <?xml version="1.0" encoding="utf-16"?><ILateBoundCoordinateReferenceSystem name="WGS_1984_EASE-Grid_2.0_Global"><AuthorityCode>EPSG,6933</AuthorityCode></ILateBoundCoordinateReferenceSystem>
Interpretator      .         Картбаева Г.Е.                : 
Kupol              .         Основной                      : osnovnoi
LATI               .dega     0.6341814074                  : GCS_WGS_1984
LONG               .dega     0.5748008925                  : GCS_WGS_1984
Mud                .         0                             : 
Mud_density        .         0                             : 
Mud_resistivity    .         0                             : 
My_wells           .         18                            : 
NGDU               .         НГДУ-1                        : 
ORIGINALWELLNAME   .         4123                          : 
Spud_date          .         1982                          : 1961
Viscosity          .         0                             : 
X                  .m        55460.4                       : 46154
Y                  .m        80903                         : 85761.93
YEAR               .         2018                          : 
~Parameter Information Block
#_______________________________________________________________________________
#
#PARAMETER_NAME    .UNIT     VALUE                         : DESCRIPTION
#_______________________________________________________________________________
SET                .         LQC_KAZNIPI_Petrel            : 
TLFamily_CALI      .         Caliper                       : 
TLFamily_CILD      .         Conductivity                  : 
TLFamily_COLL      .         Net Reservoir Flag            : 
TLFamily_CSAT      .         Fluid Code                    : 
TLFamily_DEPT      .         Measured Depth                : 
TLFamily_GR        .         Russian Gamma Ray             : 
TLFamily_GZ3       .         Gradient 225                  : 
TLFamily_LLS       .         Lateral Log Resistivity       : 
TLFamily_MINV      .         Micro Gradient Resistivity    : 
TLFamily_MNOR      .         Micro Resistivity             : 
TLFamily_NGLD      .         Neutron Far                   : 
TLFamily_OGZ       .         Gradient Inverted 225         : 
TLFamily_PHIE      .         Effective Porosity            : 
TLFamily_PHIEN     .         Effective Porosity            : 
TLFamily_PHIT      .         Porosity                      : 
TLFamily_PRMB      .         Permeability                  : 
TLFamily_PRMB_DGR  .         Permeability                  : 
TLFamily_RT        .         Formation Resistivity         : 
TLFamily_SOIL_ARCHIE .         Oil Saturation                : 
TLFamily_SOIL_DW   .         Oil Saturation                : 
TLFamily_SP        .         Spontaneous Potential         : 
TLFamily_VSH_FIN   .         Shale Volume                  : 
TLFamily_VSH_GR    .         Shale Volume                  : 
TLFamily_VSH_SP    .         Shale Volume                  : 
~Curve Information
#_______________________________________________________________________________
#
#LOGNAME           .UNIT     LOG_ID                        : DESCRIPTION
#_______________________________________________________________________________
DEPT               .M                                      : Колонка глубины 
CALI               .м                                      : Каверномер 
CILD               .мСм/м                                  : Индукционный каротаж 
COLL               .unitless                               : Описание 
CSAT               .unitless                               : Описание 
GR                 .uR/h                                   : Гамма каротаж 
GZ3                .Ohmm                                   : Градиент-зонд  длиной 2.25м 
LLS                .Ohmm                                   : Боковой каротаж 
MINV               .Ohmm                                   : Микро-градиент зонд 
MNOR               .Ohmm                                   : Микро-потенциал зонд 
NGLD               .у.е.                                   : Показания зонда НГК-60 аппаратуры ДРСТ-3-90 
OGZ                .Ohmm                                   : Обращенный градиент-зонд 
PHIE               .v/v                                    : Описание 
PHIEN              .v/v                                    :  
PHIT               .v/v                                    : Описание 
PRMB               .mD                                     :  
PRMB_DGR           .mD                                     :  
RT                 .ohmm                                   : УЭС пласта 
SOIL_ARCHIE        .v/v                                    :  
SOIL_DW            .v/v                                    :  
SP                 .мВ                                     : Потенциал самополяризации 
VSH_FIN            .v/v                                    : Описание 
VSH_GR             .v/v                                    : Shale volume 
VSH_SP             .v/v                                    : Shale Volume 
~Ascii
# ...
1406.4     -9999      809.44     8          3          9.540748   1.59       2.182      2.743      2.169      1.245      -9999      0.2195603  0.2195603  0.287625   32.65477   6.968671   1.235      0.319241   0.4208677  13.66      0.2062568  0.2936486  0.118865  
1406.6     -9999      851.638    8          3          9.381366   1.558      2.1        1.798      2.691      1.259      -9999      0.221597   0.221597   0.283775   35.61826   9.616699   1.174      0.3084494  0.4038687  13.926     0.1884181  0.2574612  0.119375  
1406.8     -9999      919.102    8          3          9.275262   1.574      1.7        1.199      1.479      1.282      -9999      0.2188582  0.2188582  0.27745    31.69148   11.91638   1.088      0.2755104  0.3694216  13.848     0.177551   0.2358786  0.1192234 
1407       -9999      953.704    8          3          9.221433   1.558      1.622      0.723      1.251      1.246      -9999      0.2305004  0.2305004  0.28735    52.06969   13.28574   1.049      0.2955221  0.3844532  13.685     0.1722714  0.2256308  0.1189121 
1407.2     -9999      965.708    8          3          9.206747   1.559      1.607      0.71       1.094      1.259      -9999      0.2273869  0.2273869  0.283775   45.59476   13.68592   1.036      0.2829444  0.3725039  13.643     0.1708731  0.2229131  0.1188331 
1407.4     -9999      973.678    8          3          9.236291   -9999      1.6        1.01       1.036      1.283      -9999      0.2199142  0.2199142  0.277175   33.15149   12.89276   1.027      0.2587402  0.3519635  13.529     0.1735175  0.2284141  0.1186209 
1407.6     -9999      982.659    8          3          9.317043   -9999      1.593      0.938      0.997      1.256      -9999      0.224746   0.224746   0.2846     40.73799   10.95157   1.018      0.2696289  0.3647852  13.517     0.1813757  0.2441526  0.1185988 
1407.8     -9999      988.83     8          3          9.43873    -9999      1.577      0.834      1.088      1.221      -9999      0.230139   0.230139   0.294225   51.27314   8.564109   1.011      0.2822378  0.3808711  13.441     0.1942002  0.2699411  0.1184593 
1408       -9999      988.155    -9999      -9999      9.577618   -9999      1.561      -9999      -9999      1.195      -9999      0.2319235  0.2319235  0.301375   55.32781   6.468331   1.012      0.2873809  0.3915628  13.297     0.2104591  0.3027196  0.1181986 
1408.2     -9999      -9999      -9999      -9999      9.70664    -9999      -9999      -9999      -9999      1.181      -9999      1          1          0.305225   9323613800000000.0000000 4.983794   -9999      -9999      -9999      -9999      -4999.332  0.3367263  -9999     
1408.4     -9999      -9999      -9999      -9999      9.804862   -9999      -9999      -9999      -9999      1.176      -9999      1          1          0.3066     9323613800000000.0000000 4.086573   -9999      -9999      -9999      -9999      -4999.317  0.3651538  -9999     
1408.6     -9999      -9999      -9999      -9999      9.88042    -9999      -9999      -9999      -9999      1.16       -9999      1          1          0.311      9323613800000000.0000000 3.507912   -9999      -9999      -9999      -9999      -4999.306  0.3886446  -9999     
1408.8     -9999      -9999      -9999      -9999      9.968465   -9999      -9999      -9999      -9999      1.142      -9999      1          1          0.31595    9323613800000000.0000000 2.936155   -9999      -9999      -9999      -9999      -4999.291  0.4179308  -9999     
1409       -9999      -9999      -9999      -9999      10.08488   -9999      -9999      -9999      -9999      1.145      -9999      1          1          0.315125   9323613800000000.0000000 2.320659   -9999      -9999      -9999      -9999      -4999.27   0.4600689  -9999     
1409.2     -9999      -9999      -9999      -9999      -9999      -9999      -9999      -9999      -9999      1.122      -9999      -9999      -9999      0.32145    -9999      -9999      -9999      -9999      -9999      -9999      -9999      -9999      -9999     
1409.4     -9999      -9999      -9999      -9999      -9999      -9999      -9999      -9999      -9999      1.123      -9999      -9999      -9999      0.321175   -9999      -9999      -9999      -9999      -9999      -9999      -9999      -9999      -9999     
1409.6     -9999      -9999      -9999      -9999      -9999      -9999      -9999      -9999      -9999      1.144      -9999      -9999      -9999      0.3154     -9999      -9999      -9999      -9999      -9999      -9999      -9999      -9999      -9999     
1409.8     -9999      -9999      -9999      -9999      -9999      -9999      -9999      -9999      -9999      1.143      -9999      -9999      -9999      0.315675   -9999      -9999      -9999      -9999      -9999      -9999      -9999      -9999      -9999     
1410       -9999      -9999      -9999      -9999      -9999      -9999      -9999      -9999      -9999      1.158      -9999      -9999      -9999      0.31155    -9999      -9999      -9999      -9999      -9999      -9999      -9999      -9999      -9999     
