~Version
 VERS              .         2.0                           : CWLS LOG ASCII STANDARD - VERSION 2.0
 WRAP              .         NO                            : ONE LINE PER DEPTH STEP
 DLM               .         SPACE                         : DELIMITING CHARACTER(SPACE TAB OR COMMA)
~Well Information
#_______________________________________________________________________________
#
#PARAMETER_NAME    .UNIT     VALUE                         : DESCRIPTION
#_______________________________________________________________________________
STRT               .M        960                           : First reference value
STOP               .M        1410                          : Last reference value
STEP               .M        0.2                           : Step increment
NULL               .         -9999                         : Missing value
COMP               .                                       : Company
WELL               .         4123                          : Well name
FLD                .         Узень                         : Field
LOC                .                                       : Location
CNTY               .                                       : County
STAT               .                                       : State
CTRY               .         Казахстан                     : Country
SRVC               .                                       : Service Company
DATE               .         21.07.1982                    : Date
UWI                .                                       : Unique Well ID
Block              .         3а                            : 
Cartographic_reference_system .         GCS_WGS_1984                  : ESRI,PE_10_3_1- <?xml version="1.0" encoding="utf-16"?><ILateBoundCoordinateReferenceSystem name="GCS_WGS_1984"><AuthorityCode>EPSG,4326</AuthorityCode></ILateBoundCoordinateReferenceSystem>
Category           .         Нефтяная                      : 
Condition          .         В работе                      : 
Date               .         21.07.1982                    : 
EREF               .m        234.2                         : 100.8
Gorizont           .         18                            : 14
HZCS               .GCS_WGS_1984 WGS_1984_EASE-Grid_2.0_Global : ESRI,PE_10_3_1- <?xml version="1.0" encoding="utf-16"?><ILateBoundCoordinateReferenceSystem name="WGS_1984_EASE-Grid_2.0_Global"><AuthorityCode>EPSG,6933</AuthorityCode></ILateBoundCoordinateReferenceSystem>
Interpretator      .         Картбаева Г.Е.                : 
Kupol              .         Основной                      : osnovnoi
LATI               .dega     0.6341814074                  : GCS_WGS_1984
LONG               .dega     0.5748008925                  : GCS_WGS_1984
Mud                .         0                             : 
Mud_density        .         0                             : 
Mud_resistivity    .         0                             : 
My_wells           .         18                            : 
NGDU               .         НГДУ-1                        : 
ORIGINALWELLNAME   .         4123                          : 
Spud_date          .         1982                          : 1961
Viscosity          .         0                             : 
X                  .m        55460.4                       : 46154
Y                  .m        80903                         : 85761.93
YEAR               .         2018                          : 
~Parameter Information Block
#_______________________________________________________________________________
#
#PARAMETER_NAME    .UNIT     VALUE                         : DESCRIPTION
#_______________________________________________________________________________
SET                .         LQC_KAZNIPI_Petrel            : 
TLFamily_CALI      .         Caliper                       : 
TLFamily_CILD      .         Conductivity                  : 
TLFamily_COLL      .         Net Reservoir Flag            : 
TLFamily_CSAT      .         Fluid Code                    : 
TLFamily_DEPT      .         Measured Depth                : 
TLFamily_GR        .         Russian Gamma Ray             : 
TLFamily_GZ3       .         Gradient 225                  : 
TLFamily_LLS       .         Lateral Log Resistivity       : 
TLFamily_MINV      .         Micro Gradient Resistivity    : 
TLFamily_MNOR      .         Micro Resistivity             : 
TLFamily_NGLD      .         Neutron Far                   : 
TLFamily_OGZ       .         Gradient Inverted 225         : 
TLFamily_PHIE      .         Effective Porosity            : 
TLFamily_PHIEN     .         Effective Porosity            : 
TLFamily_PHIT      .         Porosity                      : 
TLFamily_PRMB      .         Permeability                  : 
TLFamily_PRMB_DGR  .         Permeability                  : 
TLFamily_RT        .         Formation Resistivity         : 
TLFamily_SOIL_ARCHIE .         Oil Saturation                : 
TLFamily_SOIL_DW   .         Oil Saturation                : 
TLFamily_SP        .         Spontaneous Potential         : 
TLFamily_VSH_FIN   .         Shale Volume                  : 
TLFamily_VSH_GR    .         Shale Volume                  : 
TLFamily_VSH_SP    .         Shale Volume                  : 
~Curve Information
#_______________________________________________________________________________
#
#LOGNAME           .UNIT     LOG_ID                        : DESCRIPTION
#_______________________________________________________________________________
DEPT               .M                                      : Колонка глубины 
CALI               .м                                      : Каверномер 
CILD               .мСм/м                                  : Индукционный каротаж 
COLL               .unitless                               : Описание 
CSAT               .unitless                               : Описание 
GR                 .uR/h                                   : Гамма каротаж 
GZ3                .Ohmm                                   : Градиент-зонд  длиной 2.25м 
LLS                .Ohmm                                   : Боковой каротаж 
MINV               .Ohmm                                   : Микро-градиент зонд 
MNOR               .Ohmm                                   : Микро-потенциал зонд 
NGLD               .у.е.                                   : Показания зонда НГК-60 аппаратуры ДРСТ-3-90 
OGZ                .Ohmm                                   : Обращенный градиент-зонд 
PHIE               .v/v                                    : Описание 
PHIEN              .v/v                                    :  
PHIT               .v/v                                    : Описание 
PRMB               .mD                                     :  
PRMB_DGR           .mD                                     :  
RT                 .ohmm                                   : УЭС пласта 
SOIL_ARCHIE        .v/v                                    :  
SOIL_DW            .v/v                                    :  
SP                 .мВ                                     : Потенциал самополяризации 
VSH_FIN            .v/v                                    : Описание 
VSH_GR             .v/v                                    : Shale volume 
VSH_SP             .v/v                                    : Shale Volume 
~Ascii
# ...
1053       0.23       472.98     -9999      -9999      6.609675   1.785      4.13       3.336      1.772      1.49       4.182      0.03125091 0.03125091 0.22025    0.01061697 15.50374   2.114      0          0.3191599  59.93      0.5727245  0.2118455  0.5727245 
1053.2     0.22       370.915    -9999      -9999      6.308554   1.959      3.756      2.997      2.365      1.649      5.362      0.01       0          0.176525   0.004289259 29.11459   2.696      0          0          59.482     0.5503469  0.163783   0.5503469 
1053.4     0.22       347.579    -9999      -9999      5.947101   2.169      4.19       3.961      2.502      1.755      5.59       0.01       0          0.147375   0.004289259 62.03231   2.877      0          0          58.981     0.526228   0.120262   0.526228  
1053.6     0.22       325.384    -9999      -9999      5.592728   2.376      4.21       1.537      1.498      1.777      5.614      0.01       0          0.141325   0.004289259 130.2238   3.073      0          0          58.123     0.487091   0.08884142 0.487091  
1053.8     0.22       307.343    -9999      -9999      5.304175   2.519      4.108      3.29       2.332      1.791      5.719      0.01       0          0.137475   0.004289259 238.2002   3.254      0          0          57.325     0.4530751  0.06942716 0.4530751 
1054       0.22       275.948    -9999      -9999      5.10576    2.783      3.861      2.984      2.189      1.792      6.822      0.01       0.005541259 0.1372     0.004289259 360.8051   3.624      0          0          55.932     0.3989658  0.05859958 0.3989658 
1054.2     0.22       264.433    -9999      -9999      4.985171   3.119      6.022      3.184      2.192      1.802      9.039      0.01310593 0.01310593 0.13445    0.004896791 464.3762   3.782      0          0.03341934 55.041     0.3677093  0.05286184 0.3677093 
1054.4     0.219      251.912    -9999      -9999      4.924342   3.588      9.859      3.355      2.195      1.793      8.742      0.02297172 0.02297172 0.136925   0.007458474 527.4177   3.97       0          0.2544686  54.354     0.345313   0.05018428 0.345313  
1054.6     0.219      240.253    -9999      -9999      4.923963   4.029      6.666      3.609      2.658      1.784      8.085      0.02831261 0.02831261 0.1394     0.009366479 527.8362   4.162      0          0.3407914  54.075     0.3366284  0.05016802 0.3366284 
1054.8     0.219      221.768    -9999      -9999      4.983284   4.492      2.216      2.195      2.137      1.77       6.92       0.02772381 0.02772381 0.14325    0.009134194 466.2139   4.509      0          0.3707331  54.504     0.3500794  0.05277665 0.3500794 
1055       0.22       217.004    -9999      -9999      5.078654   5.489      1.614      3.179      1.694      1.796      5.704      0.01363986 0.01363986 0.1361     0.00500958 381.8633   4.608      0          0.1439739  55.141     0.3710913  0.05725786 0.3710913 
1055.2     0.22       216.545    -9999      -9999      5.186061   6.903      2.405      3.948      3.961      1.712      5.857      0.02671933 0.02671933 0.1592     0.008751145 304.9936   4.618      0          0.4055686  56         0.4014566  0.06276181 0.4014566 
1055.4     0.221      223.345    -9999      -9999      5.304802   8.151      3.52       3.948      3.987      1.638      5.83       0.03675907 0.03675907 0.17955    0.01342843 237.8881   4.477      0.003104798 0.5082324  56.82      0.4326998  0.06946435 0.4326998 
1055.6     0.22       283.727    -9999      -9999      5.442097   8.291      4.472      2.306      2.853      1.569      4.844      0.0490102  0.0490102  0.198525   0.02264362 178.4811   3.525      0.1318974  0.538223   57.325     0.4530751  0.07811133 0.4530751 
1055.8     0.222      312.253    -9999      -9999      5.59715    6.212      4.073      2.267      2.059      1.447      5.049      0.07315708 0.07315708 0.232075   0.06341685 129.0244   3.203      0.3594192  0.6286575  57.997     0.4815694  0.08917774 0.4815694 
1056       0.226      363.11     -9999      -9999      5.76777    4.865      2.792      2.476      1.909      1.305      5.203      0.1048349  0.1048349  0.271125   0.2448805  90.28251   2.754      0.4973468  0.6878397  58.499     0.5039095  0.1031754  0.5039095 
1056.2     0.245      369.36     -9999      -9999      5.945435   4.775      1.747      0.248      0.287      1.222      4.866      0.117313   0.117313   0.29395    0.4169462  62.24899   2.707      0.5405495  0.7138084  59.171     0.5352635  0.1200909  0.5352635 
1056.4     0.22       292.788    -9999      -9999      6.096156   5.842      1.57       3.27       1.661      1.163      3.826      0.1261491  0.1261491  0.310175   0.6077787  45.40974   3.415      0.6132584  0.76063    59.63      0.5576543  0.1365982  0.5576543 
1056.6     0.22       286.084    -9999      -9999      6.174907   6.364      1.977      3.87       3.016      1.259      3.077      0.09224615 0.09224615 0.283775   0.1431464  38.51027   3.495      0.4975468  0.7133098  60.08      0.5803905  0.1461068  0.5803905 
1056.8     0.221      342.818    -9999      -9999      6.184927   5.421      2.256      2.617      2.4        1.292      2.591      0.08315416 0.08315416 0.2747     0.09713478 37.71111   2.917      0.4013312  0.6651613  60.081     0.5804419  0.1473633  0.5804419 
1057       0.223      467.462    -9999      -9999      6.202386   3.91       2.617      1.407      1.805      1.244      2.548      0.09489064 0.09489064 0.2879     0.160237   36.35813   2.139      0.3827395  0.6410573  60.167     0.5848769  0.1495783  0.5848769 
1057.2     0.242      486.492    -9999      -9999      6.306743   3.49       2.832      2.046      0.86       1.208      3.297      0.1047906  0.1047906  0.2978     0.244419   29.22518   2.056      0.4232378  0.6564898  60.167     0.5848769  0.1635297  0.5848769 
1057.4     0.267      466.724    -9999      -9999      6.494045   3.592      2.866      0.961      0.342      1.122      3.824      0.1313245  0.1313245  0.32145    0.7578904  19.74817   2.143      0.5352955  0.7090352  59.997     0.5761379  0.1919143  0.5761379 
1057.6     0.226      385.02     -9999      -9999      6.690647   4.088      1.878      1.811      1.622      1.083      3.583      0.1391315  0.1391315  0.332175   1.05733    13.08716   2.597      0.5961931  0.7471664  60.169     0.5849804  0.2270225  0.5849804 
1057.8     0.224      385.011    -9999      -9999      6.839883   4.297      1.39       1.238      1.238      1.097      3.17       0.1323251  0.1323251  0.328325   0.7909349  9.576602   2.597      0.578162   0.7395897  60.341     0.5939389  0.2579009  0.5939389 
1058       0.226      410.546    -9999      -9999      6.933298   4.201      1.414      2.111      2.261      1.158      2.435      0.1170159  0.1170159  0.31155    0.4116959  7.876108   2.436      0.516167   0.7072566  60.256     0.5894973  0.2793317  0.5894973 
1058.2     0.224      443.864    -9999      -9999      6.974132   3.157      1.438      1.629      1.055      1.156      2.433      0.1190394  0.1190394  0.3121     0.4488041  7.231023   2.253      0.5055459  0.6982844  60.17      0.585032   0.2892506  0.585032  
1058.4     0.228      532.663    -9999      -9999      6.968377   2.172      1.864      0.261      0.248      1.158      3.202      0.1270812  0.1270812  0.31155    0.6324267  7.318636   1.877      0.4911259  0.6789889  59.657     0.5589964  0.2878316  0.5589964 
1058.6     0.235      560.289    -9999      -9999      6.941556   1.964      2.686      0.248      0.241      1.108      3.775      0.1422224  0.1422224  0.3253     1.20632    7.741167   1.785      0.5276386  0.6947435  59.572     0.5547805  0.2813098  0.5547805 
1058.8     0.252      549.195    -9999      -9999      6.910844   2.295      3.326      0.306      0.287      1.084      4.395      0.1459978  0.1459978  0.3319     1.417072   8.255033   1.821      0.542601   0.7046289  59.744     0.5633399  0.2740231  0.5633399 
1059       0.247      388.745    -9999      -9999      6.851105   3.148      2.969      0.632      0.586      1.101      3.248      0.1427398  0.1427398  0.327225   1.233234   9.354336   2.572      0.6033016  0.7469272  59.658     0.5590461  0.2603858  0.5590461 
