~Version
 VERS              .         2.0                           : CWLS LOG ASCII STANDARD - VERSION 2.0
 WRAP              .         NO                            : ONE LINE PER DEPTH STEP
 DLM               .         SPACE                         : DELIMITING CHARACTER(SPACE TAB OR COMMA)
~Well Information
#_______________________________________________________________________________
#
#PARAMETER_NAME    .UNIT     VALUE                         : DESCRIPTION
#_______________________________________________________________________________
STRT               .M        960                           : First reference value
STOP               .M        1410                          : Last reference value
STEP               .M        0.2                           : Step increment
NULL               .         -9999                         : Missing value
COMP               .                                       : Company
WELL               .         4123                          : Well name
FLD                .         Узень                         : Field
LOC                .                                       : Location
CNTY               .                                       : County
STAT               .                                       : State
CTRY               .         Казахстан                     : Country
SRVC               .                                       : Service Company
DATE               .         21.07.1982                    : Date
UWI                .                                       : Unique Well ID
Block              .         3а                            : 
Cartographic_reference_system .         GCS_WGS_1984                  : ESRI,PE_10_3_1- <?xml version="1.0" encoding="utf-16"?><ILateBoundCoordinateReferenceSystem name="GCS_WGS_1984"><AuthorityCode>EPSG,4326</AuthorityCode></ILateBoundCoordinateReferenceSystem>
Category           .         Нефтяная                      : 
Condition          .         В работе                      : 
Date               .         21.07.1982                    : 
EREF               .m        234.2                         : 100.8
Gorizont           .         18                            : 14
HZCS               .GCS_WGS_1984 WGS_1984_EASE-Grid_2.0_Global : ESRI,PE_10_3_1- <?xml version="1.0" encoding="utf-16"?><ILateBoundCoordinateReferenceSystem name="WGS_1984_EASE-Grid_2.0_Global"><AuthorityCode>EPSG,6933</AuthorityCode></ILateBoundCoordinateReferenceSystem>
Interpretator      .         Картбаева Г.Е.                : 
Kupol              .         Основной                      : osnovnoi
LATI               .dega     0.6341814074                  : GCS_WGS_1984
LONG               .dega     0.5748008925                  : GCS_WGS_1984
Mud                .         0                             : 
Mud_density        .         0                             : 
Mud_resistivity    .         0                             : 
My_wells           .         18                            : 
NGDU               .         НГДУ-1                        : 
ORIGINALWELLNAME   .         4123                          : 
Spud_date          .         1982                          : 1961
Viscosity          .         0                             : 
X                  .m        55460.4                       : 46154
Y                  .m        80903                         : 85761.93
YEAR               .         2018                          : 
~Parameter Information Block
#_______________________________________________________________________________
#
#PARAMETER_NAME    .UNIT     VALUE                         : DESCRIPTION
#_______________________________________________________________________________
SET                .         LQC_KAZNIPI_Petrel            : 
TLFamily_CALI      .         Caliper                       : 
TLFamily_CILD      .         Conductivity                  : 
TLFamily_COLL      .         Net Reservoir Flag            : 
TLFamily_CSAT      .         Fluid Code                    : 
TLFamily_DEPT      .         Measured Depth                : 
TLFamily_GR        .         Russian Gamma Ray             : 
TLFamily_GZ3       .         Gradient 225                  : 
TLFamily_LLS       .         Lateral Log Resistivity       : 
TLFamily_MINV      .         Micro Gradient Resistivity    : 
TLFamily_MNOR      .         Micro Resistivity             : 
TLFamily_NGLD      .         Neutron Far                   : 
TLFamily_OGZ       .         Gradient Inverted 225         : 
TLFamily_PHIE      .         Effective Porosity            : 
TLFamily_PHIEN     .         Effective Porosity            : 
TLFamily_PHIT      .         Porosity                      : 
TLFamily_PRMB      .         Permeability                  : 
TLFamily_PRMB_DGR  .         Permeability                  : 
TLFamily_RT        .         Formation Resistivity         : 
TLFamily_SOIL_ARCHIE .         Oil Saturation                : 
TLFamily_SOIL_DW   .         Oil Saturation                : 
TLFamily_SP        .         Spontaneous Potential         : 
TLFamily_VSH_FIN   .         Shale Volume                  : 
TLFamily_VSH_GR    .         Shale Volume                  : 
TLFamily_VSH_SP    .         Shale Volume                  : 
~Curve Information
#_______________________________________________________________________________
#
#LOGNAME           .UNIT     LOG_ID                        : DESCRIPTION
#_______________________________________________________________________________
DEPT               .M                                      : Колонка глубины 
CALI               .м                                      : Каверномер 
CILD               .мСм/м                                  : Индукционный каротаж 
COLL               .unitless                               : Описание 
CSAT               .unitless                               : Описание 
GR                 .uR/h                                   : Гамма каротаж 
GZ3                .Ohmm                                   : Градиент-зонд  длиной 2.25м 
LLS                .Ohmm                                   : Боковой каротаж 
MINV               .Ohmm                                   : Микро-градиент зонд 
MNOR               .Ohmm                                   : Микро-потенциал зонд 
NGLD               .у.е.                                   : Показания зонда НГК-60 аппаратуры ДРСТ-3-90 
OGZ                .Ohmm                                   : Обращенный градиент-зонд 
PHIE               .v/v                                    : Описание 
PHIEN              .v/v                                    :  
PHIT               .v/v                                    : Описание 
PRMB               .mD                                     :  
PRMB_DGR           .mD                                     :  
RT                 .ohmm                                   : УЭС пласта 
SOIL_ARCHIE        .v/v                                    :  
SOIL_DW            .v/v                                    :  
SP                 .мВ                                     : Потенциал самополяризации 
VSH_FIN            .v/v                                    : Описание 
VSH_GR             .v/v                                    : Shale volume 
VSH_SP             .v/v                                    : Shale Volume 
~Ascii
# ...
1350.6     0.238      409.173    8          2          9.78655    2.604      1.852      1.16       0.86       1.159      2.532      0.1896382  0.1896382  0.311275   9.114197   4.691081   2.444      0.4194125  0.5668796  33.847     0.3685962  0.3451526  0.3920399 
1350.8     0.237      404.035    8          2          9.909865   2.601      1.853      1.16       0.762      1.197      2.472      0.170276   0.170276   0.300825   3.991017   3.640639   2.475      0.3660785  0.5409504  34.294     0.3956029  0.3827953  0.4084105 
1351       0.239      392.152    8          2          10.03128   2.532      1.853      1.121      0.853      1.214      2.561      0.1530925  0.1530925  0.29615    1.917797   2.836485   2.55       0.3142131  0.5233859  35.188     0.4335076  0.4238662  0.443149  
1351.2     0.24       387.526    8          2          10.15963   2.516      1.854      1.081      0.873      1.182      2.814      0.1509427  0.1509427  0.30495    1.749779   2.178662   2.58       0.3095142  0.5317643  35.629     0.4666887  0.4720847  0.4612927 
1351.4     0.244      381.62     -9999      -9999      10.3168    2.465      1.859      1.186      0.912      1.163      3.04       0.1393365  0.1393365  0.310175   1.066614   1.577132   2.62       0.2650079  0.525344   36.446     0.5176926  0.538664   0.4967212 
1351.6     0.243      365.714    -9999      -9999      10.5022    2.431      1.864      1.01       0.879      1.2        3.466      0.109795   0.109795   0.3        0.3025713  1.07733    2.734      0.113394   0.4804987  37.027     0.5763788  0.6293688  0.5233888 
1351.8     0.242      346.249    -9999      -9999      10.6805    2.432      1.874      0.769      0.638      1.18       3.958      0.1002798  0.1002798  0.3055     0.2016433  0.7467222  2.888      0.06491449 0.4834139  36.799     0.6218793  0.7309834  0.5127754 
1352       0.249      337.631    -9999      -9999      10.80931   2.555      1.856      0.56       0.547      1.187      4.453      0.08729859 0.08729859 0.303575   0.115915   0.5730136  2.962      0          0.4619922  36.437     0.6553831  0.8144482  0.4963179 
1352.2     0.257      333.415    -9999      -9999      10.86771   2.832      1.82       2.111      0.391      1.146      5.07       0.09718417 0.09718417 0.31485    0.1767033  0.5081837  2.999      0.05588298 0.4971503  35.689     0.6595934  0.8553732  0.4638136 
1352.4     0.27       331.365    -9999      -9999      10.85394   3.64       1.952      3.524      3.472      1.129      5.628      0.1096776  0.1096776  0.319525   0.3010598  0.5227737  3.018      0.1527837  0.5246378  34.762     0.6359013  0.8455436  0.426259  
1352.6     0.263      329.134    1          2          10.77422   4.153      2.179      0.879      0.84       1.097      6.775      0.1312382  0.1312382  0.328325   0.7551048  0.6158726  3.038      0.2776226  0.5643938  34.166     0.5972328  0.7908099  0.4036558 
1352.8     0.247      322.117    1          2          10.63515   3.727      2.368      1.616      1.368      1.087      7.741      0.1547682  0.1547682  0.331075   2.059878   0.8196935  3.104      0.3805519  0.5977831  33.062     0.5342629  0.7036766  0.3648491 
1353       0.238      309.553    1          2          10.43711   2.56       2.058      2.117      2.065      1.097      6.823      0.177263   0.177263   0.328325   5.376499   1.23158    3.23       0.4597871  0.6246648  31.612     0.4577635  0.5959024  0.3196246 
1353.2     0.227      298.829    1          2          10.17847   2.415      2.209      1.505      1.935      1.248      5.752      0.1641252  0.1641252  0.2868     3.070122   2.095913   3.346      0.4317998  0.5877406  29.472     0.3717417  0.4796083  0.2638751 
1353.4     0.22       289.346    1          2          9.878058   2.318      2.46       1.244      1.515      1.285      5.527      0.1791265  0.1791265  0.276625   5.821247   3.886642   3.456      0.4814072  0.6004344  27.237     0.2954499  0.3727101  0.2181898 
1353.6     0.218      286.429    1          2          9.584766   2.232      2.53       0.736      1.062      1.305      5.632      0.192717   0.192717   0.271125   10.39306   7.102688   3.491      0.5157033  0.6100201  25.017     0.2376002  0.2913734  0.183827  
1353.8     0.218      283.718    1          2          9.354467   2.181      2.612      0.879      0.958      1.334      5.847      0.1979699  0.1979699  0.26315    13.00294   11.40332   3.525      0.5290616  0.6097106  22.371     0.1975154  0.2401558  0.1548749 
1354       0.219      281.935    1          2          9.219875   2.223      2.651      1.687      1.544      1.335      6.13       0.203994   0.203994   0.262875   16.81208   15.03812   3.547      0.5425349  0.61567    20.737     0.1784273  0.2144998  0.1423549 
1354.2     0.219      273.21     1          2          9.182039   2.431      2.745      1.016      1.583      1.337      6.491      0.2052793  0.2052793  0.262325   17.7594    16.25448   3.66       0.5516772  0.6222212  20.02      0.1728658  0.2077942  0.1379375 
1354.4     0.216      265.947    1          2          9.215089   2.654      2.817      0.814      0.827      1.293      6.623      0.2170363  0.2170363  0.274425   29.3222    15.18682   3.76       0.578273   0.6453374  19.318     0.1739053  0.2136396  0.1341709 
1354.6     0.215      258.364    1          2          9.276294   2.934      2.892      1.524      1.596      1.309      6.701      0.2112288  0.2112288  0.270025   22.8891    13.39133   3.871      0.5740475  0.6430811  18.738     0.1781701  0.2249026  0.1314377 
1354.8     0.214      255.918    1          2          9.326342   3.459      3.067      1.55       1.524      1.322      6.737      0.2062998  0.2062998  0.26645    18.54945   12.08207   3.908      0.5671339  0.6384112  18.401     0.1822733  0.2345523  0.1299942 
1355       0.214      253.978    1          2          9.332488   3.892      3.169      1.635      1.655      1.338      6.703      0.2016962  0.2016962  0.26205    15.24267   11.93037   3.937      0.5600705  0.6327631  18.406     0.1828903  0.2357656  0.1300149 
1355.2     0.214      250.459    1          2          9.265197   4.018      3.146      1.166      1.511      1.342      6.623      0.2029547  0.2029547  0.26095    16.08319   13.70033   3.993      0.5653378  0.6354492  18.069     0.1757432  0.2228173  0.1286691 
1355.4     0.214      251.278    1          2          9.117256   4.137      3.124      1.036      1.218      1.322      6.485      0.2129555  0.2129555  0.26645    24.6383    18.56995   3.98       0.5825326  0.646569   17.731     0.1621045  0.1967961  0.127413  
1355.6     0.214      251.23     1          2          8.929809   4.264      3.113      1.368      1.407      1.297      6.168      0.2245551  0.2245551  0.273325   40.40768   27.29996   3.98       0.6013783  0.6595458  17.736     0.1477874  0.168144   0.1274309 
1355.8     0.215      249.447    1          2          8.774576   4.397      3.188      1.081      1.107      1.32       5.663      0.2215653  0.2215653  0.267      35.57003   37.56227   4.009      0.5980691  0.6542487  17.827     0.137681   0.1476014  0.1277605 
1356       0.215      248.531    1          2          8.683208   4.527      3.205      1.59       1.837      1.34       5.075      0.217836   0.217836   0.2615     30.33957   45.32356   4.024      0.592797   0.6482226  17.872     0.1323151  0.1367042  0.1279259 
1356.2     0.215      249.453    1          2          8.618421   4.933      3.22       1.212      1.394      1.353      4.655      0.2154274  0.2154274  0.257925   27.37765   51.78047   4.009      0.5881134  0.6430908  17.917     0.1287806  0.1294682  0.128093  
1356.4     0.215      250.64     1          2          8.521909   5.111      3.206      1.863      1.941      1.331      4.359      0.2229747  0.2229747  0.263975   37.77372   63.14379   3.99       0.5993906  0.6521477  18.178     0.1242435  0.1193931  0.1290939 
1356.6     0.215      260.179    1          2          8.379392   5.436      3.191      1.446      1.687      1.324      4.196      0.2269456  0.2269456  0.2659     44.74464   84.63857   3.844      0.5985409  0.6497572  18.44      0.1180436  0.1059312  0.1301561 
