~Version
 VERS              .         2.0                           : CWLS LOG ASCII STANDARD - VERSION 2.0
 WRAP              .         NO                            : ONE LINE PER DEPTH STEP
 DLM               .         SPACE                         : DELIMITING CHARACTER(SPACE TAB OR COMMA)
~Well Information
#_______________________________________________________________________________
#
#PARAMETER_NAME    .UNIT     VALUE                         : DESCRIPTION
#_______________________________________________________________________________
STRT               .M        960                           : First reference value
STOP               .M        1410                          : Last reference value
STEP               .M        0.2                           : Step increment
NULL               .         -9999                         : Missing value
COMP               .                                       : Company
WELL               .         4123                          : Well name
FLD                .         Узень                         : Field
LOC                .                                       : Location
CNTY               .                                       : County
STAT               .                                       : State
CTRY               .         Казахстан                     : Country
SRVC               .                                       : Service Company
DATE               .         21.07.1982                    : Date
UWI                .                                       : Unique Well ID
Block              .         3а                            : 
Cartographic_reference_system .         GCS_WGS_1984                  : ESRI,PE_10_3_1- <?xml version="1.0" encoding="utf-16"?><ILateBoundCoordinateReferenceSystem name="GCS_WGS_1984"><AuthorityCode>EPSG,4326</AuthorityCode></ILateBoundCoordinateReferenceSystem>
Category           .         Нефтяная                      : 
Condition          .         В работе                      : 
Date               .         21.07.1982                    : 
EREF               .m        234.2                         : 100.8
Gorizont           .         18                            : 14
HZCS               .GCS_WGS_1984 WGS_1984_EASE-Grid_2.0_Global : ESRI,PE_10_3_1- <?xml version="1.0" encoding="utf-16"?><ILateBoundCoordinateReferenceSystem name="WGS_1984_EASE-Grid_2.0_Global"><AuthorityCode>EPSG,6933</AuthorityCode></ILateBoundCoordinateReferenceSystem>
Interpretator      .         Картбаева Г.Е.                : 
Kupol              .         Основной                      : osnovnoi
LATI               .dega     0.6341814074                  : GCS_WGS_1984
LONG               .dega     0.5748008925                  : GCS_WGS_1984
Mud                .         0                             : 
Mud_density        .         0                             : 
Mud_resistivity    .         0                             : 
My_wells           .         18                            : 
NGDU               .         НГДУ-1                        : 
ORIGINALWELLNAME   .         4123                          : 
Spud_date          .         1982                          : 1961
Viscosity          .         0                             : 
X                  .m        55460.4                       : 46154
Y                  .m        80903                         : 85761.93
YEAR               .         2018                          : 
~Parameter Information Block
#_______________________________________________________________________________
#
#PARAMETER_NAME    .UNIT     VALUE                         : DESCRIPTION
#_______________________________________________________________________________
SET                .         LQC_KAZNIPI_Petrel            : 
TLFamily_CALI      .         Caliper                       : 
TLFamily_CILD      .         Conductivity                  : 
TLFamily_COLL      .         Net Reservoir Flag            : 
TLFamily_CSAT      .         Fluid Code                    : 
TLFamily_DEPT      .         Measured Depth                : 
TLFamily_GR        .         Russian Gamma Ray             : 
TLFamily_GZ3       .         Gradient 225                  : 
TLFamily_LLS       .         Lateral Log Resistivity       : 
TLFamily_MINV      .         Micro Gradient Resistivity    : 
TLFamily_MNOR      .         Micro Resistivity             : 
TLFamily_NGLD      .         Neutron Far                   : 
TLFamily_OGZ       .         Gradient Inverted 225         : 
TLFamily_PHIE      .         Effective Porosity            : 
TLFamily_PHIEN     .         Effective Porosity            : 
TLFamily_PHIT      .         Porosity                      : 
TLFamily_PRMB      .         Permeability                  : 
TLFamily_PRMB_DGR  .         Permeability                  : 
TLFamily_RT        .         Formation Resistivity         : 
TLFamily_SOIL_ARCHIE .         Oil Saturation                : 
TLFamily_SOIL_DW   .         Oil Saturation                : 
TLFamily_SP        .         Spontaneous Potential         : 
TLFamily_VSH_FIN   .         Shale Volume                  : 
TLFamily_VSH_GR    .         Shale Volume                  : 
TLFamily_VSH_SP    .         Shale Volume                  : 
~Curve Information
#_______________________________________________________________________________
#
#LOGNAME           .UNIT     LOG_ID                        : DESCRIPTION
#_______________________________________________________________________________
DEPT               .M                                      : Колонка глубины 
CALI               .м                                      : Каверномер 
CILD               .мСм/м                                  : Индукционный каротаж 
COLL               .unitless                               : Описание 
CSAT               .unitless                               : Описание 
GR                 .uR/h                                   : Гамма каротаж 
GZ3                .Ohmm                                   : Градиент-зонд  длиной 2.25м 
LLS                .Ohmm                                   : Боковой каротаж 
MINV               .Ohmm                                   : Микро-градиент зонд 
MNOR               .Ohmm                                   : Микро-потенциал зонд 
NGLD               .у.е.                                   : Показания зонда НГК-60 аппаратуры ДРСТ-3-90 
OGZ                .Ohmm                                   : Обращенный градиент-зонд 
PHIE               .v/v                                    : Описание 
PHIEN              .v/v                                    :  
PHIT               .v/v                                    : Описание 
PRMB               .mD                                     :  
PRMB_DGR           .mD                                     :  
RT                 .ohmm                                   : УЭС пласта 
SOIL_ARCHIE        .v/v                                    :  
SOIL_DW            .v/v                                    :  
SP                 .мВ                                     : Потенциал самополяризации 
VSH_FIN            .v/v                                    : Описание 
VSH_GR             .v/v                                    : Shale volume 
VSH_SP             .v/v                                    : Shale Volume 
~Ascii
# ...
1201.8     0.287      593.602    -9999      -9999      9.891737   2.447      1.73       0.28       0.391      1.063      3.397      0.2348817  0.2348817  0.337675   62.76769   1.394892   1.685      0.3903848  0.5163354  38.298     0.311495   0.566361   0.311495  
1202       0.284      592.738    -9999      -9999      9.860173   2.271      1.709      0.371      0.358      1.068      3.378      0.2327117  0.2327117  0.3363     57.21948   1.497622   1.687      0.385779   0.5136012  38.383     0.3139039  0.5501632  0.3139039 
1202.2     0.288      597.099    -9999      -9999      9.740001   2.236      1.779      0.104      0.319      1.072      3.236      0.2303447  0.2303447  0.3352     51.72496   1.962915   1.675      0.3782058  0.508853   38.517     0.3177434  0.4926207  0.3177434 
1202.4     0.302      600.911    -9999      -9999      9.600142   2.255      1.869      0.179      0.333      1.088      2.684      0.222977   0.222977   0.3308     37.77751   2.689364   1.664      0.3583686  0.4966929  38.824     0.3267363  0.4331855  0.3267363 
1202.6     0.306      602.061    -9999      -9999      9.525331   2.305      1.861      0.195      0.352      1.102      2.454      0.2175643  0.2175643  0.32695    29.98998   3.182699   1.661      0.3439323  0.487605   38.982     0.3314719  0.4043952  0.3314719 
1202.8     0.286      589.24     -9999      -9999      9.566072   2.341      1.793      0.332      0.476      1.104      2.402      0.2170242  0.2170242  0.3264     29.30714   2.903762   1.697      0.3490932  0.4920478  38.981     0.3314417  0.4198284  0.3314417 
1203       0.296      570.667    -9999      -9999      9.683148   2.407      1.812      0.391      0.508      1.114      2.389      0.2134235  0.2134235  0.32365    25.13498   2.230947   1.752      0.3493509  0.4941244  39.066     0.3340198  0.4675353  0.3340198 
1203.2     0.289      557.223    -9999      -9999      9.774908   2.407      2.016      0.593      0.651      1.126      2.398      0.2101335  0.2101335  0.32035    21.84444   1.814557   1.795      0.3479491  0.4939778  39.065     0.3339892  0.5086856  0.3339892 
1203.4     0.275      550.778    -9999      -9999      9.77531    2.39       2.202      0.274      0.274      1.112      2.508      0.2139936  0.2139936  0.3242     25.75364   1.812918   1.816      0.3616985  0.5041585  39.064     0.3339588  0.5088733  0.3339588 
1203.6     0.27       539.673    -9999      -9999      9.709596   2.343      2.739      0.678      0.75       1.141      2.814      0.1974499  0.1974499  0.316225   12.7177    4.233507   1.853      0.3218125  0.4852268  38.805     0.3599246  0.3599246  0.572435  
1203.8     0.255      530.985    -9999      -9999      9.644782   2.159      4.09       1.055      1.094      1.143      3.007      0.2032111  0.2032111  0.315675   16.26003   4.839177   1.883      0.3435556  0.4947612  38.289     0.3407996  0.3407996  0.5467394 
1204       0.269      498.56     -9999      -9999      9.596298   1.955      5.265      0.99       0.906      1.166      3.541      0.201387   0.201387   0.30935    15.04299   5.348254   2.006      0.3577369  0.5027711  38.031     0.3271605  0.3271605  0.5342724 
1204.2     0.283      446.875    -9999      -9999      9.513249   1.857      6.416      0.788      0.84       1.158      4.422      0.2108821  0.2108821  0.31155    22.55312   6.347777   2.238      0.4138847  0.5399874  37.858     0.3050542  0.3050542  0.5260535 
1204.4     0.284      384.239    -9999      -9999      9.354714   1.857      6.49       0.651      0.73       1.157      4.956      0.2237425  0.2237425  0.311825   39.03116   8.8037     2.603      0.4814368  0.5839913  37.685     0.2669168  0.2669168  0.5179463 
1204.6     0.285      349.706    8          2          9.147305   1.917      6.582      0.573      0.788      1.141      5.356      0.2422631  0.2422631  0.316225   85.99216   13.50512   2.86       0.5370533  0.6192176  37.427     0.2241269  0.2241269  0.5060617 
1204.8     0.27       312.858    8          2          8.954633   2.068      6.36       0.645      0.808      1.17       5.663      0.2453693  0.2453693  0.30825    98.17329   20.09687   3.196      0.5654153  0.6363854  37.426     0.1905475  0.1905475  0.5060161 
1205       0.261      257.386    8          2          8.814819   2.186      6.252      0.971      0.925      1.171      6.499      0.2520809  0.2520809  0.307975   130.71     26.81624   3.885      0.6126702  0.6737827  37.339     0.1693759  0.1693759  0.5020642 
1205.2     0.245      225.225    8          2          8.715515   2.428      5.397      0.899      1.147      1.178      7.145      0.2546416  0.2546416  0.30605    145.7933   32.91333   4.44       0.6393843  0.6950627  37.167     0.1557832  0.1557832  0.4943323 
1205.4     0.246      215.311    8          2          8.625791   2.608      5.607      1.485      1.134      1.184      9.86       0.256734   0.256734   0.3044     159.4026   39.60619   4.644      0.6494144  0.70195    36.757     0.1444423  0.1444423  0.4763335 
1205.6     0.251      202.556    8          2          8.544411   2.883      7.304      1.173      1.094      1.184      11.506     0.2598923  0.2598923  0.3044     182.3872   46.84653   4.937      0.6629452  0.7124344  36.478     0.1348717  0.1348717  0.4644291 
1205.8     0.246      192.373    8          2          8.500817   3.267      7.765      1.218      1.199      1.183      12.857     0.2617722  0.2617722  0.304675   197.6123   51.25496   5.198      0.6730543  0.7207534  36.219     0.1300086  0.1300086  0.4536237 
1206       0.236      181.305    8          2          8.514559   3.756      8.341      2.456      1.531      1.182      12.027     0.2615476  0.2615476  0.30495    195.7288   49.82231   5.516      0.681801   0.7289627  35.961     0.1315223  0.1315223  0.4430924 
1206.2     0.23       170.068    8          2          8.579321   4.138      6.125      1.244      1.505      1.194      9.656      0.255814   0.255814   0.30165    153.2688   43.59117   5.88       0.685182   0.7333316  35.788     0.138897   0.138897   0.4361594 
1206.4     0.227      159.811    8          2          8.689239   4.676      4.073      1.577      1.577      1.205      8.231      0.248342   0.248342   0.298625   111.4435   34.74683   6.257      0.6862329  0.7366849  35.92      0.1523727  0.1523727  0.44144   
1206.6     0.227      160.728    8          2          8.847344   5.17       3.164      1.954      1.427      1.193      7.55       0.2444783  0.2444783  0.301925   94.51251   25.07589   6.222      0.68108    0.735856   36.106     0.1740809  0.1740809  0.4489827 
1206.8     0.227      181.96     8          2          9.043091   5.648      3.388      1.072      1.163      1.184      7.425      0.2366545  0.2366545  0.3044     67.6977    16.7445    5.496      0.6522478  0.7164013  36.215     0.2052893  0.2052893  0.4534586 
1207       0.228      201.103    8          2          9.247242   6.411      2.519      1.231      1.577      1.171      7.147      0.2275168  0.2275168  0.307975   45.84808   10.98899   4.973      0.6228244  0.6989427  36.408     0.2438127  0.2438127  0.4614855 
1207.2     0.235      217.974    8          2          9.421497   7.386      2.45       1.44       1.792      1.191      6.611      0.209295   0.209295   0.302475   21.07701   7.670598   4.588      0.5787485  0.6720672  36.571     0.2823637  0.2823637  0.4683665 
1207.4     0.235      249.892    8          2          9.523211   8.188      2.363      2.117      2.033      1.192      6.129      0.2006838  0.2006838  0.3022     14.59853   6.218658   4.002      0.5341111  0.6425605  36.649     0.3076248  0.3076248  0.4716925 
1207.6     0.234      260.822    8          2          9.521805   9.826      2.537      1.661      1.739      1.181      5.866      0.203829   0.203829   0.305225   16.69418   6.236721   3.834      0.5310351  0.6392611  36.812     0.3072607  0.3072607  0.4787129 
1207.8     0.235      301.338    8          2          9.422478   10.792     2.827      1.472      1.342      1.18       6.018      0.212243   0.212243   0.3055     23.90086   7.655098   3.319      0.5155635  0.6188932  36.993     0.282597   0.282597   0.4866198 
