~Version
 VERS              .         2.0                           : CWLS LOG ASCII STANDARD - VERSION 2.0
 WRAP              .         NO                            : ONE LINE PER DEPTH STEP
 DLM               .         SPACE                         : DELIMITING CHARACTER(SPACE TAB OR COMMA)
~Well Information
#_______________________________________________________________________________
#
#PARAMETER_NAME    .UNIT     VALUE                         : DESCRIPTION
#_______________________________________________________________________________
STRT               .M        960                           : First reference value
STOP               .M        1410                          : Last reference value
STEP               .M        0.2                           : Step increment
NULL               .         -9999                         : Missing value
COMP               .                                       : Company
WELL               .         4123                          : Well name
FLD                .         Узень                         : Field
LOC                .                                       : Location
CNTY               .                                       : County
STAT               .                                       : State
CTRY               .         Казахстан                     : Country
SRVC               .                                       : Service Company
DATE               .         21.07.1982                    : Date
UWI                .                                       : Unique Well ID
Block              .         3а                            : 
Cartographic_reference_system .         GCS_WGS_1984                  : ESRI,PE_10_3_1- <?xml version="1.0" encoding="utf-16"?><ILateBoundCoordinateReferenceSystem name="GCS_WGS_1984"><AuthorityCode>EPSG,4326</AuthorityCode></ILateBoundCoordinateReferenceSystem>
Category           .         Нефтяная                      : 
Condition          .         В работе                      : 
Date               .         21.07.1982                    : 
EREF               .m        234.2                         : 100.8
Gorizont           .         18                            : 14
HZCS               .GCS_WGS_1984 WGS_1984_EASE-Grid_2.0_Global : ESRI,PE_10_3_1- <?xml version="1.0" encoding="utf-16"?><ILateBoundCoordinateReferenceSystem name="WGS_1984_EASE-Grid_2.0_Global"><AuthorityCode>EPSG,6933</AuthorityCode></ILateBoundCoordinateReferenceSystem>
Interpretator      .         Картбаева Г.Е.                : 
Kupol              .         Основной                      : osnovnoi
LATI               .dega     0.6341814074                  : GCS_WGS_1984
LONG               .dega     0.5748008925                  : GCS_WGS_1984
Mud                .         0                             : 
Mud_density        .         0                             : 
Mud_resistivity    .         0                             : 
My_wells           .         18                            : 
NGDU               .         НГДУ-1                        : 
ORIGINALWELLNAME   .         4123                          : 
Spud_date          .         1982                          : 1961
Viscosity          .         0                             : 
X                  .m        55460.4                       : 46154
Y                  .m        80903                         : 85761.93
YEAR               .         2018                          : 
~Parameter Information Block
#_______________________________________________________________________________
#
#PARAMETER_NAME    .UNIT     VALUE                         : DESCRIPTION
#_______________________________________________________________________________
SET                .         LQC_KAZNIPI_Petrel            : 
TLFamily_CALI      .         Caliper                       : 
TLFamily_CILD      .         Conductivity                  : 
TLFamily_COLL      .         Net Reservoir Flag            : 
TLFamily_CSAT      .         Fluid Code                    : 
TLFamily_DEPT      .         Measured Depth                : 
TLFamily_GR        .         Russian Gamma Ray             : 
TLFamily_GZ3       .         Gradient 225                  : 
TLFamily_LLS       .         Lateral Log Resistivity       : 
TLFamily_MINV      .         Micro Gradient Resistivity    : 
TLFamily_MNOR      .         Micro Resistivity             : 
TLFamily_NGLD      .         Neutron Far                   : 
TLFamily_OGZ       .         Gradient Inverted 225         : 
TLFamily_PHIE      .         Effective Porosity            : 
TLFamily_PHIEN     .         Effective Porosity            : 
TLFamily_PHIT      .         Porosity                      : 
TLFamily_PRMB      .         Permeability                  : 
TLFamily_PRMB_DGR  .         Permeability                  : 
TLFamily_RT        .         Formation Resistivity         : 
TLFamily_SOIL_ARCHIE .         Oil Saturation                : 
TLFamily_SOIL_DW   .         Oil Saturation                : 
TLFamily_SP        .         Spontaneous Potential         : 
TLFamily_VSH_FIN   .         Shale Volume                  : 
TLFamily_VSH_GR    .         Shale Volume                  : 
TLFamily_VSH_SP    .         Shale Volume                  : 
~Curve Information
#_______________________________________________________________________________
#
#LOGNAME           .UNIT     LOG_ID                        : DESCRIPTION
#_______________________________________________________________________________
DEPT               .M                                      : Колонка глубины 
CALI               .м                                      : Каверномер 
CILD               .мСм/м                                  : Индукционный каротаж 
COLL               .unitless                               : Описание 
CSAT               .unitless                               : Описание 
GR                 .uR/h                                   : Гамма каротаж 
GZ3                .Ohmm                                   : Градиент-зонд  длиной 2.25м 
LLS                .Ohmm                                   : Боковой каротаж 
MINV               .Ohmm                                   : Микро-градиент зонд 
MNOR               .Ohmm                                   : Микро-потенциал зонд 
NGLD               .у.е.                                   : Показания зонда НГК-60 аппаратуры ДРСТ-3-90 
OGZ                .Ohmm                                   : Обращенный градиент-зонд 
PHIE               .v/v                                    : Описание 
PHIEN              .v/v                                    :  
PHIT               .v/v                                    : Описание 
PRMB               .mD                                     :  
PRMB_DGR           .mD                                     :  
RT                 .ohmm                                   : УЭС пласта 
SOIL_ARCHIE        .v/v                                    :  
SOIL_DW            .v/v                                    :  
SP                 .мВ                                     : Потенциал самополяризации 
VSH_FIN            .v/v                                    : Описание 
VSH_GR             .v/v                                    : Shale volume 
VSH_SP             .v/v                                    : Shale Volume 
~Ascii
# ...
1084       0.324      739.418    -9999      -9999      8.836225   1.752      1.267      0.169      0.261      0.966      2.468      0.1676633  0.1676633  0.36435    3.570178   0.5642371  1.352      0.08054753 0.4025775  57.295     0.5960202  0.8195976  0.3724428 
1084.2     0.34       735.901    -9999      -9999      8.863263   1.77       1.233      0.163      0.208      0.951      2.196      0.1693413  0.1693413  0.368475   3.835043   0.5372533  1.359      0.09069391 0.4105003  57.244     0.6034354  0.8361632  0.3707076 
1084.4     0.323      736.775    -9999      -9999      8.854304   1.755      1.227      0.156      0.248      0.922      2.04       0.1774786  0.1774786  0.37645    5.426146   0.5460479  1.357      0.1265105  0.4281055  57.377     0.6029438  0.8306377  0.3752499 
1084.6     0.325      748.106    -9999      -9999      8.816319   1.7        1.219      0.176      0.326      0.897      1.975      0.1857368  0.1857368  0.383325   7.717118   0.5849649  1.337      0.1545645  0.4400391  57.795     0.598752   0.807612   0.389892  
1084.8     0.337      758.625    -9999      -9999      8.754333   1.652      1.209      0.221      0.391      0.906      1.99       0.1884247  0.1884247  0.38085    8.654459   0.6545159  1.318      0.1594512  0.43686    57.932     0.5831071  0.7714008  0.3948133 
1085       0.339      770.768    -9999      -9999      8.674549   1.6        1.197      0.189      0.313      0.897      2.046      0.1981914  0.1981914  0.383325   13.12636   0.7563434  1.297      0.1895591  0.4454799  57.933     0.5610108  0.7271721  0.3948494 
1085.2     0.349      782.97     -9999      -9999      8.5756     1.508      1.18       0.169      0.248      0.883      2.132      0.2088898  0.2088898  0.387175   20.7159    0.9049067  1.277      0.2201653  0.4558038  58.202     0.5402582  0.6758251  0.4046912 
1085.4     0.362      774.477    -9999      -9999      8.458      1.455      1.187      0.169      0.235      0.876      2.169      0.2201766  0.2201766  0.3891     33.52456   1.119872   1.291      0.2589019  0.4714343  58.191     0.5118891  0.619494   0.4042842 
1085.6     0.402      749.644    -9999      -9999      8.344706   1.629      1.269      0.176      0.235      0.892      2.062      0.2239914  0.2239914  0.3847     39.44777   1.375132   1.334      0.2810465  0.4799908  58.192     0.4869957  0.5696703  0.4043212 
1085.8     0.401      691.651    -9999      -9999      8.266413   1.822      1.348      0.176      0.287      0.884      1.97       0.2314768  0.2314768  0.3869     54.28376   1.584784   1.446      0.3272759  0.5087225  58.193     0.4709794  0.5376006  0.4043581 
1086       0.401      665.01     -9999      -9999      8.229205   1.944      1.386      0.176      0.306      0.876      1.958      0.236086   0.236086   0.3891     66.07609   1.695339   1.504      0.3508212  0.5236964  58.193     0.4636787  0.5229992  0.4043581 
1086.2     0.352      647.294    -9999      -9999      8.214463   1.979      1.52       0.182      0.261      0.904      2.004      0.2282643  0.2282643  0.3814     47.33335   1.741247   1.545      0.3398737  0.5179352  58.365     0.4640475  0.5173243  0.4107707 
1086.4     0.322      662.758    -9999      -9999      8.216601   1.962      1.493      0.182      0.339      0.92       2.175      0.2231878  0.2231878  0.377      38.11869   1.734511   1.509      0.3193262  0.5043768  58.452     0.4660975  0.5181435  0.4140515 
1086.6     0.329      666.218    -9999      -9999      8.256657   1.857      1.423      0.202      0.365      0.934      2.342      0.2162263  0.2162263  0.37315    28.3266    1.613055   1.501      0.2985313  0.4936334  58.538     0.4755262  0.5337331  0.4173194 
1086.8     0.315      623.908    -9999      -9999      8.341977   1.822      1.497      0.208      0.443      0.952      2.359      0.20553    0.20553    0.3682     17.95033   1.381949   1.603      0.2891147  0.4960272  58.539     0.4929394  0.5685211  0.4173576 
1087       0.31       616.55     -9999      -9999      8.438071   1.958      1.556      0.221      0.469      0.944      2.33       0.2004247  0.2004247  0.3704     14.43807   1.16106    1.622      0.2773758  0.4958439  58.601     0.5150768  0.6104243  0.4197291 
1087.2     0.32       620.91     -9999      -9999      8.49359    2.049      1.541      0.221      0.404      0.938      2.319      0.1982351  0.1982351  0.37205    13.15084   1.049916   1.611      0.2680958  0.4933249  58.54      0.5267117  0.6360277  0.4173958 
1087.4     0.308      643.168    -9999      -9999      8.489494   1.968      1.437      0.202      0.391      0.924      2.472      0.2027732  0.2027732  0.3759     15.95916   1.057739   1.555      0.2703693  0.4920175  58.481     0.5246266  0.6341026  0.4151507 
1087.6     0.297      681.979    -9999      -9999      8.454268   1.874      1.395      0.228      0.43       0.934      2.595      0.2023388  0.2023388  0.37315    15.66619   1.127472   1.466      0.2485055  0.4740399  58.541     0.5176097  0.6177855  0.4174339 
1087.8     0.32       698.681    -9999      -9999      8.432277   1.77       1.348      0.228      0.476      0.928      2.543      0.205091   0.205091   0.3748     17.61734   1.173317   1.431      0.2488267  0.4718762  58.627     0.5142698  0.6078122  0.4207274 
1088       0.324      694.993    -9999      -9999      8.436639   1.769      1.296      0.345      0.521      0.921      2.407      0.2064948  0.2064948  0.376725   18.70434   1.164078   1.439      0.2552272  0.4763864  58.658     0.5158492  0.6097776  0.4219208 
1088.2     0.324      674.08     -9999      -9999      8.428791   1.769      1.348      0.221      0.404      0.93       2.348      0.2033322  0.2033322  0.37425    16.34423   1.180754   1.484      0.2559774  0.4791746  58.856     0.5179326  0.6062464  0.4296188 
1088.4     0.317      667.111    -9999      -9999      8.363925   1.776      1.382      0.195      0.3        0.904      2.307      0.2144099  0.2144099  0.3814     26.215     1.328056   1.499      0.2929161  0.4982758  58.973     0.5060306  0.5778309  0.4342302 
1088.6     0.315      675.828    -9999      -9999      8.252542   1.787      1.342      0.274      0.45       0.901      2.336      0.2222147  0.2222147  0.382225   36.56898   1.625131   1.48       0.3104804  0.5028108  59.059     0.4848798  0.5321101  0.4376495 
1088.8     0.331      675.83     -9999      -9999      8.156923   1.752      1.314      0.287      0.469      0.915      2.386      0.2254806  0.2254806  0.378375   42.03444   1.93264    1.48       0.3191869  0.5026705  58.888     0.4633164  0.4957574  0.4308755 
1089       0.332      669.35     -9999      -9999      8.126014   1.717      1.355      0.267      0.554      0.928      2.389      0.2231955  0.2231955  0.3748     38.13112   2.043997   1.494      0.3161481  0.5001464  58.974     0.4594077  0.4845456  0.4342698 
1089.2     0.336      634.694    -9999      -9999      8.157868   1.823      1.469      0.202      0.554      0.943      2.172      0.216024   0.216024   0.370675   28.08318   1.929332   1.576      0.3138398  0.503658   59.147     0.4686394  0.4961043  0.4411746 
1089.4     0.319      621.055    -9999      -9999      8.228337   2.029      1.627      0.176      0.358      0.93       1.984      0.2146441  0.2146441  0.37425    26.4781    1.698008   1.61       0.3168759  0.5105191  59.233     0.4836544  0.5226634  0.4446453 
1089.6     0.285      573.002    -9999      -9999      8.329663   2.189      1.894      0.221      0.293      0.917      1.973      0.2114968  0.2114968  0.377825   23.1522    1.413138   1.745      0.3336892  0.5297942  59.234     0.5040248  0.5633637  0.4446858 
1089.8     0.262      564.52     -9999      -9999      8.45989    2.355      1.94       0.267      0.45       0.933      2.158      0.198265   0.198265   0.373425   13.16758   1.116042   1.771      0.2999972  0.5178692  59.148     0.530788   0.6203612  0.4412148 
1090       0.252      581.721    -9999      -9999      8.595319   2.399      1.649      0.371      0.625      0.951      2.395      0.1830861  0.1830861  0.368475   6.892182   0.8731369  1.719      0.2391482  0.4911765  59.063     0.5617846  0.68576    0.4378092 
