~Version
 VERS              .         2.0                           : CWLS LOG ASCII STANDARD - VERSION 2.0
 WRAP              .         NO                            : ONE LINE PER DEPTH STEP
 DLM               .         SPACE                         : DELIMITING CHARACTER(SPACE TAB OR COMMA)
~Well Information
#_______________________________________________________________________________
#
#PARAMETER_NAME    .UNIT     VALUE                         : DESCRIPTION
#_______________________________________________________________________________
STRT               .M        960                           : First reference value
STOP               .M        1410                          : Last reference value
STEP               .M        0.2                           : Step increment
NULL               .         -9999                         : Missing value
COMP               .                                       : Company
WELL               .         4123                          : Well name
FLD                .         Узень                         : Field
LOC                .                                       : Location
CNTY               .                                       : County
STAT               .                                       : State
CTRY               .         Казахстан                     : Country
SRVC               .                                       : Service Company
DATE               .         21.07.1982                    : Date
UWI                .                                       : Unique Well ID
Block              .         3а                            : 
Cartographic_reference_system .         GCS_WGS_1984                  : ESRI,PE_10_3_1- <?xml version="1.0" encoding="utf-16"?><ILateBoundCoordinateReferenceSystem name="GCS_WGS_1984"><AuthorityCode>EPSG,4326</AuthorityCode></ILateBoundCoordinateReferenceSystem>
Category           .         Нефтяная                      : 
Condition          .         В работе                      : 
Date               .         21.07.1982                    : 
EREF               .m        234.2                         : 100.8
Gorizont           .         18                            : 14
HZCS               .GCS_WGS_1984 WGS_1984_EASE-Grid_2.0_Global : ESRI,PE_10_3_1- <?xml version="1.0" encoding="utf-16"?><ILateBoundCoordinateReferenceSystem name="WGS_1984_EASE-Grid_2.0_Global"><AuthorityCode>EPSG,6933</AuthorityCode></ILateBoundCoordinateReferenceSystem>
Interpretator      .         Картбаева Г.Е.                : 
Kupol              .         Основной                      : osnovnoi
LATI               .dega     0.6341814074                  : GCS_WGS_1984
LONG               .dega     0.5748008925                  : GCS_WGS_1984
Mud                .         0                             : 
Mud_density        .         0                             : 
Mud_resistivity    .         0                             : 
My_wells           .         18                            : 
NGDU               .         НГДУ-1                        : 
ORIGINALWELLNAME   .         4123                          : 
Spud_date          .         1982                          : 1961
Viscosity          .         0                             : 
X                  .m        55460.4                       : 46154
Y                  .m        80903                         : 85761.93
YEAR               .         2018                          : 
~Parameter Information Block
#_______________________________________________________________________________
#
#PARAMETER_NAME    .UNIT     VALUE                         : DESCRIPTION
#_______________________________________________________________________________
SET                .         LQC_KAZNIPI_Petrel            : 
TLFamily_CALI      .         Caliper                       : 
TLFamily_CILD      .         Conductivity                  : 
TLFamily_COLL      .         Net Reservoir Flag            : 
TLFamily_CSAT      .         Fluid Code                    : 
TLFamily_DEPT      .         Measured Depth                : 
TLFamily_GR        .         Russian Gamma Ray             : 
TLFamily_GZ3       .         Gradient 225                  : 
TLFamily_LLS       .         Lateral Log Resistivity       : 
TLFamily_MINV      .         Micro Gradient Resistivity    : 
TLFamily_MNOR      .         Micro Resistivity             : 
TLFamily_NGLD      .         Neutron Far                   : 
TLFamily_OGZ       .         Gradient Inverted 225         : 
TLFamily_PHIE      .         Effective Porosity            : 
TLFamily_PHIEN     .         Effective Porosity            : 
TLFamily_PHIT      .         Porosity                      : 
TLFamily_PRMB      .         Permeability                  : 
TLFamily_PRMB_DGR  .         Permeability                  : 
TLFamily_RT        .         Formation Resistivity         : 
TLFamily_SOIL_ARCHIE .         Oil Saturation                : 
TLFamily_SOIL_DW   .         Oil Saturation                : 
TLFamily_SP        .         Spontaneous Potential         : 
TLFamily_VSH_FIN   .         Shale Volume                  : 
TLFamily_VSH_GR    .         Shale Volume                  : 
TLFamily_VSH_SP    .         Shale Volume                  : 
~Curve Information
#_______________________________________________________________________________
#
#LOGNAME           .UNIT     LOG_ID                        : DESCRIPTION
#_______________________________________________________________________________
DEPT               .M                                      : Колонка глубины 
CALI               .м                                      : Каверномер 
CILD               .мСм/м                                  : Индукционный каротаж 
COLL               .unitless                               : Описание 
CSAT               .unitless                               : Описание 
GR                 .uR/h                                   : Гамма каротаж 
GZ3                .Ohmm                                   : Градиент-зонд  длиной 2.25м 
LLS                .Ohmm                                   : Боковой каротаж 
MINV               .Ohmm                                   : Микро-градиент зонд 
MNOR               .Ohmm                                   : Микро-потенциал зонд 
NGLD               .у.е.                                   : Показания зонда НГК-60 аппаратуры ДРСТ-3-90 
OGZ                .Ohmm                                   : Обращенный градиент-зонд 
PHIE               .v/v                                    : Описание 
PHIEN              .v/v                                    :  
PHIT               .v/v                                    : Описание 
PRMB               .mD                                     :  
PRMB_DGR           .mD                                     :  
RT                 .ohmm                                   : УЭС пласта 
SOIL_ARCHIE        .v/v                                    :  
SOIL_DW            .v/v                                    :  
SP                 .мВ                                     : Потенциал самополяризации 
VSH_FIN            .v/v                                    : Описание 
VSH_GR             .v/v                                    : Shale volume 
VSH_SP             .v/v                                    : Shale Volume 
~Ascii
# ...
997.2000000000001 0.22       860.673    1          3          4.204351   1.274      1.817      1.176      1.401      1.359      1.466      0.2288987  0.2288987  0.256275   48.63153   3103.718   1.162      0.6182705  0.6580446  46.429     0.08295842 0.02433673 0.1415801 
997.4      0.219      858.977    1          3          4.255322   1.35       1.662      1.303      1.362      1.378      1.466      0.223531   0.223531   0.25105    38.68078   2849.355   1.164      0.6106135  0.6507001  46.429     0.08339079 0.02520147 0.1415801 
997.6      0.22       859.411    1          3          4.27454    1.416      1.499      1.257      1.518      1.388      1.394      0.2208156  0.2208156  0.2483     34.45073   2758.958   1.164      0.6064463  0.6466255  46.344     0.0832861  0.02553543 0.1410368 
997.8      0.22       869.452    1          3          4.243215   1.489      1.35       1.303      1.564      1.361      1.361      0.2285334  0.2285334  0.255725   47.8796    2907.821   1.15       0.6158723  0.6556175  46.146     0.08239891 0.02499332 0.1398045 
998        0.22       880.419    1          3          4.197197   1.466      1.316      1.394      1.694      1.329      1.316      0.2374341  0.2374341  0.264525   69.98627   3141.191   1.136      0.6263029  0.6657357  46.173     0.08209378 0.02421776 0.1399698 
998.2000000000001 0.22       893.019    1          3          4.187794   1.419      1.528      1.251      1.518      1.33       1.291      0.2372701  0.2372701  0.26425    69.49854   3191.138   1.12       0.6235807  0.6630631  46.088     0.08175727 0.02406226 0.1394523 
998.4      0.22       908.728    1          3          4.232836   1.379      1.697      1.212      1.316      1.302      1.322      0.2450143  0.2450143  0.27195    96.69782   2958.893   1.1        0.6308562  0.6701814  45.916     0.0816234  0.02481626 0.1384305 
998.6      0.219      916.338    1          3          4.312458   1.327      1.719      1.055      1.107      1.297      1.326      0.2463219  0.2463219  0.273325   102.2437   2588.929   1.091      0.6311442  0.6705343  45.745     0.08182768 0.02620737 0.137448  
998.8      0.219      932.295    1          3          4.393061   1.256      1.821      1.485      1.147      1.329      1.256      0.2374341  0.2374341  0.264525   69.98632   2261.493   1.073      0.6161625  0.6560627  45.573     0.08209372 0.02769509 0.1364924 
999        0.219      959.384    1          3          4.451665   1.273      1.922      1.401      1.121      1.318      1.273      0.240271   0.240271   0.26755    78.98779   2049.738   1.042      0.6148504  0.6550146  45.574     0.08266366 0.02882951 0.1364978 
999.2000000000001 0.219      986.87     1          3          4.492677   1.238      2.048      1.212      1.173      1.295      1.238      0.2462209  0.2462209  0.273875   101.8045   1913.457   1.013      0.6179422  0.6583728  45.833     0.08380023 0.02965092 0.1379495 
999.4      0.219      1002.739   1          3          4.540791   1.238      2.107      1.472      1.375      1.288      1.238      0.247982   0.247982   0.2758     109.7454   1765.081   0.997      0.617459   0.6580662  45.833     0.08429699 0.03064445 0.1379495 
999.6      0.22       1029.3     1          3          4.608647   1.238      1.805      1.446      1.537      1.269      1.248      0.2528832  0.2528832  0.281025   135.2595   1575.17    0.972      0.619416   0.6602675  45.92      0.0852782  0.03210249 0.1384539 
999.8      0.22       1077.158   1          3          4.684797   1.185      1.804      1.433      1.264      1.301      1.372      0.2437996  0.2437996  0.272225   91.81577   1386.269   0.928      0.5984606  0.64024    45.92      0.08613771 0.03382152 0.1384539 
1000       0.22       1070.295   1          3          4.751513   1.145      1.649      1.414      1.368      1.308      1.447      0.2416126  0.2416126  0.2703     83.6393    1239.484   0.934      0.5965191  0.6385096  45.921     0.08693141 0.03540306 0.1384598 
1000.2     0.22       1055.968   1          3          4.793235   1.116      1.678      1.407      1.238      1.28       1.499      0.2491433  0.2491433  0.278      115.3177   1155.695   0.947      0.6097018  0.6513814  45.921     0.08744463 0.0364295  0.1384598 
1000.4     0.22       1045.724   1          3          4.797216   1.151      1.727      1.316      1.336      1.3        1.464      0.2437092  0.2437092  0.2725     91.46249   1148.003   0.956      0.603895   0.6456692  45.835     0.08724499 0.03652897 0.137961  
1000.6     0.22       1042.216   1          3          4.753161   1.187      1.712      1.173      1.309      1.3        1.447      0.2441271  0.2441271  0.2725     93.10727   1236.061   0.959      0.6050668  0.6465164  45.577     0.08597863 0.03544306 0.1365142 
1000.8     0.22       1034.354   1          3          4.655982   1.238      1.613      1.016      1.27       1.312      1.395      0.2414004  0.2414004  0.2692     82.88568   1454.927   0.967      0.6027361  0.6438302  45.354     0.08424111 0.03316047 0.1353217 
1001       0.22       1025.265   1          3          4.513358   1.254      1.581      0.873      1.42       1.279      1.378      0.2511264  0.2511264  0.278275   125.4956   1848.212   0.975      0.6176515  0.6579117  45.187     0.08226844 0.03007395 0.1344629 
1001.2     0.22       1017.748   1          3          4.350885   1.256      1.668      1.296      1.316      1.284      1.407      0.2503065  0.2503065  0.2769     121.1828   2427.299   0.983      0.6180285  0.6578929  45.148     0.08058644 0.02690639 0.1342665 
1001.4     0.219      1015.313   1          3          4.198946   1.256      1.89       1.094      1.238      1.285      1.43       0.2503985  0.2503985  0.276625   121.6595   3131.993   0.985      0.6185148  0.6581256  45.234     0.07947425 0.02424677 0.1347017 
1001.6     0.219      1008.125   1          3          4.077179   1.238      2.218      1.394      1.283      1.266      1.422      0.2559209  0.2559209  0.28185    153.969    3841.803   0.992      0.6269361  0.66615    45.261     0.07857315 0.02230637 0.1348399 
1001.8     0.219      1002.004   1          3          4.001152   1.204      2.218      1.57       1.309      1.29       1.396      0.249383   0.249383   0.27525    116.503    4364.417   0.998      0.6195105  0.6588144  45.406     0.07838473 0.02117439 0.1355951 
1002       0.219      989.506    1          3          3.988241   1.169      2.117      1.596      1.277      1.293      1.331      0.2485132  0.2485132  0.274425   112.26     4459.976   1.011      0.6206616  0.6599151  45.492     0.07852069 0.02098795 0.1360534 
1002.2     0.218      990.636    1          3          4.03765    1.152      2.004      1.44       1.173      1.272      1.309      0.254169   0.254169   0.2802     142.8841   4105.207   1.009      0.6276782  0.6668645  45.492     0.07888194 0.02171046 0.1360534 
1002.4     0.218      993.243    1          3          4.120346   1.169      1.832      1.362      1.147      1.292      1.266      0.2484602  0.2484602  0.2747     112.0064   3573.434   1.007      0.6198846  0.6593816  45.492     0.07951462 0.02297581 0.1360534 
1002.6     0.219      996.809    1          3          4.209785   1.222      1.658      1.309      1.16       1.311      1.239      0.2429187  0.2429187  0.269475   88.43049   3075.553   1.003      0.6116188  0.6515218  45.578     0.08047358 0.02442749 0.1365197 
1002.8     0.221      1003.258   1          3          4.308838   1.239      1.473      1.094      1.003      1.324      1.261      0.2391261  0.2391261  0.2659     75.22361   2604.695   0.997      0.6051491  0.645368   45.505     0.08113294 0.02614248 0.1361234 
1003       0.216      1012.408   1          3          4.431528   1.261      1.31       1.107      1.199      1.356      1.309      0.2299595  0.2299595  0.2571     50.88221   2120.165   0.988      0.5897334  0.6305951  45.492     0.08224399 0.02843456 0.1360534 
1003.2     0.216      1023.028   1          3          4.57773    1.309      1.205      1.101      1.329      1.347      1.328      0.2320159  0.2320159  0.259575   55.54636   1659.022   0.977      0.5907578  0.6319429  45.406     0.08351242 0.03142976 0.1355951 
