~Version
 VERS              .         2.0                           : CWLS LOG ASCII STANDARD - VERSION 2.0
 WRAP              .         NO                            : ONE LINE PER DEPTH STEP
 DLM               .         SPACE                         : DELIMITING CHARACTER(SPACE TAB OR COMMA)
~Well Information
#_______________________________________________________________________________
#
#PARAMETER_NAME    .UNIT     VALUE                         : DESCRIPTION
#_______________________________________________________________________________
STRT               .M        960                           : First reference value
STOP               .M        1410                          : Last reference value
STEP               .M        0.2                           : Step increment
NULL               .         -9999                         : Missing value
COMP               .                                       : Company
WELL               .         4123                          : Well name
FLD                .         Узень                         : Field
LOC                .                                       : Location
CNTY               .                                       : County
STAT               .                                       : State
CTRY               .         Казахстан                     : Country
SRVC               .                                       : Service Company
DATE               .         21.07.1982                    : Date
UWI                .                                       : Unique Well ID
Block              .         3а                            : 
Cartographic_reference_system .         GCS_WGS_1984                  : ESRI,PE_10_3_1- <?xml version="1.0" encoding="utf-16"?><ILateBoundCoordinateReferenceSystem name="GCS_WGS_1984"><AuthorityCode>EPSG,4326</AuthorityCode></ILateBoundCoordinateReferenceSystem>
Category           .         Нефтяная                      : 
Condition          .         В работе                      : 
Date               .         21.07.1982                    : 
EREF               .m        234.2                         : 100.8
Gorizont           .         18                            : 14
HZCS               .GCS_WGS_1984 WGS_1984_EASE-Grid_2.0_Global : ESRI,PE_10_3_1- <?xml version="1.0" encoding="utf-16"?><ILateBoundCoordinateReferenceSystem name="WGS_1984_EASE-Grid_2.0_Global"><AuthorityCode>EPSG,6933</AuthorityCode></ILateBoundCoordinateReferenceSystem>
Interpretator      .         Картбаева Г.Е.                : 
Kupol              .         Основной                      : osnovnoi
LATI               .dega     0.6341814074                  : GCS_WGS_1984
LONG               .dega     0.5748008925                  : GCS_WGS_1984
Mud                .         0                             : 
Mud_density        .         0                             : 
Mud_resistivity    .         0                             : 
My_wells           .         18                            : 
NGDU               .         НГДУ-1                        : 
ORIGINALWELLNAME   .         4123                          : 
Spud_date          .         1982                          : 1961
Viscosity          .         0                             : 
X                  .m        55460.4                       : 46154
Y                  .m        80903                         : 85761.93
YEAR               .         2018                          : 
~Parameter Information Block
#_______________________________________________________________________________
#
#PARAMETER_NAME    .UNIT     VALUE                         : DESCRIPTION
#_______________________________________________________________________________
SET                .         LQC_KAZNIPI_Petrel            : 
TLFamily_CALI      .         Caliper                       : 
TLFamily_CILD      .         Conductivity                  : 
TLFamily_COLL      .         Net Reservoir Flag            : 
TLFamily_CSAT      .         Fluid Code                    : 
TLFamily_DEPT      .         Measured Depth                : 
TLFamily_GR        .         Russian Gamma Ray             : 
TLFamily_GZ3       .         Gradient 225                  : 
TLFamily_LLS       .         Lateral Log Resistivity       : 
TLFamily_MINV      .         Micro Gradient Resistivity    : 
TLFamily_MNOR      .         Micro Resistivity             : 
TLFamily_NGLD      .         Neutron Far                   : 
TLFamily_OGZ       .         Gradient Inverted 225         : 
TLFamily_PHIE      .         Effective Porosity            : 
TLFamily_PHIEN     .         Effective Porosity            : 
TLFamily_PHIT      .         Porosity                      : 
TLFamily_PRMB      .         Permeability                  : 
TLFamily_PRMB_DGR  .         Permeability                  : 
TLFamily_RT        .         Formation Resistivity         : 
TLFamily_SOIL_ARCHIE .         Oil Saturation                : 
TLFamily_SOIL_DW   .         Oil Saturation                : 
TLFamily_SP        .         Spontaneous Potential         : 
TLFamily_VSH_FIN   .         Shale Volume                  : 
TLFamily_VSH_GR    .         Shale Volume                  : 
TLFamily_VSH_SP    .         Shale Volume                  : 
~Curve Information
#_______________________________________________________________________________
#
#LOGNAME           .UNIT     LOG_ID                        : DESCRIPTION
#_______________________________________________________________________________
DEPT               .M                                      : Колонка глубины 
CALI               .м                                      : Каверномер 
CILD               .мСм/м                                  : Индукционный каротаж 
COLL               .unitless                               : Описание 
CSAT               .unitless                               : Описание 
GR                 .uR/h                                   : Гамма каротаж 
GZ3                .Ohmm                                   : Градиент-зонд  длиной 2.25м 
LLS                .Ohmm                                   : Боковой каротаж 
MINV               .Ohmm                                   : Микро-градиент зонд 
MNOR               .Ohmm                                   : Микро-потенциал зонд 
NGLD               .у.е.                                   : Показания зонда НГК-60 аппаратуры ДРСТ-3-90 
OGZ                .Ohmm                                   : Обращенный градиент-зонд 
PHIE               .v/v                                    : Описание 
PHIEN              .v/v                                    :  
PHIT               .v/v                                    : Описание 
PRMB               .mD                                     :  
PRMB_DGR           .mD                                     :  
RT                 .ohmm                                   : УЭС пласта 
SOIL_ARCHIE        .v/v                                    :  
SOIL_DW            .v/v                                    :  
SP                 .мВ                                     : Потенциал самополяризации 
VSH_FIN            .v/v                                    : Описание 
VSH_GR             .v/v                                    : Shale volume 
VSH_SP             .v/v                                    : Shale Volume 
~Ascii
# ...
1022       0.289      533.533    -9999      -9999      7.90048    2.07       1.9        0.982      0.562      1.031      2.122      0.1344828  0.1344828  0.346475   0.8671737  1.040606   1.874      0.5152436  0.7043989  64.023     0.6424006  0.6383452  0.6424006 
1022.2     0.268      539.788    -9999      -9999      7.899606   2.07       1.738      0.43       0.482      1.029      2.076      0.1331591  0.1331591  0.347025   0.8195725  1.042511   1.853      0.5084567  0.7016217  64.124     0.6480785  0.6378686  0.6480785 
1022.4     0.267      564.033    -9999      -9999      7.884763   2.088      1.627      0.632      0.651      1.027      2.053      0.1337091  0.1337091  0.347575   0.8390253  1.075402   1.773      0.4999691  0.6958039  64.124     0.6480785  0.6298289  0.6480785 
1022.6     0.258      548.912    -9999      -9999      7.891973   2.088      1.75       0.717      1.524      1.024      2.142      0.1357601  0.1357601  0.3484     0.9157237  1.059298   1.822      0.5128273  0.7024055  64.058     0.6443633  0.6337215  0.6443633 
1022.8     0.258      545.421    -9999      -9999      7.95323    2.133      1.868      0.58       1.049      1.06       2.192      0.1246527  0.1246527  0.3385     0.5702022  0.9318457  1.833      0.4767096  0.6865535  64.123     0.6480221  0.6677778  0.6480221 
1023       0.275      553.886    -9999      -9999      8.060122   2.192      1.756      0.925      0.606      1.057      2.175      0.1254777  0.1254777  0.339325   0.5906215  0.7450663  1.805      0.4759353  0.6855028  64.123     0.6480221  0.7316462  0.6480221 
1023.2     0.277      569.055    -9999      -9999      8.159436   2.21       1.743      1.068      0.612      1.017      2.142      0.1364777  0.1364777  0.350325   0.9441833  0.6052482  1.757      0.5067215  0.6985828  64.123     0.6480221  0.7964489  0.6480221 
1023.4     0.273      584.836    -9999      -9999      8.195121   2.28       1.696      1.003      0.56       0.981      2.063      0.1479739  0.1479739  0.360225   1.541678   0.5616964  1.71       0.5343847  0.7100726  64.037     0.6431851  0.8211093  0.6431851 
1023.6     0.281      601.23     -9999      -9999      8.161555   2.315      1.571      0.443      0.528      0.948      2.019      0.1602115  0.1602115  0.3693     2.598147   0.6025701  1.663      0.5597982  0.7204155  63.865     0.6336015  0.7978924  0.6336015 
1023.8     0.273      619.107    -9999      -9999      8.115804   2.25       1.444      0.56       0.599      0.951      2.019      0.1686376  0.1686376  0.368475   3.721655   0.6631152  1.615      0.5731919  0.7226675  63.349     0.6055678  0.7673001  0.6055678 
1024       0.271      636.342    -9999      -9999      8.114135   2.234      1.361      0.365      0.345      0.955      2.037      0.174758   0.174758   0.367375   4.831703   0.6654353  1.571      0.5808423  0.7230244  62.932     0.5836879  0.7662066  0.5836879 
1024.2     0.277      658.128    -9999      -9999      8.153433   2.129      1.321      0.495      0.456      0.955      2.056      0.179313   0.179313   0.367375   5.867723   0.6129002  1.519      0.5836058  0.7217029  62.662     0.5698849  0.7923735  0.5698849 
1024.4     0.288      674.682    -9999      -9999      8.196778   2.076      1.379      0.41       0.495      0.924      2.235      0.187838   0.187838   0.3759     8.440595   0.5597514  1.482      0.5954597  0.7276643  62.662     0.5698849  0.8222731  0.5698849 
1024.6     0.302      670.69     -9999      -9999      8.230206   1.998      1.491      0.235      0.287      0.929      2.424      0.186463   0.186463   0.374525   7.95985    0.5219331  1.491      0.5940179  0.7270185  62.662     0.5698849  0.8460994  0.5698849 
1024.8     0.306      651.692    -9999      -9999      8.259018   1.929      1.548      0.671      0.619      0.901      2.629      0.192739   0.192739   0.382225   10.40286   0.4913925  1.534      0.6107839  0.73787    62.747     0.5741999  0.8671897  0.5741999 
1025       0.285      634.64     -9999      -9999      8.276211   1.933      1.613      0.782      0.671      0.868      2.588      0.1974353  0.1974353  0.3913     12.7098    0.4740267  1.576      0.6236603  0.7474566  63.005     0.5874689  0.8800243  0.5874689 
1025.2     0.286      615.652    -9999      -9999      8.270614   1.975      1.683      0.274      0.56       0.898      2.55       0.1847377  0.1847377  0.38305    7.395179   0.4796118  1.624      0.6068037  0.7404088  63.262     0.6009463  0.8758252  0.6009463 
1025.4     0.273      617.109    -9999      -9999      8.247667   2.072      1.593      0.456      0.476      0.926      2.428      0.1725037  0.1725037  0.37535    4.388795   0.5032048  1.62       0.5821417  0.7286985  63.519     0.6146857  0.8588192  0.6146857 
1025.6     0.27       633.663    -9999      -9999      8.223231   2.02       1.517      0.443      0.476      0.929      2.403      0.1654914  0.1654914  0.374525   3.254314   0.5296065  1.578      0.5613889  0.7194024  63.862     0.6334352  0.841072   0.6334352 
1025.8     0.283      639.756    -9999      -9999      8.21131    1.933      1.565      0.453      0.455      0.932      2.574      0.1615045  0.1615045  0.3737     2.74545    0.5429847  1.563      0.549961   0.7145001  64.034     0.6430166  0.8325478  0.6430166 
1026       0.286      617.246    -9999      -9999      8.218447   1.876      1.726      0.463      0.436      0.938      2.664      0.159873   0.159873   0.37205    2.560907   0.5349358  1.62       0.5535315  0.7175717  64.033     0.6429606  0.8376403  0.6429606 
1026.2     0.295      587.946    -9999      -9999      8.235453   1.898      1.857      0.443      0.638      0.968      2.664      0.1532088  0.1532088  0.3638     1.927331   0.5162334  1.701      0.5471518  0.7154722  63.947     0.6381552  0.8499017  0.6381552 
1026.4     0.294      567.647    -9999      -9999      8.23461    1.916      1.785      0.938      0.84       0.995      2.567      0.1473596  0.1473596  0.356375   1.501813   0.5171448  1.762      0.5392178  0.7121785  63.861     0.6333799  0.8492897  0.6333799 
1026.6     0.275      569.687    -9999      -9999      8.190876   1.846      1.657      0.3        0.41       0.99       2.56       0.1487346  0.1487346  0.35775    1.592517   0.5667083  1.755      0.5420755  0.713438   63.861     0.6333799  0.8181363  0.6333799 
1026.8     0.279      575.215    -9999      -9999      8.097821   1.812      1.726      0.58       0.619      0.957      2.595      0.1546665  0.1546665  0.366825   2.050957   0.6885452  1.738      0.5553838  0.7209927  64.032     0.6429046  0.7555996  0.6429046 
1027       0.272      557.997    -9999      -9999      7.965976   1.863      1.787      1.537      0.795      0.987      2.578      0.1448209  0.1448209  0.358575   1.347695   0.9073192  1.792      0.5358819  0.7132351  64.118     0.6477398  0.6750907  0.6477398 
1027.2     0.28       544.822    -9999      -9999      7.821127   1.934      1.724      0.3        0.86       1          2.595      0.1380433  0.1380433  0.355      1.009379   1.228588   1.835      0.5214519  0.7086934  64.289     0.6574447  0.5964947  0.6574447 
1027.4     0.293      541.169    -9999      -9999      7.704405   1.969      1.754      0.951      0.945      1.029      2.703      0.1270739  0.1270739  0.347025   0.6322302  1.568518   1.848      0.4873685  0.6947062  64.447     0.6665184  0.53987    0.6665184 
1027.6     0.271      535.091    -9999      -9999      7.646987   2.066      1.784      0.651      0.834      1.022      2.822      0.1254493  0.1254493  0.34895    0.5899069  1.768778   1.869      0.4843328  0.6955361  64.632     0.6772749  0.5140209  0.6772749 
1027.8     0.285      532.527    -9999      -9999      7.631068   2.143      1.837      0.632      0.645      1.014      2.805      0.1259832  0.1259832  0.35115    0.6034937  1.828697   1.878      0.4873935  0.6978868  64.718     0.6823236  0.5070758  0.6823236 
1028       0.272      529.856    -9999      -9999      7.600162   2.161      1.859      0.873      0.45       1.029      2.77       0.1218776  0.1218776  0.347025   0.5065562  1.950881   1.887      0.4735689  0.6920275  64.717     0.6822647  0.4938592  0.6822647 
