~Version
 VERS              .         2.0                           : CWLS LOG ASCII STANDARD - VERSION 2.0
 WRAP              .         NO                            : ONE LINE PER DEPTH STEP
 DLM               .         SPACE                         : DELIMITING CHARACTER(SPACE TAB OR COMMA)
~Well Information
#_______________________________________________________________________________
#
#PARAMETER_NAME    .UNIT     VALUE                         : DESCRIPTION
#_______________________________________________________________________________
STRT               .M        960                           : First reference value
STOP               .M        1410                          : Last reference value
STEP               .M        0.2                           : Step increment
NULL               .         -9999                         : Missing value
COMP               .                                       : Company
WELL               .         4123                          : Well name
FLD                .         Узень                         : Field
LOC                .                                       : Location
CNTY               .                                       : County
STAT               .                                       : State
CTRY               .         Казахстан                     : Country
SRVC               .                                       : Service Company
DATE               .         21.07.1982                    : Date
UWI                .                                       : Unique Well ID
Block              .         3а                            : 
Cartographic_reference_system .         GCS_WGS_1984                  : ESRI,PE_10_3_1- <?xml version="1.0" encoding="utf-16"?><ILateBoundCoordinateReferenceSystem name="GCS_WGS_1984"><AuthorityCode>EPSG,4326</AuthorityCode></ILateBoundCoordinateReferenceSystem>
Category           .         Нефтяная                      : 
Condition          .         В работе                      : 
Date               .         21.07.1982                    : 
EREF               .m        234.2                         : 100.8
Gorizont           .         18                            : 14
HZCS               .GCS_WGS_1984 WGS_1984_EASE-Grid_2.0_Global : ESRI,PE_10_3_1- <?xml version="1.0" encoding="utf-16"?><ILateBoundCoordinateReferenceSystem name="WGS_1984_EASE-Grid_2.0_Global"><AuthorityCode>EPSG,6933</AuthorityCode></ILateBoundCoordinateReferenceSystem>
Interpretator      .         Картбаева Г.Е.                : 
Kupol              .         Основной                      : osnovnoi
LATI               .dega     0.6341814074                  : GCS_WGS_1984
LONG               .dega     0.5748008925                  : GCS_WGS_1984
Mud                .         0                             : 
Mud_density        .         0                             : 
Mud_resistivity    .         0                             : 
My_wells           .         18                            : 
NGDU               .         НГДУ-1                        : 
ORIGINALWELLNAME   .         4123                          : 
Spud_date          .         1982                          : 1961
Viscosity          .         0                             : 
X                  .m        55460.4                       : 46154
Y                  .m        80903                         : 85761.93
YEAR               .         2018                          : 
~Parameter Information Block
#_______________________________________________________________________________
#
#PARAMETER_NAME    .UNIT     VALUE                         : DESCRIPTION
#_______________________________________________________________________________
SET                .         LQC_KAZNIPI_Petrel            : 
TLFamily_CALI      .         Caliper                       : 
TLFamily_CILD      .         Conductivity                  : 
TLFamily_COLL      .         Net Reservoir Flag            : 
TLFamily_CSAT      .         Fluid Code                    : 
TLFamily_DEPT      .         Measured Depth                : 
TLFamily_GR        .         Russian Gamma Ray             : 
TLFamily_GZ3       .         Gradient 225                  : 
TLFamily_LLS       .         Lateral Log Resistivity       : 
TLFamily_MINV      .         Micro Gradient Resistivity    : 
TLFamily_MNOR      .         Micro Resistivity             : 
TLFamily_NGLD      .         Neutron Far                   : 
TLFamily_OGZ       .         Gradient Inverted 225         : 
TLFamily_PHIE      .         Effective Porosity            : 
TLFamily_PHIEN     .         Effective Porosity            : 
TLFamily_PHIT      .         Porosity                      : 
TLFamily_PRMB      .         Permeability                  : 
TLFamily_PRMB_DGR  .         Permeability                  : 
TLFamily_RT        .         Formation Resistivity         : 
TLFamily_SOIL_ARCHIE .         Oil Saturation                : 
TLFamily_SOIL_DW   .         Oil Saturation                : 
TLFamily_SP        .         Spontaneous Potential         : 
TLFamily_VSH_FIN   .         Shale Volume                  : 
TLFamily_VSH_GR    .         Shale Volume                  : 
TLFamily_VSH_SP    .         Shale Volume                  : 
~Curve Information
#_______________________________________________________________________________
#
#LOGNAME           .UNIT     LOG_ID                        : DESCRIPTION
#_______________________________________________________________________________
DEPT               .M                                      : Колонка глубины 
CALI               .м                                      : Каверномер 
CILD               .мСм/м                                  : Индукционный каротаж 
COLL               .unitless                               : Описание 
CSAT               .unitless                               : Описание 
GR                 .uR/h                                   : Гамма каротаж 
GZ3                .Ohmm                                   : Градиент-зонд  длиной 2.25м 
LLS                .Ohmm                                   : Боковой каротаж 
MINV               .Ohmm                                   : Микро-градиент зонд 
MNOR               .Ohmm                                   : Микро-потенциал зонд 
NGLD               .у.е.                                   : Показания зонда НГК-60 аппаратуры ДРСТ-3-90 
OGZ                .Ohmm                                   : Обращенный градиент-зонд 
PHIE               .v/v                                    : Описание 
PHIEN              .v/v                                    :  
PHIT               .v/v                                    : Описание 
PRMB               .mD                                     :  
PRMB_DGR           .mD                                     :  
RT                 .ohmm                                   : УЭС пласта 
SOIL_ARCHIE        .v/v                                    :  
SOIL_DW            .v/v                                    :  
SP                 .мВ                                     : Потенциал самополяризации 
VSH_FIN            .v/v                                    : Описание 
VSH_GR             .v/v                                    : Shale volume 
VSH_SP             .v/v                                    : Shale Volume 
~Ascii
# ...
1288.6     0.216      435.471    -9999      -9999      9.370397   4.283      1.677      1.277      0.977      1.263      2.508      0.1761023  0.1761023  0.282675   5.116823   8.523429   2.296      0.3321622  0.4895385  36.472     0.3229475  0.2704664  0.3754286 
1288.8     0.219      456.549    -9999      -9999      9.509635   4.666      1.631      0.43       0.99       1.234      1.835      0.170959   0.170959   0.29065    4.108966   6.395287   2.19       0.2993262  0.4796767  37.731     0.3627002  0.3041267  0.4212736 
1289       0.218      482.157    -9999      -9999      9.590222   4.979      1.718      0.762      0.56       1.181      1.774      0.1739393  0.1739393  0.305225   4.665915   5.415714   2.074      0.2919405  0.4843295  38.937     0.3978353  0.3254903  0.4701804 
1289.2     0.218      504.711    -9999      -9999      9.570581   4.367      1.686      1.042      0.886      1.156      1.748      0.178848   0.178848   0.3121     5.752492   5.63967    1.981      0.2938564  0.4851362  39.335     0.4037941  0.3201491  0.487439  
1289.4     0.231      525.298    -9999      -9999      9.498797   3.08       1.662      0.86       0.827      1.158      1.748      0.184379   0.184379   0.31155    7.282906   6.539889   1.904      0.2994292  0.480687   38.918     0.3853666  0.3013628  0.4693705 
1289.6     0.234      535.709    -9999      -9999      9.455571   1.962      1.662      0.508      0.443      1.145      1.748      0.1926932  0.1926932  0.315125   10.38253   7.149898   1.867      0.3195935  0.4883433  38.489     0.3710056  0.2905862  0.4514249 
1289.8     0.235      544.971    -9999      -9999      9.481208   1.761      1.662      0.541      0.554      1.152      1.774      0.1914446  0.1914446  0.3132     9.844101   6.781568   1.835      0.3101563  0.4806504  38.232     0.3689559  0.2969302  0.4409816 
1290       0.236      585.393    -9999      -9999      9.551641   1.761      1.662      0.573      0.769      1.156      1.791      0.1879113  0.1879113  0.3121     8.467023   5.864408   1.708      0.2748737  0.4564662  38.147     0.3763295  0.3150813  0.4375777 
1290.2     0.236      593.135    -9999      -9999      9.611795   1.639      1.663      0.743      0.73       1.147      1.791      0.1866032  0.1866032  0.314575   8.00759    5.179965   1.686      0.2659967  0.4539547  38.31      0.3877934  0.3314596  0.4441272 
1290.4     0.233      605.364    -9999      -9999      9.631962   1.674      1.671      0.463      0.436      1.144      1.8        0.1840919  0.1840919  0.3154     7.194282   4.968878   1.652      0.2501494  0.4462041  38.664     0.3979031  0.3371387  0.4586675 
1290.6     0.225      612.687    -9999      -9999      9.632318   1.805      1.705      0.554      0.704      1.141      1.801      0.1806534  0.1806534  0.316225   6.21294    4.965231   1.632      0.2333643  0.4394553  39.266     0.410823   0.3372398  0.4844062 
1290.8     0.23       615.302    -9999      -9999      9.647926   2.026      1.739      0.827      0.704      1.134      1.817      0.1805819  0.1805819  0.31815    6.194028   4.807889   1.625      0.2315516  0.4401985  39.439     0.416873   0.3417035  0.4920426 
1291       0.236      616.171    -9999      -9999      9.690635   2.284      1.664      0.586      0.704      1.132      1.835      0.1790592  0.1790592  0.3187     5.804545   4.402392   1.623      0.2254155  0.4385326  39.44      0.4231541  0.3542212  0.492087  
1291.2     0.235      618.277    -9999      -9999      9.748134   2.405      1.587      0.482      0.534      1.136      1.832      0.175687   0.175687   0.3176     5.026994   3.90995    1.617      0.2111128  0.4320256  39.354     0.4300392  0.3718013  0.4882772 
1291.4     0.236      622.603    -9999      -9999      9.797442   2.439      1.53       0.339      0.554      1.167      1.822      0.1639241  0.1639241  0.309075   3.0439     3.531764   1.606      0.1593426  0.4044933  39.441     0.4398511  0.3875706  0.4921316 
1291.6     0.235      627.512    -9999      -9999      9.819494   2.422      1.531      0.45       0.599      1.143      1.817      0.168047   0.168047   0.315675   3.629076   3.37469    1.594      0.1744341  0.4156117  39.614     0.4473576  0.3948377  0.4998775 
1291.8     0.234      633.011    -9999      -9999      9.82594    2.37       1.539      0.345      0.567      1.121      1.826      0.1704872  0.1704872  0.321725   4.027112   3.33011    1.58       0.181353   0.4230249  40.044     0.4582965  0.3969876  0.5196054 
1292       0.24       637.565    -9999      -9999      9.865595   2.236      1.539      0.306      0.586      1.113      1.835      0.1677289  0.1677289  0.323925   3.580175   3.06852    1.568      0.1666642  0.4194849  40.394     0.4733215  0.4104733  0.5361698 
1292.2     0.246      648.461    -9999      -9999      9.976759   2.213      1.513      0.274      0.554      1.122      1.869      0.157242   0.157242   0.32145    2.289084   2.439656   1.542      0.1115182  0.3968361  40.565     0.4976     0.45077    0.54443   
1292.4     0.248      657.192    -9999      -9999      10.14278   2.161      1.519      0.195      0.469      1.136      1.922      0.1408864  0.1408864  0.3176     1.139504   1.732112   1.522      0.01632147 0.3620019  40.731     0.5354958  0.5184367  0.5525549 
1292.6     0.247      659.808    -9999      -9999      10.31064   2.116      1.525      0.332      0.43       1.101      2.031      0.1353667  0.1353667  0.327225   0.9004862  1.225114   1.516      0          0.3630125  40.993     0.581389   0.5971848  0.5655932 
1292.8     0.249      659.345    -9999      -9999      10.42956   2.091      1.563      0.619      0.697      1.097      2.062      0.1253688  0.1253688  0.328325   0.5878851  0.9585879  1.517      0          0.3462957  41.079     0.6150188  0.6601071  0.5699304 
1293       0.255      658.832    -9999      -9999      10.46497   2.031      1.556      1.049      0.795      1.098      2.07       0.1217872  0.1217872  0.32805    0.5046057  0.8910519  1.518      0          0.3392237  41.08      0.6250388  0.6800963  0.5699812 
1293.2     0.256      651.937    -9999      -9999      10.40353   1.997      1.548      1.023      0.853      1.132      2.078      0.1180896  0.1180896  0.3187     0.4309864  1.011475   1.534      0          0.322924   41.081     0.6079104  0.645789   0.5700318 
1293.4     0.252      645.822    -9999      -9999      10.27125   1.952      1.588      1.14       0.879      1.123      2.096      0.1317919  0.1317919  0.321175   0.7731507  1.328827   1.548      0          0.3558131  41.082     0.5738881  0.5776939  0.5700824 
1293.6     0.25       643.912    -9999      -9999      10.13217   1.917      1.62       1.003      0.645      1.135      2.113      0.1397385  0.1397385  0.317875   1.085059   1.770463   1.553      0.01861697 0.3667783  40.997     0.5398077  0.5138212  0.5657943 
1293.8     0.246      643.194    -9999      -9999      10.04188   1.852      1.588      0.704      0.476      1.139      2.183      0.145559   0.145559   0.316775   1.390795   2.132965   1.555      0.05345693 0.3756106  40.911     0.5188364  0.4761887  0.5614841 
1294       0.242      643.19     -9999      -9999      9.999655   1.83       1.557      0.586      0.528      1.153      2.263      0.1452511  0.1452511  0.312925   1.372652   2.327096   1.555      0.05170979 0.3703744  40.814     0.5081028  0.4595487  0.5566568 
1294.2     0.24       643.186    -9999      -9999      9.960687   1.83       1.55       0.469      0.632      1.159      2.305      0.1466453  0.1466453  0.311275   1.456749   2.521906   1.555      0.05956692 0.3706389  40.741     0.4988779  0.4447079  0.5530478 
1294.4     0.239      644.056    -9999      -9999      9.895697   1.778      1.55       0.528      0.528      1.133      2.357      0.1590864  0.1590864  0.318425   2.47642    2.883754   1.553      0.1234252  0.3982354  40.57      0.4828442  0.4210152  0.5446732 
1294.6     0.241      644.926    -9999      -9999      9.813815   1.76       1.551      0.463      0.71       1.13       2.406      0.163849   0.163849   0.31925    3.034165   3.414461   1.551      0.1451419  0.4056977  40.656     0.4709121  0.3929533  0.548871  
