~Version
 VERS              .         2.0                           : CWLS LOG ASCII STANDARD - VERSION 2.0
 WRAP              .         NO                            : ONE LINE PER DEPTH STEP
 DLM               .         SPACE                         : DELIMITING CHARACTER(SPACE TAB OR COMMA)
~Well Information
#_______________________________________________________________________________
#
#PARAMETER_NAME    .UNIT     VALUE                         : DESCRIPTION
#_______________________________________________________________________________
STRT               .M        960                           : First reference value
STOP               .M        1410                          : Last reference value
STEP               .M        0.2                           : Step increment
NULL               .         -9999                         : Missing value
COMP               .                                       : Company
WELL               .         4123                          : Well name
FLD                .         Узень                         : Field
LOC                .                                       : Location
CNTY               .                                       : County
STAT               .                                       : State
CTRY               .         Казахстан                     : Country
SRVC               .                                       : Service Company
DATE               .         21.07.1982                    : Date
UWI                .                                       : Unique Well ID
Block              .         3а                            : 
Cartographic_reference_system .         GCS_WGS_1984                  : ESRI,PE_10_3_1- <?xml version="1.0" encoding="utf-16"?><ILateBoundCoordinateReferenceSystem name="GCS_WGS_1984"><AuthorityCode>EPSG,4326</AuthorityCode></ILateBoundCoordinateReferenceSystem>
Category           .         Нефтяная                      : 
Condition          .         В работе                      : 
Date               .         21.07.1982                    : 
EREF               .m        234.2                         : 100.8
Gorizont           .         18                            : 14
HZCS               .GCS_WGS_1984 WGS_1984_EASE-Grid_2.0_Global : ESRI,PE_10_3_1- <?xml version="1.0" encoding="utf-16"?><ILateBoundCoordinateReferenceSystem name="WGS_1984_EASE-Grid_2.0_Global"><AuthorityCode>EPSG,6933</AuthorityCode></ILateBoundCoordinateReferenceSystem>
Interpretator      .         Картбаева Г.Е.                : 
Kupol              .         Основной                      : osnovnoi
LATI               .dega     0.6341814074                  : GCS_WGS_1984
LONG               .dega     0.5748008925                  : GCS_WGS_1984
Mud                .         0                             : 
Mud_density        .         0                             : 
Mud_resistivity    .         0                             : 
My_wells           .         18                            : 
NGDU               .         НГДУ-1                        : 
ORIGINALWELLNAME   .         4123                          : 
Spud_date          .         1982                          : 1961
Viscosity          .         0                             : 
X                  .m        55460.4                       : 46154
Y                  .m        80903                         : 85761.93
YEAR               .         2018                          : 
~Parameter Information Block
#_______________________________________________________________________________
#
#PARAMETER_NAME    .UNIT     VALUE                         : DESCRIPTION
#_______________________________________________________________________________
SET                .         LQC_KAZNIPI_Petrel            : 
TLFamily_CALI      .         Caliper                       : 
TLFamily_CILD      .         Conductivity                  : 
TLFamily_COLL      .         Net Reservoir Flag            : 
TLFamily_CSAT      .         Fluid Code                    : 
TLFamily_DEPT      .         Measured Depth                : 
TLFamily_GR        .         Russian Gamma Ray             : 
TLFamily_GZ3       .         Gradient 225                  : 
TLFamily_LLS       .         Lateral Log Resistivity       : 
TLFamily_MINV      .         Micro Gradient Resistivity    : 
TLFamily_MNOR      .         Micro Resistivity             : 
TLFamily_NGLD      .         Neutron Far                   : 
TLFamily_OGZ       .         Gradient Inverted 225         : 
TLFamily_PHIE      .         Effective Porosity            : 
TLFamily_PHIEN     .         Effective Porosity            : 
TLFamily_PHIT      .         Porosity                      : 
TLFamily_PRMB      .         Permeability                  : 
TLFamily_PRMB_DGR  .         Permeability                  : 
TLFamily_RT        .         Formation Resistivity         : 
TLFamily_SOIL_ARCHIE .         Oil Saturation                : 
TLFamily_SOIL_DW   .         Oil Saturation                : 
TLFamily_SP        .         Spontaneous Potential         : 
TLFamily_VSH_FIN   .         Shale Volume                  : 
TLFamily_VSH_GR    .         Shale Volume                  : 
TLFamily_VSH_SP    .         Shale Volume                  : 
~Curve Information
#_______________________________________________________________________________
#
#LOGNAME           .UNIT     LOG_ID                        : DESCRIPTION
#_______________________________________________________________________________
DEPT               .M                                      : Колонка глубины 
CALI               .м                                      : Каверномер 
CILD               .мСм/м                                  : Индукционный каротаж 
COLL               .unitless                               : Описание 
CSAT               .unitless                               : Описание 
GR                 .uR/h                                   : Гамма каротаж 
GZ3                .Ohmm                                   : Градиент-зонд  длиной 2.25м 
LLS                .Ohmm                                   : Боковой каротаж 
MINV               .Ohmm                                   : Микро-градиент зонд 
MNOR               .Ohmm                                   : Микро-потенциал зонд 
NGLD               .у.е.                                   : Показания зонда НГК-60 аппаратуры ДРСТ-3-90 
OGZ                .Ohmm                                   : Обращенный градиент-зонд 
PHIE               .v/v                                    : Описание 
PHIEN              .v/v                                    :  
PHIT               .v/v                                    : Описание 
PRMB               .mD                                     :  
PRMB_DGR           .mD                                     :  
RT                 .ohmm                                   : УЭС пласта 
SOIL_ARCHIE        .v/v                                    :  
SOIL_DW            .v/v                                    :  
SP                 .мВ                                     : Потенциал самополяризации 
VSH_FIN            .v/v                                    : Описание 
VSH_GR             .v/v                                    : Shale volume 
VSH_SP             .v/v                                    : Shale Volume 
~Ascii
# ...
1170.8     0.253      406.037    -9999      -9999      9.330308   2.438      3.951      1.218      1.023      1.002      4.686      0.2081608  0.2081608  0.35445    20.08171   2.541556   2.463      0.4252797  0.5860587  55.155     0.4433007  0.4433007  0.5022271 
1171       0.245      391.676    -9999      -9999      9.292569   2.437      4.611      1.505      0.612      1.015      4.194      0.2100064  0.2100064  0.350875   21.72632   2.78778    2.553      0.4392058  0.5923725  55.326     0.4268745  0.4268745  0.5100235 
1171.2     0.244      385.183    -9999      -9999      9.23623    2.523      3.764      1.029      1.003      1.077      3.834      0.2006773  0.2006773  0.333825   14.59445   3.200446   2.596      0.4211217  0.5758584  55.699     0.403478   0.403478   0.5274045 
1171.4     0.247      390.421    -9999      -9999      9.161557   2.629      3.196      0.495      0.619      1.139      3.323      0.1932124  0.1932124  0.316775   10.61499   3.843011   2.561      0.3978671  0.5525944  56.095     0.3744322  0.3744322  0.5464271 
1171.6     0.248      409.935    -9999      -9999      9.080063   2.633      2.634      0.117      0.358      1.186      3.653      0.1899624  0.1899624  0.30385    9.241089   4.692366   2.439      0.3747465  0.5267614  56.45      0.3451139  0.3451139  0.5639866 
1171.8     0.249      408.887    -9999      -9999      9.013193   2.367      2.139      0.117      0.3        1.217      3.997      0.1888077  0.1888077  0.295325   8.79699    5.52777    2.446      0.372262   0.518169   56.972     0.3227798  0.3227798  0.5906911 
1172       0.251      317.946    -9999      -9999      8.9788     2.622      1.907      0.352      0.619      1.217      5.522      0.1924107  0.1924107  0.295325   10.25819   6.013793   3.145      0.4512159  0.5783192  57.041     0.3118615  0.3118615  0.5943008 
1172.2     0.249      333.804    -9999      -9999      8.976504   3.09       2.216      1.042      1.225      1.217      5.885      0.1926468  0.1926468  0.295325   10.36201   6.047715   2.996      0.4391726  0.5681759  56.612     0.3111461  0.3111461  0.5721607 
1172.4     0.24       368.272    -9999      -9999      8.984533   3.638      3.27       0.104      0.404      1.232      6.425      0.1876937  0.1876937  0.2912     8.388802   5.929902   2.715      0.3991682  0.5377111  55.837     0.3136556  0.3136556  0.5339665 
1172.6     0.224      369.307    -9999      -9999      8.969335   3.154      4.075      0.3        0.274      1.212      6.878      0.1947557  0.1947557  0.2967     11.33721   6.154899   2.708      0.4174832  0.5490442  53.85      0.3089221  0.3089221  0.446195  
1172.8     0.22       343.505    1          2          8.908688   3.01       2.043      0.515      0.651      1.213      7.342      0.2004826  0.2004826  0.296425   14.47376   7.140967   2.911      0.4509468  0.5699275  52.382     0.2907346  0.2907346  0.3901849 
1173       0.233      246.437    1          2          8.803387   3.012      2.16       0.723      0.938      1.214      7.577      0.2098014  0.2098014  0.29615    21.53715   9.242942   4.058      0.5484264  0.6422827  50.653     0.2616626  0.2616626  0.3331135 
1173.2     0.247      224.517    1          2          8.665814   3.712      3.084      0.547      1.049      1.199      7.23       0.22503    0.22503    0.300275   41.23433   12.94806   4.454      0.593325   0.6710035  49.678     0.2280153  0.2280153  0.3048927 
1173.4     0.231      212.962    1          2          8.512105   4.472      4.51       0.267      0.814      1.171      7.026      0.2434559  0.2434559  0.307975   90.47982   18.86995   4.696      0.6295789  0.6945011  48.822     0.1955124  0.1955124  0.2823293 
1173.6     0.224      197.304    1          2          8.375779   5.335      6.36       0.371      0.671      1.185      6.878      0.2478323  0.2478323  0.304125   109.0469   26.35352   5.068      0.6480994  0.7059913  47.893     0.170584   0.170584   0.2600663 
1173.8     0.221      186        1          2          8.302291   5.588      7.948      1.023      1.349      1.249      6.67       0.2342228  0.2342228  0.286525   61.0284    31.55291   5.376      0.6404497  0.6974035  47.031     0.1584916  0.1584916  0.2413753 
1174       0.222      169.846    1          2          8.314086   5.782      7.941      0.482      1.166      1.219      6.756      0.2418519  0.2418519  0.294775   84.49707   30.65406   5.888      0.6649607  0.7193862  46.254     0.1603731  0.1603731  0.2260661 
1174.2     0.221      165.132    1          2          8.393147   6.441      6.244      0.658      1.016      1.156      9.559      0.2548206  0.2548206  0.3121     146.9106   25.2556    6.056      0.6840599  0.7381266  45.566     0.173574   0.173574   0.2136682 
1174.4     0.219      166.578    1          2          8.497766   7.561      6.254      0.332      0.723      1.206      11.869     0.2347499  0.2347499  0.29835    62.41609   19.54473   6.003      0.6592567  0.7205337  44.963     0.1927275  0.1927275  0.2036551 
1174.6     0.221      189.538    1          2          8.58239    8.394      6.567      0.879      0.86       1.173      11.832     0.2382055  0.2382055  0.307425   72.3273    15.88469   5.276      0.6425556  0.7088325  44.392     0.209756   0.209756   0.194876  
1174.8     0.222      203.567    1          2          8.617813   9.367      7.023      0.489      1.055      1.146      9.599      0.2431333  0.2431333  0.31485    89.24337   14.56411   4.912      0.6368948  0.704935   44.027     0.2173234  0.2173234  0.189609  
1175       0.221      242.12     1          2          8.610775   11.111     7.318      0.636      0.882      1.141      10.392     0.2450115  0.2450115  0.316225   96.68645   14.81745   4.13       0.608744   0.680057   43.77      0.2157984  0.2157984  0.1860568 
1175.2     0.22       329.095    1          2          8.599674   13.047     7.624      0.782      0.71       1.123      10.966     0.2507481  0.2507481  0.321175   123.4868   15.22601   3.039      0.5571854  0.6339403  43.684     0.2134149  0.2134149  0.1848964 
1175.4     0.218      412.562    1          2          8.616954   13.647     7.268      0.984      0.958      1.114      10.826     0.2519949  0.2519949  0.32365    130.2312   14.59481   2.424      0.5097399  0.5927965  43.642     0.2171367  0.2171367  0.1843348 
1175.6     0.218      455.149    1          2          8.665651   12.318     5.436      0.176      0.176      1.1        9.457      0.2522672  0.2522672  0.3275     131.7527   12.95323   2.197      0.4870716  0.5753992  43.598     0.2279781  0.2279781  0.1837501 
1175.8     0.225      527.666    -9999      -9999      8.739947   8.046      2.045      0.287      0.371      1.086      7.661      0.2503118  0.2503118  0.33135    121.2102   10.79737   1.895      0.4464757  0.5444387  43.426     0.2455704  0.2455704  0.1814993 
1176       0.246      627.832    -9999      -9999      8.842311   6.752      1.711      0.306      0.508      1.009      7.04       0.2627473  0.2627473  0.352525   206.0036   8.402143   1.593      0.4243262  0.5303489  43.34      0.2720538  0.2720538  0.1803945 
1176.2     0.257      693.56     -9999      -9999      8.961905   5.707      1.643      0.176      0.547      0.965      5.836      0.2634357  0.2634357  0.364625   212.1415   6.267961   1.442      0.3981578  0.5165473  43.426     0.3066344  0.3066344  0.1814993 
1176.4     0.272      710.968    -9999      -9999      9.054531   5.257      1.338      0.104      0.313      0.929      4.969      0.2635098  0.2635098  0.374525   212.8137   4.995294   1.407      0.3913274  0.5182648  43.4       0.3364096  0.3364096  0.1811638 
1176.6     0.273      716.977    -9999      -9999      9.066821   4.385      1.234      0.085      0.208      0.965      4.626      0.1658405  0.1658405  0.364625   3.303131   0.5729935  1.395      0.08529004 0.4097109  43.254     0.6023774  0.8144599  0.6023774 
1176.8     0.285      706.87     -9999      -9999      8.975376   3.992      1.239      0.085      0.202      0.936      4.493      0.173833   0.173833   0.3726     4.644805   0.7638928  1.415      0.1278755  0.4319138  43.253     0.6023242  0.724229   0.6023242 
