~Version
 VERS              .         2.0                           : CWLS LOG ASCII STANDARD - VERSION 2.0
 WRAP              .         NO                            : ONE LINE PER DEPTH STEP
 DLM               .         SPACE                         : DELIMITING CHARACTER(SPACE TAB OR COMMA)
~Well Information
#_______________________________________________________________________________
#
#PARAMETER_NAME    .UNIT     VALUE                         : DESCRIPTION
#_______________________________________________________________________________
STRT               .M        960                           : First reference value
STOP               .M        1410                          : Last reference value
STEP               .M        0.2                           : Step increment
NULL               .         -9999                         : Missing value
COMP               .                                       : Company
WELL               .         4123                          : Well name
FLD                .         Узень                         : Field
LOC                .                                       : Location
CNTY               .                                       : County
STAT               .                                       : State
CTRY               .         Казахстан                     : Country
SRVC               .                                       : Service Company
DATE               .         21.07.1982                    : Date
UWI                .                                       : Unique Well ID
Block              .         3а                            : 
Cartographic_reference_system .         GCS_WGS_1984                  : ESRI,PE_10_3_1- <?xml version="1.0" encoding="utf-16"?><ILateBoundCoordinateReferenceSystem name="GCS_WGS_1984"><AuthorityCode>EPSG,4326</AuthorityCode></ILateBoundCoordinateReferenceSystem>
Category           .         Нефтяная                      : 
Condition          .         В работе                      : 
Date               .         21.07.1982                    : 
EREF               .m        234.2                         : 100.8
Gorizont           .         18                            : 14
HZCS               .GCS_WGS_1984 WGS_1984_EASE-Grid_2.0_Global : ESRI,PE_10_3_1- <?xml version="1.0" encoding="utf-16"?><ILateBoundCoordinateReferenceSystem name="WGS_1984_EASE-Grid_2.0_Global"><AuthorityCode>EPSG,6933</AuthorityCode></ILateBoundCoordinateReferenceSystem>
Interpretator      .         Картбаева Г.Е.                : 
Kupol              .         Основной                      : osnovnoi
LATI               .dega     0.6341814074                  : GCS_WGS_1984
LONG               .dega     0.5748008925                  : GCS_WGS_1984
Mud                .         0                             : 
Mud_density        .         0                             : 
Mud_resistivity    .         0                             : 
My_wells           .         18                            : 
NGDU               .         НГДУ-1                        : 
ORIGINALWELLNAME   .         4123                          : 
Spud_date          .         1982                          : 1961
Viscosity          .         0                             : 
X                  .m        55460.4                       : 46154
Y                  .m        80903                         : 85761.93
YEAR               .         2018                          : 
~Parameter Information Block
#_______________________________________________________________________________
#
#PARAMETER_NAME    .UNIT     VALUE                         : DESCRIPTION
#_______________________________________________________________________________
SET                .         LQC_KAZNIPI_Petrel            : 
TLFamily_CALI      .         Caliper                       : 
TLFamily_CILD      .         Conductivity                  : 
TLFamily_COLL      .         Net Reservoir Flag            : 
TLFamily_CSAT      .         Fluid Code                    : 
TLFamily_DEPT      .         Measured Depth                : 
TLFamily_GR        .         Russian Gamma Ray             : 
TLFamily_GZ3       .         Gradient 225                  : 
TLFamily_LLS       .         Lateral Log Resistivity       : 
TLFamily_MINV      .         Micro Gradient Resistivity    : 
TLFamily_MNOR      .         Micro Resistivity             : 
TLFamily_NGLD      .         Neutron Far                   : 
TLFamily_OGZ       .         Gradient Inverted 225         : 
TLFamily_PHIE      .         Effective Porosity            : 
TLFamily_PHIEN     .         Effective Porosity            : 
TLFamily_PHIT      .         Porosity                      : 
TLFamily_PRMB      .         Permeability                  : 
TLFamily_PRMB_DGR  .         Permeability                  : 
TLFamily_RT        .         Formation Resistivity         : 
TLFamily_SOIL_ARCHIE .         Oil Saturation                : 
TLFamily_SOIL_DW   .         Oil Saturation                : 
TLFamily_SP        .         Spontaneous Potential         : 
TLFamily_VSH_FIN   .         Shale Volume                  : 
TLFamily_VSH_GR    .         Shale Volume                  : 
TLFamily_VSH_SP    .         Shale Volume                  : 
~Curve Information
#_______________________________________________________________________________
#
#LOGNAME           .UNIT     LOG_ID                        : DESCRIPTION
#_______________________________________________________________________________
DEPT               .M                                      : Колонка глубины 
CALI               .м                                      : Каверномер 
CILD               .мСм/м                                  : Индукционный каротаж 
COLL               .unitless                               : Описание 
CSAT               .unitless                               : Описание 
GR                 .uR/h                                   : Гамма каротаж 
GZ3                .Ohmm                                   : Градиент-зонд  длиной 2.25м 
LLS                .Ohmm                                   : Боковой каротаж 
MINV               .Ohmm                                   : Микро-градиент зонд 
MNOR               .Ohmm                                   : Микро-потенциал зонд 
NGLD               .у.е.                                   : Показания зонда НГК-60 аппаратуры ДРСТ-3-90 
OGZ                .Ohmm                                   : Обращенный градиент-зонд 
PHIE               .v/v                                    : Описание 
PHIEN              .v/v                                    :  
PHIT               .v/v                                    : Описание 
PRMB               .mD                                     :  
PRMB_DGR           .mD                                     :  
RT                 .ohmm                                   : УЭС пласта 
SOIL_ARCHIE        .v/v                                    :  
SOIL_DW            .v/v                                    :  
SP                 .мВ                                     : Потенциал самополяризации 
VSH_FIN            .v/v                                    : Описание 
VSH_GR             .v/v                                    : Shale volume 
VSH_SP             .v/v                                    : Shale Volume 
~Ascii
# ...
1375.4     0.214      584.661    6          6          7.155484   1.327      11.08      2.332      2.599      1.698      2.88       0.1376654  0.1376654  0.16305    0.9932433  1047.755   1.71       0.09259066 0.1395863  12.737     0.07692302 0.03791764 0.1159284 
1375.6     0.214      578.56     6          6          7.160883   1.405      13.168     2.534      2.84       1.736      3.127      0.1272017  0.1272017  0.1526     0.6356862  1036.191   1.728      0.03267903 0.08035476 12.683     0.0769645  0.03808987 0.1158391 
1375.8     0.214      597.823    6          6          7.223941   1.606      6.223      1.746      1.85       1.661      3.183      0.1474911  0.1474911  0.173225   1.510257   910.211    1.673      0.1366553  0.1842115  12.661     0.07798156 0.04016038 0.1158027 
1376       0.214      622.553    6          6          7.335303   1.811      2.098      2.515      2.189      1.624      3.011      0.156992   0.156992   0.1834     2.264801   723.9686   1.606      0.166509   0.2153943  12.752     0.0800244  0.0440956  0.1159532 
1376.2     0.214      702.281    1          3          7.473287   2.004      1.691      1.531      1.466      1.571      2.361      0.1706473  0.1706473  0.197975   4.054709   545.1666   1.424      0.1799025  0.2304361  12.848     0.08281127 0.04951058 0.116112  
1376.4     0.215      802.86     1          3          7.598701   2.283      1.583      1.147      1.29       1.52       1.665      0.1836953  0.1836953  0.212      7.073599   421.2701   1.246      0.18114    0.2334813  13.104     0.08577187 0.05500707 0.1165366 
1376.6     0.215      816.757    1          3          7.667255   2.524      1.537      0.977      1.27       1.494      1.373      0.1902829  0.1902829  0.21915    9.368266   365.8949   1.224      0.1992203  0.2525295  13.194     0.08747604 0.05826534 0.1166868 
1376.8     0.215      842.293    1          3          7.663086   2.749      1.501      1.016      1.244      1.465      1.147      0.1983371  0.1983371  0.227125   13.20816   369.0438   1.187      0.2164118  0.2694468  13.028     0.08723605 0.05806182 0.1164103 
1377       0.215      861.649    1          3          7.624139   2.998      1.468      0.866      1.199      1.428      1.016      0.2089314  0.2089314  0.2373     20.75271   399.8066   1.161      0.2433097  0.2955208  12.621     0.08596544 0.05619427 0.1157366 
1377.2     0.214      930.918    1          3          7.617922   2.893      1.457      1.147      1.186      1.425      0.918      0.2098785  0.2098785  0.238125   21.60814   404.9487   1.074      0.2182253  0.2704167  12.351     0.08559542 0.0559018  0.115289  
1377.4     0.214      993.43     1          3          7.678872   2.603      1.447      1.068      1.173      1.418      0.887      0.2113802  0.2113802  0.24005    23.03738   357.2606   1.007      0.1992216  0.2522769  12.13      0.08687805 0.05883628 0.1149198 
1377.6     0.214      1041.496   1          3          7.777746   2.171      1.483      0.938      1.16       1.399      0.906      0.2158203  0.2158203  0.245275   27.84028   291.5486   0.96       0.195751   0.2502612  11.932     0.08925664 0.0639279  0.1145854 
1377.8     0.214      1121.319   1          3          7.855374   1.965      1.499      1.055      1.225      1.389      0.904      0.2178346  0.2178346  0.248025   30.33776   248.5452   0.892      0.174249   0.2302063  12.023     0.09148597 0.06823234 0.1147396 
1378       0.214      1124.105   1          3          7.87412    1.783      1.476      1.029      1.199      1.382      0.899      0.2195925  0.2195925  0.24995    32.69975   239.1494   0.89       0.1791452  0.2353796  11.982     0.09199237 0.06931452 0.1146702 
1378.2     0.214      1126.616   1          3          7.84166    1.714      1.427      1.01       1.199      1.39       0.883      0.2177111  0.2177111  0.24775    30.17842   255.6521   0.888      0.1720969  0.2278014  11.942     0.09102686 0.06745135 0.1146024 
1378.4     0.214      1126.577   1          3          7.794201   1.882      1.386      1.107      1.205      1.406      0.901      0.2137447  0.2137447  0.24335    25.48167   281.8516   0.888      0.158732   0.2136785  11.946     0.0897131  0.06481703 0.1146092 
1378.6     0.215      1126.537   1          3          7.753919   2.032      1.366      1.114      1.186      1.416      0.911      0.2113012  0.2113012  0.2406     22.95987   306.185    0.888      0.1502654  0.2046449  12.122     0.08878418 0.06266197 0.1149064 
1378.8     0.214      1127.801   1          3          7.713613   2.048      1.374      1.16       1.192      1.401      0.921      0.215745   0.215745   0.244725   27.75104   332.6357   0.887      0.1650882  0.2189149  12.213     0.08781813 0.06057734 0.1150589 
1379       0.215      1127.761   1          3          7.674318   1.979      1.381      1.153      1.238      1.393      0.93       0.2182679  0.2182679  0.246925   30.90367   360.6204   0.887      0.1734998  0.2267805  12.218     0.08683955 0.05861183 0.1150673 
1379.2     0.215      1127.845   1          3          7.664381   1.806      1.381      0.971      1.231      1.395      0.949      0.2178207  0.2178207  0.246375   30.31973   368.0631   0.887      0.1720219  0.225115   12.137     0.08652826 0.05812495 0.1149316 
1379.4     0.215      1127.935   1          3          7.693074   1.585      1.37       0.762      1.199      1.398      0.967      0.2168083  0.2168083  0.24555    29.03853   346.9807   0.887      0.1686558  0.2220675  11.97      0.08709591 0.05954192 0.1146499 
1379.6     0.215      1128.751   1          3          7.723197   1.437      1.362      0.795      1.186      1.37       0.994      0.2242556  0.2242556  0.25325    39.89482   326.1456   0.886      0.1923258  0.2462512  11.974     0.08786169 0.0610667  0.1146567 
1379.8     0.215      1126.534   1          3          7.715598   1.322      1.369      1.114      1.218      1.399      0.995      0.2163433  0.2163433  0.245275   28.46825   331.2807   0.888      0.1675398  0.221284   11.979     0.08767177 0.06067839 0.1146652 
1380       0.215      1126.159   1          3          7.677207   1.218      1.38       1.264      1.264      1.4        1.005      0.2163996  0.2163996  0.245      28.53663   358.4856   0.888      0.1677283  0.2208814  11.93      0.08666804 0.0587541  0.114582  
1380.2     0.215      1126.261   1          3          7.639927   1.167      1.39       1.101      1.094      1.427      1.035      0.209305   0.209305   0.237575   21.08604   387.0389   0.888      0.1432115  0.1956309  11.817     0.08566651 0.05694396 0.114389  
1380.4     0.215      1125.67    1          3          7.616172   1.081      1.397      1.153      1.166      1.397      1.085      0.2177636  0.2177636  0.245825   30.24597   406.4081   0.888      0.1722705  0.2244889  11.736     0.08503471 0.05581974 0.1142497 
1380.6     0.215      1124.918   1          3          7.60002    1.078      1.377      1.075      1.055      1.394      1.078      0.2187452  0.2187452  0.24665    31.53914   420.1294   0.889      0.1759419  0.2279057  11.622     0.08455993 0.05506801 0.1140519 
1380.8     0.215      1123.037   1          3          7.59461    1.049      1.371      1.121      1.16       1.389      1.053      0.2202251  0.2202251  0.248025   33.594     424.8277   0.89       0.1811992  0.2330152  11.403     0.08424202 0.05481851 0.1136655 
1381       0.215      1123.536   1          3          7.619346   1.032      1.371      1.055      1.127      1.4        0.962      0.2170346  0.2170346  0.245      29.32014   403.7656   0.89       0.1707257  0.2227552  11.321     0.08474356 0.05596863 0.1135185 
1381.2     0.215      1123.791   1          3          7.678339   1.016      1.365      0.853      1.101      1.43       0.842      0.2083669  0.2083669  0.23675    20.25901   357.652    0.89       0.1407602  0.1933777  11.151     0.08600947 0.05880998 0.113209  
1381.4     0.215      1124.345   1          3          7.72985    0.999      1.332      0.788      1.081      1.422      0.727      0.2101881  0.2101881  0.23895    21.89536   321.7158   0.889      0.1467982  0.2001633  10.988     0.08715717 0.06140865 0.1129057 
