~Version
 VERS              .         2.0                           : CWLS LOG ASCII STANDARD - VERSION 2.0
 WRAP              .         NO                            : ONE LINE PER DEPTH STEP
 DLM               .         SPACE                         : DELIMITING CHARACTER(SPACE TAB OR COMMA)
~Well Information
#_______________________________________________________________________________
#
#PARAMETER_NAME    .UNIT     VALUE                         : DESCRIPTION
#_______________________________________________________________________________
STRT               .M        950                           : First reference value
STOP               .M        1404                          : Last reference value
STEP               .M        0.2                           : Step increment
NULL               .         -9999                         : Missing value
COMP               .                                       : Company
WELL               .         4124                          : Well name
FLD                .         УЗЕНЬ                         : Field
LOC                .                                       : Location
CNTY               .                                       : County
STAT               .                                       : State
CTRY               .                                       : Country
SRVC               .                                       : Service Company
DATE               .                                       : Date
UWI                .                                       : Unique Well ID
Block              .         3а                            : 
Cartographic_reference_system .         GCS_WGS_1984                  : ESRI,PE_10_3_1- <?xml version="1.0" encoding="utf-16"?><ILateBoundCoordinateReferenceSystem name="GCS_WGS_1984"><AuthorityCode>EPSG,4326</AuthorityCode></ILateBoundCoordinateReferenceSystem>
Category           .         Нефтяная                      : 
Condition          .         В работе                      : 
Date               .         24.07.1976                    : 
EREF               .m        234.7                         : 100.8
Gorizont           .         18                            : 14
HZCS               .GCS_WGS_1984 WGS_1984_EASE-Grid_2.0_Global : ESRI,PE_10_3_1- <?xml version="1.0" encoding="utf-16"?><ILateBoundCoordinateReferenceSystem name="WGS_1984_EASE-Grid_2.0_Global"><AuthorityCode>EPSG,6933</AuthorityCode></ILateBoundCoordinateReferenceSystem>
Interpretator      .         Ткачева И.Г.                  : 
Kupol              .         Основной                      : osnovnoi
LATI               .dega     0.6301419213                  : GCS_WGS_1984
LONG               .dega     0.5703681379                  : GCS_WGS_1984
Mud                .         0                             : 
Mud_density        .         0                             : 
Mud_resistivity    .         0                             : 
NGDU               .         НГДУ-1                        : 
ORIGINALWELLNAME   .         4124                          : 
Spud_date          .         1976                          : 1961
Viscosity          .         0                             : 
X                  .m        55032.7                       : 46154
Y                  .m        80387.7                       : 85761.93
YEAR               .         2018                          : 
~Parameter Information Block
#_______________________________________________________________________________
#
#PARAMETER_NAME    .UNIT     VALUE                         : DESCRIPTION
#_______________________________________________________________________________
SET                .         LQC_KAZNIPI_Petrel            : 
TLFamily_CALI      .         Caliper                       : 
TLFamily_CILD      .         Conductivity                  : 
TLFamily_COLL      .         Net Reservoir Flag            : 
TLFamily_CSAT      .         Fluid Code                    : 
TLFamily_DEPT      .         Measured Depth                : 
TLFamily_GR        .         Russian Gamma Ray             : 
TLFamily_GZ3       .         Gradient 225                  : 
TLFamily_LLS       .         Lateral Log Resistivity       : 
TLFamily_MINV      .         Micro Gradient Resistivity    : 
TLFamily_MNOR      .         Micro Resistivity             : 
TLFamily_NGLD      .         Neutron Far                   : 
TLFamily_OGZ       .         Gradient Inverted 225         : 
TLFamily_PHIE      .         Effective Porosity            : 
TLFamily_PHIEN     .         Effective Porosity            : 
TLFamily_PHIT      .         Porosity                      : 
TLFamily_PRMB      .         Permeability                  : 
TLFamily_PRMB_DGR  .         Permeability                  : 
TLFamily_RT        .         Formation Resistivity         : 
TLFamily_SOIL_ARCHIE .         Oil Saturation                : 
TLFamily_SOIL_DW   .         Oil Saturation                : 
TLFamily_SP        .         Spontaneous Potential         : 
TLFamily_VSH_FIN   .         Shale Volume                  : 
TLFamily_VSH_GR    .         Shale Volume                  : 
TLFamily_VSH_SP    .         Shale Volume                  : 
~Curve Information
#_______________________________________________________________________________
#
#LOGNAME           .UNIT     LOG_ID                        : DESCRIPTION
#_______________________________________________________________________________
DEPT               .M                                      : Колонка глубины 
CALI               .м                                      : Каверномер 
CILD               .мСм/м                                  : Индукционный каротаж 
COLL               .unitless                               : Описание 
CSAT               .unitless                               : Описание 
GR                 .мкР/ч                                  : Гамма каротаж 
GZ3                .Ohmm                                   : Градиент-зонд  длиной 2.25м 
LLS                .Ohmm                                   : Боковой каротаж 
MINV               .Ом·м                                   : Микро-градиент зонд 
MNOR               .Ом·м                                   : Микро-потенциал зонд 
NGLD               .у.е.                                   : Показания зонда НГК-60 аппаратуры ДРСТ-3-90 
OGZ                .Ohmm                                   : Обращенный градиент-зонд 
PHIE               .v/v                                    : Описание 
PHIEN              .v/v                                    :  
PHIT               .v/v                                    : Описание 
PRMB               .мД                                     :  
PRMB_DGR           .мД                                     :  
RT                 .ohm.m                                  : УЭС пласта 
SOIL_ARCHIE        .v/v                                    :  
SOIL_DW            .v/v                                    :  
SP                 .мВ                                     : Потенциал самополяризации 
VSH_FIN            .v/v                                    : Описание 
VSH_GR             .v/v                                    : Shale volume 
VSH_SP             .v/v                                    : Shale Volume 
~Ascii
# ...
1012       0.227      555.693    -9999      -9999      4.248      2.599      2.817      3.967      3.954      1.332      2.593      0.1090976  0.1090976  0.2693444  0.2937037  6.414444   2.817      0.05275296 0.4130082  52.51      0.4855965  0.3037556  0.4855965 
1012.2     0.225      553.45     -9999      -9999      4.222      2.791      2.916      3.965      3.962      1.344      2.52       0.112663   0.112663   0.2653448  0.3419404  6.705705   2.916      0.09372508 0.4243997  51.881     0.4626721  0.2982973  0.4626721 
1012.4     0.224      550.613    -9999      -9999      4.231      2.825      2.562      3.672      3.083      1.34       2.451      0.1176441  0.1176441  0.266678   0.4228751  6.603418   2.562      0.07258873 0.3975998  51.554     0.4516179  0.3001755  0.4516179 
1012.6     0.223      549.637    -9999      -9999      4.248      2.91       2.001      2.975      2.771      1.326      2.4        0.1240105  0.1240105  0.2713442  0.5547958  6.414444   2.001      0.00527108 0.3389001  51.385     0.4464658  0.3037556  0.4464658 
1012.8     0.223      566.364    -9999      -9999      4.295      3.097      1.671      1.653      1.563      1.315      2.401      0.1283443  0.1283443  0.2750105  0.6674306  5.919666   1.671      0          0.2918167  51.302     0.444443   0.313877   0.444443  
1013       0.223      587.505    -9999      -9999      4.463      3.376      1.313      0.739      0.749      1.297      2.35       0.1329804  0.1329804  0.2810099  0.8133496  4.443087   1.313      0          0.2222463  51.39      0.4485743  0.3528928  0.4485743 
1013.2     0.223      621.112    -9999      -9999      4.671      3.716      1.239      0.901      0.97       1.253      2.21       0.1442594  0.1442594  0.2956751  1.315806   3.114602   1.239      0          0.247866   51.644     0.4588355  0.4079824  0.4588355 
1013.4     0.223      649.726    -9999      -9999      4.831      3.89       1.336      0.965      1.146      1.205      2.026      0.1557263  0.1557263  0.3116735  2.145787   2.369868   1.336      0.01396502 0.3191009  51.984     0.4725673  0.4561439  0.4725673 
1013.6     0.225      678.34     -9999      -9999      4.961      3.639      1.464      1.278      1.211      1.159      1.876      0.16959    0.16959    0.3270053  3.87594    1.898006   1.464      0.1230242  0.3888966  52.074     0.4770159  0.4994315  0.4770159 
1013.8     0.226      701.277    -9999      -9999      5.071      3.371      1.594      2.447      2.42       1.121      1.773      0.1786986  0.1786986  0.3396707  5.715973   1.572917   1.594      0.1948796  0.4393083  52.326     0.4877941  0.539253   0.4877941 
1014       0.229      700.936    -9999      -9999      5.099      3.12       1.754      3.133      2.436      1.098      1.941      0.1848796  0.1848796  0.3473366  7.440066   1.499468   1.754      0.2526828  0.4796625  52.414     0.4922939  0.5498865  0.4922939 
1014.2     0.226      693.305    -9999      -9999      5.108      2.876      1.632      2.322      1.725      1.104      2.182      0.173498   0.173498   0.3453368  4.578906   1.476596   1.632      0.1829834  0.4451648  53.091     0.5207237  0.5533487  0.5207237 
1014.4     0.225      693.998    -9999      -9999      5.172      2.726      1.455      1.128      1.015      1.116      2.443      0.1661387  0.1661387  0.3413372  3.345419   1.323702   1.455      0.104591   0.3982326  53.308     0.5309044  0.5786063  0.5309044 
1014.6     0.226      710.084    -9999      -9999      5.186      2.733      1.317      0.659      0.919      1.128      2.515      0.1612095  0.1612095  0.3373376  2.711123   1.292427   1.317      0.03678745 0.3555039  53.348     0.5337214  0.5842832  0.5337214 
1014.8     0.228      725.308    -9999      -9999      5.197      2.794      1.342      1.054      1.207      1.142      2.3        0.156142   0.156142   0.3326714  2.184168   1.268372   1.342      0.01831811 0.3481401  53.35      0.5349377  0.5887828  0.5349377 
1015       0.228      732.816    -9999      -9999      5.244      2.687      1.38       1.45       1.496      1.143      2.234      0.1554204  0.1554204  0.3323381  2.117975   1.170536   1.38       0.02718049 0.3556484  53.351     0.5361143  0.6084016  0.5361143 
1015.2     0.229      726.444    -9999      -9999      5.287      2.503      1.412      1.748      1.212      1.126      2.167      0.1606975  0.1606975  0.3380042  2.652568   1.087651   1.412      0.06517445 0.3775717  53.352     0.5372928  0.6269229  0.5372928 
1015.4     0.237      716.36     -9999      -9999      5.313      2.336      1.492      0.959      0.9        1.105      2.097      0.1672931  0.1672931  0.3450035  3.514253   1.04041    1.492      0.1204013  0.4112118  53.354     0.5385162  0.6383943  0.5385162 
1015.6     0.252      716.349    -9999      -9999      5.268      2.317      1.519      1.362      1.196      1.109      2.115      0.164367   0.164367   0.3436703  3.101943   1.123525   1.519      0.1142645  0.4111222  53.44      0.5433434  0.6186706  0.5433434 
1015.8     0.266      720.127    -9999      -9999      5.183      2.234      1.525      1.346      1.213      1.12       2.177      0.1590952  0.1590952  0.340004   2.477347   1.299065   1.525      0.09044019 0.4009944  53.526     0.5482085  0.5830622  0.5482085 
1016       0.246      715.049    -9999      -9999      5.092      2.136      1.51       1.318      1.287      1.124      2.302      0.1561441  0.1561441  0.3386708  2.184364   1.517503   1.51       0.07118772 0.3922706  53.612     0.5531114  0.5472087  0.5531114 
1016.2     0.247      707.514    -9999      -9999      5.127      2.03       1.516      1.791      1.565      1.124      2.337      0.15399    0.15399    0.3386708  1.992632   1.429448   1.516      0.06163001 0.3902953  53.734     0.5596387  0.5607298  0.5596387 
1016.4     0.237      701.135    -9999      -9999      5.203      1.997      1.573      1.508      1.347      1.127      2.337      0.1518705  0.1518705  0.3376709  1.820403   1.25544    1.573      0.06654245 0.3972108  53.784     0.5630317  0.5912517  0.5630317 
1016.6     0.234      712.5      -9999      -9999      5.216      1.997      1.617      1.48       1.428      1.132      2.371      0.1475429  0.1475429  0.3360044  1.513599   1.227873   1.617      0.05505413 0.397148   53.938     0.5710954  0.5966365  0.5710954 
1016.8     0.244      694.709    -9999      -9999      5.229      2.031      1.634      1.567      1.259      1.137      2.454      0.1439462  0.1439462  0.3343379  1.298349   1.200911   1.634      0.03924982 0.3928747  54.041     0.5769445  0.6020703  0.5769445 
1017       0.253      687.076    -9999      -9999      5.178      2.065      1.626      2.464      1.914      1.141      2.508      0.1393048  0.1393048  0.3330047  1.065174   1.310206   1.626      0.009149567 0.38242    54.234     0.5869694  0.5810325  0.5869694 
1017.2     0.247      679.441    -9999      -9999      4.996      2.032      1.536      1.977      1.724      1.146      2.525      0.1349572  0.1349572  0.3313382  0.8848987  1.787873   1.536      0          0.3551122  54.383     0.5950938  0.5117722  0.5950938 
1017.4     0.25       672.002    -9999      -9999      5.048      1.981      1.426      1.853      1.627      1.151      2.491      0.1289108  0.1289108  0.3296717  0.6837522  1.635935   1.426      0          0.3172791  54.639     0.6083664  0.5306721  0.6083664 
1017.6     0.254      670.91     -9999      -9999      5.144      2.015      1.372      2.278      2.043      1.154      2.491      0.1274772  0.1274772  0.3286718  0.6431981  1.388542   1.372      0          0.2998017  54.64      0.6096806  0.5674173  0.6096806 
1017.8     0.245      682.095    -9999      -9999      5.14       2.083      1.405      1.814      1.763      1.151      2.5        0.1267047  0.1267047  0.3296717  0.6223528  1.398061   1.405      0          0.3079059  54.726     0.6150514  0.5658366  0.6150514 
1018       0.245      689.074    -9999      -9999      5.081      2.127      1.457      1.073      1.245      1.144      2.509      0.1286     0.1286     0.3320048  0.67475    1.546282   1.457      0          0.3270344  54.727     0.616378   0.5430268  0.616378  
