~Version
 VERS              .         2.0                           : CWLS LOG ASCII STANDARD - VERSION 2.0
 WRAP              .         NO                            : ONE LINE PER DEPTH STEP
 DLM               .         SPACE                         : DELIMITING CHARACTER(SPACE TAB OR COMMA)
~Well Information
#_______________________________________________________________________________
#
#PARAMETER_NAME    .UNIT     VALUE                         : DESCRIPTION
#_______________________________________________________________________________
STRT               .M        950                           : First reference value
STOP               .M        1404                          : Last reference value
STEP               .M        0.2                           : Step increment
NULL               .         -9999                         : Missing value
COMP               .                                       : Company
WELL               .         4124                          : Well name
FLD                .         УЗЕНЬ                         : Field
LOC                .                                       : Location
CNTY               .                                       : County
STAT               .                                       : State
CTRY               .                                       : Country
SRVC               .                                       : Service Company
DATE               .                                       : Date
UWI                .                                       : Unique Well ID
Block              .         3а                            : 
Cartographic_reference_system .         GCS_WGS_1984                  : ESRI,PE_10_3_1- <?xml version="1.0" encoding="utf-16"?><ILateBoundCoordinateReferenceSystem name="GCS_WGS_1984"><AuthorityCode>EPSG,4326</AuthorityCode></ILateBoundCoordinateReferenceSystem>
Category           .         Нефтяная                      : 
Condition          .         В работе                      : 
Date               .         24.07.1976                    : 
EREF               .m        234.7                         : 100.8
Gorizont           .         18                            : 14
HZCS               .GCS_WGS_1984 WGS_1984_EASE-Grid_2.0_Global : ESRI,PE_10_3_1- <?xml version="1.0" encoding="utf-16"?><ILateBoundCoordinateReferenceSystem name="WGS_1984_EASE-Grid_2.0_Global"><AuthorityCode>EPSG,6933</AuthorityCode></ILateBoundCoordinateReferenceSystem>
Interpretator      .         Ткачева И.Г.                  : 
Kupol              .         Основной                      : osnovnoi
LATI               .dega     0.6301419213                  : GCS_WGS_1984
LONG               .dega     0.5703681379                  : GCS_WGS_1984
Mud                .         0                             : 
Mud_density        .         0                             : 
Mud_resistivity    .         0                             : 
NGDU               .         НГДУ-1                        : 
ORIGINALWELLNAME   .         4124                          : 
Spud_date          .         1976                          : 1961
Viscosity          .         0                             : 
X                  .m        55032.7                       : 46154
Y                  .m        80387.7                       : 85761.93
YEAR               .         2018                          : 
~Parameter Information Block
#_______________________________________________________________________________
#
#PARAMETER_NAME    .UNIT     VALUE                         : DESCRIPTION
#_______________________________________________________________________________
SET                .         LQC_KAZNIPI_Petrel            : 
TLFamily_CALI      .         Caliper                       : 
TLFamily_CILD      .         Conductivity                  : 
TLFamily_COLL      .         Net Reservoir Flag            : 
TLFamily_CSAT      .         Fluid Code                    : 
TLFamily_DEPT      .         Measured Depth                : 
TLFamily_GR        .         Russian Gamma Ray             : 
TLFamily_GZ3       .         Gradient 225                  : 
TLFamily_LLS       .         Lateral Log Resistivity       : 
TLFamily_MINV      .         Micro Gradient Resistivity    : 
TLFamily_MNOR      .         Micro Resistivity             : 
TLFamily_NGLD      .         Neutron Far                   : 
TLFamily_OGZ       .         Gradient Inverted 225         : 
TLFamily_PHIE      .         Effective Porosity            : 
TLFamily_PHIEN     .         Effective Porosity            : 
TLFamily_PHIT      .         Porosity                      : 
TLFamily_PRMB      .         Permeability                  : 
TLFamily_PRMB_DGR  .         Permeability                  : 
TLFamily_RT        .         Formation Resistivity         : 
TLFamily_SOIL_ARCHIE .         Oil Saturation                : 
TLFamily_SOIL_DW   .         Oil Saturation                : 
TLFamily_SP        .         Spontaneous Potential         : 
TLFamily_VSH_FIN   .         Shale Volume                  : 
TLFamily_VSH_GR    .         Shale Volume                  : 
TLFamily_VSH_SP    .         Shale Volume                  : 
~Curve Information
#_______________________________________________________________________________
#
#LOGNAME           .UNIT     LOG_ID                        : DESCRIPTION
#_______________________________________________________________________________
DEPT               .M                                      : Колонка глубины 
CALI               .м                                      : Каверномер 
CILD               .мСм/м                                  : Индукционный каротаж 
COLL               .unitless                               : Описание 
CSAT               .unitless                               : Описание 
GR                 .мкР/ч                                  : Гамма каротаж 
GZ3                .Ohmm                                   : Градиент-зонд  длиной 2.25м 
LLS                .Ohmm                                   : Боковой каротаж 
MINV               .Ом·м                                   : Микро-градиент зонд 
MNOR               .Ом·м                                   : Микро-потенциал зонд 
NGLD               .у.е.                                   : Показания зонда НГК-60 аппаратуры ДРСТ-3-90 
OGZ                .Ohmm                                   : Обращенный градиент-зонд 
PHIE               .v/v                                    : Описание 
PHIEN              .v/v                                    :  
PHIT               .v/v                                    : Описание 
PRMB               .мД                                     :  
PRMB_DGR           .мД                                     :  
RT                 .ohm.m                                  : УЭС пласта 
SOIL_ARCHIE        .v/v                                    :  
SOIL_DW            .v/v                                    :  
SP                 .мВ                                     : Потенциал самополяризации 
VSH_FIN            .v/v                                    : Описание 
VSH_GR             .v/v                                    : Shale volume 
VSH_SP             .v/v                                    : Shale Volume 
~Ascii
950.0      0.221      381.94     -9999      -9999      5.501      12.344     5.105      3.366      3.48       1.302      5.747      -9999      -9999      -9999      -9999      -9999      5.105      -9999      -9999      36.792     -9999      0.04281914 0.3999984 
950.2000000000001 0.221      392.053    -9999      -9999      5.612      12.761     5.54       3.963      3.973      1.285      5.28       -9999      -9999      -9999      -9999      -9999      5.54       -9999      -9999      36.919     -9999      0.04611701 0.4028911 
950.4      0.221      393.308    -9999      -9999      5.714      12.698     6.542      3.965      3.971      1.254      4.949      -9999      -9999      -9999      -9999      -9999      6.542      -9999      -9999      37.175     -9999      0.04937097 0.4087842 
950.6      0.222      394.091    -9999      -9999      5.832      12.281     7.128      3.967      3.97       1.208      5.183      -9999      -9999      -9999      -9999      -9999      7.128      -9999      -9999      37.346     -9999      0.05342282 0.4127671 
950.8      0.223      404.121    -9999      -9999      5.926      12.415     5.803      3.968      3.775      1.152      5.126      -9999      -9999      -9999      -9999      -9999      5.803      -9999      -9999      37.771     -9999      0.05688725 0.4228283 
951        0.223      424.765    -9999      -9999      5.978      13.439     4.447      2.305      3.502      1.114      4.661      -9999      -9999      -9999      -9999      -9999      4.447      -9999      -9999      38.07      -9999      0.05889935 0.4300465 
951.2000000000001 0.223      448.459    -9999      -9999      5.995      14.385     3.2        1.614      3.248      1.091      3.872      -9999      -9999      -9999      -9999      -9999      3.2        -9999      -9999      38.452     -9999      0.05957246 0.4394384 
951.4      0.223      475.899    -9999      -9999      6.087      15.338     2.772      0.871      2.976      1.09       3.32       -9999      -9999      -9999      -9999      -9999      2.772      -9999      -9999      38.962     -9999      0.06335093 0.4522778 
951.6      0.226      502.114    -9999      -9999      6.17       15.799     2.351      0.871      2.202      1.112      2.811      -9999      -9999      -9999      -9999      -9999      2.351      -9999      -9999      39.617     -9999      0.06696499 0.4692786 
951.8      0.224      527.033    -9999      -9999      6.284      13.807     2.226      0.741      3.937      1.135      2.678      -9999      -9999      -9999      -9999      -9999      2.226      -9999      -9999      39.727     -9999      0.0722673  0.4721908 
952        0.225      543.512    -9999      -9999      6.435      11.5       2.247      0.599      3.088      1.153      2.343      -9999      -9999      -9999      -9999      -9999      2.247      -9999      -9999      39.67      -9999      0.07994236 0.4706796 
952.2000000000001 0.228      534.931    -9999      -9999      6.499      8.009      2.403      0.655      3.957      1.148      2.731      -9999      -9999      -9999      -9999      -9999      2.403      -9999      -9999      39.984     -9999      0.0834365  0.479059  
952.4      0.236      519.915    -9999      -9999      6.378      7.387      2.843      3.967      3.946      1.125      3.205      -9999      -9999      -9999      -9999      -9999      2.843      -9999      -9999      39.9       -9999      0.07695377 0.4768042 
952.6      0.228      519.538    -9999      -9999      6.263      6.158      4.619      3.973      3.14       1.103      3.765      -9999      -9999      -9999      -9999      -9999      4.619      -9999      -9999      39.732     -9999      0.07125996 0.4723234 
952.8      0.225      536.793    -9999      -9999      6.273      6.75       4.632      1.984      2.093      1.07       5.197      -9999      -9999      -9999      -9999      -9999      4.632      -9999      -9999      39.733     -9999      0.07173788 0.4723501 
953        0.228      553.428    -9999      -9999      6.4        8.4        3.425      1.033      1.047      1.069      6.059      -9999      -9999      -9999      -9999      -9999      3.425      -9999      -9999      39.65      -9999      0.0780938  0.4701506 
953.2000000000001 0.247      564.715    -9999      -9999      6.502      8.027      2.609      1.035      1.066      1.082      5.359      -9999      -9999      -9999      -9999      -9999      2.609      -9999      -9999      39.651     -9999      0.08360398 0.470177  
953.4      0.255      571.565    -9999      -9999      6.655      6.83       2.345      0.911      0.956      1.096      4.545      -9999      -9999      -9999      -9999      -9999      2.345      -9999      -9999      39.652     -9999      0.09260677 0.4702034 
953.6      0.263      570.29     -9999      -9999      6.723      6.195      2.282      0.801      0.859      1.108      3.892      -9999      -9999      -9999      -9999      -9999      2.282      -9999      -9999      39.654     -9999      0.09691322 0.4702563 
953.8      0.258      564.544    -9999      -9999      6.842      5.547      2.288      0.832      0.902      1.119      3.663      -9999      -9999      -9999      -9999      -9999      2.288      -9999      -9999      39.655     -9999      0.104937   0.4702827 
954        0.252      558.189    -9999      -9999      6.956      4.691      2.331      0.758      0.859      1.13       3.926      -9999      -9999      -9999      -9999      -9999      2.331      -9999      -9999      39.611     -9999      0.1132459  0.4691202 
954.2000000000001 0.254      551.833    -9999      -9999      6.778      3.933      2.376      0.586      0.791      1.145      4.064      -9999      -9999      -9999      -9999      -9999      2.376      -9999      -9999      39.912     -9999      0.1005424  0.4771256 
954.4      0.252      542.93     -9999      -9999      6.521      3.337      2.42       0.902      3.032      1.158      4.105      -9999      -9999      -9999      -9999      -9999      2.42       -9999      -9999      39.913     -9999      0.08467255 0.4771524 
954.6      0.248      530.209    -9999      -9999      6.466      3.004      2.74       3.004      2.544      1.156      4.184      -9999      -9999      -9999      -9999      -9999      2.74       -9999      -9999      39.914     -9999      0.08161618 0.4771793 
954.8      0.225      517.487    -9999      -9999      6.463      2.797      3.284      2.009      2.055      1.149      4.542      -9999      -9999      -9999      -9999      -9999      3.284      -9999      -9999      40.037     -9999      0.08145266 0.4804867 
955        0.231      516.678    -9999      -9999      6.304      3.015      3.248      0.989      1.263      1.156      4.703      -9999      -9999      -9999      -9999      -9999      3.248      -9999      -9999      39.917     -9999      0.07323992 0.4772597 
955.2000000000001 0.256      511.539    -9999      -9999      6.103      3.496      3.04       1.327      1.515      1.164      4.417      -9999      -9999      -9999      -9999      -9999      3.04       -9999      -9999      39.951     -9999      0.06403212 0.478172  
955.4      0.239      499.693    -9999      -9999      6.033      4.063      2.997      3.274      2.572      1.158      4.166      -9999      -9999      -9999      -9999      -9999      2.997      -9999      -9999      40.259     -9999      0.06110502 0.4865089 
955.6      0.237      485.699    -9999      -9999      6.092      4.019      3.469      2.887      2.945      1.143      4.262      -9999      -9999      -9999      -9999      -9999      3.469      -9999      -9999      40.345     -9999      0.06356302 0.4888602 
955.8      0.224      482.616    -9999      -9999      5.977      3.788      3.983      2.879      2.533      1.131      4.959      -9999      -9999      -9999      -9999      -9999      3.983      -9999      -9999      40.346     -9999      0.05886    0.4888876 
956        0.229      492.645    -9999      -9999      5.876      4.021      3.785      2.871      2.114      1.127      5.3        -9999      -9999      -9999      -9999      -9999      3.785      -9999      -9999      40.432     -9999      0.05501739 0.4912492 
