~Version
 VERS              .         2.0                           : CWLS LOG ASCII STANDARD - VERSION 2.0
 WRAP              .         NO                            : ONE LINE PER DEPTH STEP
 DLM               .         SPACE                         : DELIMITING CHARACTER(SPACE TAB OR COMMA)
~Well Information
#_______________________________________________________________________________
#
#PARAMETER_NAME    .UNIT     VALUE                         : DESCRIPTION
#_______________________________________________________________________________
STRT               .M        950                           : First reference value
STOP               .M        1404                          : Last reference value
STEP               .M        0.2                           : Step increment
NULL               .         -9999                         : Missing value
COMP               .                                       : Company
WELL               .         4124                          : Well name
FLD                .         УЗЕНЬ                         : Field
LOC                .                                       : Location
CNTY               .                                       : County
STAT               .                                       : State
CTRY               .                                       : Country
SRVC               .                                       : Service Company
DATE               .                                       : Date
UWI                .                                       : Unique Well ID
Block              .         3а                            : 
Cartographic_reference_system .         GCS_WGS_1984                  : ESRI,PE_10_3_1- <?xml version="1.0" encoding="utf-16"?><ILateBoundCoordinateReferenceSystem name="GCS_WGS_1984"><AuthorityCode>EPSG,4326</AuthorityCode></ILateBoundCoordinateReferenceSystem>
Category           .         Нефтяная                      : 
Condition          .         В работе                      : 
Date               .         24.07.1976                    : 
EREF               .m        234.7                         : 100.8
Gorizont           .         18                            : 14
HZCS               .GCS_WGS_1984 WGS_1984_EASE-Grid_2.0_Global : ESRI,PE_10_3_1- <?xml version="1.0" encoding="utf-16"?><ILateBoundCoordinateReferenceSystem name="WGS_1984_EASE-Grid_2.0_Global"><AuthorityCode>EPSG,6933</AuthorityCode></ILateBoundCoordinateReferenceSystem>
Interpretator      .         Ткачева И.Г.                  : 
Kupol              .         Основной                      : osnovnoi
LATI               .dega     0.6301419213                  : GCS_WGS_1984
LONG               .dega     0.5703681379                  : GCS_WGS_1984
Mud                .         0                             : 
Mud_density        .         0                             : 
Mud_resistivity    .         0                             : 
NGDU               .         НГДУ-1                        : 
ORIGINALWELLNAME   .         4124                          : 
Spud_date          .         1976                          : 1961
Viscosity          .         0                             : 
X                  .m        55032.7                       : 46154
Y                  .m        80387.7                       : 85761.93
YEAR               .         2018                          : 
~Parameter Information Block
#_______________________________________________________________________________
#
#PARAMETER_NAME    .UNIT     VALUE                         : DESCRIPTION
#_______________________________________________________________________________
SET                .         LQC_KAZNIPI_Petrel            : 
TLFamily_CALI      .         Caliper                       : 
TLFamily_CILD      .         Conductivity                  : 
TLFamily_COLL      .         Net Reservoir Flag            : 
TLFamily_CSAT      .         Fluid Code                    : 
TLFamily_DEPT      .         Measured Depth                : 
TLFamily_GR        .         Russian Gamma Ray             : 
TLFamily_GZ3       .         Gradient 225                  : 
TLFamily_LLS       .         Lateral Log Resistivity       : 
TLFamily_MINV      .         Micro Gradient Resistivity    : 
TLFamily_MNOR      .         Micro Resistivity             : 
TLFamily_NGLD      .         Neutron Far                   : 
TLFamily_OGZ       .         Gradient Inverted 225         : 
TLFamily_PHIE      .         Effective Porosity            : 
TLFamily_PHIEN     .         Effective Porosity            : 
TLFamily_PHIT      .         Porosity                      : 
TLFamily_PRMB      .         Permeability                  : 
TLFamily_PRMB_DGR  .         Permeability                  : 
TLFamily_RT        .         Formation Resistivity         : 
TLFamily_SOIL_ARCHIE .         Oil Saturation                : 
TLFamily_SOIL_DW   .         Oil Saturation                : 
TLFamily_SP        .         Spontaneous Potential         : 
TLFamily_VSH_FIN   .         Shale Volume                  : 
TLFamily_VSH_GR    .         Shale Volume                  : 
TLFamily_VSH_SP    .         Shale Volume                  : 
~Curve Information
#_______________________________________________________________________________
#
#LOGNAME           .UNIT     LOG_ID                        : DESCRIPTION
#_______________________________________________________________________________
DEPT               .M                                      : Колонка глубины 
CALI               .м                                      : Каверномер 
CILD               .мСм/м                                  : Индукционный каротаж 
COLL               .unitless                               : Описание 
CSAT               .unitless                               : Описание 
GR                 .мкР/ч                                  : Гамма каротаж 
GZ3                .Ohmm                                   : Градиент-зонд  длиной 2.25м 
LLS                .Ohmm                                   : Боковой каротаж 
MINV               .Ом·м                                   : Микро-градиент зонд 
MNOR               .Ом·м                                   : Микро-потенциал зонд 
NGLD               .у.е.                                   : Показания зонда НГК-60 аппаратуры ДРСТ-3-90 
OGZ                .Ohmm                                   : Обращенный градиент-зонд 
PHIE               .v/v                                    : Описание 
PHIEN              .v/v                                    :  
PHIT               .v/v                                    : Описание 
PRMB               .мД                                     :  
PRMB_DGR           .мД                                     :  
RT                 .ohm.m                                  : УЭС пласта 
SOIL_ARCHIE        .v/v                                    :  
SOIL_DW            .v/v                                    :  
SP                 .мВ                                     : Потенциал самополяризации 
VSH_FIN            .v/v                                    : Описание 
VSH_GR             .v/v                                    : Shale volume 
VSH_SP             .v/v                                    : Shale Volume 
~Ascii
# ...
1278.6     0.22       727.893    -9999      -9999      6.119      2.433      1.375      2.421      2.381      1.226      1.36       0.1659909  0.1659909  0.3046742  3.324393   4.239794   1.375      0.1056074  0.3540342  37.442     0.4202524  0.3597066  0.4807983 
1278.8     0.219      747.382    -9999      -9999      6.149      1.865      1.374      2.57       2.221      1.227      1.376      0.1636856  0.1636856  0.3043409  3.013089   3.605181   1.374      0.09433714 0.3497718  37.274     0.4262283  0.3843282  0.4681283 
1279       0.219      763.417    -9999      -9999      6.099      1.462      1.374      3.111      2.234      1.229      1.395      0.1709799  0.1709799  0.3036743  4.112632   4.723776   1.374      0.1280823  0.3601246  37.192     0.4021044  0.344175   0.4600338 
1279.2     0.218      771.188    -9999      -9999      5.924      1.36       1.373      2.622      2.057      1.229      1.434      0.1891084  0.1891084  0.3036743  8.910561   12.16345   1.373      0.2010754  0.3854399  37.279     0.3471693  0.2339103  0.4604284 
1279.4     0.219      778.596    -9999      -9999      5.898      1.53       1.336      2.133      1.88       1.227      1.513      0.1246058  0.1246058  0.3043409  0.5690615  15.79009   1.336      0          0.2676198  37.458     0.5446519  0.2102683  0.5446519 
1279.6     0.22       793.576    -9999      -9999      6.035      1.893      1.33       2.055      1.955      1.223      1.531      0.1257687  0.1257687  0.3056741  0.5979982  7.634726   1.33       0          0.2705093  37.547     0.5451677  0.2829047  0.5451677 
1279.8     0.219      803.018    -9999      -9999      6.119      2.13       1.317      2.334      1.999      1.22       1.515      0.1259097  0.1259097  0.306674   0.6016046  4.889814   1.317      0          0.2687235  37.676     0.5477706  0.3393541  0.5477706 
1280       0.219      808.063    -9999      -9999      6.142      2.329      1.273      2.442      1.957      1.214      1.481      0.1254126  0.1254126  0.3086738  0.5889849  4.32822    1.273      0          0.258131   37.899     0.5553369  0.3566874  0.5553369 
1280.2     0.219      807.611    -9999      -9999      6.21       2.448      1.267      2.788      2.174      1.206      1.431      0.1252518  0.1252518  0.3113402  0.5849577  3.017632   1.267      0          0.2600353  38.139     0.5639044  0.4132858  0.5639044 
1280.4     0.22       805.49     -9999      -9999      6.311      2.408      1.254      2.653      1.963      1.199      1.414      0.1240918  0.1240918  0.3136733  0.5567239  1.766056   1.254      0          0.2571485  38.414     0.5744893  0.5143443  0.5744893 
1280.6     0.22       805.47     -9999      -9999      6.362      2.275      1.254      2.367      1.753      1.195      1.397      0.1178409  0.1178409  0.3150065  0.4264402  1.347477   1.254      0          0.2449808  38.908     0.5974714  0.5744155  0.5974714 
1280.8     0.219      810.828    -9999      -9999      6.371      2.127      1.235      2.081      1.542      1.191      1.398      0.1077143  0.1077143  0.3163397  0.276878   1.284664   1.235      0          0.2163883  39.589     0.6321982  0.5857221  0.6321982 
1281       0.219      819.358    -9999      -9999      6.362      2.008      1.22       2.03       1.66       1.183      1.415      0.1085431  0.1085431  0.3190061  0.2868396  1.347477   1.22       0          0.2179739  39.762     0.6377668  0.5744155  0.6377668 
1281.2     0.219      828.202    -9999      -9999      6.402      1.907      1.201      2.202      1.528      1.176      1.449      0.1073577  0.1073577  0.3213392  0.2726987  1.089879   1.201      0          0.2124722  40.019     0.6484288  0.6263993  0.6484288 
1281.4     0.22       833.246    -9999      -9999      6.461      1.805      1.183      2.045      1.533      1.169      1.483      0.1021159  0.1021159  0.3236723  0.2180681  0.797016   1.183      0          0.1963093  40.473     0.671383   0.7117844  0.671383  
1281.6     0.22       839.557    -9999      -9999      6.503      1.755      1.16       2.186      1.483      1.164      1.518      0.09173696 0.09173696 0.3253388  0.1400713  0.6378476  1.16       0          0.1611076  41.127     0.7078843  0.7795693  0.7078843 
1281.8     0.22       840.803    -9999      -9999      6.439      1.721      1.179      2.222      1.52       1.16       1.552      0.09829042 0.09829042 0.326672   0.1852401  0.8956648  1.179      0          0.1892435  40.96      0.6920654  0.6786639  0.6920654 
1282       0.22       840.782    -9999      -9999      6.476      1.704      1.172      2.021      1.34       1.158      1.586      0.09879061 0.09879061 0.3273386  0.1892343  0.7360603  1.172      0          0.1893223  41.047     0.6925697  0.7352885  0.6925697 
1282.2     0.22       840.762    -9999      -9999      6.482      1.688      1.183      2.501      1.732      1.158      1.587      0.1032771  0.1032771  0.3273386  0.2291401  0.7130038  1.183      0          0.205323   40.911     0.6789742  0.7449062  0.6789742 
1282.4     0.22       838.208    -9999      -9999      6.42       1.637      1.172      2.104      1.416      1.16       1.587      0.1065759  0.1065759  0.326672   0.2637557  0.9906351  1.172      0          0.2092359  40.797     0.666958   0.6513025  0.666958  
1282.6     0.22       835.656    -9999      -9999      6.266      1.621      1.197      1.883      1.372      1.166      1.563      0.1078598  0.1078598  0.3246722  0.2786008  2.242157   1.197      0          0.2177013  40.714     0.6570074  0.4665793  0.6570074 
1282.8     0.22       833.31     -9999      -9999      6.094      1.587      1.21       2.539      1.859      1.171      1.622      0.1077207  0.1077207  0.3230057  0.2769534  5.583186   1.21       0          0.2189606  40.717     0.6523788  0.3214676  0.6523788 
1283       0.22       832.035    -9999      -9999      6.052      1.563      1.235      2.376      1.786      1.171      1.622      0.1074621  0.1074621  0.3230057  0.2739159  6.976414   1.235      0          0.2262524  40.809     0.6531624  0.2935155  0.6531624 
1283.2     0.22       833.061    -9999      -9999      6.133      1.497      1.228      2.213      1.528      1.174      1.663      0.1027717  0.1027717  0.3220058  0.2242533  4.539857   1.228      0          0.210262   41.071     0.6643458  0.3498017  0.6643458 
1283.4     0.22       833.681    -9999      -9999      6.251      1.452      1.216      2.157      1.518      1.179      1.714      0.09237141 0.09237141 0.3203393  0.1439132  2.427837   1.216      0          0.1740808  41.573     0.6908118  0.4516647  0.6908118 
1283.6     0.221      834.306    -9999      -9999      6.256      1.415      1.197      2.19       1.443      1.182      1.782      0.0912055  0.0912055  0.3193394  0.1369321  2.364293   1.197      0          0.1622558  41.66      0.6913148  0.4565827  0.6913148 
1283.8     0.221      834.287    -9999      -9999      6.294      1.402      1.191      2.169      1.388      1.184      1.868      0.09225541 0.09225541 0.3186728  0.143203   1.932702   1.191      0          0.1622103  41.578     0.6861133  0.4957508  0.6861133 
1284       0.221      834.266    -9999      -9999      6.361      1.402      1.191      2.068      1.418      1.182      1.953      0.0909744  0.0909744  0.3193394  0.135589   1.354643   1.191      0          0.1594339  41.671     0.6920151  0.5731728  0.6920151 
1284.2     0.222      834.245    -9999      -9999      6.407      1.386      1.185      2.116      1.325      1.181      2.039      0.08046925 0.08046925 0.3196727  0.08662511 1.061354   1.185      0          0.123312   42.177     0.7248589  0.6332199  0.7248589 
1284.4     0.223      829.509    -9999      -9999      6.375      1.386      1.197      2.11       1.388      1.182      2.116      0.07235184 0.07235184 0.3193394  0.06127588 1.257694   1.197      0          0.0973693  42.529     0.7484471  0.5908188  0.7484471 
1284.6     0.221      825.671    -9999      -9999      6.427      1.403      1.215      2.217      1.59       1.187      2.176      0.07462471 0.07462471 0.3176729  0.06751321 0.9545279  1.215      0          0.1094486  42.352     0.7365096  0.6612522  0.7365096 
