~Version
 VERS              .         2.0                           : CWLS LOG ASCII STANDARD - VERSION 2.0
 WRAP              .         NO                            : ONE LINE PER DEPTH STEP
 DLM               .         SPACE                         : DELIMITING CHARACTER(SPACE TAB OR COMMA)
~Well Information
#_______________________________________________________________________________
#
#PARAMETER_NAME    .UNIT     VALUE                         : DESCRIPTION
#_______________________________________________________________________________
STRT               .M        950                           : First reference value
STOP               .M        1404                          : Last reference value
STEP               .M        0.2                           : Step increment
NULL               .         -9999                         : Missing value
COMP               .                                       : Company
WELL               .         4124                          : Well name
FLD                .         УЗЕНЬ                         : Field
LOC                .                                       : Location
CNTY               .                                       : County
STAT               .                                       : State
CTRY               .                                       : Country
SRVC               .                                       : Service Company
DATE               .                                       : Date
UWI                .                                       : Unique Well ID
Block              .         3а                            : 
Cartographic_reference_system .         GCS_WGS_1984                  : ESRI,PE_10_3_1- <?xml version="1.0" encoding="utf-16"?><ILateBoundCoordinateReferenceSystem name="GCS_WGS_1984"><AuthorityCode>EPSG,4326</AuthorityCode></ILateBoundCoordinateReferenceSystem>
Category           .         Нефтяная                      : 
Condition          .         В работе                      : 
Date               .         24.07.1976                    : 
EREF               .m        234.7                         : 100.8
Gorizont           .         18                            : 14
HZCS               .GCS_WGS_1984 WGS_1984_EASE-Grid_2.0_Global : ESRI,PE_10_3_1- <?xml version="1.0" encoding="utf-16"?><ILateBoundCoordinateReferenceSystem name="WGS_1984_EASE-Grid_2.0_Global"><AuthorityCode>EPSG,6933</AuthorityCode></ILateBoundCoordinateReferenceSystem>
Interpretator      .         Ткачева И.Г.                  : 
Kupol              .         Основной                      : osnovnoi
LATI               .dega     0.6301419213                  : GCS_WGS_1984
LONG               .dega     0.5703681379                  : GCS_WGS_1984
Mud                .         0                             : 
Mud_density        .         0                             : 
Mud_resistivity    .         0                             : 
NGDU               .         НГДУ-1                        : 
ORIGINALWELLNAME   .         4124                          : 
Spud_date          .         1976                          : 1961
Viscosity          .         0                             : 
X                  .m        55032.7                       : 46154
Y                  .m        80387.7                       : 85761.93
YEAR               .         2018                          : 
~Parameter Information Block
#_______________________________________________________________________________
#
#PARAMETER_NAME    .UNIT     VALUE                         : DESCRIPTION
#_______________________________________________________________________________
SET                .         LQC_KAZNIPI_Petrel            : 
TLFamily_CALI      .         Caliper                       : 
TLFamily_CILD      .         Conductivity                  : 
TLFamily_COLL      .         Net Reservoir Flag            : 
TLFamily_CSAT      .         Fluid Code                    : 
TLFamily_DEPT      .         Measured Depth                : 
TLFamily_GR        .         Russian Gamma Ray             : 
TLFamily_GZ3       .         Gradient 225                  : 
TLFamily_LLS       .         Lateral Log Resistivity       : 
TLFamily_MINV      .         Micro Gradient Resistivity    : 
TLFamily_MNOR      .         Micro Resistivity             : 
TLFamily_NGLD      .         Neutron Far                   : 
TLFamily_OGZ       .         Gradient Inverted 225         : 
TLFamily_PHIE      .         Effective Porosity            : 
TLFamily_PHIEN     .         Effective Porosity            : 
TLFamily_PHIT      .         Porosity                      : 
TLFamily_PRMB      .         Permeability                  : 
TLFamily_PRMB_DGR  .         Permeability                  : 
TLFamily_RT        .         Formation Resistivity         : 
TLFamily_SOIL_ARCHIE .         Oil Saturation                : 
TLFamily_SOIL_DW   .         Oil Saturation                : 
TLFamily_SP        .         Spontaneous Potential         : 
TLFamily_VSH_FIN   .         Shale Volume                  : 
TLFamily_VSH_GR    .         Shale Volume                  : 
TLFamily_VSH_SP    .         Shale Volume                  : 
~Curve Information
#_______________________________________________________________________________
#
#LOGNAME           .UNIT     LOG_ID                        : DESCRIPTION
#_______________________________________________________________________________
DEPT               .M                                      : Колонка глубины 
CALI               .м                                      : Каверномер 
CILD               .мСм/м                                  : Индукционный каротаж 
COLL               .unitless                               : Описание 
CSAT               .unitless                               : Описание 
GR                 .мкР/ч                                  : Гамма каротаж 
GZ3                .Ohmm                                   : Градиент-зонд  длиной 2.25м 
LLS                .Ohmm                                   : Боковой каротаж 
MINV               .Ом·м                                   : Микро-градиент зонд 
MNOR               .Ом·м                                   : Микро-потенциал зонд 
NGLD               .у.е.                                   : Показания зонда НГК-60 аппаратуры ДРСТ-3-90 
OGZ                .Ohmm                                   : Обращенный градиент-зонд 
PHIE               .v/v                                    : Описание 
PHIEN              .v/v                                    :  
PHIT               .v/v                                    : Описание 
PRMB               .мД                                     :  
PRMB_DGR           .мД                                     :  
RT                 .ohm.m                                  : УЭС пласта 
SOIL_ARCHIE        .v/v                                    :  
SOIL_DW            .v/v                                    :  
SP                 .мВ                                     : Потенциал самополяризации 
VSH_FIN            .v/v                                    : Описание 
VSH_GR             .v/v                                    : Shale volume 
VSH_SP             .v/v                                    : Shale Volume 
~Ascii
# ...
1067.8     0.257      844.763    -9999      -9999      6.269      1.682      1.046      0.64       0.588      1.07       1.61       0.1189724  0.1189724  0.356669   0.4475227  0.7304913  1.046      0          0.2206822  50.902     0.7202927  0.7375724  0.7030131 
1068       0.267      851.076    -9999      -9999      6.311      1.691      1.024      1.053      1.001      1.065      1.589      0.1179761  0.1179761  0.3583355  0.4289058  0.6857783  1.024      0          0.2124865  50.903     0.7283617  0.7568429  0.6998805 
1068.2     0.267      857.394    -9999      -9999      6.226      1.657      1.008      1.068      1.135      1.063      1.62       0.1262974  0.1262974  0.3590021  0.6116357  0.7792912  1.008      0          0.2257391  50.824     0.7051657  0.7183511  0.6919803 
1068.4     0.265      853.583    -9999      -9999      6.183      1.612      1.015      0.674      0.852      1.066      1.67       0.1289357  0.1289357  0.3580022  0.68448    0.8313502  1.015      0          0.2326129  50.821     0.6941408  0.6996309  0.6886507 
1068.6     0.264      842.134    -9999      -9999      6.196      1.556      1.034      0.877      0.617      1.075      1.71       0.1271576  0.1271576  0.3550025  0.6344895  0.8152547  1.034      0          0.2317915  50.653     0.6904392  0.7052385  0.6756399 
1068.8     0.256      829.355    -9999      -9999      6.234      1.445      1.109      1.056      0.791      1.082      1.808      0.1235055  0.1235055  0.3526694  0.5429757  0.7699711  1.109      0          0.2473837  50.557     0.6944359  0.721889   0.6669828 
1069       0.253      817.854    -9999      -9999      6.234      1.403      1.153      1.01       0.927      1.089      1.966      0.1207427  0.1207427  0.3503363  0.4826201  0.7699711  1.153      0          0.2528121  50.655     0.6957383  0.721889   0.6695875 
1069.2     0.244      806.012    -9999      -9999      6.209      1.386      1.216      1.284      0.951      1.096      1.935      0.1190907  0.1190907  0.3480032  0.4497862  0.7994708  1.216      0          0.2657382  50.826     0.6936744  0.710891   0.6764578 
1069.4     0.252      801.616    -9999      -9999      6.175      1.421      1.229      1.539      1.224      1.104      1.784      0.1186548  0.1186548  0.3453368  0.441503   0.8414128  1.229      0          0.2650215  50.899     0.686915   0.6962023  0.6776278 
1069.6     0.251      802.868    -9999      -9999      6.116      1.497      1.212      1.886      1.646      1.11       1.734      0.1195977  0.1195977  0.343337   0.4596188  0.9194827  1.212      0          0.2591253  51.07      0.6779978  0.6714296  0.6845661 
1069.8     0.268      797.79     -9999      -9999      6.039      1.541      1.21       0.821      1.179      1.116      1.729      0.1230842  0.1230842  0.3413372  0.533305   1.032368   1.21       0          0.263166   51.085     0.6613727  0.6404202  0.6823252 
1070       0.267      788.915    -9999      -9999      5.946      1.482      1.197      1.677      0.773      1.116      1.78       0.1287943  0.1287943  0.3413372  0.6803642  1.187341   1.197      0          0.2710113  51.154     0.6440693  0.6048706  0.6832679 
1070.2     0.267      779.524    -9999      -9999      5.852      1.405      1.225      1.457      1.247      1.119      1.815      0.1345547  0.1345547  0.3403373  0.8698363  1.367633   1.225      0          0.2893139  51.087     0.6235837  0.5709437  0.6762236 
1070.4     0.256      772.429    -9999      -9999      5.834      1.388      1.232      1.262      0.975      1.127      1.815      0.1350386  0.1350386  0.3376709  0.8879752  1.40516    1.232      0          0.2887018  50.919     0.6140373  0.5646675  0.6634071 
1070.6     0.244      769.882    -9999      -9999      5.912      1.371      1.251      2.15       1.211      1.132      1.798      0.1300855  0.1300855  0.3360044  0.718882   1.249631   1.251      0          0.2822553  50.836     0.6239966  0.5923725  0.6556208 
1070.8     0.244      766.07     -9999      -9999      5.946      1.389      1.251      1.834      1.59       1.128      1.799      0.1298444  0.1298444  0.3373376  0.7115269  1.187341   1.251      0          0.2835946  50.837     0.6287673  0.6048706  0.6526639 
1071       0.246      769.854    -9999      -9999      5.92       1.423      1.248      2.011      1.636      1.122      1.782      0.1333782  0.1333782  0.3393374  0.8272687  1.234687   1.248      0          0.2923245  50.895     0.6241187  0.5952898  0.6529475 
1071.2     0.248      779.967    -9999      -9999      5.87       1.458      1.25       2.303      1.813      1.115      1.782      0.1388967  0.1388967  0.3416705  1.046795   1.331108   1.25       0          0.3062619  50.925     0.6144661  0.5772895  0.6516426 
1071.4     0.253      790.082    -9999      -9999      5.853      1.492      1.216      1.786      1.6        1.107      1.8        0.1422433  0.1422433  0.3443369  1.207392   1.365578   1.216      0          0.3061576  51.011     0.6124049  0.5712944  0.6535155 
1071.6     0.259      798.93     -9999      -9999      5.853      1.544      1.19       1.277      1.247      1.101      1.834      0.1478572  0.1478572  0.3463367  1.534024   1.365578   1.19       0          0.3110677  50.673     0.6014531  0.5712944  0.6316118 
1071.8     0.262      801.448    -9999      -9999      5.844      1.578      1.166      1.482      1.087      1.099      1.885      0.1475031  0.1475031  0.3470033  1.511031   1.384187   1.166      0          0.3042407  50.894     0.6045461  0.5681456  0.6409465 
1072       0.262      796.37     -9999      -9999      5.844      1.612      1.16       1.483      1.104      1.101      1.988      0.1469933  0.1469933  0.3463367  1.478529   1.384187   1.16       0          0.3007036  50.93      0.6040711  0.5681456  0.6399966 
1072.2     0.27       787.19     -9999      -9999      5.87       1.613      1.186      1.282      1.201      1.109      2.125      0.1420697  0.1420697  0.3436703  1.198485   1.331108   1.186      0          0.2962592  51.064     0.6109111  0.5772895  0.6445326 
1072.4     0.261      778.246    -9999      -9999      5.895      1.579      1.229      1.155      0.98       1.112      2.112      0.1324735  0.1324735  0.3426704  0.7959537  1.281991   1.229      0          0.2895746  51.865     0.6369604  0.5862206  0.6877003 
1072.6     0.258      770.584    -9999      -9999      5.896      1.54       1.283      1.607      1.213      1.118      1.995      0.1300911  0.1300911  0.3406706  0.7190543  1.280065   1.283      0          0.2975078  51.951     0.6381195  0.5865806  0.6896583 
1072.8     0.254      768.458    -9999      -9999      5.87       1.494      1.324      2.03       1.412      1.123      1.945      0.1304567  0.1304567  0.3390041  0.7303537  1.331108   1.324      0          0.3069921  51.953     0.6319617  0.5772895  0.6866339 
1073       0.258      768.443    -9999      -9999      5.819      1.529      1.324      1.717      1.432      1.126      1.922      0.1329007  0.1329007  0.3380042  0.8105909  1.437219   1.324      0          0.3103128  51.954     0.6215256  0.5594899  0.6835614 
1073.2     0.256      762.098    -9999      -9999      5.777      1.58       1.336      1.077      1.011      1.123      1.956      0.1359296  0.1359296  0.3390041  0.9223693  1.530926   1.336      0          0.3202857  52.04      0.6153771  0.5452443  0.6855099 
1073.4     0.258      751.423    -9999      -9999      5.768      1.637      1.348      1.5        1.239      1.115      2.001      0.1387697  0.1387697  0.3416705  1.04114    1.551787   1.348      0          0.3317321  52.126     0.614851   0.5422392  0.6874627 
1073.6     0.254      733.542    -9999      -9999      5.802      1.632      1.373      1.813      1.467      1.106      2.008      0.1403795  0.1403795  0.3446702  1.115132   1.474436   1.373      0          0.3442756  52.128     0.6190629  0.5536796  0.6844462 
1073.8     0.25       724.067    -9999      -9999      5.887      1.615      1.418      1.896      1.579      1.108      1.982      0.1344957  0.1344957  0.3440036  0.867651   1.297508   1.418      0          0.3438457  52.214     0.6348723  0.5833477  0.6863968 
