~Version
 VERS              .         2.0                           : CWLS LOG ASCII STANDARD - VERSION 2.0
 WRAP              .         NO                            : ONE LINE PER DEPTH STEP
 DLM               .         SPACE                         : DELIMITING CHARACTER(SPACE TAB OR COMMA)
~Well Information
#_______________________________________________________________________________
#
#PARAMETER_NAME    .UNIT     VALUE                         : DESCRIPTION
#_______________________________________________________________________________
STRT               .M        950                           : First reference value
STOP               .M        1404                          : Last reference value
STEP               .M        0.2                           : Step increment
NULL               .         -9999                         : Missing value
COMP               .                                       : Company
WELL               .         4124                          : Well name
FLD                .         УЗЕНЬ                         : Field
LOC                .                                       : Location
CNTY               .                                       : County
STAT               .                                       : State
CTRY               .                                       : Country
SRVC               .                                       : Service Company
DATE               .                                       : Date
UWI                .                                       : Unique Well ID
Block              .         3а                            : 
Cartographic_reference_system .         GCS_WGS_1984                  : ESRI,PE_10_3_1- <?xml version="1.0" encoding="utf-16"?><ILateBoundCoordinateReferenceSystem name="GCS_WGS_1984"><AuthorityCode>EPSG,4326</AuthorityCode></ILateBoundCoordinateReferenceSystem>
Category           .         Нефтяная                      : 
Condition          .         В работе                      : 
Date               .         24.07.1976                    : 
EREF               .m        234.7                         : 100.8
Gorizont           .         18                            : 14
HZCS               .GCS_WGS_1984 WGS_1984_EASE-Grid_2.0_Global : ESRI,PE_10_3_1- <?xml version="1.0" encoding="utf-16"?><ILateBoundCoordinateReferenceSystem name="WGS_1984_EASE-Grid_2.0_Global"><AuthorityCode>EPSG,6933</AuthorityCode></ILateBoundCoordinateReferenceSystem>
Interpretator      .         Ткачева И.Г.                  : 
Kupol              .         Основной                      : osnovnoi
LATI               .dega     0.6301419213                  : GCS_WGS_1984
LONG               .dega     0.5703681379                  : GCS_WGS_1984
Mud                .         0                             : 
Mud_density        .         0                             : 
Mud_resistivity    .         0                             : 
NGDU               .         НГДУ-1                        : 
ORIGINALWELLNAME   .         4124                          : 
Spud_date          .         1976                          : 1961
Viscosity          .         0                             : 
X                  .m        55032.7                       : 46154
Y                  .m        80387.7                       : 85761.93
YEAR               .         2018                          : 
~Parameter Information Block
#_______________________________________________________________________________
#
#PARAMETER_NAME    .UNIT     VALUE                         : DESCRIPTION
#_______________________________________________________________________________
SET                .         LQC_KAZNIPI_Petrel            : 
TLFamily_CALI      .         Caliper                       : 
TLFamily_CILD      .         Conductivity                  : 
TLFamily_COLL      .         Net Reservoir Flag            : 
TLFamily_CSAT      .         Fluid Code                    : 
TLFamily_DEPT      .         Measured Depth                : 
TLFamily_GR        .         Russian Gamma Ray             : 
TLFamily_GZ3       .         Gradient 225                  : 
TLFamily_LLS       .         Lateral Log Resistivity       : 
TLFamily_MINV      .         Micro Gradient Resistivity    : 
TLFamily_MNOR      .         Micro Resistivity             : 
TLFamily_NGLD      .         Neutron Far                   : 
TLFamily_OGZ       .         Gradient Inverted 225         : 
TLFamily_PHIE      .         Effective Porosity            : 
TLFamily_PHIEN     .         Effective Porosity            : 
TLFamily_PHIT      .         Porosity                      : 
TLFamily_PRMB      .         Permeability                  : 
TLFamily_PRMB_DGR  .         Permeability                  : 
TLFamily_RT        .         Formation Resistivity         : 
TLFamily_SOIL_ARCHIE .         Oil Saturation                : 
TLFamily_SOIL_DW   .         Oil Saturation                : 
TLFamily_SP        .         Spontaneous Potential         : 
TLFamily_VSH_FIN   .         Shale Volume                  : 
TLFamily_VSH_GR    .         Shale Volume                  : 
TLFamily_VSH_SP    .         Shale Volume                  : 
~Curve Information
#_______________________________________________________________________________
#
#LOGNAME           .UNIT     LOG_ID                        : DESCRIPTION
#_______________________________________________________________________________
DEPT               .M                                      : Колонка глубины 
CALI               .м                                      : Каверномер 
CILD               .мСм/м                                  : Индукционный каротаж 
COLL               .unitless                               : Описание 
CSAT               .unitless                               : Описание 
GR                 .мкР/ч                                  : Гамма каротаж 
GZ3                .Ohmm                                   : Градиент-зонд  длиной 2.25м 
LLS                .Ohmm                                   : Боковой каротаж 
MINV               .Ом·м                                   : Микро-градиент зонд 
MNOR               .Ом·м                                   : Микро-потенциал зонд 
NGLD               .у.е.                                   : Показания зонда НГК-60 аппаратуры ДРСТ-3-90 
OGZ                .Ohmm                                   : Обращенный градиент-зонд 
PHIE               .v/v                                    : Описание 
PHIEN              .v/v                                    :  
PHIT               .v/v                                    : Описание 
PRMB               .мД                                     :  
PRMB_DGR           .мД                                     :  
RT                 .ohm.m                                  : УЭС пласта 
SOIL_ARCHIE        .v/v                                    :  
SOIL_DW            .v/v                                    :  
SP                 .мВ                                     : Потенциал самополяризации 
VSH_FIN            .v/v                                    : Описание 
VSH_GR             .v/v                                    : Shale volume 
VSH_SP             .v/v                                    : Shale Volume 
~Ascii
# ...
1160.8     0.217      510.896    1          2          5.79       4.195      5.806      1.714      1.805      1.209      3.557      0.246898   0.246898   0.3103403  104.7871   28.00084   5.806      0.6687597  0.7280768  39.043     0.1922494  0.1664125  0.2180863 
1161       0.217      523.126    1          2          5.623      3.632      4.642      1.346      1.616      1.215      3.346      0.2493277  0.2493277  0.3083405  116.2281   67.89988   4.642      0.6352139  0.6960045  40.23      0.1788267  0.1159047  0.2417488 
1161.2     0.218      579.916    1          2          5.626      3.984      3.643      1.105      1.465      1.209      3.137      0.2483184  0.2483184  0.3103403  111.3313   66.82806   3.643      0.5898331  0.657542   40.993     0.1879452  0.1166602  0.2592302 
1161.4     0.218      662.971    1          2          5.844      4.398      3.603      0.967      1.713      1.199      2.972      0.2314142  0.2314142  0.3136733  54.13896   21.02702   3.603      0.5615922  0.647542   43.007     0.2492701  0.1870595  0.3114807 
1161.6     0.217      705.518    1          2          5.966      4.672      3.279      1.426      2.434      1.188      2.939      0.2114775  0.2114775  0.3173396  23.13312   11.00881   3.279      0.5043688  0.6191922  45.646     0.3207943  0.2436334  0.3979552 
1161.8     0.217      765.257    1          2          6.08       4.62       2.28       2.377      2.688      1.175      2.803      0.1989077  0.1989077  0.3216725  13.53355   6.013568   2.28       0.3800029  0.5356081  46.504     0.3720145  0.3118663  0.4321627 
1162       0.218      788.821    -9999      -9999      6.168      4.911      1.586      1.784      2.043      1.15       2.457      0.1802388  0.1802388  0.330005   6.104047   3.770649   1.586      0.1989859  0.4298302  48.721     0.453837   0.3773499  0.5303241 
1162.2     0.223      842.467    -9999      -9999      6.176      6.037      1.151      1.192      1.398      1.122      1.963      0.1799623  0.1799623  0.3393374  6.032497   3.613997   1.151      0.06770089 0.3415844  49.72      0.4829548  0.3839451  0.5819644 
1162.4     0.224      866.318    -9999      -9999      6.23       6.164      1.12       0.6        0.753      1.113      1.481      0.1777221  0.1777221  0.3423371  5.482794   2.713904   1.12       0.04532031 0.3328772  49.364     0.4988334  0.4315817  0.5660851 
1162.6     0.225      888.917    -9999      -9999      6.314      4.792      1.103      0.64       0.909      1.111      1.122      0.1672308  0.1672308  0.3430037  3.504916   1.738174   1.103      0          0.3126495  48.947     0.5326453  0.5176975  0.5475931 
1162.8     0.224      905.231    -9999      -9999      6.414      3.694      1.109      0.899      1.185      1.116      0.953      0.1458054  0.1458054  0.3413372  1.405491   1.022669   1.109      0          0.2760506  48.791     0.5925205  0.6428933  0.5421476 
1163       0.226      909.552    -9999      -9999      6.4        2.94       1.122      1.073      1.205      1.122      0.936      0.1445628  0.1445628  0.3393374  1.332945   1.101502   1.122      0          0.2752969  49.045     0.590226   0.623692   0.55676   
1163.2     0.228      914.002    -9999      -9999      6.173      2.503      1.122      1.054      1.21       1.127      0.967      0.1781652  0.1781652  0.3376709  5.587389   3.67197    1.122      0.04818568 0.3285033  49.563     0.4833508  0.3814583  0.5852433 
1163.4     0.227      917.101    -9999      -9999      6.017      2.386      1.097      1.079      1.292      1.128      1.038      0.1870631  0.1870631  0.3373376  8.166208   8.399575   1.097      0.0780433  0.3333184  50.513     0.4553773  0.2720878  0.6386667 
1163.6     0.227      919.625    -9999      -9999      6.019      2.235      1.078      1.146      1.226      1.127      1.155      0.1838743  0.1838743  0.3376709  7.1278     8.310944   1.078      0.05642854 0.3233206  50.826     0.4660504  0.2732689  0.658832  
1163.8     0.228      917.086    -9999      -9999      6.078      2.142      1.046      1.102      1.113      1.127      1.293      0.1781042  0.1781042  0.3376709  5.572874   6.077696   1.046      0.01604317 0.3044436  50.742     0.4835356  0.3105184  0.6565527 
1164       0.232      912.015    -9999      -9999      6.144      2.176      1.063      1.123      1.123      1.126      1.411      0.1725431  0.1725431  0.3380042  4.396178   4.282552   1.063      0          0.3019136  50.486     0.5013971  0.3582357  0.6445585 
1164.2     0.229      903.773    -9999      -9999      6.212      2.234      1.08       1.136      1.102      1.129      1.548      0.1655914  0.1655914  0.3370043  3.268224   2.98579    1.08       0          0.2951074  50.067     0.5194332  0.4150798  0.6237866 
1164.4     0.229      896.808    -9999      -9999      6.239      2.336      1.096      1.318      1.112      1.133      1.701      0.1634412  0.1634412  0.3356711  2.98185    2.587395   1.096      0          0.2950419  49.651     0.5219088  0.4400769  0.6037407 
1164.6     0.232      893.002    -9999      -9999      6.139      2.524      1.109      1.654      1.216      1.132      1.82       0.1768391  0.1768391  0.3360044  5.280171   4.39765    1.109      0.03671897 0.3205626  49.729     0.482319   0.3543771  0.6102608 
1164.8     0.239      886.664    -9999      -9999      6.005      2.509      1.097      1.304      1.003      1.13       1.786      0.1910871  0.1910871  0.336671   9.695135   8.951595   1.097      0.09497581 0.3380968  49.814     0.4411635  0.2651072  0.6172198 
1165       0.23       879.06     -9999      -9999      5.821      2.122      1.097      0.884      0.766      1.125      1.518      0.198156   0.198156   0.3383375  13.10654   23.75526   1.097      0.1231606  0.3495039  50.739     0.4247924  0.1779695  0.6716152 
1165.2     0.231      875.957    -9999      -9999      5.816      1.786      1.097      0.685      0.654      1.122      1.3        0.1965044  0.1965044  0.3393374  12.21507   24.39371   1.097      0.1167453  0.3484965  51.001     0.4328274  0.1760526  0.6896021 
1165.4     0.236      880.953    -9999      -9999      5.935      1.518      1.128      0.902      0.86       1.118      1.244      0.1871827  0.1871827  0.3406706  8.207984   12.97632   1.128      0.0905278  0.3466199  51.171     0.4651147  0.2278123  0.7024171 
1165.6     0.233      887.899    -9999      -9999      6.046      1.3        1.147      1.12       1.105      1.118      1.305      0.1731952  0.1731952  0.3406706  4.520164   7.202012   1.147      0.03447761 0.3321693  51.501     0.5075011  0.2897258  0.7252764 
1165.8     0.23       886.625    -9999      -9999      6.075      1.244      1.156      1.457      1.166      1.126      1.397      0.1643534  0.1643534  0.3380042  3.100141   6.175189   1.156      0          0.3179641  51.755     0.5262145  0.3085072  0.7439219 
1166       0.223      879.021    -9999      -9999      6.105      1.305      1.157      1.802      1.237      1.135      1.516      0.1574095  0.1574095  0.3350045  2.305492   5.266744   1.157      0          0.3031355  51.766     0.5381667  0.3292186  0.7471148 
1166.2     0.223      867.617    -9999      -9999      6.142      1.397      1.166      1.613      1.44       1.143      1.707      0.1506763  0.1506763  0.3323381  1.730007   4.32822    1.166      0          0.2907701  51.682     0.5504904  0.3566874  0.7442935 
1166.4     0.224      855.526    -9999      -9999      6.181      1.457      1.179      1.423      1.31       1.155      1.818      0.1435876  0.1435876  0.3283385  1.278642   3.519407   1.179      0          0.2764079  51.44      0.5598512  0.3881257  0.7315767 
1166.6     0.224      843.544    -9999      -9999      6.188      1.516      1.204      1.313      1.259      1.165      1.839      0.1407151  0.1407151  0.3250055  1.131211   3.39113    1.204      0          0.2739225  51.26      0.5584557  0.3940549  0.7228565 
1166.8     0.225      832.14     -9999      -9999      6.181      1.567      1.197      1.802      1.455      1.167      1.839      0.1434569  0.1434569  0.3243389  1.271532   3.519407   1.197      0          0.2760797  50.98      0.5481274  0.3881257  0.708129  
