~Version
 VERS              .         2.0                           : CWLS LOG ASCII STANDARD - VERSION 2.0
 WRAP              .         NO                            : ONE LINE PER DEPTH STEP
 DLM               .         SPACE                         : DELIMITING CHARACTER(SPACE TAB OR COMMA)
~Well Information
#_______________________________________________________________________________
#
#PARAMETER_NAME    .UNIT     VALUE                         : DESCRIPTION
#_______________________________________________________________________________
STRT               .M        950                           : First reference value
STOP               .M        1404                          : Last reference value
STEP               .M        0.2                           : Step increment
NULL               .         -9999                         : Missing value
COMP               .                                       : Company
WELL               .         4124                          : Well name
FLD                .         УЗЕНЬ                         : Field
LOC                .                                       : Location
CNTY               .                                       : County
STAT               .                                       : State
CTRY               .                                       : Country
SRVC               .                                       : Service Company
DATE               .                                       : Date
UWI                .                                       : Unique Well ID
Block              .         3а                            : 
Cartographic_reference_system .         GCS_WGS_1984                  : ESRI,PE_10_3_1- <?xml version="1.0" encoding="utf-16"?><ILateBoundCoordinateReferenceSystem name="GCS_WGS_1984"><AuthorityCode>EPSG,4326</AuthorityCode></ILateBoundCoordinateReferenceSystem>
Category           .         Нефтяная                      : 
Condition          .         В работе                      : 
Date               .         24.07.1976                    : 
EREF               .m        234.7                         : 100.8
Gorizont           .         18                            : 14
HZCS               .GCS_WGS_1984 WGS_1984_EASE-Grid_2.0_Global : ESRI,PE_10_3_1- <?xml version="1.0" encoding="utf-16"?><ILateBoundCoordinateReferenceSystem name="WGS_1984_EASE-Grid_2.0_Global"><AuthorityCode>EPSG,6933</AuthorityCode></ILateBoundCoordinateReferenceSystem>
Interpretator      .         Ткачева И.Г.                  : 
Kupol              .         Основной                      : osnovnoi
LATI               .dega     0.6301419213                  : GCS_WGS_1984
LONG               .dega     0.5703681379                  : GCS_WGS_1984
Mud                .         0                             : 
Mud_density        .         0                             : 
Mud_resistivity    .         0                             : 
NGDU               .         НГДУ-1                        : 
ORIGINALWELLNAME   .         4124                          : 
Spud_date          .         1976                          : 1961
Viscosity          .         0                             : 
X                  .m        55032.7                       : 46154
Y                  .m        80387.7                       : 85761.93
YEAR               .         2018                          : 
~Parameter Information Block
#_______________________________________________________________________________
#
#PARAMETER_NAME    .UNIT     VALUE                         : DESCRIPTION
#_______________________________________________________________________________
SET                .         LQC_KAZNIPI_Petrel            : 
TLFamily_CALI      .         Caliper                       : 
TLFamily_CILD      .         Conductivity                  : 
TLFamily_COLL      .         Net Reservoir Flag            : 
TLFamily_CSAT      .         Fluid Code                    : 
TLFamily_DEPT      .         Measured Depth                : 
TLFamily_GR        .         Russian Gamma Ray             : 
TLFamily_GZ3       .         Gradient 225                  : 
TLFamily_LLS       .         Lateral Log Resistivity       : 
TLFamily_MINV      .         Micro Gradient Resistivity    : 
TLFamily_MNOR      .         Micro Resistivity             : 
TLFamily_NGLD      .         Neutron Far                   : 
TLFamily_OGZ       .         Gradient Inverted 225         : 
TLFamily_PHIE      .         Effective Porosity            : 
TLFamily_PHIEN     .         Effective Porosity            : 
TLFamily_PHIT      .         Porosity                      : 
TLFamily_PRMB      .         Permeability                  : 
TLFamily_PRMB_DGR  .         Permeability                  : 
TLFamily_RT        .         Formation Resistivity         : 
TLFamily_SOIL_ARCHIE .         Oil Saturation                : 
TLFamily_SOIL_DW   .         Oil Saturation                : 
TLFamily_SP        .         Spontaneous Potential         : 
TLFamily_VSH_FIN   .         Shale Volume                  : 
TLFamily_VSH_GR    .         Shale Volume                  : 
TLFamily_VSH_SP    .         Shale Volume                  : 
~Curve Information
#_______________________________________________________________________________
#
#LOGNAME           .UNIT     LOG_ID                        : DESCRIPTION
#_______________________________________________________________________________
DEPT               .M                                      : Колонка глубины 
CALI               .м                                      : Каверномер 
CILD               .мСм/м                                  : Индукционный каротаж 
COLL               .unitless                               : Описание 
CSAT               .unitless                               : Описание 
GR                 .мкР/ч                                  : Гамма каротаж 
GZ3                .Ohmm                                   : Градиент-зонд  длиной 2.25м 
LLS                .Ohmm                                   : Боковой каротаж 
MINV               .Ом·м                                   : Микро-градиент зонд 
MNOR               .Ом·м                                   : Микро-потенциал зонд 
NGLD               .у.е.                                   : Показания зонда НГК-60 аппаратуры ДРСТ-3-90 
OGZ                .Ohmm                                   : Обращенный градиент-зонд 
PHIE               .v/v                                    : Описание 
PHIEN              .v/v                                    :  
PHIT               .v/v                                    : Описание 
PRMB               .мД                                     :  
PRMB_DGR           .мД                                     :  
RT                 .ohm.m                                  : УЭС пласта 
SOIL_ARCHIE        .v/v                                    :  
SOIL_DW            .v/v                                    :  
SP                 .мВ                                     : Потенциал самополяризации 
VSH_FIN            .v/v                                    : Описание 
VSH_GR             .v/v                                    : Shale volume 
VSH_SP             .v/v                                    : Shale Volume 
~Ascii
# ...
1334.4     0.214      560.747    1          2          5.926      3.069      2.405      2.126      2.354      1.218      3.738      0.2474622  0.2474622  0.3073406  107.3393   12.03265   2.405      0.5286019  0.600553   13.423     0.1814496  0.2349452  0.1279541 
1334.6     0.213      527.826    1          2          5.812      3.738      2.957      2.332      2.47       1.218      4.821      0.2560682  0.2560682  0.3073406  154.9394   22.28165   2.957      0.5847142  0.6450334  13.425     0.1553709  0.1826848  0.1280571 
1334.8     0.213      482.439    1          2          5.621      4.352      3.694      2.119      2.71       1.223      6.259      0.2646646  0.2646646  0.3056741  223.5568   62.55611   3.694      0.6364993  0.6859586  13.567     0.1242713  0.1198498  0.1286928 
1335       0.213      451.107    1          2          5.537      4.363      4.258      1.761      2.092      1.234      8.253      0.2643075  0.2643075  0.3020078  220.1781   98.5002    4.258      0.6595461  0.705321   13.599     0.1142434  0.09956973 0.1289171 
1335.2     0.213      442.164    1          2          5.481      4.098      4.647      1.402      1.651      1.243      8.201      0.2631731  0.2631731  0.2990081  209.7792   133.3162   4.647      0.6720039  0.7157981  13.642     0.1085909  0.08799411 0.1291876 
1335.4     0.213      431.041    1          2          5.467      3.851      5.399      1.258      1.701      1.246      9.846      0.2625696  0.2625696  0.2980082  204.4489   143.7951   5.399      0.6936846  0.7355692  13.685     0.1073895  0.08531694 0.1294621 
1335.6     0.213      433.542    1          2          5.353      3.628      5.429      1.52       2.165      1.241      10.886     0.2672334  0.2672334  0.2996747  249.442    266.2742   5.429      0.6991292  0.7391387  13.857     0.09830679 0.06633939 0.1302742 
1335.8     0.213      440.08     1          2          5.442      3.521      4.674      2.044      2.699      1.226      9.727      0.2695531  0.2695531  0.3046742  275.3815   164.5983   4.674      0.6796478  0.7225173  14.252     0.1064277  0.08073722 0.1321182 
1336       0.213      441.729    1          2          5.505      3.698      3.845      2.801      2.627      1.216      8.426      0.2697446  0.2697446  0.3080072  277.6404   117.0978   3.845      0.6491278  0.6960303  15.558     0.1159473  0.09278049 0.1391141 
1336.2     0.212      448.723    1          2          5.593      4.2        3.767      2.261      1.889      1.217      7.509      0.2637776  0.2637776  0.3076739  215.2575   72.77667   3.767      0.6387674  0.6897095  17.509     0.1330192  0.112668   0.1533704 
1336.4     0.213      457.478    1          2          5.379      5.192      3.939      1.444      1.643      1.22       6.298      0.2683007  0.2683007  0.306674   261.0584   231.3666   3.939      0.6514567  0.6982384  18.447     0.1162828  0.07025728 0.1623082 
1336.6     0.214      493.021    1          2          5.361      6.563      4.049      1.193      2          1.221      5.441      0.2581705  0.2581705  0.3063407  169.4737   255.0066   4.049      0.6442036  0.6971652  22.839     0.1459703  0.06752102 0.2244196 
1336.8     0.215      538.854    1          2          5.596      8.144      3.971      1.384      1.951      1.217      4.791      0.2479222  0.2479222  0.3076739  109.4658   71.60609   3.971      0.6280479  0.6895787  24.027     0.1810658  0.1134165  0.2487151 
1337       0.215      567.263    1          2          5.686      8.977      3.876      1.493      2.591      1.211      4.321      0.2326528  0.2326528  0.3096737  57.07584   44.02498   3.876      0.6023818  0.6783214  27.12      0.2333967  0.1383366  0.3284568 
1337.2     0.215      602.612    1          2          5.697      8.978      3.915      2.109      3.133      1.204      3.596      0.2140657  0.2140657  0.3120068  25.83291   41.48388   3.915      0.5744793  0.669883   30.584     0.2967913  0.141736   0.4518467 
1337.4     0.215      636.772    -9999      -9999      5.904      9.605      3.953      2.531      2.234      1.196      3.172      0.1838892  0.1838892  0.3146732  7.132327   13.55193   3.953      0.516466   0.6518527  33.116     0.3963153  0.2238104  0.5688202 
1337.6     0.215      659.19     -9999      -9999      6.111      10.489     3.088      2.025      2.14       1.183      2.825      0.1368751  0.1368751  0.3190061  0.9603232  4.427132   3.088      0.2978354  0.5608177  36.279     0.5519121  0.3534116  0.7504125 
1337.8     0.215      679.115    -9999      -9999      6.246      9.309      2.467      2.811      1.741      1.172      2.679      0.1162519  0.1162519  0.3226724  0.3984967  2.134252   2.467      0.1005689  0.4812917  36.634     0.6255167  0.4760715  0.774962  
1338       0.215      699.987    -9999      -9999      6.365      7.96       1.913      2.199      1.936      1.163      2.675      0.101873   0.101873   0.3256721  0.215821   1.121823   1.913      0          0.385921   36.02      0.678179   0.6190537  0.7373043 
1338.2     0.215      711.276    -9999      -9999      6.299      6.958      1.784      2.246      2.099      1.158      2.676      0.1222339  0.1222339  0.3273386  0.5143117  1.602663   1.784      0          0.4066141  35.518     0.6215294  0.5351436  0.7079152 
1338.4     0.217      715.615    -9999      -9999      6.255      5.992      1.721      2.604      1.616      1.162      2.66       0.1385175  0.1385175  0.3260054  1.030002   2.032917   1.721      0.08573605 0.422179   34.516     0.5681452  0.4856222  0.6506682 
1338.6     0.217      718.787    -9999      -9999      6.247      5.033      1.664      1.903      2.042      1.174      2.579      0.1427481  0.1427481  0.3220058  1.23367    2.122743   1.664      0.09519251 0.4146926  33.739     0.5432051  0.4771237  0.6092866 
1338.8     0.217      729.826    -9999      -9999      6.181      4.232      1.632      2.081      2.14       1.184      2.443      0.1554175  0.1554175  0.3186728  2.117712   3.0326     1.632      0.1520902  0.424645   33.096     0.4947131  0.4124515  0.5769746 
1339       0.215      736.331    -9999      -9999      6.105      3.44       1.639      1.579      2.267      1.195      2.269      0.1702808  0.1702808  0.3150065  3.991818   4.573049   1.639      0.2184974  0.4425397  32.083     0.4385628  0.3487628  0.5283629 
1339.2     0.214      735.621    -9999      -9999      6.06       3.003      1.656      1.691      2.294      1.204      2.124      0.1673633  0.1673633  0.3120068  3.524788   5.83219    1.656      0.210478   0.4383354  32.725     0.4383135  0.3157908  0.5608363 
1339.4     0.214      735.117    -9999      -9999      6.132      2.722      1.676      1.906      2.483      1.211      1.998      0.1464955  0.1464955  0.3096737  1.447469   3.952122   1.676      0.1183622  0.4087054  33.812     0.4944795  0.3701761  0.618783  
1339.6     0.214      736.242    -9999      -9999      6.132      2.617      1.687      2.283      2.257      1.212      1.794      0.1354497  0.1354497  0.3093404  0.9036806  3.952122   1.687      0.05895684 0.392005   34.933     0.5269415  0.3701761  0.683707  
1339.8     0.215      740.155    -9999      -9999      5.946      2.612      1.673      2.666      1.932      1.208      1.682      0.1431947  0.1431947  0.3106736  1.257393   10.79982   1.673      0.09993196 0.4040523  36.292     0.5075119  0.2455476  0.7694762 
1340       0.215      744.657    -9999      -9999      5.873      2.595      1.632      2.526      1.69       1.204      1.693      0.1487027  0.1487027  0.3120068  1.590352   16.02378   1.632      0.1188388  0.4070035  36.464     0.4948608  0.2090107  0.7807109 
1340.2     0.215      747.75     -9999      -9999      5.961      2.562      1.62       2.365      2.091      1.203      1.782      0.1579044  0.1579044  0.3123401  2.354676   9.958831   1.62       0.1608319  0.4191369  34.881     0.4679869  0.2538121  0.6821617 
1340.4     0.215      751.224    -9999      -9999      6.079      2.511      1.607      2.525      2.321      1.202      1.954      0.1505512  0.1505512  0.3126734  1.720807   5.263009   1.607      0.1219314  0.406073   34.381     0.4912793  0.329314   0.6532446 
