~Version
 VERS              .         2.0                           : CWLS LOG ASCII STANDARD - VERSION 2.0
 WRAP              .         NO                            : ONE LINE PER DEPTH STEP
 DLM               .         SPACE                         : DELIMITING CHARACTER(SPACE TAB OR COMMA)
~Well Information
#_______________________________________________________________________________
#
#PARAMETER_NAME    .UNIT     VALUE                         : DESCRIPTION
#_______________________________________________________________________________
STRT               .M        950                           : First reference value
STOP               .M        1404                          : Last reference value
STEP               .M        0.2                           : Step increment
NULL               .         -9999                         : Missing value
COMP               .                                       : Company
WELL               .         4124                          : Well name
FLD                .         УЗЕНЬ                         : Field
LOC                .                                       : Location
CNTY               .                                       : County
STAT               .                                       : State
CTRY               .                                       : Country
SRVC               .                                       : Service Company
DATE               .                                       : Date
UWI                .                                       : Unique Well ID
Block              .         3а                            : 
Cartographic_reference_system .         GCS_WGS_1984                  : ESRI,PE_10_3_1- <?xml version="1.0" encoding="utf-16"?><ILateBoundCoordinateReferenceSystem name="GCS_WGS_1984"><AuthorityCode>EPSG,4326</AuthorityCode></ILateBoundCoordinateReferenceSystem>
Category           .         Нефтяная                      : 
Condition          .         В работе                      : 
Date               .         24.07.1976                    : 
EREF               .m        234.7                         : 100.8
Gorizont           .         18                            : 14
HZCS               .GCS_WGS_1984 WGS_1984_EASE-Grid_2.0_Global : ESRI,PE_10_3_1- <?xml version="1.0" encoding="utf-16"?><ILateBoundCoordinateReferenceSystem name="WGS_1984_EASE-Grid_2.0_Global"><AuthorityCode>EPSG,6933</AuthorityCode></ILateBoundCoordinateReferenceSystem>
Interpretator      .         Ткачева И.Г.                  : 
Kupol              .         Основной                      : osnovnoi
LATI               .dega     0.6301419213                  : GCS_WGS_1984
LONG               .dega     0.5703681379                  : GCS_WGS_1984
Mud                .         0                             : 
Mud_density        .         0                             : 
Mud_resistivity    .         0                             : 
NGDU               .         НГДУ-1                        : 
ORIGINALWELLNAME   .         4124                          : 
Spud_date          .         1976                          : 1961
Viscosity          .         0                             : 
X                  .m        55032.7                       : 46154
Y                  .m        80387.7                       : 85761.93
YEAR               .         2018                          : 
~Parameter Information Block
#_______________________________________________________________________________
#
#PARAMETER_NAME    .UNIT     VALUE                         : DESCRIPTION
#_______________________________________________________________________________
SET                .         LQC_KAZNIPI_Petrel            : 
TLFamily_CALI      .         Caliper                       : 
TLFamily_CILD      .         Conductivity                  : 
TLFamily_COLL      .         Net Reservoir Flag            : 
TLFamily_CSAT      .         Fluid Code                    : 
TLFamily_DEPT      .         Measured Depth                : 
TLFamily_GR        .         Russian Gamma Ray             : 
TLFamily_GZ3       .         Gradient 225                  : 
TLFamily_LLS       .         Lateral Log Resistivity       : 
TLFamily_MINV      .         Micro Gradient Resistivity    : 
TLFamily_MNOR      .         Micro Resistivity             : 
TLFamily_NGLD      .         Neutron Far                   : 
TLFamily_OGZ       .         Gradient Inverted 225         : 
TLFamily_PHIE      .         Effective Porosity            : 
TLFamily_PHIEN     .         Effective Porosity            : 
TLFamily_PHIT      .         Porosity                      : 
TLFamily_PRMB      .         Permeability                  : 
TLFamily_PRMB_DGR  .         Permeability                  : 
TLFamily_RT        .         Formation Resistivity         : 
TLFamily_SOIL_ARCHIE .         Oil Saturation                : 
TLFamily_SOIL_DW   .         Oil Saturation                : 
TLFamily_SP        .         Spontaneous Potential         : 
TLFamily_VSH_FIN   .         Shale Volume                  : 
TLFamily_VSH_GR    .         Shale Volume                  : 
TLFamily_VSH_SP    .         Shale Volume                  : 
~Curve Information
#_______________________________________________________________________________
#
#LOGNAME           .UNIT     LOG_ID                        : DESCRIPTION
#_______________________________________________________________________________
DEPT               .M                                      : Колонка глубины 
CALI               .м                                      : Каверномер 
CILD               .мСм/м                                  : Индукционный каротаж 
COLL               .unitless                               : Описание 
CSAT               .unitless                               : Описание 
GR                 .мкР/ч                                  : Гамма каротаж 
GZ3                .Ohmm                                   : Градиент-зонд  длиной 2.25м 
LLS                .Ohmm                                   : Боковой каротаж 
MINV               .Ом·м                                   : Микро-градиент зонд 
MNOR               .Ом·м                                   : Микро-потенциал зонд 
NGLD               .у.е.                                   : Показания зонда НГК-60 аппаратуры ДРСТ-3-90 
OGZ                .Ohmm                                   : Обращенный градиент-зонд 
PHIE               .v/v                                    : Описание 
PHIEN              .v/v                                    :  
PHIT               .v/v                                    : Описание 
PRMB               .мД                                     :  
PRMB_DGR           .мД                                     :  
RT                 .ohm.m                                  : УЭС пласта 
SOIL_ARCHIE        .v/v                                    :  
SOIL_DW            .v/v                                    :  
SP                 .мВ                                     : Потенциал самополяризации 
VSH_FIN            .v/v                                    : Описание 
VSH_GR             .v/v                                    : Shale volume 
VSH_SP             .v/v                                    : Shale Volume 
~Ascii
# ...
1365.4     0.21       671.606    1          2          5.961      2.927      1.792      0.888      1.211      1.274      3.266      0.2311824  0.2311824  0.2886758  53.60647   15.0777    1.792      0.4348288  0.5142576  14.163     0.1742223  0.2142697  0.134175  
1365.6     0.21       646.296    1          2          5.961      2.736      1.796      1.264      1.548      1.285      3.495      0.227584   0.227584   0.2850095  45.97971   15.0777    1.796      0.4276529  0.5079398  14.08      0.1740166  0.2142697  0.1337636 
1365.8     0.21       620.194    1          2          5.983      2.501      2.206      1.698      1.857      1.298      3.924      0.2216693  0.2216693  0.2806766  35.72817   13.48462   2.206      0.4682407  0.5470118  13.996     0.1788101  0.2242659  0.1333543 
1366       0.21       589.868    1          2          5.731      2.434      3.088      2.578      2.691      1.304      4.521      0.2347899  0.2347899  0.2786768  62.52261   48.45579   3.088      0.5680655  0.6250361  13.913     0.1329905  0.1330244  0.1329567 
1366.2     0.21       563.629    1          2          5.582      2.57       4.385      1.632      2.125      1.31       5.389      0.2385537  0.2385537  0.276677   73.40945   103.2288   4.385      0.6386424  0.6862397  13.999     0.1155251  0.09768146 0.1333688 
1366.4     0.21       541.556    6          6          5.499      2.997      5.202      1.041      1.558      1.323      5.471      0.2366989  0.2366989  0.2723441  67.8259    157.3131   5.202      0.6642082  0.708365   14.085     0.1080159  0.08224353 0.1337882 
1366.6     0.21       526.236    6          6          5.397      3.425      5.072      1.216      1.582      1.334      5.083      0.235562   0.235562   0.2686778  64.61578   264.0059   5.072      0.6587687  0.7017624  14.154     0.1003508  0.06657153 0.13413   
1366.8     0.21       533.477    6          6          5.279      3.767      4.601      1.955      2.149      1.345      4.683      0.2341932  0.2341932  0.2650115  60.95147   480.543    4.601      0.6409824  0.6836343  14.257     0.0933888  0.05212829 0.1346493 
1367       0.211      551.058    6          6          5.151      3.947      4.114      2.333      2.71       1.352      4.328      0.2339335  0.2339335  0.2626784  60.28017   920.2256   4.114      0.6212646  0.6636027  14.174     0.08710567 0.03998134 0.13423   
1367.2     0.211      568.642    6          6          5.147      4.092      4.128      1.865      2.171      1.337      4.123      0.2390879  0.2390879  0.2676779  75.10108   939.101    4.128      0.6289778  0.6708704  14.051     0.08663634 0.03965122 0.1336215 
1367.4     0.211      583.135    6          6          5.353      4.336      3.221      1.445      1.897      1.321      3.418      0.2411495  0.2411495  0.2730107  82.00356   330.0703   3.221      0.586272   0.632892   13.779     0.096549   0.06076916 0.1323288 
1367.6     0.211      597.075    1          2          5.517      4.73       1.98       1.389      1.871      1.295      3.019      0.2460475  0.2460475  0.2816765  101.0542   143.5772   1.98       0.4891697  0.5439605  13.381     0.1079668  0.08536979 0.1305638 
1367.8     0.211      608.795    1          2          5.763      4.125      1.946      1.175      1.676      1.268      2.793      0.2459515  0.2459515  0.2906756  100.6414   41.19124   1.946      0.4848257  0.548      12.975     0.1355276  0.1421463  0.1289088 
1368       0.211      617.345    1          2          5.907      3.687      2.028      1.253      1.74       1.244      3.028      0.2461898  0.2461898  0.2986748  101.6693   19.83225   2.028      0.4951338  0.5641595  12.316     0.1590456  0.1915816  0.1265096 
1368.2     0.211      622.405    1          2          5.812      3.338      2.122      1.715      1.992      1.233      3.233      0.2558974  0.2558974  0.3023411  153.8148   32.12109   2.122      0.5221253  0.5839046  11.557     0.1407385  0.1573409  0.1241362 
1368.4     0.211      624.929    1          2          5.652      3.233      2.206      1.799      2.093      1.227      3.355      0.2654542  0.2654542  0.3043409  231.2136   72.35906   2.206      0.5455005  0.5998693  11.047     0.1178385  0.1129331  0.122744  
1368.6     0.211      628.721    1          2          5.607      3.355      2.225      1.447      2.204      1.225      3.491      0.2680102  0.2680102  0.3050075  257.8444   90.92656   2.225      0.5510883  0.6037356  10.476     0.1121129  0.1028763  0.1213494 
1368.8     0.211      632.513    1          2          5.593      3.491      2.14       1.294      1.914      1.221      3.711      0.2699606  0.2699606  0.3063407  280.21     97.623     2.14       0.5456857  0.5982093  10.118     0.1102427  0.09993409 0.1205513 
1369       0.211      622.352    1          2          5.576      3.711      2.067      0.992      1.485      1.215      3.865      0.2725309  0.2725309  0.3083405  312.674    106.4207   2.067      0.5420211  0.5943549  10.119     0.1085139  0.09647432 0.1205535 
1369.2     0.211      607.013    1          2          5.567      3.865      2.064      1.127      1.492      1.207      3.866      0.2754607  0.2754607  0.3110069  354.2891   111.3952   2.064      0.5459571  0.5979073  10.205     0.1077159  0.09469135 0.1207404 
1369.4     0.211      594.422    1          2          5.542      3.747      2.061      1.52       1.896      1.203      4.018      0.2776346  0.2776346  0.3123401  388.7082   126.4668   2.061      0.5487472  0.5999607  10.06      0.1051684  0.0899098  0.1204269 
1369.6     0.211      582.994    1          2          5.509      3.485      2.095      1.878      2.188      1.208      4.241      0.277207   0.277207   0.3106736  381.685    149.5277   2.095      0.5515973  0.601757   9.277      0.1014139  0.08396588 0.1188619 
1369.8     0.211      579.177    1          2          5.474      3.438      2.22       1.6        1.975      1.218      4.109      0.2751218  0.2751218  0.3073406  349.2058   178.5973   2.22       0.5607483  0.6094901  8.328      0.09763265 0.07809055 0.1171747 
1370       0.211      568.739    1          2          5.417      3.39       2.353      1.322      1.716      1.23       3.702      0.2725762  0.2725762  0.303341   313.2779   238.5206   2.353      0.5691046  0.6163264  8.263      0.09322682 0.06938907 0.1170646 
1370.2     0.21       554.698    1          2          5.381      3.297      2.452      1.043      1.457      1.24       3.272      0.2700866  0.2700866  0.300008   281.7202   286.341    2.452      0.573967   0.6202883  8.19       0.09067075 0.06440012 0.1169414 
1370.4     0.211      536.822    1          2          5.325      3.079      2.453      0.877      1.212      1.243      2.78       0.2702062  0.2702062  0.2990081  283.1609   380.4786   2.453      0.5742127  0.6197278  8.351      0.08727835 0.05734285 0.1172138 
1370.6     0.21       519.519    1          2          5.249      2.898      2.464      1.216      1.474      1.247      2.424      0.2701059  0.2701059  0.2976749  281.952    559.5818   2.464      0.5749683  0.6195633  8.86       0.0835424  0.04898576 0.118099  
1370.8     0.21       508.093    1          2          5.266      2.773      2.616      1.48       1.671      1.252      2.407      0.2680731  0.2680731  0.2960084  258.5365   513.3215   2.616      0.5840134  0.628386   9.116      0.08465251 0.05074249 0.1185625 
1371       0.209      525.196    1          2          5.41       3.25       2.78       1.949      2.09       1.253      2.538      0.2648277  0.2648277  0.2956751  225.1176   247.1477   2.78       0.5914035  0.6373526  9.117      0.093477   0.06838962 0.1185644 
1371.2     0.209      540.045    1          2          5.537      3.785      2.893      1.871      2.296      1.254      2.577      0.2608481  0.2608481  0.2953418  189.9758   129.7172   2.893      0.5936486  0.6419126  9.89       0.1045263  0.08898293 0.1200697 
1371.4     0.209      557.838    1          2          5.599      4.388      2.905      1.617      2.07       1.255      2.592      0.2583187  0.2583187  0.2950085  170.5484   94.6947    2.905      0.5909806  0.6408982  10.401     0.1111812  0.1011846  0.1211777 
