~Version
 VERS              .         2.0                           : CWLS LOG ASCII STANDARD - VERSION 2.0
 WRAP              .         NO                            : ONE LINE PER DEPTH STEP
 DLM               .         SPACE                         : DELIMITING CHARACTER(SPACE TAB OR COMMA)
~Well Information
#_______________________________________________________________________________
#
#PARAMETER_NAME    .UNIT     VALUE                         : DESCRIPTION
#_______________________________________________________________________________
STRT               .M        950                           : First reference value
STOP               .M        1404                          : Last reference value
STEP               .M        0.2                           : Step increment
NULL               .         -9999                         : Missing value
COMP               .                                       : Company
WELL               .         4124                          : Well name
FLD                .         УЗЕНЬ                         : Field
LOC                .                                       : Location
CNTY               .                                       : County
STAT               .                                       : State
CTRY               .                                       : Country
SRVC               .                                       : Service Company
DATE               .                                       : Date
UWI                .                                       : Unique Well ID
Block              .         3а                            : 
Cartographic_reference_system .         GCS_WGS_1984                  : ESRI,PE_10_3_1- <?xml version="1.0" encoding="utf-16"?><ILateBoundCoordinateReferenceSystem name="GCS_WGS_1984"><AuthorityCode>EPSG,4326</AuthorityCode></ILateBoundCoordinateReferenceSystem>
Category           .         Нефтяная                      : 
Condition          .         В работе                      : 
Date               .         24.07.1976                    : 
EREF               .m        234.7                         : 100.8
Gorizont           .         18                            : 14
HZCS               .GCS_WGS_1984 WGS_1984_EASE-Grid_2.0_Global : ESRI,PE_10_3_1- <?xml version="1.0" encoding="utf-16"?><ILateBoundCoordinateReferenceSystem name="WGS_1984_EASE-Grid_2.0_Global"><AuthorityCode>EPSG,6933</AuthorityCode></ILateBoundCoordinateReferenceSystem>
Interpretator      .         Ткачева И.Г.                  : 
Kupol              .         Основной                      : osnovnoi
LATI               .dega     0.6301419213                  : GCS_WGS_1984
LONG               .dega     0.5703681379                  : GCS_WGS_1984
Mud                .         0                             : 
Mud_density        .         0                             : 
Mud_resistivity    .         0                             : 
NGDU               .         НГДУ-1                        : 
ORIGINALWELLNAME   .         4124                          : 
Spud_date          .         1976                          : 1961
Viscosity          .         0                             : 
X                  .m        55032.7                       : 46154
Y                  .m        80387.7                       : 85761.93
YEAR               .         2018                          : 
~Parameter Information Block
#_______________________________________________________________________________
#
#PARAMETER_NAME    .UNIT     VALUE                         : DESCRIPTION
#_______________________________________________________________________________
SET                .         LQC_KAZNIPI_Petrel            : 
TLFamily_CALI      .         Caliper                       : 
TLFamily_CILD      .         Conductivity                  : 
TLFamily_COLL      .         Net Reservoir Flag            : 
TLFamily_CSAT      .         Fluid Code                    : 
TLFamily_DEPT      .         Measured Depth                : 
TLFamily_GR        .         Russian Gamma Ray             : 
TLFamily_GZ3       .         Gradient 225                  : 
TLFamily_LLS       .         Lateral Log Resistivity       : 
TLFamily_MINV      .         Micro Gradient Resistivity    : 
TLFamily_MNOR      .         Micro Resistivity             : 
TLFamily_NGLD      .         Neutron Far                   : 
TLFamily_OGZ       .         Gradient Inverted 225         : 
TLFamily_PHIE      .         Effective Porosity            : 
TLFamily_PHIEN     .         Effective Porosity            : 
TLFamily_PHIT      .         Porosity                      : 
TLFamily_PRMB      .         Permeability                  : 
TLFamily_PRMB_DGR  .         Permeability                  : 
TLFamily_RT        .         Formation Resistivity         : 
TLFamily_SOIL_ARCHIE .         Oil Saturation                : 
TLFamily_SOIL_DW   .         Oil Saturation                : 
TLFamily_SP        .         Spontaneous Potential         : 
TLFamily_VSH_FIN   .         Shale Volume                  : 
TLFamily_VSH_GR    .         Shale Volume                  : 
TLFamily_VSH_SP    .         Shale Volume                  : 
~Curve Information
#_______________________________________________________________________________
#
#LOGNAME           .UNIT     LOG_ID                        : DESCRIPTION
#_______________________________________________________________________________
DEPT               .M                                      : Колонка глубины 
CALI               .м                                      : Каверномер 
CILD               .мСм/м                                  : Индукционный каротаж 
COLL               .unitless                               : Описание 
CSAT               .unitless                               : Описание 
GR                 .мкР/ч                                  : Гамма каротаж 
GZ3                .Ohmm                                   : Градиент-зонд  длиной 2.25м 
LLS                .Ohmm                                   : Боковой каротаж 
MINV               .Ом·м                                   : Микро-градиент зонд 
MNOR               .Ом·м                                   : Микро-потенциал зонд 
NGLD               .у.е.                                   : Показания зонда НГК-60 аппаратуры ДРСТ-3-90 
OGZ                .Ohmm                                   : Обращенный градиент-зонд 
PHIE               .v/v                                    : Описание 
PHIEN              .v/v                                    :  
PHIT               .v/v                                    : Описание 
PRMB               .мД                                     :  
PRMB_DGR           .мД                                     :  
RT                 .ohm.m                                  : УЭС пласта 
SOIL_ARCHIE        .v/v                                    :  
SOIL_DW            .v/v                                    :  
SP                 .мВ                                     : Потенциал самополяризации 
VSH_FIN            .v/v                                    : Описание 
VSH_GR             .v/v                                    : Shale volume 
VSH_SP             .v/v                                    : Shale Volume 
~Ascii
# ...
1309.6     0.214      408.997    1          2          5.925      3.862      5.84       2.175      2.901      1.238      14.834     0.2414179  0.2414179  0.3006746  82.94744   12.09786   5.84       0.6823599  0.7376648  16.256     0.1795658  0.2344273  0.1247042 
1309.8     0.214      397.404    1          2          5.789      4.212      6.472      2.508      2.771      1.244      14.804     0.2496278  0.2496278  0.2986748  117.7255   25.23093   6.472      0.7060017  0.7534372  15.842     0.1486273  0.1736433  0.1236113 
1310       0.213      377.119    1          2          5.724      4.685      6.807      2.069      2.304      1.255      13.67      0.2498916  0.2498916  0.2950085  119.0575   35.85121   6.807      0.7131464  0.7580016  15.58      0.1367178  0.1504383  0.1229974 
1310.2     0.213      377.094    1          2          5.662      5.155      6.933      1.631      1.837      1.263      12.573     0.250449   0.250449   0.2923421  121.9219   50.12244   6.933      0.7161561  0.7592072  15.43      0.1269487  0.1312001  0.1226972 
1310.4     0.212      377.07     1          2          5.577      5.456      6.964      1.192      1.661      1.268      11.747     0.2524777  0.2524777  0.2906756  132.9406   79.35011   6.964      0.718733   0.7598086  15.413     0.1157512  0.1087591  0.1227434 
1310.6     0.212      377.045    1          2          5.56       5.806      7.059      1.26       1.918      1.267      11.238     0.2534191  0.2534191  0.2910089  138.387    86.98635   7.059      0.7214201  0.7619703  15.5       0.1139084  0.1047542  0.1230626 
1310.8     0.213      376.039    1          2          5.502      6.386      7.059      1.512      2.063      1.265      11.4       0.2560306  0.2560306  0.2916755  154.6916   119.0121   7.059      0.7238966  0.7633358  15.757     0.1080147  0.09216819 0.1238612 
1311       0.212      375.729    1          2          5.459      7.271      6.901      1.997      2.706      1.265      11.83      0.2573192  0.2573192  0.2916755  163.4309   150.1488   6.901      0.7221654  0.7611646  15.908     0.10411    0.08382387 0.1243961 
1311.2     0.213      375.704    1          2          5.314      7.828      6.834      2.489      3.032      1.271      12.688     0.2589945  0.2589945  0.2896757  175.535    328.7542   6.834      0.7224635  0.7597442  16.1       0.09297343 0.06086837 0.1250785 
1311.4     0.214      375.679    1          2          5.204      9.262      6.757      1.826      2.191      1.28       13.336     0.2581839  0.2581839  0.286676   169.5703   595.7554   6.757      0.7202211  0.7566251  16.017     0.08633983 0.04774868 0.124931  
1311.6     0.214      372.171    1          2          5.262      11.035     7.299      1.164      1.522      1.288      13.975     0.2544657  0.2544657  0.2840096  144.7039   435.4396   7.299      0.7267393  0.7631038  15.934     0.08952702 0.05426901 0.124785  
1311.8     0.214      373.096    6          6          5.338      13.81      8.96       1.32       2.973      1.297      15.722     0.2499221  0.2499221  0.2810099  119.2126   288.7609   8.96       0.7478805  0.7832052  15.712     0.09420532 0.0641792  0.1242314 
1312       0.216      374.338    6          6          5.451      16.463     10.786     3.974      3.966      1.307      18.294     0.2437441  0.2437441  0.2776769  91.59901   156.7832   10.786     0.7638032  0.7988902  15.343     0.1028265  0.08235694 0.1232961 
1312.2     0.216      374.313    6          6          5.41       16.507     9.672      3.97       3.96       1.317      18.858     0.2417     0.2417     0.2743439  83.95158   195.6758   9.672      0.7495758  0.7853857  15.047     0.09892079 0.07523209 0.1226095 
1312.4     0.214      373.576    6          6          5.373      13.802     8.552      2.064      3.708      1.325      16.507     0.2401291  0.2401291  0.2716775  78.51114   238.9925   8.552      0.7331764  0.7698503  14.714     0.09560123 0.06933309 0.1218694 
1312.6     0.214      372.293    1          2          5.411      12.183     7.514      1.586      2.005      1.313      13.802     0.2432426  0.2432426  0.2756771  89.66064   194.6212   7.514      0.719636   0.7578473  14.382     0.09828629 0.0753983  0.1211743 
1312.8     0.214      372.972    1          2          5.504      10.871     5.636      1.316      1.741      1.279      12.183     0.2518094  0.2518094  0.2870093  129.205    117.7324   5.636      0.6886557  0.7307742  14.16      0.1066663  0.09257597 0.1207565 
1313       0.214      372.947    1          2          5.602      9.447      5.527      1.341      1.928      1.26       10.871     0.2544497  0.2544497  0.293342   144.6051   69.32126   5.527      0.6886308  0.73268    14.137     0.1178555  0.1149283  0.1207826 
1313.2     0.214      372.922    1          2          5.657      8.887      5.546      1.387      2.157      1.255      10.791     0.2536773  0.2536773  0.2950085  139.919    51.49542   5.546      0.6883076  0.7336404  14.079     0.1252461  0.1297603  0.1207319 
1313.4     0.214      372.897    1          2          5.773      9.143      5.697      1.665      2.323      1.262      10.245     0.2450534  0.2450534  0.2926754  96.85934   27.50994   5.697      0.6827993  0.7320223  14.165     0.1443091  0.1676187  0.1209996 
1313.6     0.214      371.614    1          2          5.78       10.32      5.861      2.135      2.637      1.27       9.959      0.2419032  0.2419032  0.290009   84.68238   26.48853   5.861      0.6834487  0.732932   14.272     0.145775   0.1702284  0.1213216 
1313.8     0.214      371.581    1          2          5.702      11.707     7.048      1.867      2.118      1.276      9.824      0.2440874  0.2440874  0.2880092  92.94994   40.37782   7.048      0.711956   0.7564493  14.874     0.1330963  0.1433087  0.122884  
1314       0.214      371.556    1          2          5.593      13.527     7.718      1.598      3.003      1.281      9.742      0.2470965  0.2470965  0.2863427  105.6779   72.77667   7.718      0.7269028  0.7677325  15.647     0.118928   0.112668   0.125188  
1314.2     0.214      370.264    1          2          5.482      15.434     8.381      2.619      2.973      1.287      9.489      0.2488368  0.2488368  0.2843429  113.82     132.5977   8.381      0.7388638  0.7769058  16.162     0.1075944  0.08818851 0.1270003 
1314.4     0.214      371.345    1          2          5.389      17.219     9.697      2.138      2.277      1.302      8.883      0.2463326  0.2463326  0.2793434  102.2907   219.1941   9.697      0.7539808  0.7895835  16.469     0.1000325  0.07182501 0.1282401 
1314.6     0.214      371.481    1          2          5.346      17.986     10.809     1.649      2.12       1.303      7.728      0.2469963  0.2469963  0.2790101  105.2274   276.541    10.809     0.7667475  0.8008001  16.555     0.09701151 0.06532242 0.1287006 
1314.8     0.214      371.456    1          2          5.362      16.799     10.204     1.406      2.35       1.291      6.762      0.2504498  0.2504498  0.2830097  121.9259   253.6321   10.204     0.7632375  0.7978465  16.763     0.09866635 0.06767019 0.1296625 
1315       0.214      381.198    1          2          5.413      15.952     7.577      2.413      2.752      1.279      6.004      0.2529167  0.2529167  0.2870093  135.4529   192.5284   7.577      0.7300591  0.7682478  17.021     0.103311   0.07573188 0.1308901 
1315.2     0.214      403.502    1          2          5.473      15.19      6.255      2.05       2.556      1.267      5.413      0.2550245  0.2550245  0.2910089  148.1941   139.2069   6.255      0.7067724  0.7478285  17.155     0.1090436  0.08645419 0.131633  
1315.4     0.214      420.561    1          2          5.499      14.787     5.848      1.601      2.127      1.261      4.873      0.2559297  0.2559297  0.2930087  154.0269   120.9574   5.848      0.6982991  0.7406082  17.45      0.1123606  0.09156003 0.1331613 
1315.6     0.214      437.028    1          2          5.499      14.119     5.498      1.343      1.888      1.257      4.358      0.2569515  0.2569515  0.2943419  160.8877   120.9574   5.498      0.6905098  0.7336265  17.794     0.1133043  0.09156003 0.1350486 
