~Version
 VERS              .         2.0                           : CWLS LOG ASCII STANDARD - VERSION 2.0
 WRAP              .         NO                            : ONE LINE PER DEPTH STEP
 DLM               .         SPACE                         : DELIMITING CHARACTER(SPACE TAB OR COMMA)
~Well Information
#_______________________________________________________________________________
#
#PARAMETER_NAME    .UNIT     VALUE                         : DESCRIPTION
#_______________________________________________________________________________
STRT               .M        950                           : First reference value
STOP               .M        1404                          : Last reference value
STEP               .M        0.2                           : Step increment
NULL               .         -9999                         : Missing value
COMP               .                                       : Company
WELL               .         4124                          : Well name
FLD                .         УЗЕНЬ                         : Field
LOC                .                                       : Location
CNTY               .                                       : County
STAT               .                                       : State
CTRY               .                                       : Country
SRVC               .                                       : Service Company
DATE               .                                       : Date
UWI                .                                       : Unique Well ID
Block              .         3а                            : 
Cartographic_reference_system .         GCS_WGS_1984                  : ESRI,PE_10_3_1- <?xml version="1.0" encoding="utf-16"?><ILateBoundCoordinateReferenceSystem name="GCS_WGS_1984"><AuthorityCode>EPSG,4326</AuthorityCode></ILateBoundCoordinateReferenceSystem>
Category           .         Нефтяная                      : 
Condition          .         В работе                      : 
Date               .         24.07.1976                    : 
EREF               .m        234.7                         : 100.8
Gorizont           .         18                            : 14
HZCS               .GCS_WGS_1984 WGS_1984_EASE-Grid_2.0_Global : ESRI,PE_10_3_1- <?xml version="1.0" encoding="utf-16"?><ILateBoundCoordinateReferenceSystem name="WGS_1984_EASE-Grid_2.0_Global"><AuthorityCode>EPSG,6933</AuthorityCode></ILateBoundCoordinateReferenceSystem>
Interpretator      .         Ткачева И.Г.                  : 
Kupol              .         Основной                      : osnovnoi
LATI               .dega     0.6301419213                  : GCS_WGS_1984
LONG               .dega     0.5703681379                  : GCS_WGS_1984
Mud                .         0                             : 
Mud_density        .         0                             : 
Mud_resistivity    .         0                             : 
NGDU               .         НГДУ-1                        : 
ORIGINALWELLNAME   .         4124                          : 
Spud_date          .         1976                          : 1961
Viscosity          .         0                             : 
X                  .m        55032.7                       : 46154
Y                  .m        80387.7                       : 85761.93
YEAR               .         2018                          : 
~Parameter Information Block
#_______________________________________________________________________________
#
#PARAMETER_NAME    .UNIT     VALUE                         : DESCRIPTION
#_______________________________________________________________________________
SET                .         LQC_KAZNIPI_Petrel            : 
TLFamily_CALI      .         Caliper                       : 
TLFamily_CILD      .         Conductivity                  : 
TLFamily_COLL      .         Net Reservoir Flag            : 
TLFamily_CSAT      .         Fluid Code                    : 
TLFamily_DEPT      .         Measured Depth                : 
TLFamily_GR        .         Russian Gamma Ray             : 
TLFamily_GZ3       .         Gradient 225                  : 
TLFamily_LLS       .         Lateral Log Resistivity       : 
TLFamily_MINV      .         Micro Gradient Resistivity    : 
TLFamily_MNOR      .         Micro Resistivity             : 
TLFamily_NGLD      .         Neutron Far                   : 
TLFamily_OGZ       .         Gradient Inverted 225         : 
TLFamily_PHIE      .         Effective Porosity            : 
TLFamily_PHIEN     .         Effective Porosity            : 
TLFamily_PHIT      .         Porosity                      : 
TLFamily_PRMB      .         Permeability                  : 
TLFamily_PRMB_DGR  .         Permeability                  : 
TLFamily_RT        .         Formation Resistivity         : 
TLFamily_SOIL_ARCHIE .         Oil Saturation                : 
TLFamily_SOIL_DW   .         Oil Saturation                : 
TLFamily_SP        .         Spontaneous Potential         : 
TLFamily_VSH_FIN   .         Shale Volume                  : 
TLFamily_VSH_GR    .         Shale Volume                  : 
TLFamily_VSH_SP    .         Shale Volume                  : 
~Curve Information
#_______________________________________________________________________________
#
#LOGNAME           .UNIT     LOG_ID                        : DESCRIPTION
#_______________________________________________________________________________
DEPT               .M                                      : Колонка глубины 
CALI               .м                                      : Каверномер 
CILD               .мСм/м                                  : Индукционный каротаж 
COLL               .unitless                               : Описание 
CSAT               .unitless                               : Описание 
GR                 .мкР/ч                                  : Гамма каротаж 
GZ3                .Ohmm                                   : Градиент-зонд  длиной 2.25м 
LLS                .Ohmm                                   : Боковой каротаж 
MINV               .Ом·м                                   : Микро-градиент зонд 
MNOR               .Ом·м                                   : Микро-потенциал зонд 
NGLD               .у.е.                                   : Показания зонда НГК-60 аппаратуры ДРСТ-3-90 
OGZ                .Ohmm                                   : Обращенный градиент-зонд 
PHIE               .v/v                                    : Описание 
PHIEN              .v/v                                    :  
PHIT               .v/v                                    : Описание 
PRMB               .мД                                     :  
PRMB_DGR           .мД                                     :  
RT                 .ohm.m                                  : УЭС пласта 
SOIL_ARCHIE        .v/v                                    :  
SOIL_DW            .v/v                                    :  
SP                 .мВ                                     : Потенциал самополяризации 
VSH_FIN            .v/v                                    : Описание 
VSH_GR             .v/v                                    : Shale volume 
VSH_SP             .v/v                                    : Shale Volume 
~Ascii
# ...
1129.8     0.232      872.402    -9999      -9999      6.536      2.681      1.206      0.669      0.959      1.141      1.524      0.1401431  0.1401431  0.3330047  1.103948   2.541229   1.206      0          0.2844815  52.901     0.584429   0.443324   0.725534  
1130       0.23       854.49     -9999      -9999      6.441      2.083      1.33       0.956      1.249      1.153      1.706      0.1634933  0.1634933  0.3290051  2.988484   3.880499   1.33       0.05289233 0.3521633  51.308     0.5015509  0.3729509  0.6301508 
1130.2     0.229      835.298    -9999      -9999      6.37       1.83       1.428      1.041      1.222      1.166      1.864      0.1703603  0.1703603  0.3246722  4.005391   5.324604   1.428      0.1162132  0.3796166  50.928     0.4676117  0.3277531  0.6074703 
1130.4     0.221      812.259    -9999      -9999      6.311      1.913      1.456      1.255      1.489      1.175      1.966      0.1785418  0.1785418  0.3216725  5.67786    6.92571    1.456      0.1592871  0.3933565  50.306     0.4337295  0.294391   0.5730681 
1130.6     0.22       787.387    -9999      -9999      6.27       2          1.498      1.64       1.944      1.169      2.017      0.1846681  0.1846681  0.3236723  7.373249   8.313951   1.498      0.194453   0.4120396  50.268     0.4212249  0.2732286  0.5692211 
1130.8     0.221      764.469    -9999      -9999      6.316      2.153      1.532      2.046      1.964      1.162      2.066      0.1766632  0.1766632  0.3260054  5.240702   6.773108   1.532      0.1715256  0.4109443  51.052     0.4525521  0.2970816  0.6080227 
1131       0.221      771.423    -9999      -9999      6.47       2.273      1.569      1.637      1.692      1.16       2.088      0.1517863  0.1517863  0.326672   1.813879   3.4101     1.569      0.06497509 0.3837168  52.146     0.5299568  0.3931584  0.6667551 
1131.2     0.221      793.106    -9999      -9999      6.65       2.324      1.582      1.795      2.106      1.143      1.971      0.1285721  0.1285721  0.3323381  0.673946   1.529079   1.582      0          0.3545323  52.571     0.6174728  0.5455132  0.6894324 
1131.4     0.22       820.949    -9999      -9999      6.767      2.392      1.357      1.397      1.6        1.132      1.854      0.1052553  0.1052553  0.3360044  0.2493108  0.9078436  1.357      0          0.2579736  53.172     0.6992398  0.6749314  0.7235482 
1131.6     0.22       841.74     -9999      -9999      6.842      2.511      1.036      0.942      0.941      1.13       1.737      0.09002474 0.09002474 0.336671   0.1302071  0.649937   1.036      0          0.1071434  53.172     0.7474129  0.7736154  0.7212104 
1131.8     0.223      852.636    -9999      -9999      6.76       2.459      0.998      1.215      1.213      1.142      1.644      0.1067448  0.1067448  0.3326714  0.2656632  0.9366068  0.998      0          0.1331661  52.909     0.684626   0.6663896  0.7028624 
1132       0.226      860.224    -9999      -9999      6.682      2.126      1.039      0.96       1.036      1.153      1.627      0.1218906  0.1218906  0.3290051  0.5068372  1.325878   1.039      0          0.1829025  52.512     0.6276196  0.5782184  0.6770207 
1132.2     0.23       866.545    -9999      -9999      6.577      1.763      1.071      0.866      1.012      1.162      1.695      0.1407993  0.1407993  0.3260054  1.135281   2.116898   1.071      0          0.2318149  51.988     0.5612306  0.4776613  0.6447998 
1132.4     0.227      864.004    -9999      -9999      6.484      1.372      1.057      0.758      0.925      1.168      1.797      0.1560208  0.1560208  0.3240056  2.172912   3.20386    1.057      0          0.2531554  51.481     0.5090448  0.4033024  0.6147873 
1132.6     0.233      847.46     -9999      -9999      6.325      1.032      1.156      1.01       0.998      1.174      1.977      0.1762269  0.1762269  0.3220058  5.144081   6.506863   1.156      0.0524421  0.3161066  50.888     0.4417542  0.3019864  0.581522  
1132.8     0.227      830.914    -9999      -9999      6.219      0.88       1.346      1.808      2.198      1.179      2.026      0.1821642  0.1821642  0.3203393  6.626453   10.43525   1.346      0.1428443  0.3724567  51.059     0.4187124  0.2490149  0.5884098 
1133       0.223      812.588    -9999      -9999      6.262      0.913      1.453      2.676      2.11       1.176      1.841      0.178681   0.178681   0.3213392  5.711674   8.615664   1.453      0.1590441  0.3925349  51.229     0.4322976  0.2692803  0.5953149 
1133.2     0.224      800.009    -9999      -9999      6.344      1.015      1.468      2.017      1.095      1.165      1.713      0.1705926  0.1705926  0.3250055  4.045258   5.978644   1.468      0.128631   0.3888344  51.788     0.467918   0.312609   0.6232271 
1133.4     0.225      814.767    -9999      -9999      6.37       1.185      1.296      1.278      1.018      1.161      1.645      0.1663609  0.1663609  0.3263387  3.377264   5.324604   1.296      0.0557211  0.3448274  52.162     0.4847813  0.3277531  0.6418095 
1133.6     0.229      814.42     -9999      -9999      6.436      1.39       1.223      0.91       0.899      1.167      1.752      0.1578009  0.1578009  0.3243389  2.344306   3.967929   1.223      0          0.3091258  52.163     0.5046604  0.3695733  0.6397476 
1133.8     0.238      799.148    -9999      -9999      6.478      1.585      1.25       0.781      0.761      1.172      1.894      0.1539607  0.1539607  0.3226724  1.990142   3.290674   1.25       0          0.3079797  51.909     0.5112475  0.3989234  0.6235715 
1134       0.243      774.955    -9999      -9999      6.51       1.59       1.287      1.005      0.878      1.171      1.777      0.1583704  0.1583704  0.3230057  2.401942   2.85337    1.287      0.01113057 0.325736   51.027     0.4988948  0.4228401  0.5749494 
1134.2     0.236      761.383    -9999      -9999      6.511      1.37       1.407      1.421      1.187      1.167      1.611      0.1660394  0.1660394  0.3243389  3.331275   2.840685   1.407      0.08990998 0.3683535  50.274     0.4796954  0.4236102  0.5357806 
1134.4     0.228      769.316    -9999      -9999      6.544      1.237      1.417      1.707      1.475      1.161      1.391      0.1710261  0.1710261  0.3263387  4.120755   2.452231   1.417      0.1160085  0.3801     49.353     0.4706441  0.4498246  0.4914637 
1134.6     0.232      776.558    -9999      -9999      6.616      1.339      1.405      2.035      1.601      1.153      1.206      0.1717851  0.1717851  0.3290051  4.256331   1.779208   1.405      0.1158898  0.3816136  48.175     0.4764242  0.5127884  0.4400599 
1134.8     0.227      779.082    -9999      -9999      6.632      1.526      1.419      2.2        1.973      1.137      1.085      0.1791324  0.1791324  0.3343379  5.822715   1.656777   1.419      0.1515149  0.4005378  47.511     0.4703196  0.5279361  0.4127031 
1135       0.226      784.308    -9999      -9999      6.69       1.614      1.418      1.786      1.93       1.118      1          0.1796135  0.1796135  0.3406706  5.943424   1.279446   1.418      0.1532145  0.4077739  46.915     0.4880517  0.5866965  0.3894068 
1135.2     0.228      796.85     -9999      -9999      6.731      1.644      1.311      1.907      1.598      1.101      0.966      0.1759923  0.1759923  0.3463367  5.092861   1.065807   1.311      0.1057337  0.3854426  47.254     0.5161953  0.6321381  0.4002525 
1135.4     0.227      811.846    -9999      -9999      6.761      1.647      1.254      1.78       1.265      1.107      1.062      0.1662404  0.1662404  0.3443369  3.359962   0.9324433  1.254      0.04040454 0.355445   47.603     0.5396863  0.6676031  0.4117694 
1135.6     0.23       820.677    -9999      -9999      6.76       1.731      1.285      1.383      1.293      1.121      1.354      0.1610747  0.1610747  0.3396707  2.695577   0.9366068  1.285      0.02489445 0.3501043  47.754     0.5412     0.6663896  0.4160105 
1135.8     0.231      813.344    -9999      -9999      6.675      1.679      1.425      1.96       1.59       1.125      1.697      0.1759034  0.1759034  0.3383375  5.073587   1.367885   1.425      0.1396702  0.401913   47.728     0.4922246  0.5709006  0.4135486 
