~Version
 VERS              .         2.0                           : CWLS LOG ASCII STANDARD - VERSION 2.0
 WRAP              .         NO                            : ONE LINE PER DEPTH STEP
 DLM               .         SPACE                         : DELIMITING CHARACTER(SPACE TAB OR COMMA)
~Well Information
#_______________________________________________________________________________
#
#PARAMETER_NAME    .UNIT     VALUE                         : DESCRIPTION
#_______________________________________________________________________________
STRT               .M        950                           : First reference value
STOP               .M        1404                          : Last reference value
STEP               .M        0.2                           : Step increment
NULL               .         -9999                         : Missing value
COMP               .                                       : Company
WELL               .         4124                          : Well name
FLD                .         УЗЕНЬ                         : Field
LOC                .                                       : Location
CNTY               .                                       : County
STAT               .                                       : State
CTRY               .                                       : Country
SRVC               .                                       : Service Company
DATE               .                                       : Date
UWI                .                                       : Unique Well ID
Block              .         3а                            : 
Cartographic_reference_system .         GCS_WGS_1984                  : ESRI,PE_10_3_1- <?xml version="1.0" encoding="utf-16"?><ILateBoundCoordinateReferenceSystem name="GCS_WGS_1984"><AuthorityCode>EPSG,4326</AuthorityCode></ILateBoundCoordinateReferenceSystem>
Category           .         Нефтяная                      : 
Condition          .         В работе                      : 
Date               .         24.07.1976                    : 
EREF               .m        234.7                         : 100.8
Gorizont           .         18                            : 14
HZCS               .GCS_WGS_1984 WGS_1984_EASE-Grid_2.0_Global : ESRI,PE_10_3_1- <?xml version="1.0" encoding="utf-16"?><ILateBoundCoordinateReferenceSystem name="WGS_1984_EASE-Grid_2.0_Global"><AuthorityCode>EPSG,6933</AuthorityCode></ILateBoundCoordinateReferenceSystem>
Interpretator      .         Ткачева И.Г.                  : 
Kupol              .         Основной                      : osnovnoi
LATI               .dega     0.6301419213                  : GCS_WGS_1984
LONG               .dega     0.5703681379                  : GCS_WGS_1984
Mud                .         0                             : 
Mud_density        .         0                             : 
Mud_resistivity    .         0                             : 
NGDU               .         НГДУ-1                        : 
ORIGINALWELLNAME   .         4124                          : 
Spud_date          .         1976                          : 1961
Viscosity          .         0                             : 
X                  .m        55032.7                       : 46154
Y                  .m        80387.7                       : 85761.93
YEAR               .         2018                          : 
~Parameter Information Block
#_______________________________________________________________________________
#
#PARAMETER_NAME    .UNIT     VALUE                         : DESCRIPTION
#_______________________________________________________________________________
SET                .         LQC_KAZNIPI_Petrel            : 
TLFamily_CALI      .         Caliper                       : 
TLFamily_CILD      .         Conductivity                  : 
TLFamily_COLL      .         Net Reservoir Flag            : 
TLFamily_CSAT      .         Fluid Code                    : 
TLFamily_DEPT      .         Measured Depth                : 
TLFamily_GR        .         Russian Gamma Ray             : 
TLFamily_GZ3       .         Gradient 225                  : 
TLFamily_LLS       .         Lateral Log Resistivity       : 
TLFamily_MINV      .         Micro Gradient Resistivity    : 
TLFamily_MNOR      .         Micro Resistivity             : 
TLFamily_NGLD      .         Neutron Far                   : 
TLFamily_OGZ       .         Gradient Inverted 225         : 
TLFamily_PHIE      .         Effective Porosity            : 
TLFamily_PHIEN     .         Effective Porosity            : 
TLFamily_PHIT      .         Porosity                      : 
TLFamily_PRMB      .         Permeability                  : 
TLFamily_PRMB_DGR  .         Permeability                  : 
TLFamily_RT        .         Formation Resistivity         : 
TLFamily_SOIL_ARCHIE .         Oil Saturation                : 
TLFamily_SOIL_DW   .         Oil Saturation                : 
TLFamily_SP        .         Spontaneous Potential         : 
TLFamily_VSH_FIN   .         Shale Volume                  : 
TLFamily_VSH_GR    .         Shale Volume                  : 
TLFamily_VSH_SP    .         Shale Volume                  : 
~Curve Information
#_______________________________________________________________________________
#
#LOGNAME           .UNIT     LOG_ID                        : DESCRIPTION
#_______________________________________________________________________________
DEPT               .M                                      : Колонка глубины 
CALI               .м                                      : Каверномер 
CILD               .мСм/м                                  : Индукционный каротаж 
COLL               .unitless                               : Описание 
CSAT               .unitless                               : Описание 
GR                 .мкР/ч                                  : Гамма каротаж 
GZ3                .Ohmm                                   : Градиент-зонд  длиной 2.25м 
LLS                .Ohmm                                   : Боковой каротаж 
MINV               .Ом·м                                   : Микро-градиент зонд 
MNOR               .Ом·м                                   : Микро-потенциал зонд 
NGLD               .у.е.                                   : Показания зонда НГК-60 аппаратуры ДРСТ-3-90 
OGZ                .Ohmm                                   : Обращенный градиент-зонд 
PHIE               .v/v                                    : Описание 
PHIEN              .v/v                                    :  
PHIT               .v/v                                    : Описание 
PRMB               .мД                                     :  
PRMB_DGR           .мД                                     :  
RT                 .ohm.m                                  : УЭС пласта 
SOIL_ARCHIE        .v/v                                    :  
SOIL_DW            .v/v                                    :  
SP                 .мВ                                     : Потенциал самополяризации 
VSH_FIN            .v/v                                    : Описание 
VSH_GR             .v/v                                    : Shale volume 
VSH_SP             .v/v                                    : Shale Volume 
~Ascii
# ...
981        0.215      644.718    1          3          3.215      1.678      1.577      1.365      1.467      1.366      2.195      0.2247026  0.2247026  0.2580122  40.66256   172.6251   1.577      0.6638618  0.7048677  33.3       0.1009382  0.07918265 0.1226938 
981.2000000000001 0.214      639.747    1          3          3.109      1.781      1.602      1.33       1.388      1.356      2.156      0.2292879  0.2292879  0.2613452  49.44543   220.5327   1.602      0.6721528  0.7119395  33.302     0.09714339 0.07164667 0.1226401 
981.4      0.214      634.679    1          3          3.144      1.91       1.613      1.115      1.407      1.351      2.105      0.2305668  0.2305668  0.2630117  52.21725   203.4      1.613      0.6747832  0.714633   33.303     0.09831803 0.07405212 0.1225839 
981.6      0.214      637.199    1          3          3.195      2.053      1.608      1.022      1.458      1.35       2.071      0.2302935  0.2302935  0.263345   51.61213   180.7897   1.608      0.6739724  0.7142134  33.334     0.1001562  0.07770249 0.1226098 
981.8      0.213      646.056    1          3          3.161      2.126      1.556      1.098      1.407      1.346      2.074      0.2320299  0.2320299  0.2646782  55.57944   195.5653   1.556      0.6710632  0.7112839  33.359     0.09893437 0.07524945 0.1226193 
982        0.213      664.873    1          3          3.102      2.173      1.487      1.168      1.306      1.345      2.106      0.2330684  0.2330684  0.2650115  58.09649   224.1286   1.487      0.6652912  0.7054889  33.307     0.09679732 0.07117504 0.1224196 
982.2000000000001 0.213      683.949    1          3          3.059      2.156      1.475      1.136      1.299      1.342      2.15       0.2345443  0.2345443  0.2660114  61.87107   247.5409   1.475      0.6658583  0.7057667  33.308     0.09535483 0.06834523 0.1223644 
982.4      0.212      700.007    1          3          3.118      2.105      1.45       1.136      1.319      1.339      2.174      0.2349077  0.2349077  0.2670113  62.83754   215.9939   1.45       0.663621   0.7040378  33.309     0.09728357 0.07225765 0.1223095 
982.6      0.212      713.809    1          3          3.186      2.071      1.438      1.233      1.423      1.336      2.192      0.235089   0.235089   0.2680112  63.32531   184.5885   1.438      0.6625335  0.7034901  33.395     0.09976416 0.07704549 0.1224828 
982.8      0.212      728.867    1          3          3.206      2.074      1.432      1.005      1.363      1.331      2.226      0.2365221  0.2365221  0.2696777  67.31638   176.2524   1.432      0.6636557  0.7046884  33.397     0.1004716  0.07851314 0.1224301 
983        0.213      744.608    1          3          3.147      2.106      1.38       1.037      1.239      1.327      2.209      0.2385278  0.2385278  0.2710109  73.32836   201.995    1.38       0.6602744  0.7011629  33.483     0.09843356 0.07426202 0.1226051 
983.2000000000001 0.213      757.243    1          3          3.151      2.123      1.361      1.101      1.281      1.326      2.065      0.2388619  0.2388619  0.2713442  74.38056   200.1367   1.361      0.6584736  0.6994785  33.399     0.09843132 0.07454281 0.1223198 
983.4      0.213      748.605    1          3          3.171      2.123      1.3        0.981      1.151      1.328      1.972      0.2377336  0.2377336  0.2706776  70.88602   191.0984   1.3        0.6496029  0.6914127  33.909     0.09983045 0.07596278 0.1236981 
983.6      0.213      726.241    1          3          3.179      2.09       1.25       0.89       1.079      1.336      1.956      0.2349601  0.2349601  0.2680112  62.97815   187.5984   1.25       0.6394278  0.6818891  33.955     0.1001548  0.07653831 0.1237712 
983.8      0.214      705.165    1          3          3.179      2.056      1.204      0.886      1.063      1.35       1.909      0.2302843  0.2302843  0.263345   51.5919    187.5984   1.204      0.6265462  0.6697218  33.996     0.100184   0.07653831 0.1238297 
984        0.214      686.831    1          3          3.176      2.039      1.195      0.896      1.056      1.363      1.973      0.2259967  0.2259967  0.2590121  42.97008   188.9033   1.195      0.619044   0.662576   33.998     0.1000465  0.07632199 0.123771  
984.2000000000001 0.214      672.466    1          3          3.154      1.908      1.245      0.898      1.239      1.377      2.176      0.2216408  0.2216408  0.2543459  35.6848    198.7542   1.245      0.619913   0.6631477  33.914     0.09910639 0.0747541  0.1234587 
984.4      0.214      656.325    1          3          3.146      1.789      1.414      1.237      1.613      1.39       2.434      0.2174674  0.2174674  0.250013   29.86635   202.4623   1.414      0.6359742  0.6781569  33.795     0.09862302 0.07419197 0.1230541 
984.6      0.214      641.073    1          3          3.18       1.633      1.647      1.352      1.387      1.402      2.534      0.2131774  0.2131774  0.2460134  24.87257   187.1654   1.647      0.6551878  0.6963862  33.578     0.0995031  0.07661057 0.1223956 
984.8      0.214      631.971    1          3          3.18       1.505      1.786      1.293      1.424      1.403      2.518      0.2129736  0.2129736  0.2456801  24.6573    187.1654   1.786      0.6677752  0.7081009  33.298     0.09911068 0.07661057 0.1216108 
985        0.214      620.58     1          3          3.05       1.463      1.821      1.371      1.578      1.397      2.501      0.2164649  0.2164649  0.2476799  28.61629   252.7426   1.821      0.6754165  0.7143794  33.241     0.09459093 0.06776734 0.1214145 
985.2000000000001 0.214      609.306    1          3          2.934      1.592      1.866      1.214      1.445      1.4        2.501      0.2166581  0.2166581  0.24668    28.85299   330.4322   1.866      0.6793627  0.7173748  33.179     0.09097561 0.06074196 0.1212093 
985.4      0.214      600.329    1          3          2.909      1.781      1.905      1.142      1.489      1.407      2.553      0.2145067  0.2145067  0.2443469  26.32342   350.0818   1.905      0.679688   0.717547   33.328     0.09042495 0.05932598 0.1215239 
985.6      0.214      607.62     1          3          2.918      2          1.986      1.224      1.514      1.413      2.536      0.2123242  0.2123242  0.2423471  23.98372   342.8768   1.986      0.6830759  0.7208138  33.584     0.09097861 0.05983189 0.1221253 
985.8      0.214      622.823    1          3          2.977      2.21       2.011      1.249      1.451      1.421      2.536      0.2090267  0.2090267  0.2396807  20.83721   299.1801   2.011      0.6806064  0.7188462  33.755     0.0928909  0.06325696 0.1225248 
986        0.214      634.441    1          3          3.029      2.348      1.853      1.431      1.767      1.428      2.436      0.2061397  0.2061397  0.2373476  18.42318   265.3087   1.853      0.664059   0.7036363  33.841     0.09456955 0.06643786 0.1227012 
986.2000000000001 0.214      638.224    1          3          3.121      2.348      1.582      1.368      1.836      1.436      2.033      0.2024101  0.2024101  0.2346812  15.7139    214.5019   1.582      0.6323852  0.6745203  34.012     0.09779125 0.07246246 0.12312   
986.4      0.214      629.363    1          3          3.182      2.519      1.726      1.026      1.295      1.437      1.986      0.2013379  0.2013379  0.2343479  15.01154   186.3025   1.726      0.6454744  0.6873643  34.098     0.1000301  0.07675526 0.123305  
986.6      0.214      632.766    1          3          3.107      2.723      2.082      1.183      1.432      1.435      2.309      0.2028795  0.2028795  0.2350145  16.0317    221.5541   2.082      0.6774881  0.7168071  34.099     0.09737872 0.07151161 0.1232458 
986.8      0.214      647.826    1          3          3.063      2.519      2.081      1.603      1.955      1.443      2.249      0.200781   0.200781   0.2323481  14.6592    245.2636   2.081      0.674481   0.7136283  33.931     0.09565779 0.06860366 0.1227119 
987        0.214      663.475    1          3          3.063      2.213      1.716      1.047      1.225      1.445      1.952      0.2002357  0.2002357  0.2316815  14.32215   245.2636   1.716      0.6428026  0.6837553  33.678     0.09529036 0.06860366 0.1219771 
