~Version
 VERS              .         2.0                           : CWLS LOG ASCII STANDARD - VERSION 2.0
 WRAP              .         NO                            : ONE LINE PER DEPTH STEP
 DLM               .         SPACE                         : DELIMITING CHARACTER(SPACE TAB OR COMMA)
~Well Information
#_______________________________________________________________________________
#
#PARAMETER_NAME    .UNIT     VALUE                         : DESCRIPTION
#_______________________________________________________________________________
STRT               .M        950                           : First reference value
STOP               .M        1404                          : Last reference value
STEP               .M        0.2                           : Step increment
NULL               .         -9999                         : Missing value
COMP               .                                       : Company
WELL               .         4124                          : Well name
FLD                .         УЗЕНЬ                         : Field
LOC                .                                       : Location
CNTY               .                                       : County
STAT               .                                       : State
CTRY               .                                       : Country
SRVC               .                                       : Service Company
DATE               .                                       : Date
UWI                .                                       : Unique Well ID
Block              .         3а                            : 
Cartographic_reference_system .         GCS_WGS_1984                  : ESRI,PE_10_3_1- <?xml version="1.0" encoding="utf-16"?><ILateBoundCoordinateReferenceSystem name="GCS_WGS_1984"><AuthorityCode>EPSG,4326</AuthorityCode></ILateBoundCoordinateReferenceSystem>
Category           .         Нефтяная                      : 
Condition          .         В работе                      : 
Date               .         24.07.1976                    : 
EREF               .m        234.7                         : 100.8
Gorizont           .         18                            : 14
HZCS               .GCS_WGS_1984 WGS_1984_EASE-Grid_2.0_Global : ESRI,PE_10_3_1- <?xml version="1.0" encoding="utf-16"?><ILateBoundCoordinateReferenceSystem name="WGS_1984_EASE-Grid_2.0_Global"><AuthorityCode>EPSG,6933</AuthorityCode></ILateBoundCoordinateReferenceSystem>
Interpretator      .         Ткачева И.Г.                  : 
Kupol              .         Основной                      : osnovnoi
LATI               .dega     0.6301419213                  : GCS_WGS_1984
LONG               .dega     0.5703681379                  : GCS_WGS_1984
Mud                .         0                             : 
Mud_density        .         0                             : 
Mud_resistivity    .         0                             : 
NGDU               .         НГДУ-1                        : 
ORIGINALWELLNAME   .         4124                          : 
Spud_date          .         1976                          : 1961
Viscosity          .         0                             : 
X                  .m        55032.7                       : 46154
Y                  .m        80387.7                       : 85761.93
YEAR               .         2018                          : 
~Parameter Information Block
#_______________________________________________________________________________
#
#PARAMETER_NAME    .UNIT     VALUE                         : DESCRIPTION
#_______________________________________________________________________________
SET                .         LQC_KAZNIPI_Petrel            : 
TLFamily_CALI      .         Caliper                       : 
TLFamily_CILD      .         Conductivity                  : 
TLFamily_COLL      .         Net Reservoir Flag            : 
TLFamily_CSAT      .         Fluid Code                    : 
TLFamily_DEPT      .         Measured Depth                : 
TLFamily_GR        .         Russian Gamma Ray             : 
TLFamily_GZ3       .         Gradient 225                  : 
TLFamily_LLS       .         Lateral Log Resistivity       : 
TLFamily_MINV      .         Micro Gradient Resistivity    : 
TLFamily_MNOR      .         Micro Resistivity             : 
TLFamily_NGLD      .         Neutron Far                   : 
TLFamily_OGZ       .         Gradient Inverted 225         : 
TLFamily_PHIE      .         Effective Porosity            : 
TLFamily_PHIEN     .         Effective Porosity            : 
TLFamily_PHIT      .         Porosity                      : 
TLFamily_PRMB      .         Permeability                  : 
TLFamily_PRMB_DGR  .         Permeability                  : 
TLFamily_RT        .         Formation Resistivity         : 
TLFamily_SOIL_ARCHIE .         Oil Saturation                : 
TLFamily_SOIL_DW   .         Oil Saturation                : 
TLFamily_SP        .         Spontaneous Potential         : 
TLFamily_VSH_FIN   .         Shale Volume                  : 
TLFamily_VSH_GR    .         Shale Volume                  : 
TLFamily_VSH_SP    .         Shale Volume                  : 
~Curve Information
#_______________________________________________________________________________
#
#LOGNAME           .UNIT     LOG_ID                        : DESCRIPTION
#_______________________________________________________________________________
DEPT               .M                                      : Колонка глубины 
CALI               .м                                      : Каверномер 
CILD               .мСм/м                                  : Индукционный каротаж 
COLL               .unitless                               : Описание 
CSAT               .unitless                               : Описание 
GR                 .мкР/ч                                  : Гамма каротаж 
GZ3                .Ohmm                                   : Градиент-зонд  длиной 2.25м 
LLS                .Ohmm                                   : Боковой каротаж 
MINV               .Ом·м                                   : Микро-градиент зонд 
MNOR               .Ом·м                                   : Микро-потенциал зонд 
NGLD               .у.е.                                   : Показания зонда НГК-60 аппаратуры ДРСТ-3-90 
OGZ                .Ohmm                                   : Обращенный градиент-зонд 
PHIE               .v/v                                    : Описание 
PHIEN              .v/v                                    :  
PHIT               .v/v                                    : Описание 
PRMB               .мД                                     :  
PRMB_DGR           .мД                                     :  
RT                 .ohm.m                                  : УЭС пласта 
SOIL_ARCHIE        .v/v                                    :  
SOIL_DW            .v/v                                    :  
SP                 .мВ                                     : Потенциал самополяризации 
VSH_FIN            .v/v                                    : Описание 
VSH_GR             .v/v                                    : Shale volume 
VSH_SP             .v/v                                    : Shale Volume 
~Ascii
# ...
1216.6     0.219      541.217    -9999      -9999      5.601      4.872      4.441      1.845      2.506      1.287      4.77       0.1835001  0.1835001  0.2843429  7.014948   46.75072   4.441      0.5203447  0.6351318  40.051     0.3055844  0.1349845  0.4761843 
1216.8     0.219      556.324    -9999      -9999      5.865      4.54       3.17       2.012      2.345      1.269      4.102      0.176957   0.176957   0.2903423  5.306775   9.983944   3.17       0.4200734  0.5671275  39.035     0.3435918  0.2535512  0.4336323 
1217       0.22       573.435    -9999      -9999      6.088      4.58       2.87       2.2        2.53       1.25       3.531      0.1534013  0.1534013  0.296675   1.943225   2.709843   2.87       0.3118751  0.5247364  39.12      0.4341626  0.4318457  0.4364795 
1217.2     0.22       589.049    -9999      -9999      6.2        4.959      2.484      2.177      2.564      1.231      3.106      0.1379728  0.1379728  0.3030077  1.006352   1.407652   2.484      0.1923949  0.4747505  39.12      0.5001057  0.5642589  0.4359525 
1217.4     0.219      603.89     -9999      -9999      6.227      5.552      2.377      1.897      2.549      1.223      2.774      0.1293667  0.1293667  0.3056741  0.6971762  1.202049   2.377      0.1279646  0.4529121  39.882     0.5342649  0.6018376  0.4666923 
1217.6     0.22       616.736    -9999      -9999      6.253      5.476      2.383      1.848      2.401      1.221      2.631      0.1217015  0.1217015  0.3063407  0.5027652  1.032501   2.383      0.081406   0.4419099  40.174     0.5595127  0.6403865  0.478639  
1217.8     0.219      628.001    -9999      -9999      6.294      4.894      2.395      1.829      2.259      1.218      2.642      0.1091328  0.1091328  0.3073406  0.2941451  0.8123832  2.395      0          0.4222066  40.559     0.6006297  0.7062553  0.4950041 
1218       0.219      635.603    -9999      -9999      6.302      4.267      2.401      1.783      2.393      1.217      2.732      0.09596716 0.09596716 0.3076739  0.1677655  0.7752532  2.401      0          0.3969548  42.012     0.6415356  0.7198766  0.5631946 
1218.2     0.219      646.927    -9999      -9999      6.166      3.729      2.307      2.488      2.557      1.216      2.834      0.1225109  0.1225109  0.3080072  0.5204227  1.717299   2.307      0.07269619 0.4361091  42.815     0.5621102  0.5202579  0.6039624 
1218.4     0.219      661.793    -9999      -9999      6.048      3.298      2.169      2.667      2.562      1.215      2.823      0.1381655  0.1381655  0.3083405  1.014656   3.423994   2.169      0.1403789  0.4442601  43.469     0.5156817  0.3925062  0.6388572 
1218.6     0.219      675.867    -9999      -9999      6.046      2.89       1.833      2.336      2.194      1.213      2.679      0.1323729  0.1323729  0.3090071  0.792547   3.464273   1.833      0.03437359 0.3864959  44.199     0.5352551  0.3906362  0.6798741 
1218.8     0.219      685.106    -9999      -9999      6.182      2.607      1.84       2.425      2.343      1.211      2.597      0.1076118  0.1076118  0.3096737  0.2756702  1.563902   1.84       0          0.3407516  44.284     0.6123088  0.5405201  0.6840975 
1219       0.219      695.99     -9999      -9999      6.133      2.372      1.828      2.712      2.733      1.207      2.742      0.1174943  0.1174943  0.3110069  0.4201826  2.082843   1.828      0          0.3607735  44.43      0.5864017  0.4808349  0.6919685 
1219.2     0.219      707.928    -9999      -9999      6.022      2.222      1.842      2.475      2.254      1.202      2.981      0.136772   0.136772   0.3126734  0.9561085  3.986262   1.842      0.06363531 0.3998851  44.538     0.5330346  0.3688783  0.6971908 
1219.4     0.219      715.563    -9999      -9999      6.041      2.089      1.79       2.321      2.166      1.196      3.207      0.131043   0.131043   0.3146732  0.7488443  3.567064   1.79       0.01493156 0.3839054  45.046     0.5564553  0.3859999  0.7269108 
1219.6     0.219      715.566    -9999      -9999      6.158      1.979      1.721      2.373      2.297      1.186      3.072      0.116631   0.116631   0.3180062  0.404992   1.799548   1.721      0          0.3488006  44.792     0.610228   0.5104138  0.7100421 
1219.8     0.219      706.689    -9999      -9999      6.247      1.902      1.686      2.063      2.111      1.181      2.918      0.1126874  0.1126874  0.3196727  0.3422968  1.069369   1.686      0          0.3362071  43.307     0.6272281  0.6312776  0.6231786 
1220       0.219      684.4      -9999      -9999      6.201      2.054      1.698      2.202      2.105      1.186      2.767      0.135745   0.135745   0.3180062  0.9151361  1.399441   1.698      0.02076894 0.3797908  41.689     0.5523065  0.5656085  0.5390046 
1220.2     0.219      655.377    -9999      -9999      6.041      2.431      1.739      2.177      1.895      1.195      2.716      0.175386   0.175386   0.3150065  4.962859   3.567064   1.739      0.2253401  0.4414676  39.957     0.4230924  0.3859999  0.460185  
1220.4     0.219      629.661    1          2          5.914      2.844      1.893      1.979      1.937      1.202      2.807      0.2000998  0.2000998  0.3126734  14.23939   7.496442   1.893      0.3363262  0.4900401  38.366     0.3411322  0.2850241  0.3972402 
1220.6     0.219      605.227    1          2          5.811      3.206      2.189      1.781      2.434      1.21       3.063      0.2170358  0.2170358  0.310007   29.32156   13.69137   2.189      0.422416   0.5390156  36.705     0.2817309  0.2228769  0.3405851 
1220.8     0.218      578.225    1          2          5.695      3.498      2.521      2.163      2.719      1.216      3.567      0.2377386  0.2377386  0.3080072  70.90125   26.98072   2.521      0.5006853  0.5849092  33.583     0.2129351  0.1689535  0.2569168 
1221       0.215      557.971    1          2          5.602      3.665      3.036      1.972      2.697      1.218      4.106      0.2483208  0.2483208  0.3073406  111.3429   46.47802   3.036      0.5594263  0.6281773  31.906     0.1788477  0.1353074  0.222388  
1221.2     0.215      543.931    1          2          5.493      3.461      3.474      1.604      2.225      1.221      4.865      0.2576582  0.2576582  0.3063407  165.8112   87.91795   3.474      0.5995103  0.6571756  29.978     0.1475227  0.1042996  0.1907458 
1221.4     0.215      539.263    1          2          5.469      3.218      3.711      1.422      1.77       1.222      5.398      0.258907   0.258907   0.3060074  174.8812   101.1652   3.711      0.6133544  0.6687799  29.728     0.1427286  0.09849019 0.186967  
1221.6     0.215      543.073    1          2          5.612      3.03       3.466      1.651      1.888      1.22       5.834      0.2530057  0.2530057  0.306674   135.9683   43.83803   3.466      0.5926632  0.6543233  29.728     0.1626312  0.1385772  0.1866852 
1221.8     0.215      549.419    1          2          5.803      2.867      3.151      1.782      2.161      1.217      5.721      0.2404563  0.2404563  0.3076739  79.61433   14.3471    3.151      0.5547388  0.6302583  29.896     0.2036898  0.2186597  0.18872   
1222       0.215      553.498    1          2          5.898      2.852      2.739      2.142      2.375      1.212      5.614      0.2329783  0.2329783  0.3093404  57.87372   8.231733   2.739      0.5112097  0.5993785  29.898     0.2314003  0.2743396  0.188461  
1222.2     0.215      554.501    1          2          5.696      3.006      2.452      2.327      2.514      1.21       5.591      0.2517522  0.2517522  0.310007   128.8903   26.82342   2.452      0.5187548  0.5907029  29.568     0.1765295  0.1693574  0.1837017 
1222.4     0.215      546.893    1          2          5.52       3.333      2.457      2.016      2.218      1.211      5.648      0.2633659  0.2633659  0.3096737  211.5112   75.07671   2.457      0.5377333  0.5986441  28.414     0.1403267  0.1112456  0.1694078 
1222.6     0.215      536.397    1          2          5.426      3.774      2.602      1.706      1.921      1.214      5.682      0.2683853  0.2683853  0.3086738  262.0024   130.0884   2.602      0.5573446  0.6124072  27.02      0.1220863  0.08887918 0.1552934 
