~Version
 VERS              .         2.0                           : CWLS LOG ASCII STANDARD - VERSION 2.0
 WRAP              .         NO                            : ONE LINE PER DEPTH STEP
 DLM               .         SPACE                         : DELIMITING CHARACTER(SPACE TAB OR COMMA)
~Well Information
#_______________________________________________________________________________
#
#PARAMETER_NAME    .UNIT     VALUE                         : DESCRIPTION
#_______________________________________________________________________________
STRT               .M        950                           : First reference value
STOP               .M        1404                          : Last reference value
STEP               .M        0.2                           : Step increment
NULL               .         -9999                         : Missing value
COMP               .                                       : Company
WELL               .         4124                          : Well name
FLD                .         УЗЕНЬ                         : Field
LOC                .                                       : Location
CNTY               .                                       : County
STAT               .                                       : State
CTRY               .                                       : Country
SRVC               .                                       : Service Company
DATE               .                                       : Date
UWI                .                                       : Unique Well ID
Block              .         3а                            : 
Cartographic_reference_system .         GCS_WGS_1984                  : ESRI,PE_10_3_1- <?xml version="1.0" encoding="utf-16"?><ILateBoundCoordinateReferenceSystem name="GCS_WGS_1984"><AuthorityCode>EPSG,4326</AuthorityCode></ILateBoundCoordinateReferenceSystem>
Category           .         Нефтяная                      : 
Condition          .         В работе                      : 
Date               .         24.07.1976                    : 
EREF               .m        234.7                         : 100.8
Gorizont           .         18                            : 14
HZCS               .GCS_WGS_1984 WGS_1984_EASE-Grid_2.0_Global : ESRI,PE_10_3_1- <?xml version="1.0" encoding="utf-16"?><ILateBoundCoordinateReferenceSystem name="WGS_1984_EASE-Grid_2.0_Global"><AuthorityCode>EPSG,6933</AuthorityCode></ILateBoundCoordinateReferenceSystem>
Interpretator      .         Ткачева И.Г.                  : 
Kupol              .         Основной                      : osnovnoi
LATI               .dega     0.6301419213                  : GCS_WGS_1984
LONG               .dega     0.5703681379                  : GCS_WGS_1984
Mud                .         0                             : 
Mud_density        .         0                             : 
Mud_resistivity    .         0                             : 
NGDU               .         НГДУ-1                        : 
ORIGINALWELLNAME   .         4124                          : 
Spud_date          .         1976                          : 1961
Viscosity          .         0                             : 
X                  .m        55032.7                       : 46154
Y                  .m        80387.7                       : 85761.93
YEAR               .         2018                          : 
~Parameter Information Block
#_______________________________________________________________________________
#
#PARAMETER_NAME    .UNIT     VALUE                         : DESCRIPTION
#_______________________________________________________________________________
SET                .         LQC_KAZNIPI_Petrel            : 
TLFamily_CALI      .         Caliper                       : 
TLFamily_CILD      .         Conductivity                  : 
TLFamily_COLL      .         Net Reservoir Flag            : 
TLFamily_CSAT      .         Fluid Code                    : 
TLFamily_DEPT      .         Measured Depth                : 
TLFamily_GR        .         Russian Gamma Ray             : 
TLFamily_GZ3       .         Gradient 225                  : 
TLFamily_LLS       .         Lateral Log Resistivity       : 
TLFamily_MINV      .         Micro Gradient Resistivity    : 
TLFamily_MNOR      .         Micro Resistivity             : 
TLFamily_NGLD      .         Neutron Far                   : 
TLFamily_OGZ       .         Gradient Inverted 225         : 
TLFamily_PHIE      .         Effective Porosity            : 
TLFamily_PHIEN     .         Effective Porosity            : 
TLFamily_PHIT      .         Porosity                      : 
TLFamily_PRMB      .         Permeability                  : 
TLFamily_PRMB_DGR  .         Permeability                  : 
TLFamily_RT        .         Formation Resistivity         : 
TLFamily_SOIL_ARCHIE .         Oil Saturation                : 
TLFamily_SOIL_DW   .         Oil Saturation                : 
TLFamily_SP        .         Spontaneous Potential         : 
TLFamily_VSH_FIN   .         Shale Volume                  : 
TLFamily_VSH_GR    .         Shale Volume                  : 
TLFamily_VSH_SP    .         Shale Volume                  : 
~Curve Information
#_______________________________________________________________________________
#
#LOGNAME           .UNIT     LOG_ID                        : DESCRIPTION
#_______________________________________________________________________________
DEPT               .M                                      : Колонка глубины 
CALI               .м                                      : Каверномер 
CILD               .мСм/м                                  : Индукционный каротаж 
COLL               .unitless                               : Описание 
CSAT               .unitless                               : Описание 
GR                 .мкР/ч                                  : Гамма каротаж 
GZ3                .Ohmm                                   : Градиент-зонд  длиной 2.25м 
LLS                .Ohmm                                   : Боковой каротаж 
MINV               .Ом·м                                   : Микро-градиент зонд 
MNOR               .Ом·м                                   : Микро-потенциал зонд 
NGLD               .у.е.                                   : Показания зонда НГК-60 аппаратуры ДРСТ-3-90 
OGZ                .Ohmm                                   : Обращенный градиент-зонд 
PHIE               .v/v                                    : Описание 
PHIEN              .v/v                                    :  
PHIT               .v/v                                    : Описание 
PRMB               .мД                                     :  
PRMB_DGR           .мД                                     :  
RT                 .ohm.m                                  : УЭС пласта 
SOIL_ARCHIE        .v/v                                    :  
SOIL_DW            .v/v                                    :  
SP                 .мВ                                     : Потенциал самополяризации 
VSH_FIN            .v/v                                    : Описание 
VSH_GR             .v/v                                    : Shale volume 
VSH_SP             .v/v                                    : Shale Volume 
~Ascii
# ...
1247.6     0.243      884.656    -9999      -9999      6.36       1.311      1.053      1.956      1.325      1.159      1.532      0.1285092  0.1285092  0.3270053  0.6721418  1.15255    1.053      0          0.2204867  40.77      0.6015032  0.6122608  0.5907456 
1247.8     0.244      885.926    -9999      -9999      6.321      1.279      1.05       1.534      1.319      1.164      1.515      0.1341495  0.1341495  0.3253388  0.854933   1.422991   1.05       0          0.2292324  40.835     0.5793615  0.5617675  0.5969555 
1248       0.239      882.125    -9999      -9999      6.254      1.277      1.046      1.585      1.357      1.17       1.515      0.1445338  0.1445338  0.323339   1.331296   2.043934   1.046      0          0.2462627  40.835     0.541834   0.4845518  0.5991162 
1248.2     0.234      877.055    -9999      -9999      6.191      1.261      1.053      1.872      1.047      1.174      1.516      0.1537408  0.1537408  0.3220058  1.971564   2.87305    1.053      0          0.2644824  40.785     0.5098939  0.421655   0.5981328 
1248.4     0.235      871.911    -9999      -9999      6.129      1.261      1.065      1.861      1.134      1.18       1.532      0.1606343  0.1606343  0.320006   2.64542    4.01672    1.065      0          0.2782541  40.751     0.4829447  0.3677335  0.5981559 
1248.6     0.241      864.381    -9999      -9999      6.037      1.294      1.084      1.579      1.131      1.185      1.515      0.1706412  0.1706412  0.3183395  4.053665   6.604161   1.084      0.02379854 0.2992039  40.666     0.4475705  0.3001617  0.5949794 
1248.8     0.242      860.58     -9999      -9999      5.997      1.325      1.097      1.283      0.974      1.189      1.532      0.1734166  0.1734166  0.3170063  4.563031   8.197987   1.097      0.04278931 0.3060635  40.639     0.4351204  0.2748002  0.5954406 
1249       0.243      858.046    -9999      -9999      6.031      1.362      1.103      1.315      1.094      1.194      1.583      0.1721042  0.1721042  0.3153398  4.314644   6.821837   1.103      0.03889841 0.3036522  40.222     0.4340473  0.2962132  0.5718814 
1249.2     0.244      851.709    -9999      -9999      6.106      1.38       1.123      2.082      1.171      1.205      1.668      0.1657948  0.1657948  0.3116735  3.296705   4.548402   1.123      0.01545779 0.294621   39.553     0.4420566  0.3495332  0.5345799 
1249.4     0.244      848.976    -9999      -9999      6.106      1.397      1.134      2.155      1.164      1.216      1.786      0.1678923  0.1678923  0.3080072  3.605206   4.548402   1.134      0.03062318 0.2965371  38.888     0.4245908  0.3495332  0.4996483 
1249.6     0.242      840.014    -9999      -9999      6.073      1.38       1.147      1.808      1.35       1.223      1.94       0.172915   0.172915   0.3056741  4.46645    5.436477   1.147      0.06023388 0.3055502  38.474     0.4023004  0.3249821  0.4796188 
1249.8     0.243      831.053    -9999      -9999      6.057      1.398      1.153      1.787      1.177      1.229      2.111      0.1766477  0.1766477  0.3036743  5.23724    5.927517   1.153      0.07980905 0.3105746  37.976     0.3849291  0.3137071  0.456151  
1250       0.242      823.755    -9999      -9999      6.032      1.398      1.166      2.013      1.308      1.232      2.23       0.1826267  0.1826267  0.3026744  6.758456   6.785066   1.166      0.1107941  0.3222613  37.413     0.3637809  0.2968676  0.4306942 
1250.2     0.243      813.132    -9999      -9999      5.902      1.398      1.197      2.148      1.586      1.228      2.33       0.2016456  0.2016456  0.3040076  15.20979   13.69921   1.197      0.1942829  0.3593344  36.644     0.3101879  0.2228248  0.3975511 
1250.4     0.239      798.356    -9999      -9999      5.677      1.365      1.241      2.966      1.85       1.226      2.362      0.2199324  0.2199324  0.3046742  33.17725   46.21935   1.241      0.2655028  0.3938702  36.147     0.2567933  0.135616   0.3779705 
1250.6     0.234      783.682    -9999      -9999      5.399      1.331      1.298      3.45       1.932      1.228      2.347      0.2372843  0.2372843  0.3040076  69.5406    207.6615   1.298      0.326846   0.4252581  34.894     0.2021918  0.07342778 0.3309559 
1250.8     0.23       768.318    -9999      -9999      5.417      1.273      1.36       3.166      2.15       1.234      2.366      0.2378115  0.2378115  0.3020078  71.12207   188.4111   1.36       0.3426969  0.4369037  34.335     0.1945342  0.07640333 0.3126651 
1251       0.221      754.554    -9999      -9999      5.526      1.23       1.417      2.921      2.227      1.235      2.382      0.2357009  0.2357009  0.3016745  64.99968   104.5339   1.417      0.3502142  0.4459035  33.999     0.1999199  0.09718163 0.3026581 
1251.2     0.221      742.489    -9999      -9999      5.538      1.213      1.461      3.375      2.042      1.232      2.298      0.2364562  0.2364562  0.3026744  67.1276    97.9693    1.461      0.3612542  0.4560884  33.93      0.2006611  0.0997897  0.3015325 
1251.4     0.221      737.591    -9999      -9999      5.505      1.231      1.506      3.388      2.274      1.227      2.213      0.2373022  0.2373022  0.3043409  69.59384   117.0978   1.506      0.3722384  0.4667761  34.257     0.2031475  0.09278049 0.3135146 
1251.6     0.221      731.038    -9999      -9999      5.505      1.282      1.532      3.174      2.515      1.225      2.196      0.2368005  0.2368005  0.3050075  68.12061   117.0978   1.532      0.3761117  0.4715129  34.429     0.2066877  0.09278049 0.320595  
1251.8     0.221      724.679    -9999      -9999      5.559      1.35       1.534      3.092      2.353      1.233      2.264      0.231496   0.231496   0.3023411  54.32815   87.45773   1.534      0.3640682  0.4640635  34.516     0.2146822  0.1045233  0.324841  
1252       0.222      718.321    -9999      -9999      5.656      1.435      1.535      2.801      2.362      1.244      2.416      0.2239947  0.2239947  0.2986748  39.45335   51.77449   1.535      0.3457598  0.4528957  34.433     0.2263033  0.1294743  0.3231323 
1252.2     0.222      713.23     -9999      -9999      5.682      1.52       1.522      2.794      2.323      1.25       2.52       0.2210078  0.2210078  0.296675   34.73433   44.98704   1.522      0.3354183  0.4452967  34.351     0.2292945  0.1371208  0.3214683 
1252.4     0.222      709.441    -9999      -9999      5.732      1.605      1.532      3.287      2.165      1.252      2.655      0.2174922  0.2174922  0.2960084  29.89793   34.33414   1.532      0.3281397  0.4426452  34.353     0.2379279  0.1531179  0.322738  
1252.6     0.221      708.12     -9999      -9999      5.749      1.673      1.538      2.857      2.188      1.255      2.809      0.2172368  0.2172368  0.2950085  29.5741    31.32006   1.538      0.3286844  0.4423655  34.017     0.2356717  0.1589717  0.3123717 
1252.8     0.221      708.1      -9999      -9999      5.716      1.691      1.544      2.835      2          1.258      2.979      0.2188121  0.2188121  0.2940086  31.62921   37.43531   1.544      0.3341132  0.4440444  33.85      0.2278683  0.1478056  0.3079309 
1253       0.221      709.348    -9999      -9999      5.724      1.708      1.538      2.344      1.851      1.255      3.131      0.2200284  0.2200284  0.2950085  33.31336   35.85121   1.538      0.3361086  0.4453507  33.696     0.2272124  0.1504383  0.3039864 
1253.2     0.22       710.597    -9999      -9999      5.772      1.759      1.564      2.477      1.878      1.249      3.217      0.2208277  0.2208277  0.2970083  34.46851   27.65902   1.564      0.3433876  0.4529637  33.365     0.2308504  0.1672492  0.2944516 
1253.4     0.219      708.191    -9999      -9999      5.775      1.81       1.639      3.152      1.998      1.25       3.302      0.2227888  0.2227888  0.296675   37.47547   27.21412   1.639      0.3625899  0.4672652  32.84      0.2238976  0.1683603  0.2794349 
1253.6     0.219      700.511    -9999      -9999      5.712      1.811      1.903      3.205      1.786      1.257      3.421      0.2266905  0.2266905  0.2943419  44.2604    38.25348   1.903      0.4146499  0.5069624  32.249     0.2050044  0.1465065  0.2635023 
