~Version
 VERS              .         2.0                           : CWLS LOG ASCII STANDARD - VERSION 2.0
 WRAP              .         NO                            : ONE LINE PER DEPTH STEP
 DLM               .         SPACE                         : DELIMITING CHARACTER(SPACE TAB OR COMMA)
~Well Information
#_______________________________________________________________________________
#
#PARAMETER_NAME    .UNIT     VALUE                         : DESCRIPTION
#_______________________________________________________________________________
STRT               .M        950                           : First reference value
STOP               .M        1404                          : Last reference value
STEP               .M        0.2                           : Step increment
NULL               .         -9999                         : Missing value
COMP               .                                       : Company
WELL               .         4124                          : Well name
FLD                .         УЗЕНЬ                         : Field
LOC                .                                       : Location
CNTY               .                                       : County
STAT               .                                       : State
CTRY               .                                       : Country
SRVC               .                                       : Service Company
DATE               .                                       : Date
UWI                .                                       : Unique Well ID
Block              .         3а                            : 
Cartographic_reference_system .         GCS_WGS_1984                  : ESRI,PE_10_3_1- <?xml version="1.0" encoding="utf-16"?><ILateBoundCoordinateReferenceSystem name="GCS_WGS_1984"><AuthorityCode>EPSG,4326</AuthorityCode></ILateBoundCoordinateReferenceSystem>
Category           .         Нефтяная                      : 
Condition          .         В работе                      : 
Date               .         24.07.1976                    : 
EREF               .m        234.7                         : 100.8
Gorizont           .         18                            : 14
HZCS               .GCS_WGS_1984 WGS_1984_EASE-Grid_2.0_Global : ESRI,PE_10_3_1- <?xml version="1.0" encoding="utf-16"?><ILateBoundCoordinateReferenceSystem name="WGS_1984_EASE-Grid_2.0_Global"><AuthorityCode>EPSG,6933</AuthorityCode></ILateBoundCoordinateReferenceSystem>
Interpretator      .         Ткачева И.Г.                  : 
Kupol              .         Основной                      : osnovnoi
LATI               .dega     0.6301419213                  : GCS_WGS_1984
LONG               .dega     0.5703681379                  : GCS_WGS_1984
Mud                .         0                             : 
Mud_density        .         0                             : 
Mud_resistivity    .         0                             : 
NGDU               .         НГДУ-1                        : 
ORIGINALWELLNAME   .         4124                          : 
Spud_date          .         1976                          : 1961
Viscosity          .         0                             : 
X                  .m        55032.7                       : 46154
Y                  .m        80387.7                       : 85761.93
YEAR               .         2018                          : 
~Parameter Information Block
#_______________________________________________________________________________
#
#PARAMETER_NAME    .UNIT     VALUE                         : DESCRIPTION
#_______________________________________________________________________________
SET                .         LQC_KAZNIPI_Petrel            : 
TLFamily_CALI      .         Caliper                       : 
TLFamily_CILD      .         Conductivity                  : 
TLFamily_COLL      .         Net Reservoir Flag            : 
TLFamily_CSAT      .         Fluid Code                    : 
TLFamily_DEPT      .         Measured Depth                : 
TLFamily_GR        .         Russian Gamma Ray             : 
TLFamily_GZ3       .         Gradient 225                  : 
TLFamily_LLS       .         Lateral Log Resistivity       : 
TLFamily_MINV      .         Micro Gradient Resistivity    : 
TLFamily_MNOR      .         Micro Resistivity             : 
TLFamily_NGLD      .         Neutron Far                   : 
TLFamily_OGZ       .         Gradient Inverted 225         : 
TLFamily_PHIE      .         Effective Porosity            : 
TLFamily_PHIEN     .         Effective Porosity            : 
TLFamily_PHIT      .         Porosity                      : 
TLFamily_PRMB      .         Permeability                  : 
TLFamily_PRMB_DGR  .         Permeability                  : 
TLFamily_RT        .         Formation Resistivity         : 
TLFamily_SOIL_ARCHIE .         Oil Saturation                : 
TLFamily_SOIL_DW   .         Oil Saturation                : 
TLFamily_SP        .         Spontaneous Potential         : 
TLFamily_VSH_FIN   .         Shale Volume                  : 
TLFamily_VSH_GR    .         Shale Volume                  : 
TLFamily_VSH_SP    .         Shale Volume                  : 
~Curve Information
#_______________________________________________________________________________
#
#LOGNAME           .UNIT     LOG_ID                        : DESCRIPTION
#_______________________________________________________________________________
DEPT               .M                                      : Колонка глубины 
CALI               .м                                      : Каверномер 
CILD               .мСм/м                                  : Индукционный каротаж 
COLL               .unitless                               : Описание 
CSAT               .unitless                               : Описание 
GR                 .мкР/ч                                  : Гамма каротаж 
GZ3                .Ohmm                                   : Градиент-зонд  длиной 2.25м 
LLS                .Ohmm                                   : Боковой каротаж 
MINV               .Ом·м                                   : Микро-градиент зонд 
MNOR               .Ом·м                                   : Микро-потенциал зонд 
NGLD               .у.е.                                   : Показания зонда НГК-60 аппаратуры ДРСТ-3-90 
OGZ                .Ohmm                                   : Обращенный градиент-зонд 
PHIE               .v/v                                    : Описание 
PHIEN              .v/v                                    :  
PHIT               .v/v                                    : Описание 
PRMB               .мД                                     :  
PRMB_DGR           .мД                                     :  
RT                 .ohm.m                                  : УЭС пласта 
SOIL_ARCHIE        .v/v                                    :  
SOIL_DW            .v/v                                    :  
SP                 .мВ                                     : Потенциал самополяризации 
VSH_FIN            .v/v                                    : Описание 
VSH_GR             .v/v                                    : Shale volume 
VSH_SP             .v/v                                    : Shale Volume 
~Ascii
# ...
1185.6     0.22       668.629    1          2          6.077      4.668      1.602      1.706      2.02       1.096      2.822      0.2293092  0.2293092  0.3480032  49.49047   2.889884   1.602      0.3625706  0.5078399  39.83      0.3596787  0.4206504  0.298707  
1185.8     0.222      684.975    -9999      -9999      6.211      4.679      1.609      1.473      1.77       1.076      2.505      0.1956727  0.1956727  0.3546692  11.78938   1.319952   1.609      0.2696271  0.4824073  42.64      0.4818076  0.5792769  0.3843384 
1186       0.224      698.238    -9999      -9999      6.279      3.859      1.607      1.579      2.191      1.074      1.992      0.1610289  0.1610289  0.3553358  2.690317   0.8868651  1.607      0.1340282  0.4421284  45.488     0.5888088  0.6814054  0.4962122 
1186.2     0.225      717.259    -9999      -9999      6.204      2.842      1.543      2.562      2.182      1.09       1.753      0.1567487  0.1567487  0.350003   2.241421   1.375106   1.543      0.09639981 0.4194138  47.689     0.5856192  0.5696746  0.6015639 
1186.4     0.232      731.181    -9999      -9999      6.036      1.992      1.489      2.275      1.784      1.112      1.834      0.1769882  0.1769882  0.3426704  5.313838   3.672907   1.489      0.1733875  0.428495   48.126     0.5020674  0.3814185  0.6227163 
1186.6     0.228      737.51     -9999      -9999      6.026      1.753      1.434      1.607      1.454      1.122      2.005      0.1645422  0.1645422  0.3393374  3.125201   3.894095   1.434      0.1034947  0.3973542  49.299     0.5296826  0.3724187  0.6869465 
1186.8     0.232      733.697    -9999      -9999      6.058      1.834      1.414      1.651      1.569      1.134      2.313      0.1518968  0.1518968  0.3353378  1.822448   3.229499   1.414      0.03247502 0.3696974  49.723     0.5558819  0.4019918  0.709772  
1187       0.237      736.433    -9999      -9999      6.038      2.005      1.393      1.465      1.23       1.158      2.76       0.1474186  0.1474186  0.3273386  1.505592   3.630191   1.393      0          0.3480213  49.724     0.5452123  0.3832448  0.7071798 
1187.2     0.251      745.088    -9999      -9999      5.928      2.313      1.387      1.002      1.056      1.176      3.329      0.1656708  0.1656708  0.3213392  3.279313   6.907157   1.387      0.09477044 0.3680999  48.536     0.4717225  0.2947137  0.6487313 
1187.4     0.244      734.766    -9999      -9999      5.802      2.76       1.401      0.76       0.786      1.188      3.637      0.1882285  0.1882285  0.3173396  8.582357   14.43125   1.401      0.1938297  0.3977091  46.763     0.3912458  0.2181382  0.5643533 
1187.6     0.238      711.542    -9999      -9999      5.749      3.329      1.492      0.982      1.228      1.197      3.464      0.199811   0.199811   0.3143399  14.06506   19.67474   1.492      0.2569564  0.4270539  45.264     0.3470574  0.1922065  0.5019083 
1187.8     0.229      701.949    -9999      -9999      5.779      3.24       1.619      1.075      1.299      1.213      3.258      0.1985835  0.1985835  0.3090071  13.34769   16.50889   1.619      0.2810535  0.4429824  44.177     0.3346169  0.2064806  0.4627532 
1188       0.224      694.331    -9999      -9999      5.871      2.619      1.69       2.361      1.931      1.212      2.953      0.1997195  0.1997195  0.3093404  14.0103    9.639703   1.69       0.2988806  0.4564228  42.584     0.3321846  0.2572102  0.4071589 
1188.2     0.221      693.053    -9999      -9999      6.003      2.274      1.766      2.284      1.727      1.204      2.671      0.1892019  0.1892019  0.3120068  8.946143   4.454721   1.766      0.2800701  0.4592125  41.973     0.3721361  0.3525162  0.3917561 
1188.4     0.22       686.375    -9999      -9999      5.674      1.914      1.923      1.939      1.524      1.2        2.439      0.2242215  0.2242215  0.31334    39.83683   30.50624   1.923      0.4033791  0.5177927  41.434     0.2700559  0.1606899  0.3794219 
1188.6     0.221      675.28     -9999      -9999      5.744      1.646      2.011      1.594      2.018      1.194      2.286      0.2193014  0.2193014  0.3153398  32.29631   20.25853   2.011      0.4043767  0.5258731  41.604     0.2910253  0.1899252  0.3921254 
1188.8     0.225      662.589    -9999      -9999      5.851      1.557      2.086      1.616      2.271      1.18       2.213      0.2082755  0.2082755  0.320006   20.18022   10.83573   2.086      0.3876192  0.5285909  42.472     0.3385773  0.245215   0.4319395 
1189       0.227      654.97     -9999      -9999      5.894      1.585      2.03       2.583      2.202      1.166      2.169      0.2037185  0.2037185  0.3246722  16.6157    8.426546   2.03       0.3676823  0.5219265  43.005     0.3665264  0.2717319  0.461321  
1189.2     0.229      663.835    -9999      -9999      5.954      1.764      1.903      3          2.428      1.16       2.094      0.1903876  0.1903876  0.326672   9.410185   5.932892   1.903      0.3086461  0.4944329  43.976     0.4129831  0.3135911  0.5123751 
1189.4     0.235      671.433    -9999      -9999      6.03       2.076      1.771      2.958      2.767      1.153      2.07       0.1748987  0.1748987  0.3290051  4.860781   3.804058   1.771      0.2300769  0.460324   44.739     0.4669892  0.3759931  0.5579852 
1189.6     0.239      675.227    -9999      -9999      6.08       2.273      1.752      2.49       2.186      1.138      2.044      0.1628949  0.1628949  0.3340046  2.913172   2.83963    1.752      0.1767345  0.4473082  45.619     0.5185143  0.4236744  0.6133543 
1189.8     0.242      677.752    -9999      -9999      6.089      2.41       1.696      2.023      1.605      1.125      1.891      0.1612215  0.1612215  0.3383375  2.712512   2.694036   1.696      0.156537   0.440484   45.925     0.5367151  0.4328785  0.6405516 
1190       0.243      682.814    -9999      -9999      6.089      2.417      1.563      1.741      1.727      1.119      1.824      0.1608516  0.1608516  0.3403373  2.670058   2.694036   1.563      0.1218309  0.4187701  45.99      0.543896   0.4328785  0.6549134 
1190.2     0.232      694.217    -9999      -9999      6.147      2.401      1.587      2.991      2.192      1.115      1.753      0.1524954  0.1524954  0.3416705  1.869573   1.919114   1.587      0.08661997 0.4128015  45.702     0.5732579  0.4971812  0.6493347 
1190.4     0.235      700.547    -9999      -9999      6.199      2.546      1.645      2.405      1.761      1.11       1.807      0.1428055  0.1428055  0.343337   1.236692   1.415908   1.645      0.0490259  0.4107136  45.567     0.6076713  0.5629132  0.6524294 
1190.6     0.23       714.487    -9999      -9999      6.208      3.119      1.648      1.689      1.777      1.124      1.986      0.1396337  0.1396337  0.3386708  1.08022    1.343312   1.648      0.03106814 0.4011965  44.997     0.6031429  0.5751422  0.6311436 
1190.8     0.23       724.622    -9999      -9999      6.178      3.8        1.651      2.314      2.125      1.141      2.468      0.1387798  0.1387798  0.3330047  1.04159    1.600918   1.651      0.02670921 0.3939751  44.998     0.5885602  0.5353816  0.6417388 
1191       0.23       734.758    -9999      -9999      6.115      3.854      1.635      2.672      1.874      1.146      3.8        0.1493954  0.1493954  0.3313382  1.638037   2.314045   1.635      0.08304665 0.4057315  44.914     0.5513417  0.4606053  0.6420781 
1191.2     0.231      749.968    -9999      -9999      6.065      3.262      1.582      2.391      1.882      1.153      3.828      0.153988   0.153988   0.3290051  1.992457   3.099968   1.582      0.09299353 0.4001435  44.999     0.5303549  0.4087677  0.6519421 
1191.4     0.231      769.703    -9999      -9999      6.031      2.859      1.598      1.914      1.537      1.152      3.854      0.1587637  0.1587637  0.3293384  2.442566   3.781878   1.598      0.1209633  0.4104606  44.996     0.5168932  0.376892   0.6568944 
1191.6     0.231      775.313    -9999      -9999      6.052      2.145      1.567      1.697      1.3        1.151      3.262      0.1585543  0.1585543  0.3296717  2.420856   3.344827   1.567      0.1118252  0.404727   44.621     0.5185375  0.3962734  0.6408015 
