~Version
 VERS              .         2.0                           : CWLS LOG ASCII STANDARD - VERSION 2.0
 WRAP              .         NO                            : ONE LINE PER DEPTH STEP
 DLM               .         SPACE                         : DELIMITING CHARACTER(SPACE TAB OR COMMA)
~Well Information
#_______________________________________________________________________________
#
#PARAMETER_NAME    .UNIT     VALUE                         : DESCRIPTION
#_______________________________________________________________________________
STRT               .M        950                           : First reference value
STOP               .M        1404                          : Last reference value
STEP               .M        0.2                           : Step increment
NULL               .         -9999                         : Missing value
COMP               .                                       : Company
WELL               .         4124                          : Well name
FLD                .         УЗЕНЬ                         : Field
LOC                .                                       : Location
CNTY               .                                       : County
STAT               .                                       : State
CTRY               .                                       : Country
SRVC               .                                       : Service Company
DATE               .                                       : Date
UWI                .                                       : Unique Well ID
Block              .         3а                            : 
Cartographic_reference_system .         GCS_WGS_1984                  : ESRI,PE_10_3_1- <?xml version="1.0" encoding="utf-16"?><ILateBoundCoordinateReferenceSystem name="GCS_WGS_1984"><AuthorityCode>EPSG,4326</AuthorityCode></ILateBoundCoordinateReferenceSystem>
Category           .         Нефтяная                      : 
Condition          .         В работе                      : 
Date               .         24.07.1976                    : 
EREF               .m        234.7                         : 100.8
Gorizont           .         18                            : 14
HZCS               .GCS_WGS_1984 WGS_1984_EASE-Grid_2.0_Global : ESRI,PE_10_3_1- <?xml version="1.0" encoding="utf-16"?><ILateBoundCoordinateReferenceSystem name="WGS_1984_EASE-Grid_2.0_Global"><AuthorityCode>EPSG,6933</AuthorityCode></ILateBoundCoordinateReferenceSystem>
Interpretator      .         Ткачева И.Г.                  : 
Kupol              .         Основной                      : osnovnoi
LATI               .dega     0.6301419213                  : GCS_WGS_1984
LONG               .dega     0.5703681379                  : GCS_WGS_1984
Mud                .         0                             : 
Mud_density        .         0                             : 
Mud_resistivity    .         0                             : 
NGDU               .         НГДУ-1                        : 
ORIGINALWELLNAME   .         4124                          : 
Spud_date          .         1976                          : 1961
Viscosity          .         0                             : 
X                  .m        55032.7                       : 46154
Y                  .m        80387.7                       : 85761.93
YEAR               .         2018                          : 
~Parameter Information Block
#_______________________________________________________________________________
#
#PARAMETER_NAME    .UNIT     VALUE                         : DESCRIPTION
#_______________________________________________________________________________
SET                .         LQC_KAZNIPI_Petrel            : 
TLFamily_CALI      .         Caliper                       : 
TLFamily_CILD      .         Conductivity                  : 
TLFamily_COLL      .         Net Reservoir Flag            : 
TLFamily_CSAT      .         Fluid Code                    : 
TLFamily_DEPT      .         Measured Depth                : 
TLFamily_GR        .         Russian Gamma Ray             : 
TLFamily_GZ3       .         Gradient 225                  : 
TLFamily_LLS       .         Lateral Log Resistivity       : 
TLFamily_MINV      .         Micro Gradient Resistivity    : 
TLFamily_MNOR      .         Micro Resistivity             : 
TLFamily_NGLD      .         Neutron Far                   : 
TLFamily_OGZ       .         Gradient Inverted 225         : 
TLFamily_PHIE      .         Effective Porosity            : 
TLFamily_PHIEN     .         Effective Porosity            : 
TLFamily_PHIT      .         Porosity                      : 
TLFamily_PRMB      .         Permeability                  : 
TLFamily_PRMB_DGR  .         Permeability                  : 
TLFamily_RT        .         Formation Resistivity         : 
TLFamily_SOIL_ARCHIE .         Oil Saturation                : 
TLFamily_SOIL_DW   .         Oil Saturation                : 
TLFamily_SP        .         Spontaneous Potential         : 
TLFamily_VSH_FIN   .         Shale Volume                  : 
TLFamily_VSH_GR    .         Shale Volume                  : 
TLFamily_VSH_SP    .         Shale Volume                  : 
~Curve Information
#_______________________________________________________________________________
#
#LOGNAME           .UNIT     LOG_ID                        : DESCRIPTION
#_______________________________________________________________________________
DEPT               .M                                      : Колонка глубины 
CALI               .м                                      : Каверномер 
CILD               .мСм/м                                  : Индукционный каротаж 
COLL               .unitless                               : Описание 
CSAT               .unitless                               : Описание 
GR                 .мкР/ч                                  : Гамма каротаж 
GZ3                .Ohmm                                   : Градиент-зонд  длиной 2.25м 
LLS                .Ohmm                                   : Боковой каротаж 
MINV               .Ом·м                                   : Микро-градиент зонд 
MNOR               .Ом·м                                   : Микро-потенциал зонд 
NGLD               .у.е.                                   : Показания зонда НГК-60 аппаратуры ДРСТ-3-90 
OGZ                .Ohmm                                   : Обращенный градиент-зонд 
PHIE               .v/v                                    : Описание 
PHIEN              .v/v                                    :  
PHIT               .v/v                                    : Описание 
PRMB               .мД                                     :  
PRMB_DGR           .мД                                     :  
RT                 .ohm.m                                  : УЭС пласта 
SOIL_ARCHIE        .v/v                                    :  
SOIL_DW            .v/v                                    :  
SP                 .мВ                                     : Потенциал самополяризации 
VSH_FIN            .v/v                                    : Описание 
VSH_GR             .v/v                                    : Shale volume 
VSH_SP             .v/v                                    : Shale Volume 
~Ascii
# ...
1036.8     0.222      437.059    -9999      -9999      4.2        5.274      3.069      3.964      3.97       1.485      6.03       0.07085121 0.07085121 0.2183495  0.05747703 7.5698     3.069      0          0.2497475  47.049     0.4469645  0.283893   0.4469645 
1037       0.222      442.639    -9999      -9999      4.2        6.117      2.843      3.963      3.97       1.475      5.733      0.06390926 0.06390926 0.2216825  0.04274769 7.5698     2.843      0          0.2011757  47.862     0.4781007  0.283893   0.4781007 
1037.2     0.222      455.129    -9999      -9999      4.243      7.189      2.47       3.963      3.969      1.471      5.33       0.06119569 0.06119569 0.2230157  0.03807594 7.039814   2.47       0          0.1342877  48.154     0.4903637  0.2924331  0.4903637 
1037.4     0.222      466.366    -9999      -9999      4.311      7.764      2.113      3.254      2.917      1.463      4.893      0.05840529 0.05840529 0.2256821  0.03380382 6.276407   2.113      0          0.05759488 48.545     0.5068994  0.3064659  0.5068994 
1037.6     0.222      482.688    -9999      -9999      4.319      7.615      1.993      3.962      3.637      1.441      4.584      0.05238346 0.05238346 0.2330147  0.0261473  6.192219   1.993      0          0.01853556 49.488     0.5473674  0.3081604  0.5473674 
1037.8     0.223      508.465    -9999      -9999      4.345      7.431      1.878      3.962      3.965      1.405      4.453      0.05622942 0.05622942 0.2450135  0.03080799 5.926331   1.878      0          0.04439611 50.024     0.572073   0.3137328  0.572073  
1038       0.223      539.586    -9999      -9999      4.362      6.978      2.127      3.962      3.334      1.352      4.689      0.06743567 0.06743567 0.2626784  0.04968556 5.758685   2.127      0          0.1909448  50.429     0.5916446  0.3174306  0.5916446 
1038.2     0.226      572.255    -9999      -9999      4.401      6.348      2.328      1.367      1.152      1.296      4.704      0.08044206 0.08044206 0.2813432  0.0865247  5.391785   2.328      0          0.3025396  50.771     0.6087914  0.3260794  0.6087914 
1038.4     0.233      595.116    -9999      -9999      4.491      5.763      2.152      1.439      2.947      1.247      3.888      0.09473063 0.09473063 0.2976749  0.1591472  4.631846   2.152      0          0.3384366  50.877     0.6149827  0.3469481  0.6149827 
1038.6     0.227      607.568    -9999      -9999      4.588      5.337      1.93       3.962      3.968      1.222      3.16       0.09996552 0.09996552 0.3060074  0.1989583  3.932279   1.93       0          0.3264841  51.048     0.6243693  0.3709378  0.6243693 
1038.8     0.224      620.263    -9999      -9999      4.699      5.142      1.707      3.962      3.201      1.229      3.094      0.09817503 0.09817503 0.3036743  0.1843308  3.260399   1.707      0          0.2757638  50.99      0.6227251  0.4004318  0.6227251 
1039       0.225      650.818    -9999      -9999      4.801      5.091      1.532      2.204      2.283      1.225      2.859      0.1008599  0.1008599  0.3050075  0.2066944  2.744702   1.532      0          0.2447267  50.881     0.618629   0.4295977  0.618629  
1039.2     0.227      674.293    -9999      -9999      4.806      4.706      1.739      1.922      1.936      1.195      2.457      0.1104619  0.1104619  0.3150065  0.3113003  2.721634   1.739      0          0.3274307  50.882     0.6198322  0.4310808  0.6198322 
1039.4     0.238      675.852    -9999      -9999      4.817      4.164      2.21       1.423      1.109      1.168      2.21       0.1334617  0.1334617  0.3240056  0.8302171  2.671566   2.21       0.1094126  0.4524569  49.95      0.5774059  0.4343616  0.5774059 
1039.6     0.251      666.648    -9999      -9999      4.866      3.649      2.49       0.923      1.104      1.176      2.319      0.1316906  0.1316906  0.3213392  0.7698157  2.459485   2.49       0.1480413  0.478909   49.866     0.5746928  0.4492825  0.5746928 
1039.8     0.255      657.53     -9999      -9999      4.876      3.153      2.708      0.621      0.76       1.196      2.491      0.1288342  0.1288342  0.3146732  0.6815236  2.418318   2.708      0.1651497  0.4895582  49.584     0.5631484  0.4523899  0.5631484 
1040       0.238      643.483    -9999      -9999      4.936      3.275      2.688      3.12       3.025      1.222      2.46       0.1221932  0.1221932  0.3060074  0.5134192  2.185384   2.688      0.1227212  0.4683326  49.421     0.5570128  0.4714912  0.5570128 
1040.2     0.223      620.493    -9999      -9999      4.89       3.759      1.978      3.95       3.956      1.247      2.205      0.1143818  0.1143818  0.2976749  0.3679479  2.361837   1.978      0          0.3539528  49.361     0.5554337  0.4567764  0.5554337 
1040.4     0.224      624.525    -9999      -9999      4.781      3.592      1.627      3.95       2.794      1.269      2.041      0.1017033  0.1017033  0.2903423  0.2142645  2.838946   1.627      0          0.2453145  49.702     0.5716332  0.4237162  0.5716332 
1040.6     0.225      649.868    -9999      -9999      4.688      3.273      1.555      2.744      1.588      1.243      2.058      0.1061776  0.1061776  0.2990081  0.2593132  3.321502   1.555      0          0.253989   49.958     0.5843349  0.3974073  0.5843349 
1040.8     0.228      678.608    -9999      -9999      4.796      3.07       1.62       1.302      1.182      1.204      2.289      0.118495   0.118495   0.3120068  0.4385038  2.767966   1.62       0          0.3160571  49.979     0.5863993  0.4281197  0.5863993 
1041       0.245      686.974    -9999      -9999      4.835      2.787      1.685      0.929      1.038      1.183      3.029      0.1228261  0.1228261  0.3190061  0.5274676  2.591612   1.685      0          0.3473123  50.13      0.5944848  0.4397843  0.5944848 
1041.2     0.252      674.502    -9999      -9999      4.754      2.555      1.748      0.844      0.893      1.199      3.759      0.1201004  0.1201004  0.3136733  0.4695794  2.971327   1.748      0          0.3469789  49.935     0.5865845  0.4159036  0.5865845 
1041.4     0.258      662.713    -9999      -9999      4.905      2.302      1.97       0.685      1.028      1.228      3.592      0.1173013  0.1173013  0.3040076  0.4167379  2.302785   1.97       0          0.3670731  49.451     0.5657766  0.4615237  0.5657766 
1041.6     0.26       654.93     -9999      -9999      5.014      2.084      2.512      2.005      0.967      1.258      3.15       0.1081382  0.1081382  0.2940086  0.2819288  1.915783   2.512      0          0.4104333  49.37      0.5632437  0.4975339  0.5632437 
1041.8     0.25       639.107    -9999      -9999      4.752      2.054      2.973      3.956      0.862      1.284      2.589      0.1027986  0.1027986  0.2853428  0.224511   2.981378   2.973      0.02731214 0.4375006  49.117     0.5531642  0.4153306  0.5531642 
1042       0.24       615.879    -9999      -9999      4.544      2.445      3.703      2.714      3.915      1.31       2.35       0.09377198 0.09377198 0.276677   0.1527716  4.235455   3.703      0.04942053 0.4689864  49.118     0.5542577  0.359857   0.5542577 
1042.2     0.22       591.357    -9999      -9999      4.339      3.412      4.399      3.237      2.877      1.333      2.623      0.07958268 0.07958268 0.2690111  0.0834108  5.986654   4.399      0          0.475286   49.539     0.5740256  0.312438   0.5740256 
1042.4     0.221      564.346    -9999      -9999      4.153      4.552      4.117      3.954      3.956      1.358      2.884      0.06825346 0.06825346 0.2606786  0.05144909 8.194829   4.117      0          0.4176501  49.715     0.5831065  0.2748435  0.5831065 
1042.6     0.223      550.532    -9999      -9999      4.204      4.588      2.877      3.951      3.956      1.383      3.047      0.05706713 0.05706713 0.2523461  0.03192859 7.518858   2.877      0          0.2470403  49.879     0.5917544  0.2846768  0.5917544 
1042.8     0.223      566.992    -9999      -9999      4.367      4.054      2.171      2.572      2.357      1.396      3.588      0.0497515  0.0497515  0.2480132  0.02337096 5.710285   2.171      0          0.08654477 50.049     0.600793   0.3185265  0.600793  
