~Version
 VERS              .         2.0                           : CWLS LOG ASCII STANDARD - VERSION 2.0
 WRAP              .         NO                            : ONE LINE PER DEPTH STEP
 DLM               .         SPACE                         : DELIMITING CHARACTER(SPACE TAB OR COMMA)
~Well Information
#_______________________________________________________________________________
#
#PARAMETER_NAME    .UNIT     VALUE                         : DESCRIPTION
#_______________________________________________________________________________
STRT               .M        950                           : First reference value
STOP               .M        1404                          : Last reference value
STEP               .M        0.2                           : Step increment
NULL               .         -9999                         : Missing value
COMP               .                                       : Company
WELL               .         4124                          : Well name
FLD                .         УЗЕНЬ                         : Field
LOC                .                                       : Location
CNTY               .                                       : County
STAT               .                                       : State
CTRY               .                                       : Country
SRVC               .                                       : Service Company
DATE               .                                       : Date
UWI                .                                       : Unique Well ID
Block              .         3а                            : 
Cartographic_reference_system .         GCS_WGS_1984                  : ESRI,PE_10_3_1- <?xml version="1.0" encoding="utf-16"?><ILateBoundCoordinateReferenceSystem name="GCS_WGS_1984"><AuthorityCode>EPSG,4326</AuthorityCode></ILateBoundCoordinateReferenceSystem>
Category           .         Нефтяная                      : 
Condition          .         В работе                      : 
Date               .         24.07.1976                    : 
EREF               .m        234.7                         : 100.8
Gorizont           .         18                            : 14
HZCS               .GCS_WGS_1984 WGS_1984_EASE-Grid_2.0_Global : ESRI,PE_10_3_1- <?xml version="1.0" encoding="utf-16"?><ILateBoundCoordinateReferenceSystem name="WGS_1984_EASE-Grid_2.0_Global"><AuthorityCode>EPSG,6933</AuthorityCode></ILateBoundCoordinateReferenceSystem>
Interpretator      .         Ткачева И.Г.                  : 
Kupol              .         Основной                      : osnovnoi
LATI               .dega     0.6301419213                  : GCS_WGS_1984
LONG               .dega     0.5703681379                  : GCS_WGS_1984
Mud                .         0                             : 
Mud_density        .         0                             : 
Mud_resistivity    .         0                             : 
NGDU               .         НГДУ-1                        : 
ORIGINALWELLNAME   .         4124                          : 
Spud_date          .         1976                          : 1961
Viscosity          .         0                             : 
X                  .m        55032.7                       : 46154
Y                  .m        80387.7                       : 85761.93
YEAR               .         2018                          : 
~Parameter Information Block
#_______________________________________________________________________________
#
#PARAMETER_NAME    .UNIT     VALUE                         : DESCRIPTION
#_______________________________________________________________________________
SET                .         LQC_KAZNIPI_Petrel            : 
TLFamily_CALI      .         Caliper                       : 
TLFamily_CILD      .         Conductivity                  : 
TLFamily_COLL      .         Net Reservoir Flag            : 
TLFamily_CSAT      .         Fluid Code                    : 
TLFamily_DEPT      .         Measured Depth                : 
TLFamily_GR        .         Russian Gamma Ray             : 
TLFamily_GZ3       .         Gradient 225                  : 
TLFamily_LLS       .         Lateral Log Resistivity       : 
TLFamily_MINV      .         Micro Gradient Resistivity    : 
TLFamily_MNOR      .         Micro Resistivity             : 
TLFamily_NGLD      .         Neutron Far                   : 
TLFamily_OGZ       .         Gradient Inverted 225         : 
TLFamily_PHIE      .         Effective Porosity            : 
TLFamily_PHIEN     .         Effective Porosity            : 
TLFamily_PHIT      .         Porosity                      : 
TLFamily_PRMB      .         Permeability                  : 
TLFamily_PRMB_DGR  .         Permeability                  : 
TLFamily_RT        .         Formation Resistivity         : 
TLFamily_SOIL_ARCHIE .         Oil Saturation                : 
TLFamily_SOIL_DW   .         Oil Saturation                : 
TLFamily_SP        .         Spontaneous Potential         : 
TLFamily_VSH_FIN   .         Shale Volume                  : 
TLFamily_VSH_GR    .         Shale Volume                  : 
TLFamily_VSH_SP    .         Shale Volume                  : 
~Curve Information
#_______________________________________________________________________________
#
#LOGNAME           .UNIT     LOG_ID                        : DESCRIPTION
#_______________________________________________________________________________
DEPT               .M                                      : Колонка глубины 
CALI               .м                                      : Каверномер 
CILD               .мСм/м                                  : Индукционный каротаж 
COLL               .unitless                               : Описание 
CSAT               .unitless                               : Описание 
GR                 .мкР/ч                                  : Гамма каротаж 
GZ3                .Ohmm                                   : Градиент-зонд  длиной 2.25м 
LLS                .Ohmm                                   : Боковой каротаж 
MINV               .Ом·м                                   : Микро-градиент зонд 
MNOR               .Ом·м                                   : Микро-потенциал зонд 
NGLD               .у.е.                                   : Показания зонда НГК-60 аппаратуры ДРСТ-3-90 
OGZ                .Ohmm                                   : Обращенный градиент-зонд 
PHIE               .v/v                                    : Описание 
PHIEN              .v/v                                    :  
PHIT               .v/v                                    : Описание 
PRMB               .мД                                     :  
PRMB_DGR           .мД                                     :  
RT                 .ohm.m                                  : УЭС пласта 
SOIL_ARCHIE        .v/v                                    :  
SOIL_DW            .v/v                                    :  
SP                 .мВ                                     : Потенциал самополяризации 
VSH_FIN            .v/v                                    : Описание 
VSH_GR             .v/v                                    : Shale volume 
VSH_SP             .v/v                                    : Shale Volume 
~Ascii
# ...
1396.4     -9999      732.975    1          2          6.42       2.641      1.822      1.023      1.356      1.211      1.629      0.2192482  0.2192482  0.3096737  32.22302   4.083923   1.822      0.4320873  0.5425108  19.782     0.2740168  0.3652505  0.1827831 
1396.6     -9999      764.389    1          2          6.319      2.755      1.741      0.988      1.465      1.203      1.678      0.2179063  0.2179063  0.3123401  30.43062   6.421211   1.741      0.4167275  0.5330452  24.522     0.2861632  0.3036247  0.2687016 
1396.8     -9999      794.655    1          2          6.293      2.789      1.664      0.955      1.175      1.19       1.712      0.2116567  0.2116567  0.316673   23.31062   7.214566   1.664      0.3889212  0.5201848  27.356     0.3182311  0.2895198  0.3469425 
1397       -9999      806.838    1          2          6.42       2.66       1.651      0.925      1.178      1.185      1.712      0.1966549  0.1966549  0.3183395  12.29373   4.083923   1.651      0.3461128  0.5045642  28.125     0.3687413  0.3652505  0.3722322 
1397.2     -9999      819.538    -9999      -9999      6.553      2.387      1.706      0.769      1.18       1.191      1.712      0.1682599  0.1682599  0.3163397  3.662178   2.250449   1.706      0.2624206  0.4780428  29.742     0.4487267  0.4658766  0.4315768 
1397.4     -9999      835.082    -9999      -9999      6.598      2.133      1.775      0.613      1.106      1.183      1.679      0.1613211  0.1613211  0.3190061  2.724061   1.83951    1.775      0.2489696  0.4819827  30.196     0.4778333  0.5058566  0.44981   
1397.6     -9999      818.02     -9999      -9999      6.458      1.896      1.888      1.201      1.167      1.174      -9999      0.1831749  0.1831749  0.3220058  6.918346   3.444547   1.888      0.3468319  0.5259061  30.197     0.4206995  0.3915482  0.4498509 
1397.8     -9999      779.575    -9999      -9999      6.327      1.73       1.963      1.825      1.835      1.16       -9999      0.2015963  0.2015963  0.326672   15.17788   6.195108   1.963      0.4100166  0.5570384  30.199     0.3790173  0.3081017  0.4499328 
1398       -9999      736.908    -9999      -9999      6.174      1.696      2.011      2.449      2.811      1.15       -9999      0.2146905  0.2146905  0.330005   26.5306    12.29637   2.011      0.4477789  0.5763347  30.585     0.3494379  0.2328745  0.4660013 
1398.2     -9999      713.904    -9999      -9999      6.017      1.832      2.016      3.073      3.001      1.149      -9999      0.2220736  0.2220736  0.3303383  36.34962   24.84774   2.016      0.4644281  0.5831455  30.944     0.3280748  0.1747318  0.4814178 
1398.4     -9999      684.542    -9999      -9999      5.877      2.054      2.016      0.635      0.683      1.154      -9999      0.2267781  0.2267781  0.3286718  44.42607   46.52836   2.016      0.4741177  0.5856644  30.964     0.3087689  0.1352476  0.4822902 
1398.6     -9999      662.202    -9999      -9999      5.759      2.328      2.015      0.664      0.887      1.145      -9999      1          1          0.3316715  9323613800000000.0000000 78.94731   2.015      0.8555396  0.6509914  -9999      -4999.445  0.1089853  -9999     
1398.8     -9999      644.327    -9999      -9999      5.774      2.207      2.014      0.844      1.018      1.128      -9999      1          1          0.3373376  9323613800000000.0000000 73.81553   2.014      0.855506   0.6567683  -9999      -4999.444  0.1120178  -9999     
1399       -9999      633.017    -9999      -9999      5.877      2.023      2.014      0.858      1.031      1.126      -9999      1          1          0.3380042  9323613800000000.0000000 46.52836   2.014      0.855506   0.6574452  -9999      -4999.433  0.1352476  -9999     
1399.2     -9999      643.214    -9999      -9999      5.919      1.953      2.013      0.86       1.047      1.144      -9999      1          1          0.3320048  9323613800000000.0000000 38.54679   2.013      0.8554723  0.6511685  -9999      -4999.427  0.1460503  -9999     
1399.4     -9999      655.772    -9999      -9999      5.936      2.172      2.013      0.861      1.044      1.168      -9999      1          1          0.3240056  9323613800000000.0000000 35.71971   2.013      0.8554723  0.6425564  -9999      -4999.425  0.1506642  -9999     
1399.6     -9999      665.883    -9999      -9999      6.01       2.346      2.012      0.862      1.047      1.188      -9999      1          1          0.3173396  9323613800000000.0000000 25.63943   2.012      0.8554386  0.6349574  -9999      -4999.414  0.1725083  -9999     
1399.8     -9999      672.197    -9999      -9999      6.045      2.111      2.011      0.863      1.051      1.187      -9999      1          1          0.3176729  9323613800000000.0000000 21.91801   2.011      0.8554049  0.6352497  -9999      -4999.408  0.1839164  -9999     
1400       -9999      674.714    -9999      -9999      6.072      1.9        2.011      0.864      1.054      1.173      -9999      1          1          0.3223391  9323613800000000.0000000 19.42053   2.011      0.8554049  0.6405299  -9999      -4999.403  0.1932298  -9999     
1400.2     -9999      681.028    -9999      -9999      6.047      1.784      2.01       -9999      -9999      1.157      -9999      1          1          0.3276719  9323613800000000.0000000 21.72248   2.01       0.8553711  0.6462922  -9999      -4999.408  0.1845905  -9999     
1400.4     -9999      686.956    -9999      -9999      6.047      1.785      2.009      -9999      -9999      1.141      -9999      1          1          0.3330047  9323613800000000.0000000 21.72248   2.009      0.8553373  0.6518699  -9999      -4999.408  0.1845905  -9999     
1400.6     -9999      692.39     -9999      -9999      6.038      1.946      2.009      -9999      -9999      1.114      -9999      1          1          0.3420038  9323613800000000.0000000 22.61635   2.009      0.8553373  0.6610302  -9999      -4999.409  0.1815759  -9999     
1400.8     -9999      702.514    -9999      -9999      6.03       2.449      2.008      -9999      -9999      1.113      -9999      1          1          0.3423371  9323613800000000.0000000 23.44174   2.008      0.8553035  0.6612759  -9999      -4999.411  0.1789376  -9999     
1401       -9999      702.623    -9999      -9999      6.011      3.315      2.007      -9999      -9999      1.131      -9999      1          1          0.3363377  9323613800000000.0000000 25.52481   2.007      0.8552697  0.6551481  -9999      -4999.414  0.1728241  -9999     
1401.2     -9999      -9999      -9999      -9999      5.927      4.154      2.007      -9999      -9999      1.148      -9999      1          1          0.3306716  9323613800000000.0000000 37.18955   2.007      0.8552697  0.649239   -9999      -4999.426  0.1482037  -9999     
1401.4     -9999      -9999      -9999      -9999      5.809      4.873      2.006      -9999      -9999      1.161      -9999      1          1          0.3263387  9323613800000000.0000000 63.10162   2.006      0.8552359  0.6444933  -9999      -4999.44   0.1194256  -9999     
1401.6     -9999      -9999      -9999      -9999      5.759      4.148      2.005      -9999      -9999      1.167      -9999      1          1          0.3243389  9323613800000000.0000000 78.94731   2.005      0.855202   0.6422121  -9999      -4999.445  0.1089853  -9999     
1401.8     -9999      -9999      -9999      -9999      5.7        3.32       2.005      -9999      -9999      1.166      -9999      1          1          0.3246722  9323613800000000.0000000 102.8365   2.005      0.855202   0.6425794  -9999      -4999.451  0.09783344 -9999     
1402       -9999      -9999      -9999      -9999      5.665      2.652      2.004      -9999      -9999      1.159      -9999      1          1          0.3270053  9323613800000000.0000000 120.2969   2.004      0.855168   0.645041   -9999      -4999.454  0.09176496 -9999     
1402.2     -9999      -9999      -9999      -9999      5.816      2.135      2.004      -9999      -9999      1.153      -9999      1          1          0.3290051  9323613800000000.0000000 61.15319   2.004      0.855168   0.6471985  -9999      -4999.439  0.120965   -9999     
