~Version
 VERS              .         2.0                           : CWLS LOG ASCII STANDARD - VERSION 2.0
 WRAP              .         NO                            : ONE LINE PER DEPTH STEP
 DLM               .         SPACE                         : DELIMITING CHARACTER(SPACE TAB OR COMMA)
~Well Information
#_______________________________________________________________________________
#
#PARAMETER_NAME    .UNIT     VALUE                         : DESCRIPTION
#_______________________________________________________________________________
STRT               .M        950                           : First reference value
STOP               .M        1404                          : Last reference value
STEP               .M        0.2                           : Step increment
NULL               .         -9999                         : Missing value
COMP               .                                       : Company
WELL               .         4124                          : Well name
FLD                .         УЗЕНЬ                         : Field
LOC                .                                       : Location
CNTY               .                                       : County
STAT               .                                       : State
CTRY               .                                       : Country
SRVC               .                                       : Service Company
DATE               .                                       : Date
UWI                .                                       : Unique Well ID
Block              .         3а                            : 
Cartographic_reference_system .         GCS_WGS_1984                  : ESRI,PE_10_3_1- <?xml version="1.0" encoding="utf-16"?><ILateBoundCoordinateReferenceSystem name="GCS_WGS_1984"><AuthorityCode>EPSG,4326</AuthorityCode></ILateBoundCoordinateReferenceSystem>
Category           .         Нефтяная                      : 
Condition          .         В работе                      : 
Date               .         24.07.1976                    : 
EREF               .m        234.7                         : 100.8
Gorizont           .         18                            : 14
HZCS               .GCS_WGS_1984 WGS_1984_EASE-Grid_2.0_Global : ESRI,PE_10_3_1- <?xml version="1.0" encoding="utf-16"?><ILateBoundCoordinateReferenceSystem name="WGS_1984_EASE-Grid_2.0_Global"><AuthorityCode>EPSG,6933</AuthorityCode></ILateBoundCoordinateReferenceSystem>
Interpretator      .         Ткачева И.Г.                  : 
Kupol              .         Основной                      : osnovnoi
LATI               .dega     0.6301419213                  : GCS_WGS_1984
LONG               .dega     0.5703681379                  : GCS_WGS_1984
Mud                .         0                             : 
Mud_density        .         0                             : 
Mud_resistivity    .         0                             : 
NGDU               .         НГДУ-1                        : 
ORIGINALWELLNAME   .         4124                          : 
Spud_date          .         1976                          : 1961
Viscosity          .         0                             : 
X                  .m        55032.7                       : 46154
Y                  .m        80387.7                       : 85761.93
YEAR               .         2018                          : 
~Parameter Information Block
#_______________________________________________________________________________
#
#PARAMETER_NAME    .UNIT     VALUE                         : DESCRIPTION
#_______________________________________________________________________________
SET                .         LQC_KAZNIPI_Petrel            : 
TLFamily_CALI      .         Caliper                       : 
TLFamily_CILD      .         Conductivity                  : 
TLFamily_COLL      .         Net Reservoir Flag            : 
TLFamily_CSAT      .         Fluid Code                    : 
TLFamily_DEPT      .         Measured Depth                : 
TLFamily_GR        .         Russian Gamma Ray             : 
TLFamily_GZ3       .         Gradient 225                  : 
TLFamily_LLS       .         Lateral Log Resistivity       : 
TLFamily_MINV      .         Micro Gradient Resistivity    : 
TLFamily_MNOR      .         Micro Resistivity             : 
TLFamily_NGLD      .         Neutron Far                   : 
TLFamily_OGZ       .         Gradient Inverted 225         : 
TLFamily_PHIE      .         Effective Porosity            : 
TLFamily_PHIEN     .         Effective Porosity            : 
TLFamily_PHIT      .         Porosity                      : 
TLFamily_PRMB      .         Permeability                  : 
TLFamily_PRMB_DGR  .         Permeability                  : 
TLFamily_RT        .         Formation Resistivity         : 
TLFamily_SOIL_ARCHIE .         Oil Saturation                : 
TLFamily_SOIL_DW   .         Oil Saturation                : 
TLFamily_SP        .         Spontaneous Potential         : 
TLFamily_VSH_FIN   .         Shale Volume                  : 
TLFamily_VSH_GR    .         Shale Volume                  : 
TLFamily_VSH_SP    .         Shale Volume                  : 
~Curve Information
#_______________________________________________________________________________
#
#LOGNAME           .UNIT     LOG_ID                        : DESCRIPTION
#_______________________________________________________________________________
DEPT               .M                                      : Колонка глубины 
CALI               .м                                      : Каверномер 
CILD               .мСм/м                                  : Индукционный каротаж 
COLL               .unitless                               : Описание 
CSAT               .unitless                               : Описание 
GR                 .мкР/ч                                  : Гамма каротаж 
GZ3                .Ohmm                                   : Градиент-зонд  длиной 2.25м 
LLS                .Ohmm                                   : Боковой каротаж 
MINV               .Ом·м                                   : Микро-градиент зонд 
MNOR               .Ом·м                                   : Микро-потенциал зонд 
NGLD               .у.е.                                   : Показания зонда НГК-60 аппаратуры ДРСТ-3-90 
OGZ                .Ohmm                                   : Обращенный градиент-зонд 
PHIE               .v/v                                    : Описание 
PHIEN              .v/v                                    :  
PHIT               .v/v                                    : Описание 
PRMB               .мД                                     :  
PRMB_DGR           .мД                                     :  
RT                 .ohm.m                                  : УЭС пласта 
SOIL_ARCHIE        .v/v                                    :  
SOIL_DW            .v/v                                    :  
SP                 .мВ                                     : Потенциал самополяризации 
VSH_FIN            .v/v                                    : Описание 
VSH_GR             .v/v                                    : Shale volume 
VSH_SP             .v/v                                    : Shale Volume 
~Ascii
# ...
1098.8     0.253      698.193    -9999      -9999      5.803      1.946      1.454      2.088      1.98       1.155      1.96       0.1275466  0.1275466  0.3283385  0.6451042  0.9596357  1.454      0          0.3195244  50.093     0.6084604  0.6598127  0.5571082 
1099       0.264      700.621    -9999      -9999      5.783      1.816      1.461      1.5        1.426      1.166      2.115      0.1272154  0.1272154  0.3246722  0.6360572  0.9903973  1.461      0          0.3156252  49.841     0.5983539  0.6513662  0.5453416 
1099.2     0.253      701.874    -9999      -9999      5.756      1.648      1.468      2.075      1.724      1.166      2.237      0.1300393  0.1300393  0.3246722  0.7174662  1.033496   1.468      0          0.3226692  49.707     0.5897967  0.6401348  0.5394586 
1099.4     0.248      705.763    -9999      -9999      5.726      1.589      1.503      2.338      1.458      1.159      1.987      0.1369123  0.1369123  0.3270053  0.9618459  1.083586   1.503      0          0.3460677  49.374     0.5760394  0.6278822  0.5241967 
1099.6     0.241      719.613    -9999      -9999      5.622      1.692      1.264      1.928      1.582      1.152      1.829      0.1474558  0.1474558  0.3293384  1.507988   1.276791   1.264      0          0.3093763  49.167     0.5511593  0.5871944  0.5151243 
1099.8     0.244      733.463    -9999      -9999      5.598      1.874      1.122      2.814      2.109      1.139      1.659      0.1531709  0.1531709  0.3336713  1.924222   1.326062   1.122      0          0.2832406  49.168     0.5469708  0.5781856  0.5157559 
1100       0.265      756.15     -9999      -9999      5.674      2.046      1.131      2.141      1.618      1.144      1.676      0.1454885  0.1454885  0.3320048  1.38662    1.176229   1.131      0          0.2699274  49.315     0.5652009  0.6071975  0.5232044 
1100.2     0.271      774.101    -9999      -9999      5.759      1.987      1.158      1.55       1.296      1.153      1.778      0.1359107  0.1359107  0.3290051  0.9216228  1.028616   1.158      0          0.2558624  49.423     0.5851347  0.641373   0.5288963 
1100.4     0.28       776.279    -9999      -9999      5.778      1.853      1.147      0.898      0.737      1.156      1.761      0.1321685  0.1321685  0.3280052  0.785669   0.9982412  1.147      0          0.2431771  49.593     0.5934445  0.6492715  0.5376174 
1100.6     0.275      786.343    -9999      -9999      5.801      1.897      1.174      1.369      1.09       1.152      1.744      0.1311169  0.1311169  0.3293384  0.7512085  0.962668   1.174      0          0.2516899  49.679     0.6006714  0.6589633  0.5423795 
1100.8     0.275      795.641    -9999      -9999      5.792      1.863      1.203      1.836      1.378      1.144      1.813      0.1315608  0.1315608  0.3320048  0.7655681  0.9764345  1.203      0          0.2654548  50.018     0.6074059  0.6551536  0.5596582 
1101       0.281      789.789    -9999      -9999      5.824      1.778      1.253      1.348      1.102      1.129      1.957      0.1341967  0.1341967  0.3370043  0.8566571  0.9283636  1.253      0          0.2921939  50.019     0.6145685  0.6687994  0.5603375 
1101.2     0.277      782.156    -9999      -9999      5.9        1.761      1.336      0.861      0.896      1.116      2.017      0.1319039  0.1319039  0.3413372  0.7768525  0.8234668  1.336      0          0.3158547  50.138     0.6346462  0.7023582  0.5669342 
1101.4     0.268      771.975    -9999      -9999      5.962      1.744      1.368      1.459      1.222      1.122      2.078      0.1232226  0.1232226  0.3393374  0.5364628  0.7467349  1.368      0          0.3046596  50.359     0.6548933  0.7309784  0.5788083 
1101.6     0.253      763.899    -9999      -9999      5.982      1.813      1.368      1.835      1.523      1.131      2.147      0.1175481  0.1175481  0.3363377  0.4211477  0.723541   1.368      0          0.2889572  50.477     0.6629987  0.7404572  0.5855402 
1101.8     0.252      753.745    -9999      -9999      6.009      1.957      1.368      2.367      1.609      1.135      2.279      0.1098182  0.1098182  0.3350045  0.3028706  0.6933685  1.368      0          0.2701239  50.953     0.6823828  0.753449   0.6113167 
1102       0.254      747.808    -9999      -9999      6.029      2.078      1.361      1.95       1.42       1.129      2.252      0.110085   0.110085   0.3370043  0.3063369  0.6718321  1.361      0          0.2717128  50.954     0.6876343  0.7632192  0.6120493 
1102.2     0.252      744.851    -9999      -9999      5.919      2.147      1.367      1.839      1.231      1.128      2.087      0.1186721  0.1186721  0.3373376  0.4418278  0.7991494  1.367      0          0.2924284  50.982     0.6626227  0.7110078  0.6142377 
1102.4     0.252      739.77     -9999      -9999      5.799      2.191      1.38       2.205      1.553      1.132      1.944      0.1283054  0.1283054  0.3360044  0.6663249  0.9657111  1.38       0          0.3132327  50.786     0.6293908  0.6581146  0.6006671 
1102.6     0.254      741.031    -9999      -9999      5.819      1.993      1.398      1.688      1.794      1.14       1.848      0.1254642  0.1254642  0.333338   0.5902811  0.9357162  1.398      0          0.3086494  50.702     0.6299207  0.6666486  0.5931928 
1102.8     0.256      739.755    -9999      -9999      5.833      1.805      1.393      1.641      1.481      1.143      1.831      0.1254122  0.1254122  0.3323381  0.588973   0.9152748  1.393      0          0.3059684  50.533     0.6270483  0.6726884  0.5814083 
1103       0.25       733.875    -9999      -9999      5.918      1.658      1.376      2.02       1.413      1.144      1.814      0.1207346  0.1207346  0.3320048  0.4824528  0.8004112  1.376      0          0.2917339  50.365     0.6402128  0.71055    0.5698757 
1103.2     0.256      738.472    -9999      -9999      5.926      1.626      1.349      2.195      1.437      1.144      1.78       0.120728   0.120728   0.3320048  0.4823171  0.7903724  1.349      0          0.2846673  50.351     0.6402328  0.7142212  0.5662444 
1103.4     0.256      746.075    -9999      -9999      5.943      1.626      1.317      2.392      1.698      1.14       1.747      0.1225173  0.1225173  0.333338   0.5205662  0.7694569  1.317      0          0.2816538  50.196     0.6388506  0.7220858  0.5556152 
1103.6     0.257      744.799    -9999      -9999      5.942      1.593      1.399      2.147      1.741      1.136      1.919      0.1257888  0.1257888  0.3346712  0.5985104  0.7706719  1.399      0          0.3113035  50.024     0.6329769  0.7216209  0.544333  
1103.8     0.254      736.498    -9999      -9999      5.924      1.61       1.459      1.902      1.459      1.133      1.985      0.1299662  0.1299662  0.3356711  0.7152332  0.7928709  1.459      0          0.3347417  49.855     0.6233481  0.7133015  0.5333947 
1104       0.244      735.959    -9999      -9999      5.909      1.747      1.378      1.657      1.446      1.128      1.881      0.1358063  0.1358063  0.3373376  0.917529   0.8118574  1.378      0          0.3284009  49.521     0.610701   0.7064421  0.5149598 
1104.2     0.238      747.886    -9999      -9999      5.867      1.919      1.327      2.549      1.635      1.122      1.715      0.1432714  0.1432714  0.3393374  1.261516   0.8674737  1.327      0          0.3314108  49.267     0.5941393  0.6875846  0.5006939 
1104.4     0.24       758.719    -9999      -9999      5.817      2.087      1.273      2.872      1.875      1.118      1.627      0.1492524  0.1492524  0.3406706  1.628075   0.9386729  1.273      0          0.3292986  49.183     0.5800552  0.6657903  0.49432   
1104.6     0.255      773.05     -9999      -9999      5.721      2.066      1.162      2.287      2.049      1.115      1.593      0.1584966  0.1584966  0.3416705  2.414904   1.092167   1.162      0          0.3148896  49.014     0.5550724  0.6258631  0.4842816 
1104.8     0.244      781.847    -9999      -9999      5.598      1.915      1.147      1.702      1.559      1.114      1.594      0.1677172  0.1677172  0.3420038  3.578385   1.326062   1.147      0.007068074 0.3254951  48.93      0.5281413  0.5781856  0.478097  
