~Version
 VERS              .         2.0                           : CWLS LOG ASCII STANDARD - VERSION 2.0
 WRAP              .         YES                            : ONE LINE PER DEPTH STEP
 DLM               .         SPACE                         : DELIMITING CHARACTER(SPACE TAB OR COMMA)
~Well Information
#_______________________________________________________________________________
#
#PARAMETER_NAME    .UNIT     VALUE                         : DESCRIPTION
#_______________________________________________________________________________
STRT               .M        950.5                         : First reference value
STOP               .M        1284                          : Last reference value
STEP               .M        0.1                           : Step increment
NULL               .         -9999                         : Missing value
COMP               .                                       : Company
WELL               .         4779                          : Well name
FLD                .         Узень                         : Field
LOC                .                                       : Location
CNTY               .                                       : County
STAT               .                                       : State
CTRY               .                                       : Country
SRVC               .         SCH                           : Service Company
DATE               .         31.05.1990                    : Date
UWI                .                                       : Unique Well ID
Block              .         3а                            : 
Cartographic_reference_system .         GCS_WGS_1984                  : ESRI,PE_10_3_1- <?xml version="1.0" encoding="utf-16"?><ILateBoundCoordinateReferenceSystem name="GCS_WGS_1984"><AuthorityCode>EPSG,4326</AuthorityCode></ILateBoundCoordinateReferenceSystem>
Category           .         Нефтяная                      : 
Condition          .         В работе                      : 
EREF               .m        235.8                         : 100.8
Gorizont           .         15                            : 14
HZCS               .GCS_WGS_1984 WGS_1984_EASE-Grid_2.0_Global : ESRI,PE_10_3_1- <?xml version="1.0" encoding="utf-16"?><ILateBoundCoordinateReferenceSystem name="WGS_1984_EASE-Grid_2.0_Global"><AuthorityCode>EPSG,6933</AuthorityCode></ILateBoundCoordinateReferenceSystem>
Interpretator      .         Сагынбаева А.Н.               : 
Kupol              .         основной                      : osnovnoi
LATI               .dega     0.6302116892                  : GCS_WGS_1984
LONG               .dega     0.5730203284                  : GCS_WGS_1984
Mud                .         глинистый                     : 
Mud_density        .         1,18                          : 
Mud_resistivity    .         0                             : 
NGDU               .         НГДУ-1                        : 
ORIGINALWELLNAME   .         4779                          : 
Spud_date          .         1990                          : 1961
Viscosity          .         40                            : 
X                  .m        55288.6                       : 46154
Y                  .m        80396.6                       : 85761.93
YEAR               .         2018                          : 
~Parameter Information Block
#_______________________________________________________________________________
#
#PARAMETER_NAME    .UNIT     VALUE                         : DESCRIPTION
#_______________________________________________________________________________
SET                .         LQC_KAZNIPI_Petrel            : 
PBBOTTOM           .M        1284                          : Глубина подошвы планшета
PBSCALE            .         1 _ 500                       : Вертикальный масштаб планшета
PBTOP              .M        950                           : Глубина кровли планшета
TLFamily_CALI      .         Caliper                       : 
TLFamily_CILD      .         Conductivity                  : 
TLFamily_COLL      .         Net Reservoir Flag            : 
TLFamily_CSAT      .         Fluid Code                    : 
TLFamily_DEPT      .         Measured Depth                : 
TLFamily_GR        .         Russian Gamma Ray             : 
TLFamily_LLS       .         Lateral Log Resistivity       : 
TLFamily_NGLD      .         Neutron Gamma                 : 
TLFamily_PHIE      .         Effective Porosity            : 
TLFamily_PHIEN     .         Effective Porosity            : 
TLFamily_PHIT      .         Porosity                      : 
TLFamily_PRMB      .         Permeability                  : 
TLFamily_PRMB_DGR  .         Permeability                  : 
TLFamily_RT        .         Formation Resistivity         : 
TLFamily_SOIL_ARCHIE .         Oil Saturation                : 
TLFamily_SOIL_DW   .         Oil Saturation                : 
TLFamily_SP        .         Spontaneous Potential         : 
TLFamily_VSH_FIN   .         Shale Volume                  : 
TLFamily_VSH_GR    .         Shale Volume                  : 
TLFamily_VSH_SP    .         Shale Volume                  : 
~Curve Information
#_______________________________________________________________________________
#
#LOGNAME           .UNIT     LOG_ID                        : DESCRIPTION
#_______________________________________________________________________________
DEPT               .M                                      : Колонка глубины 
CALI               .м                                      : Каверномер 
CILD               .мСм/м                                  : Индукционный каротаж 
COLL               .unitless                               : Описание 
CSAT               .unitless                               :  
GR                 .uR/h                                   : Гамма каротаж 
LLS                .Ohmm                                   : Боковой каротаж 
NGLD               .у.е.                                   : Показания зонда НГК-60 аппаратуры ДРСТ-3-90 
PHIE               .v/v                                    : Описание 
PHIEN              .v/v                                    :  
PHIT               .v/v                                    : Описание 
PRMB               .mD                                     :  
PRMB_DGR           .mD                                     :  
RT                 .ohmm                                   : УЭС пласта 
SOIL_ARCHIE        .v/v                                    :  
SOIL_DW            .v/v                                    :  
SP                 .мВ                                     : Потенциал самополяризации 
VSH_FIN            .v/v                                    : Описание 
VSH_GR             .v/v                                    : Shale volume 
VSH_SP             .v/v                                    : Shale Volume 
~Ascii
# ...
1083.5     
  0.222      336.68     -9999      -9999      6.067423   3.494      
  1.686744   0.1467291  0.1467291  0.2898563  1.461968   6.468244   
  3.558      0.3441897  0.553607   19.35127   0.4337185  0.3027213  
  0.5647157 
1083.6     
  0.222      338.221    -9999      -9999      6.116252   3.585      
  1.673817   0.150593   0.150593   0.2939193  1.723874   6.264704   
  3.538      0.3571711  0.5605876  19.27989   0.4343221  0.3066995  
  0.5619447 
1083.7     
  0.222      339.914    -9999      -9999      6.174463   3.632      
  1.65867    0.154856   0.154856   0.2986799  2.067605   6.030413   
  3.517      0.3708565  0.5682865  19.2335    0.4358301  0.3115103  
  0.5601498 
1083.8     
  0.222      342.563    -9999      -9999      6.237083   3.541      
  1.641487   0.159497   0.159497   0.3040807  2.520164   5.788144   
  3.485      0.384195   0.5759264  19.21654   0.4381324  0.3167699  
  0.559495  
1083.9     
  0.222      345.697    -9999      -9999      6.29915    3.37       
  1.62274    0.1644251  0.1644251  0.3099729  3.109635   5.557622   
  3.447      0.3972081  0.5835256  19.23059   0.441054   0.3220706  
  0.5600374 
1084       
  0.222      349.125    -9999      -9999      6.356719   3.163      
  1.603123   0.1694861  0.1694861  0.3161385  3.858794   5.352025   
  3.407      0.4096913  0.5909556  19.27451   0.4444012  0.3270664  
  0.561736  
1084.1     
  0.222      350.9      -9999      -9999      6.407562   3.009      
  1.583411   0.1744922  0.1744922  0.322334   4.777247   5.176779   
  3.386      0.4227969  0.5990986  19.34489   0.4480053  0.3315429  
  0.5644678 
1084.2     
  0.222      352.322    -9999      -9999      6.451588   2.846      
  1.564331   0.1792512  0.1792512  0.3283308  5.852283   5.029674   
  3.37       0.4349121  0.6067948  19.4366    0.4517563  0.3354687  
  0.5680439 
1084.3     
  0.222      352.961    -9999      -9999      6.490582   2.791      
  1.546438   0.1836052  0.1836052  0.3339545  7.046481   4.902877   
  3.363      0.4460611  0.6140778  19.54313   0.4556037  0.3389846  
  0.5722229 
1084.4     
  0.222      353.983    -9999      -9999      6.527343   2.82       
  1.530074   0.1874549  0.1874549  0.3390978  8.303817   4.786267   
  3.351      0.455069   0.6200681  19.65689   0.4595238  0.342333   
  0.5767147 
1084.5     
  0.222      356.371    -9999      -9999      6.564636   2.891      
  1.515415   0.1907582  0.1907582  0.343705   9.5601     4.670805   
  3.325      0.4613315  0.6242857  19.7694    0.4634752  0.3457635  
  0.581187  
1084.6     
  0.222      360.339    -9999      -9999      6.604175   2.971      
  1.502562   0.1935158  0.1935158  0.3477446  10.75327   4.551431   
  3.282      0.4647638  0.6266177  19.87177   0.46736    0.3494382  
  0.5852819 
1084.7     
  0.222      366.19     -9999      -9999      6.646234   3.06       
  1.491582   0.1957602  0.1957602  0.3511957  11.83344   4.427795   
  3.22       0.4653487  0.6269876  19.95535   0.4710168  0.35339    
  0.5886435 
1084.8     
  0.222      369.495    -9999      -9999      6.690088   3.05       
  1.482557   0.197528   0.197528   0.3540324  12.76015   4.302457   
  3.186      0.4668696  0.6281457  20.01255   0.4742558  0.357558   
  0.5909535 
1084.9     
  0.222      367.618    -9999      -9999      6.734914   2.919      
  1.475521   0.1988595  0.1988595  0.3562437  13.50573   4.178007   
  3.205      0.4714567  0.6316222  20.03777   0.4769219  0.3618693  
  0.5919746 
1085       
  0.222      367.768    -9999      -9999      6.780814   2.756      
  1.470392   0.199799   0.199799   0.3578556  14.0579    4.054306   
  3.203      0.4734678  0.6331958  20.02806   0.4789595  0.3663377  
  0.5915812 
1085.1     
  0.222      369.286    -9999      -9999      6.829515   2.605      
  1.466913   0.2003991  0.2003991  0.3589492  14.42236   3.927055   
  3.188      0.4736833  0.6334465  19.98328   0.4804547  0.3711391  
  0.5897702 
1085.2     
  0.223      370.799    -9999      -9999      6.884244   2.538      
  1.464657   0.2007196  0.2007196  0.3596583  14.62084   3.788816   
  3.173      0.4732508  0.6332512  19.90595   0.4816324  0.37661    
  0.5866547 
1085.3     
  0.225      375.121    -9999      -9999      6.948926   2.665      
  1.463078   0.2008267  0.2008267  0.3601546  14.68778   3.631698   
  3.13       0.4701135  0.6311267  19.80089   0.4828118  0.3831799  
  0.5824438 
1085.4     
  0.227      384.453    -9999      -9999      7.027142   2.751      
  1.461609   0.2007819  0.2007819  0.3606162  14.65972   3.450382   
  3.041      0.4627874  0.6260253  19.67456   0.4843463  0.3912776  
  0.577415  
1085.5     
  0.228      391.027    -9999      -9999      7.121233   2.743      
  1.459745   0.2006349  0.2006349  0.3612021  14.56813   3.244217   
  2.981      0.4573943  0.6225435  19.53462   0.4865671  0.4012462  
  0.5718881 
1085.6     
  0.228      396.643    -9999      -9999      7.232016   2.723      
  1.45708    0.2004203  0.2004203  0.3620398  14.43539   3.017215   
  2.932      0.4526477  0.619777   19.38945   0.489756   0.4133091  
  0.5662029 
1085.7     
  0.227      403.11     -9999      -9999      7.358818   2.651      
  1.453321   0.2001575  0.2001575  0.3632213  14.27448   2.776816   
  2.878      0.4472207  0.6167872  19.24782   0.4941326  0.427562   
  0.5607032 
1085.8     
  0.227      410.594    -9999      -9999      7.49966    2.511      
  1.448274   0.1998587  0.1998587  0.3648075  14.09374   2.532183   
  2.817      0.4409086  0.6134577  19.11843   0.4998447  0.44397    
  0.5557195 
1085.9     
  0.227      420.02     -9999      -9999      7.651369   2.575      
  1.44185    0.1995334  0.1995334  0.3668264  13.89952   2.292731   
  2.744      0.4331738  0.6094125  19.00936   0.5069488  0.4623491  
  0.5515485 
1086       
  0.227      430.604    -9999      -9999      7.809467   2.589      
  1.434088   0.1991926  0.1991926  0.369266   13.69896   2.067255   
  2.667      0.4246964  0.6051455  18.9275    0.5153741  0.4823122  
  0.548436  
1086.1     
  0.229      440.459    -9999      -9999      7.968007   2.553      
  1.425199   0.1988512  0.1988512  0.3720601  13.50098   1.863414   
  2.598      0.4167055  0.6015031  18.8778    0.5248752  0.5031967  
  0.5465537 
1086.2     
  0.23       449.73     -9999      -9999      8.119826   2.467      
  1.415562   0.1985343  0.1985343  0.3750889  13.31974   1.687081   
  2.537      0.4093458  0.5984816  18.86275   0.5350139  0.5240431  
  0.5459846 
1086.3     
  0.229      458.642    -9999      -9999      8.257324   2.339      
  1.405673   0.1982838  0.1982838  0.378197   13.17819   1.541824   
  2.481      0.4024699  0.5958193  18.88207   0.5451913  0.5436673  
  0.5467153 
1086.4     
  0.228      465.918    -9999      -9999      8.373889   2.099      
  1.396076   0.1981435  0.1981435  0.3812132  13.09954   1.428522   
  2.437      0.3970596  0.5940527  18.93275   0.5547566  0.5608783  
  0.5486349 
1086.5     
  0.229      472.272    -9999      -9999      8.465308   1.988      
  1.38726    0.1981447  0.1981447  0.3839842  13.10024   1.345519   
  2.4        0.3927187  0.5927473  19.00922   0.56315    0.5747569  
  0.5515431 
1086.6     
  0.23       478.192    -9999      -9999      8.530608   1.921      
  1.379582   0.1982901  0.1982901  0.3863975  13.1817    1.289199   
  2.366      0.3890294  0.5915199  19.10396   0.5700224  0.5848801  
  0.5551648 
1086.7     
  0.234      482.787    -9999      -9999      8.57224    1.887      
  1.373294   0.198526   0.198526   0.3883737  13.31497   1.25453    
  2.341      0.3866116  0.5908159  19.20799   0.5752961  0.5914268  
  0.5591653 
1086.8     
  0.238      486.973    -9999      -9999      8.595178   1.861      
  1.368568   0.1987503  0.1987503  0.3898589  13.443     1.235828   
  2.318      0.384369   0.5899321  19.31146   0.5791171  0.5950652  
  0.5631689 
1086.9     
  0.242      490.925    -9999      -9999      8.605351   1.855      
  1.365528   0.1988428  0.1988428  0.3908146  13.49614   1.227623   
  2.297      0.3819847  0.5887545  19.40423   0.5817327  0.5966861  
  0.5667793 
