~Version
 VERS              .         2.0                           : CWLS LOG ASCII STANDARD - VERSION 2.0
 WRAP              .         YES                            : ONE LINE PER DEPTH STEP
 DLM               .         SPACE                         : DELIMITING CHARACTER(SPACE TAB OR COMMA)
~Well Information
#_______________________________________________________________________________
#
#PARAMETER_NAME    .UNIT     VALUE                         : DESCRIPTION
#_______________________________________________________________________________
STRT               .M        950.5                         : First reference value
STOP               .M        1284                          : Last reference value
STEP               .M        0.1                           : Step increment
NULL               .         -9999                         : Missing value
COMP               .                                       : Company
WELL               .         4779                          : Well name
FLD                .         Узень                         : Field
LOC                .                                       : Location
CNTY               .                                       : County
STAT               .                                       : State
CTRY               .                                       : Country
SRVC               .         SCH                           : Service Company
DATE               .         31.05.1990                    : Date
UWI                .                                       : Unique Well ID
Block              .         3а                            : 
Cartographic_reference_system .         GCS_WGS_1984                  : ESRI,PE_10_3_1- <?xml version="1.0" encoding="utf-16"?><ILateBoundCoordinateReferenceSystem name="GCS_WGS_1984"><AuthorityCode>EPSG,4326</AuthorityCode></ILateBoundCoordinateReferenceSystem>
Category           .         Нефтяная                      : 
Condition          .         В работе                      : 
EREF               .m        235.8                         : 100.8
Gorizont           .         15                            : 14
HZCS               .GCS_WGS_1984 WGS_1984_EASE-Grid_2.0_Global : ESRI,PE_10_3_1- <?xml version="1.0" encoding="utf-16"?><ILateBoundCoordinateReferenceSystem name="WGS_1984_EASE-Grid_2.0_Global"><AuthorityCode>EPSG,6933</AuthorityCode></ILateBoundCoordinateReferenceSystem>
Interpretator      .         Сагынбаева А.Н.               : 
Kupol              .         основной                      : osnovnoi
LATI               .dega     0.6302116892                  : GCS_WGS_1984
LONG               .dega     0.5730203284                  : GCS_WGS_1984
Mud                .         глинистый                     : 
Mud_density        .         1,18                          : 
Mud_resistivity    .         0                             : 
NGDU               .         НГДУ-1                        : 
ORIGINALWELLNAME   .         4779                          : 
Spud_date          .         1990                          : 1961
Viscosity          .         40                            : 
X                  .m        55288.6                       : 46154
Y                  .m        80396.6                       : 85761.93
YEAR               .         2018                          : 
~Parameter Information Block
#_______________________________________________________________________________
#
#PARAMETER_NAME    .UNIT     VALUE                         : DESCRIPTION
#_______________________________________________________________________________
SET                .         LQC_KAZNIPI_Petrel            : 
PBBOTTOM           .M        1284                          : Глубина подошвы планшета
PBSCALE            .         1 _ 500                       : Вертикальный масштаб планшета
PBTOP              .M        950                           : Глубина кровли планшета
TLFamily_CALI      .         Caliper                       : 
TLFamily_CILD      .         Conductivity                  : 
TLFamily_COLL      .         Net Reservoir Flag            : 
TLFamily_CSAT      .         Fluid Code                    : 
TLFamily_DEPT      .         Measured Depth                : 
TLFamily_GR        .         Russian Gamma Ray             : 
TLFamily_LLS       .         Lateral Log Resistivity       : 
TLFamily_NGLD      .         Neutron Gamma                 : 
TLFamily_PHIE      .         Effective Porosity            : 
TLFamily_PHIEN     .         Effective Porosity            : 
TLFamily_PHIT      .         Porosity                      : 
TLFamily_PRMB      .         Permeability                  : 
TLFamily_PRMB_DGR  .         Permeability                  : 
TLFamily_RT        .         Formation Resistivity         : 
TLFamily_SOIL_ARCHIE .         Oil Saturation                : 
TLFamily_SOIL_DW   .         Oil Saturation                : 
TLFamily_SP        .         Spontaneous Potential         : 
TLFamily_VSH_FIN   .         Shale Volume                  : 
TLFamily_VSH_GR    .         Shale Volume                  : 
TLFamily_VSH_SP    .         Shale Volume                  : 
~Curve Information
#_______________________________________________________________________________
#
#LOGNAME           .UNIT     LOG_ID                        : DESCRIPTION
#_______________________________________________________________________________
DEPT               .M                                      : Колонка глубины 
CALI               .м                                      : Каверномер 
CILD               .мСм/м                                  : Индукционный каротаж 
COLL               .unitless                               : Описание 
CSAT               .unitless                               :  
GR                 .uR/h                                   : Гамма каротаж 
LLS                .Ohmm                                   : Боковой каротаж 
NGLD               .у.е.                                   : Показания зонда НГК-60 аппаратуры ДРСТ-3-90 
PHIE               .v/v                                    : Описание 
PHIEN              .v/v                                    :  
PHIT               .v/v                                    : Описание 
PRMB               .mD                                     :  
PRMB_DGR           .mD                                     :  
RT                 .ohmm                                   : УЭС пласта 
SOIL_ARCHIE        .v/v                                    :  
SOIL_DW            .v/v                                    :  
SP                 .мВ                                     : Потенциал самополяризации 
VSH_FIN            .v/v                                    : Описание 
VSH_GR             .v/v                                    : Shale volume 
VSH_SP             .v/v                                    : Shale Volume 
~Ascii
# ...
1062.5     
  0.237      476.144    -9999      -9999      8.708387   1.966      
  1.475025   0.162198   0.162198   0.3563997  2.827859   1.14753    
  2.378      0.2739195  0.5375595  19.32328   0.5884902  0.6133529  
  0.5636276 
1062.6     
  0.238      475.61     -9999      -9999      8.715443   1.99       
  1.475707   0.1613622  0.1613622  0.3561853  2.72884    1.142241   
  2.381      0.2710767  0.5367793  19.39027   0.5903729  0.614511   
  0.5662347 
1062.7     
  0.238      476.486    -9999      -9999      8.730307   2.007      
  1.475366   0.1605613  0.1605613  0.3562924  2.637201   1.131178   
  2.376      0.2671884  0.5355132  19.46845   0.5931244  0.6169581  
  0.5692908 
1062.8     
  0.238      478.03     -9999      -9999      8.755982   2.015      
  1.473918   0.1597804  0.1597804  0.3567476  2.550813   1.112319   
  2.367      0.2627582  0.5341525  19.551     0.5968704  0.6212081  
  0.5725326 
1062.9     
  0.238      480.559    -9999      -9999      8.794652   2.01       
  1.471323   0.1590112  0.1590112  0.3575631  2.468488   1.084508   
  2.353      0.2575891  0.5325934  19.63076   0.6016724  0.6276643  
  0.5756804 
1063       
  0.237      483.581    -9999      -9999      8.847187   1.992      
  1.467673   0.1582357  0.1582357  0.3587102  2.388176   1.047835   
  2.337      0.25203    0.5310819  19.70075   0.6074988  0.636543   
  0.5784545 
1063.1     
  0.237      486.777    -9999      -9999      8.912716   1.951      
  1.463251   0.1574169  0.1574169  0.3601002  2.306222   1.003826   
  2.319      0.2459118  0.5294985  19.75441   0.6141916  0.6477941  
  0.5805892 
1063.2     
  0.236      489.449    -9999      -9999      8.988448   1.901      
  1.458542   0.1565014  0.1565014  0.3615802  2.217906   0.9552613  
  2.305      0.2399143  0.5282657  19.7862    0.621451   0.6610449  
  0.5818571 
1063.3     
  0.236      492.062    -9999      -9999      9.06977    1.853      
  1.45418    0.1554356  0.1554356  0.3629512  2.119347   0.905725   
  2.291      0.233188   0.5267556  19.79215   0.6288352  0.6755756  
  0.5820947 
1063.4     
  0.235      494.416    -9999      -9999      9.150713   1.808      
  1.450849   0.1541864  0.1541864  0.3639983  2.00939    0.8589701  
  2.279      0.2258746  0.5249582  19.77051   0.6357935  0.6903559  
  0.5812312 
1063.5     
  0.235      496.68     -9999      -9999      9.224838   1.759      
  1.449113   0.1527695  0.1527695  0.3645439  1.891558   0.8182743  
  2.267      0.2176893  0.5225316  19.72219   0.6417407  0.7041748  
  0.5793067 
1063.6     
  0.237      498.802    -9999      -9999      9.286073   1.731      
  1.449257   0.1512723  0.1512723  0.3644984  1.774551   0.7861136  
  2.256      0.2091471  0.5195959  19.65098   0.6461396  0.7157988  
  0.5764805 
1063.7     
  0.239      500.298    -9999      -9999      9.329397   1.722      
  1.451186   0.1498614  0.1498614  0.3638924  1.670919   0.7641262  
  2.249      0.2015027  0.516684   19.56333   0.6485786  0.7241387  
  0.5730184 
1063.8     
  0.242      500.286    -9999      -9999      9.351311   1.719      
  1.454412   0.1487657  0.1487657  0.3628783  1.59463    0.7532401  
  2.249      0.1963827  0.5145259  19.46762   0.6488261  0.728394   
  0.5692581 
1063.9     
  0.245      498.68     -9999      -9999      9.350018   1.724      
  1.458199   0.1482266  0.1482266  0.3616882  1.558384   0.753878   
  2.257      0.1951799  0.5137311  19.37307   0.6468533  0.7281422  
  0.5655645 
1064       
  0.248      495.891    -9999      -9999      9.325428   1.744      
  1.461743   0.1484414  0.1484414  0.3605743  1.572726   0.7661146  
  2.271      0.1985234  0.5145406  19.28863   0.6428269  0.7233706  
  0.5622833 
1064.1     
  0.25       492.332    -9999      -9999      9.279179   1.776      
  1.464383   0.1495037  0.1495037  0.3597444  1.64562    0.7896703  
  2.29       0.2065937  0.5171168  19.22199   0.6370929  0.7144806  
  0.5597053 
1064.2     
  0.248      488.491    -9999      -9999      9.21465    1.813      
  1.465754   0.1513635  0.1513635  0.3593137  1.781466   0.8237513  
  2.31       0.2182874  0.5210301  19.17892   0.630152   0.7022591  
  0.5580448 
1064.3     
  0.245      485.379    -9999      -9999      9.136737   1.863      
  1.465843   0.1538255  0.1538255  0.3592855  1.978698   0.8668671  
  2.327      0.2318432  0.5255938  19.16298   0.622606   0.687781   
  0.557431  
1064.4     
  0.242      482.561    -9999      -9999      9.051306   1.917      
  1.464931   0.1565963  0.1565963  0.359572   2.226908   0.916742   
  2.342      0.2459717  0.5304711  19.17534   0.6150779  0.6722487  
  0.5579071 
1064.5     
  0.238      480.708    -9999      -9999      8.96425    1.965      
  1.463453   0.159362   0.159362   0.3600366  2.505696   0.9705178  
  2.352      0.2588648  0.534892   19.21481   0.6081049  0.6567817  
  0.5594281 
1064.6     
  0.236      479.931    -9999      -9999      8.88029    1.998      
  1.461872   0.1618623  0.1618623  0.3605337  2.787661   1.025367   
  2.357      0.2695741  0.5384806  19.2779    0.6020347  0.642202   
  0.5618674 
1064.7     
  0.236      479.925    -9999      -9999      8.801996   2.015      
  1.460555   0.1639503  0.1639503  0.3609476  3.047298   1.079305   
  2.357      0.2776828  0.5410232  19.35923   0.5969617  0.628898   
  0.5650254 
1064.8     
  0.237      479.39     -9999      -9999      8.729377   2.009      
  1.459734   0.1656064  0.1656064  0.3612057  3.270316   1.131867   
  2.36       0.2844052  0.543249   19.45198   0.5927252  0.6168048  
  0.5686457 
1064.9     
  0.237      478.603    -9999      -9999      8.660334   1.984      
  1.459515   0.1669095  0.1669095  0.3612745  3.45722    1.184212   
  2.364      0.2898382  0.5450355  19.54883   0.5889849  0.6055228  
  0.5724471 
1065       
  0.236      476.73     -9999      -9999      8.591808   1.96       
  1.459937   0.1679781  0.1679781  0.3611417  3.618425   1.238558   
  2.375      0.2953113  0.5470788  19.64286   0.5853443  0.5945294  
  0.5761592 
1065.1     
  0.235      472.512    -9999      -9999      8.521499   1.946      
  1.460995   0.1689137  0.1689137  0.3608094  3.76573    1.296912   
  2.399      0.3020131  0.5500379  19.72824   0.5815022  0.5834572  
  0.5795472 
1065.2     
  0.233      466.619    -9999      -9999      8.449214   1.949      
  1.462687   0.1697501  0.1697501  0.3602775  3.902486   1.359773   
  2.433      0.309584   0.553619   19.80036   0.5773557  0.5722889  
  0.5824225 
1065.3     
  0.232      460.73     -9999      -9999      8.377479   1.989      
  1.465049   0.1704358  0.1704358  0.3595352  4.018302   1.425168   
  2.468      0.3165998  0.5569057  19.85576   0.5730284  0.5614169  
  0.5846398 
1065.4     
  0.231      454.301    -9999      -9999      8.311124   2.072      
  1.468125   0.17086    0.17086    0.3585684  4.091663   1.488455   
  2.508      0.3232032  0.5601342  19.89172   0.5688134  0.5515443  
  0.5860825 
1065.5     
  0.232      447.842    -9999      -9999      8.255906   2.214      
  1.471947   0.170898   0.170898   0.357367   4.098305   1.543257   
  2.549      0.3284639  0.5628145  19.90593   0.5650575  0.5434612  
  0.5866537 
1065.6     
  0.233      434.482    -9999      -9999      8.216601   2.33       
  1.476527   0.1704573  0.1704573  0.3559276  4.021981   1.583491   
  2.639      0.3378222  0.5688348  19.8967    0.5620313  0.5377798  
  0.5862827 
1065.7     
  0.235      419.742    -9999      -9999      8.195451   2.395      
  1.48182    0.1695136  0.1695136  0.3542639  3.863324   1.605573   
  2.746      0.3469079  0.5751938  19.86354   0.5598495  0.5347472  
  0.5849518 
1065.8     
  0.234      413.845    -9999      -9999      8.191443   2.393      
  1.487696   0.1681292  0.1681292  0.3524171  3.641819   1.609792   
  2.791      0.3472248  0.5759448  19.80785   0.5584483  0.5341745  
  0.5827221 
1065.9     
  0.234      412.102    -9999      -9999      8.200687   2.326      
  1.493956   0.1664325  0.1664325  0.3504497  3.387591   1.600077   
  2.805      0.3429771  0.5738947  19.73358   0.557628   0.5354964  
  0.5797597 
