~Version
 VERS              .         2.0                           : CWLS LOG ASCII STANDARD - VERSION 2.0
 WRAP              .         YES                            : ONE LINE PER DEPTH STEP
 DLM               .         SPACE                         : DELIMITING CHARACTER(SPACE TAB OR COMMA)
~Well Information
#_______________________________________________________________________________
#
#PARAMETER_NAME    .UNIT     VALUE                         : DESCRIPTION
#_______________________________________________________________________________
STRT               .M        950.5                         : First reference value
STOP               .M        1284                          : Last reference value
STEP               .M        0.1                           : Step increment
NULL               .         -9999                         : Missing value
COMP               .                                       : Company
WELL               .         4779                          : Well name
FLD                .         Узень                         : Field
LOC                .                                       : Location
CNTY               .                                       : County
STAT               .                                       : State
CTRY               .                                       : Country
SRVC               .         SCH                           : Service Company
DATE               .         31.05.1990                    : Date
UWI                .                                       : Unique Well ID
Block              .         3а                            : 
Cartographic_reference_system .         GCS_WGS_1984                  : ESRI,PE_10_3_1- <?xml version="1.0" encoding="utf-16"?><ILateBoundCoordinateReferenceSystem name="GCS_WGS_1984"><AuthorityCode>EPSG,4326</AuthorityCode></ILateBoundCoordinateReferenceSystem>
Category           .         Нефтяная                      : 
Condition          .         В работе                      : 
EREF               .m        235.8                         : 100.8
Gorizont           .         15                            : 14
HZCS               .GCS_WGS_1984 WGS_1984_EASE-Grid_2.0_Global : ESRI,PE_10_3_1- <?xml version="1.0" encoding="utf-16"?><ILateBoundCoordinateReferenceSystem name="WGS_1984_EASE-Grid_2.0_Global"><AuthorityCode>EPSG,6933</AuthorityCode></ILateBoundCoordinateReferenceSystem>
Interpretator      .         Сагынбаева А.Н.               : 
Kupol              .         основной                      : osnovnoi
LATI               .dega     0.6302116892                  : GCS_WGS_1984
LONG               .dega     0.5730203284                  : GCS_WGS_1984
Mud                .         глинистый                     : 
Mud_density        .         1,18                          : 
Mud_resistivity    .         0                             : 
NGDU               .         НГДУ-1                        : 
ORIGINALWELLNAME   .         4779                          : 
Spud_date          .         1990                          : 1961
Viscosity          .         40                            : 
X                  .m        55288.6                       : 46154
Y                  .m        80396.6                       : 85761.93
YEAR               .         2018                          : 
~Parameter Information Block
#_______________________________________________________________________________
#
#PARAMETER_NAME    .UNIT     VALUE                         : DESCRIPTION
#_______________________________________________________________________________
SET                .         LQC_KAZNIPI_Petrel            : 
PBBOTTOM           .M        1284                          : Глубина подошвы планшета
PBSCALE            .         1 _ 500                       : Вертикальный масштаб планшета
PBTOP              .M        950                           : Глубина кровли планшета
TLFamily_CALI      .         Caliper                       : 
TLFamily_CILD      .         Conductivity                  : 
TLFamily_COLL      .         Net Reservoir Flag            : 
TLFamily_CSAT      .         Fluid Code                    : 
TLFamily_DEPT      .         Measured Depth                : 
TLFamily_GR        .         Russian Gamma Ray             : 
TLFamily_LLS       .         Lateral Log Resistivity       : 
TLFamily_NGLD      .         Neutron Gamma                 : 
TLFamily_PHIE      .         Effective Porosity            : 
TLFamily_PHIEN     .         Effective Porosity            : 
TLFamily_PHIT      .         Porosity                      : 
TLFamily_PRMB      .         Permeability                  : 
TLFamily_PRMB_DGR  .         Permeability                  : 
TLFamily_RT        .         Formation Resistivity         : 
TLFamily_SOIL_ARCHIE .         Oil Saturation                : 
TLFamily_SOIL_DW   .         Oil Saturation                : 
TLFamily_SP        .         Spontaneous Potential         : 
TLFamily_VSH_FIN   .         Shale Volume                  : 
TLFamily_VSH_GR    .         Shale Volume                  : 
TLFamily_VSH_SP    .         Shale Volume                  : 
~Curve Information
#_______________________________________________________________________________
#
#LOGNAME           .UNIT     LOG_ID                        : DESCRIPTION
#_______________________________________________________________________________
DEPT               .M                                      : Колонка глубины 
CALI               .м                                      : Каверномер 
CILD               .мСм/м                                  : Индукционный каротаж 
COLL               .unitless                               : Описание 
CSAT               .unitless                               :  
GR                 .uR/h                                   : Гамма каротаж 
LLS                .Ohmm                                   : Боковой каротаж 
NGLD               .у.е.                                   : Показания зонда НГК-60 аппаратуры ДРСТ-3-90 
PHIE               .v/v                                    : Описание 
PHIEN              .v/v                                    :  
PHIT               .v/v                                    : Описание 
PRMB               .mD                                     :  
PRMB_DGR           .mD                                     :  
RT                 .ohmm                                   : УЭС пласта 
SOIL_ARCHIE        .v/v                                    :  
SOIL_DW            .v/v                                    :  
SP                 .мВ                                     : Потенциал самополяризации 
VSH_FIN            .v/v                                    : Описание 
VSH_GR             .v/v                                    : Shale volume 
VSH_SP             .v/v                                    : Shale Volume 
~Ascii
# ...
1171       
  0.224      459.749    -9999      -9999      7.574734   1.939      
  1.349246   0.2507383  0.2507383  0.3959321  123.4355   12.92458   
  2.474      0.5190805  0.6462177  23.22723   0.4399811  0.2281843  
  0.6517779 
1171.1     
  0.225      452.881    -9999      -9999      7.549854   1.984      
  1.35537    0.250205   0.250205   0.3940072  120.6594   13.25948   
  2.517      0.522068   0.6479324  23.15797   0.4357643  0.2258132  
  0.6457155 
1171.2     
  0.226      444.314    -9999      -9999      7.540328   2.067      
  1.368881   0.2486454  0.2486454  0.3897606  112.8946   13.39      
  2.573      0.5243946  0.648647   22.97976   0.4276221  0.2249117  
  0.6303325 
1171.3     
  0.228      437.498    -9999      -9999      7.544825   2.159      
  1.389299   0.2459273  0.2459273  0.3833432  100.5375   13.32822   
  2.619      0.523796   0.6467246  22.70823   0.416412   0.2253368  
  0.6074871 
1171.4     
  0.23       433.449    -9999      -9999      7.561412   2.232      
  1.415465   0.2420531  0.2420531  0.3751194  85.22525   13.10284   
  2.647      0.519568   0.6417437  22.36416   0.4032311  0.2269116  
  0.5795507 
1171.5     
  0.232      432.448    -9999      -9999      7.587768   2.241      
  1.445687   0.2371709  0.2371709  0.3656204  69.20523   12.75252   
  2.654      0.5115716  0.6337105  21.97178   0.389241   0.2294365  
  0.5490456 
1171.6     
  0.234      430.406    -9999      -9999      7.621336   2.216      
  1.477982   0.231555   0.231555   0.3554704  54.46508   12.31987   
  2.668      0.5025001  0.6248841  21.55671   0.3755012  0.232693   
  0.5183095 
1171.7     
  0.234      429.201    -9999      -9999      7.659466   2.21       
  1.510348   0.2255572  0.2255572  0.3452977  42.17206   11.84619   
  2.677      0.4918016  0.6149224  21.14371   0.3628499  0.2364482  
  0.4892516 
1171.8     
  0.233      426.61     -9999      -9999      7.699662   2.228      
  1.541064   0.2195336  0.2195336  0.3356435  32.61772   11.36656   
  2.695      0.4813121  0.6053796  20.75451   0.3518481  0.2404726  
  0.4632236 
1171.9     
  0.231      421.459    1          2          7.739877   2.284      
  1.56892    0.2137663  0.2137663  0.3268886  25.50521   10.90614   
  2.733      0.4726216  0.5976058  20.40626   0.3427946  0.2445673  
  0.4410219 
1172       
  0.229      412.994    1          2          7.778796   2.377      
  1.593325   0.2084096  0.2084096  0.319218   20.29596   10.47832   
  2.798      0.4667494  0.592479   20.11076   0.3357831  0.2485965  
  0.4229697 
1172.1     
  0.228      405.746    1          2          7.816026   2.476      
  1.614277   0.2034766  0.2034766  0.3126326  16.44514   10.08478   
  2.856      0.4607244  0.5876178  19.87439   0.3307759  0.2525129  
  0.409039  
1172.2     
  0.227      398.479    1          2          7.852222   2.578      
  1.632207   0.1988632  0.1988632  0.3069973  13.50787   9.716344   
  2.917      0.4552735  0.5836561  19.69881   0.3276792  0.2563798  
  0.3989787 
1172.3     
  0.228      392.008    1          2          7.889009   2.695      
  1.647712   0.1944136  0.1944136  0.3021242  11.17298   9.355683   
  2.973      0.4493665  0.579809   19.58202   0.326396   0.2603704  
  0.3924215 
1172.4     
  0.228      386.125    1          2          7.928817   2.826      
  1.661257   0.1900033  0.1900033  0.2978669  9.257225   8.980475   
  3.026      0.4428901  0.5760422  19.51958   0.3268592  0.2647587  
  0.3889597 
1172.5     
  0.228      381.871    1          2          7.974508   2.976      
  1.673005   0.1855937  0.1855937  0.2941746  7.670159   8.568321   
  3.065      0.434786   0.5715466  19.50543   0.3290329  0.2698868  
  0.388179  
1172.6     
  0.228      379.511    1          2          8.028944   3.105      
  1.682738   0.1812614  0.1812614  0.2911156  6.376153   8.101905   
  3.087      0.4249713  0.5662783  19.5322    0.3328915  0.2761263  
  0.3896566 
1172.7     
  0.227      378.308    1          2          8.09438    3.186      
  1.68994    0.1771873  0.1771873  0.288852   5.359169   7.574717   
  3.099      0.4145397  0.5610827  19.59128   0.3383777  0.2838178  
  0.3929377 
1172.8     
  0.227      378.027    1          2          8.171845   3.199      
  1.69399    0.1736146  0.1736146  0.2875789  4.60174    6.994781   
  3.102      0.4043309  0.5565068  19.6725    0.3453465  0.2932006  
  0.3974924 
1172.9     
  0.227      378.644    1          2          8.260532   3.129      
  1.694423   0.1707882  0.1707882  0.2874429  4.079144   6.385141   
  3.096      0.3952049  0.5530094  19.7638    0.3534991  0.304324   
  0.4026743 
1173       
  0.226      381.7      1          2          8.357425   2.998      
  1.691113   0.1689116  0.1689116  0.2884832  3.765402   5.779669   
  3.067      0.3866545  0.5498813  19.85156   0.3623381  0.3169595  
  0.4077167 
1173.1     
  0.226      386.06     -9999      -9999      8.457341   2.849      
  1.684367   0.1681197  0.1681197  0.2906034  3.640342   5.215366   
  3.026      0.380237   0.5479795  19.92162   0.3711629  0.3305391  
  0.4117867 
1173.2     
  0.224      388.828    -9999      -9999      8.553443   2.761      
  1.674874   0.1684764  0.1684764  0.2935872  3.696156   4.724656   
  3.001      0.3789672  0.5492592  19.96112   0.3791236  0.3441488  
  0.4140984 
1173.3     
  0.223      386.409    -9999      -9999      8.638206   2.806      
  1.66355    0.1699847  0.1699847  0.2971464  3.941724   4.330309   
  3.023      0.3858777  0.5557259  19.96047   0.3853386  0.3566172  
  0.4140599 
1173.4     
  0.222      382.935    -9999      -9999      8.704678   2.884      
  1.651353   0.1725886  0.1725886  0.3009799  4.404714   4.04423    
  3.055      0.3969428  0.5641024  19.91532   0.3890646  0.3667101  
  0.4114191 
1173.5     
  0.222      377.283    -9999      -9999      8.747553   2.966      
  1.639098   0.1761809  0.1761809  0.3048316  5.134002   3.869812   
  3.109      0.4125168  0.5747049  19.82753   0.3898507  0.3733712  
  0.4063301 
1173.6     
  0.222      370.171    -9999      -9999      8.76395    3.075      
  1.627336   0.1806108  0.1806108  0.3085284  6.201666   3.805112   
  3.179      0.4310623  0.5865716  19.70461   0.3876291  0.3759506  
  0.3993075 
1173.7     
  0.223      365.143    -9999      -9999      8.753781   3.155      
  1.616326   0.1856917  0.1856917  0.3119889  7.702262   3.845106   
  3.231      0.4488571  0.5971507  19.55804   0.3827188  0.3743489  
  0.3910887 
1173.8     
  0.223      371.517    -9999      -9999      8.719421   3.114      
  1.60609    0.1912187  0.1912187  0.3152058  9.749706   3.983383   
  3.165      0.4575293  0.6002076  19.40067   0.3757187  0.3689871  
  0.3824502 
1173.9     
  0.223      382.308    -9999      -9999      8.664979   3.064      
  1.596496   0.1969991  0.1969991  0.3182213  12.47553   4.212729   
  3.061      0.4630664  0.6006085  19.24387   0.3673401  0.3606485  
  0.3740318 
1174       
  0.223      384.765    -9999      -9999      8.595445   2.998      
  1.587354   0.2028731  0.2028731  0.3210945  16.02731   4.524953   
  3.038      0.4747766  0.6059605  19.09517   0.3582466  0.3502716  
  0.3662215 
1174.1     
  0.222      385.545    -9999      -9999      8.515762   2.888      
  1.57851    0.2087253  0.2087253  0.3238742  20.57104   4.911303   
  3.031      0.4870707  0.6120353  18.95724   0.3489362  0.338747   
  0.3591254 
1174.2     
  0.222      383.288    1          2          8.429973   2.805      
  1.569903   0.2144853  0.2144853  0.3265795  26.29941   5.364217   
  3.052      0.5007092  0.6195258  18.82784   0.3396795  0.3267626  
  0.3525963 
1174.3     
  0.222      371.946    1          2          8.340876   2.814      
  1.561571   0.2201207  0.2201207  0.3291981  33.44475   5.878859   
  3.161      0.5198333  0.6318367  18.70088   0.3305376  0.3147648  
  0.3463103 
1174.4     
  0.221      355.55     1          2          8.250031   2.889      
  1.553669   0.2256122  0.2256122  0.3316818  42.27115   6.454456   
  3.334      0.5416343  0.6466978  18.56808   0.3214231  0.3029852  
  0.3398609 
