~Version
 VERS              .         2.0                           : CWLS LOG ASCII STANDARD - VERSION 2.0
 WRAP              .         YES                            : ONE LINE PER DEPTH STEP
 DLM               .         SPACE                         : DELIMITING CHARACTER(SPACE TAB OR COMMA)
~Well Information
#_______________________________________________________________________________
#
#PARAMETER_NAME    .UNIT     VALUE                         : DESCRIPTION
#_______________________________________________________________________________
STRT               .M        950.5                         : First reference value
STOP               .M        1284                          : Last reference value
STEP               .M        0.1                           : Step increment
NULL               .         -9999                         : Missing value
COMP               .                                       : Company
WELL               .         4779                          : Well name
FLD                .         Узень                         : Field
LOC                .                                       : Location
CNTY               .                                       : County
STAT               .                                       : State
CTRY               .                                       : Country
SRVC               .         SCH                           : Service Company
DATE               .         31.05.1990                    : Date
UWI                .                                       : Unique Well ID
Block              .         3а                            : 
Cartographic_reference_system .         GCS_WGS_1984                  : ESRI,PE_10_3_1- <?xml version="1.0" encoding="utf-16"?><ILateBoundCoordinateReferenceSystem name="GCS_WGS_1984"><AuthorityCode>EPSG,4326</AuthorityCode></ILateBoundCoordinateReferenceSystem>
Category           .         Нефтяная                      : 
Condition          .         В работе                      : 
EREF               .m        235.8                         : 100.8
Gorizont           .         15                            : 14
HZCS               .GCS_WGS_1984 WGS_1984_EASE-Grid_2.0_Global : ESRI,PE_10_3_1- <?xml version="1.0" encoding="utf-16"?><ILateBoundCoordinateReferenceSystem name="WGS_1984_EASE-Grid_2.0_Global"><AuthorityCode>EPSG,6933</AuthorityCode></ILateBoundCoordinateReferenceSystem>
Interpretator      .         Сагынбаева А.Н.               : 
Kupol              .         основной                      : osnovnoi
LATI               .dega     0.6302116892                  : GCS_WGS_1984
LONG               .dega     0.5730203284                  : GCS_WGS_1984
Mud                .         глинистый                     : 
Mud_density        .         1,18                          : 
Mud_resistivity    .         0                             : 
NGDU               .         НГДУ-1                        : 
ORIGINALWELLNAME   .         4779                          : 
Spud_date          .         1990                          : 1961
Viscosity          .         40                            : 
X                  .m        55288.6                       : 46154
Y                  .m        80396.6                       : 85761.93
YEAR               .         2018                          : 
~Parameter Information Block
#_______________________________________________________________________________
#
#PARAMETER_NAME    .UNIT     VALUE                         : DESCRIPTION
#_______________________________________________________________________________
SET                .         LQC_KAZNIPI_Petrel            : 
PBBOTTOM           .M        1284                          : Глубина подошвы планшета
PBSCALE            .         1 _ 500                       : Вертикальный масштаб планшета
PBTOP              .M        950                           : Глубина кровли планшета
TLFamily_CALI      .         Caliper                       : 
TLFamily_CILD      .         Conductivity                  : 
TLFamily_COLL      .         Net Reservoir Flag            : 
TLFamily_CSAT      .         Fluid Code                    : 
TLFamily_DEPT      .         Measured Depth                : 
TLFamily_GR        .         Russian Gamma Ray             : 
TLFamily_LLS       .         Lateral Log Resistivity       : 
TLFamily_NGLD      .         Neutron Gamma                 : 
TLFamily_PHIE      .         Effective Porosity            : 
TLFamily_PHIEN     .         Effective Porosity            : 
TLFamily_PHIT      .         Porosity                      : 
TLFamily_PRMB      .         Permeability                  : 
TLFamily_PRMB_DGR  .         Permeability                  : 
TLFamily_RT        .         Formation Resistivity         : 
TLFamily_SOIL_ARCHIE .         Oil Saturation                : 
TLFamily_SOIL_DW   .         Oil Saturation                : 
TLFamily_SP        .         Spontaneous Potential         : 
TLFamily_VSH_FIN   .         Shale Volume                  : 
TLFamily_VSH_GR    .         Shale Volume                  : 
TLFamily_VSH_SP    .         Shale Volume                  : 
~Curve Information
#_______________________________________________________________________________
#
#LOGNAME           .UNIT     LOG_ID                        : DESCRIPTION
#_______________________________________________________________________________
DEPT               .M                                      : Колонка глубины 
CALI               .м                                      : Каверномер 
CILD               .мСм/м                                  : Индукционный каротаж 
COLL               .unitless                               : Описание 
CSAT               .unitless                               :  
GR                 .uR/h                                   : Гамма каротаж 
LLS                .Ohmm                                   : Боковой каротаж 
NGLD               .у.е.                                   : Показания зонда НГК-60 аппаратуры ДРСТ-3-90 
PHIE               .v/v                                    : Описание 
PHIEN              .v/v                                    :  
PHIT               .v/v                                    : Описание 
PRMB               .mD                                     :  
PRMB_DGR           .mD                                     :  
RT                 .ohmm                                   : УЭС пласта 
SOIL_ARCHIE        .v/v                                    :  
SOIL_DW            .v/v                                    :  
SP                 .мВ                                     : Потенциал самополяризации 
VSH_FIN            .v/v                                    : Описание 
VSH_GR             .v/v                                    : Shale volume 
VSH_SP             .v/v                                    : Shale Volume 
~Ascii
# ...
975        
  0.217      455.377    1          3          2.021867   1.718      
  1.663776   0.2571395  0.2571395  0.2970753  162.1833   269.931    
  2.501      0.5253112  0.582363   13.48376   0.1210175  0.06597093 
  0.176064  
975.1      
  0.217      455.971    1          3          2.017265   1.702      
  1.6664     0.2561666  0.2561666  0.2962505  155.5912   271.38     
  2.498      0.523473   0.5807684  13.5388    0.1214663  0.06582686 
  0.1771058 
975.2000000000001 
  0.217      456.289    1          3          2.011875   1.691      
  1.674825   0.2533142  0.2533142  0.2936024  137.7688   273.0871   
  2.496      0.518622   0.5764179  13.61207   0.1220857  0.06565853 
  0.1785128 
975.3      
  0.217      455.609    1          3          2.006538   1.683      
  1.688468   0.2487781  0.2487781  0.2893145  113.5358   274.7881   
  2.5        0.5113539  0.5698698  13.69747   0.1228374  0.06549226 
  0.1801826 
975.4      
  0.217      454.45     1          3          2.001964   1.676      
  1.706388   0.2428697  0.2428697  0.2836822  88.24573   276.2542   
  2.507      0.5016707  0.5611264  13.78853   0.1236744  0.06535011 
  0.1819986 
975.5      
  0.217      452.214    1          3          1.998504   1.677      
  1.727346   0.2359971  0.2359971  0.277095   65.82594   277.3684   
  2.521      0.4903883  0.5509489  13.8788    0.1245391  0.06524278 
  0.1838354 
975.6      
  0.217      448.964    1          3          1.996174   1.691      
  1.749903   0.2286343  0.2286343  0.2700055  48.08611   278.1213   
  2.542      0.4781596  0.5399381  13.96215   0.1253674  0.06517062 
  0.1855643 
975.7000000000001 
  0.217      444.243    1          3          1.994849   1.748      
  1.772544   0.2212783  0.2212783  0.2628895  35.1373    278.5502   
  2.573      0.466128   0.5291439  14.03304   0.1260947  0.06512962 
  0.1870598 
975.8      
  0.217      438.383    1          3          1.994423   1.866      
  1.793817   0.2144046  0.2144046  0.2562032  26.20906   278.6884   
  2.612      0.4551118  0.5192968  14.08676   0.1266625  0.06511644 
  0.1882086 
975.9      
  0.217      429.77     1          3          1.994995   2.042      
  1.812461   0.2084253  0.2084253  0.2503436  20.30952   278.5032   
  2.673      0.4475395  0.5126294  14.11955   0.1270252  0.06513411 
  0.1889162 
976        
  0.217      420.459    1          3          1.996946   2.269      
  1.827471   0.2036643  0.2036643  0.2456257  16.57738   277.8716   
  2.741      0.4429145  0.5086201  14.12881   0.1271558  0.06519452 
  0.189117  
976.1      
  0.217      410.478    1          3          2.000775   2.534      
  1.838152   0.2003432  0.2003432  0.2422688  14.388     276.6366   
  2.818      0.4421793  0.5081074  14.11331   0.1270473  0.06531321 
  0.1887813 
976.2000000000001 
  0.217      394.568    1          3          2.006791   2.8        
  1.844139   0.1985723  0.1985723  0.2403871  13.34132   274.7073   
  2.95       0.4497963  0.5152534  14.07346   0.1267115  0.06550013 
  0.1879229 
976.3      
  0.217      381.367    1          3          2.014895   3.014      
  1.845418   0.1983471  0.1983471  0.2399851  13.21379   272.1293   
  3.07       0.4594612  0.5241342  14.01131   0.1261759  0.06575279 
  0.186599  
976.4      
  0.217      374.751    1          3          2.024515   3.165      
  1.842339   0.1995435  0.1995435  0.2409528  13.90555   269.1007   
  3.133      0.4673864  0.5312296  13.93085   0.1254827  0.06605397 
  0.1849114 
976.5      
  0.217      369.733    1          3          2.034721   3.241      
  1.835607   0.201922   0.201922   0.2430687  15.3902    265.9243   
  3.183      0.476757   0.5395801  13.8379    0.1246868  0.06637501 
  0.1829987 
976.6      
  0.217      367.368    1          3          2.044486   3.226      
  1.82621    0.2051512  0.2051512  0.2460221  17.66265   262.9205   
  3.208      0.4858286  0.5476095  13.73963   0.1238512  0.06668362 
  0.1810188 
976.7000000000001 
  0.217      367.645    1          3          2.052963   3.121      
  1.815326   0.2088384  0.2088384  0.249443   20.67056   260.3403   
  3.205      0.493522   0.5543617  13.64413   0.1230443  0.06695269 
  0.1791359 
976.8      
  0.217      370.02     1          3          2.059731   2.947      
  1.804142   0.2125873  0.2125873  0.2529582  24.25445   258.2984   
  3.18       0.499474   0.5595403  13.55965   0.1223361  0.06716831 
  0.1775038 
976.9      
  0.217      373.671    1          3          2.06488    2.739      
  1.793667   0.2160589  0.2160589  0.2562506  28.12505   256.7557   
  3.144      0.503842   0.5633227  13.49379   0.1217928  0.0673328  
  0.1762529 
977        
  0.217      378.369    1          3          2.069      2.518      
  1.784575   0.2190217  0.2190217  0.2591081  31.91326   255.5278   
  3.098      0.5062897  0.565411   13.45276   0.1214739  0.06746475 
  0.175483  
977.1      
  0.217      383.346    1          3          2.073049   2.326      
  1.777154   0.2213693  0.2213693  0.2614404  35.27403   254.3271   
  3.051      0.5073314  0.5662964  13.44081   0.1214275  0.06759462 
  0.1752603 
977.2000000000001 
  0.217      387.407    1          3          2.078147   2.17       
  1.771327   0.2231154  0.2231154  0.263272   38.00109   252.8231   
  3.014      0.5078814  0.5668391  13.4598    0.1216866  0.06775852 
  0.1756147 
977.3      
  0.217      390.594    1          3          2.085291   2.065      
  1.766792   0.2243504  0.2243504  0.2646972  40.05632   250.7305   
  2.985      0.5080146  0.5671059  13.50886   0.1222632  0.06798887 
  0.1765375 
977.4      
  0.217      393.665    1          3          2.09507    1.994      
  1.763201   0.2251891  0.2251891  0.2658259  41.5152    247.8942   
  2.958      0.5075155  0.566885   13.58437   0.1231418  0.06830546 
  0.1779782 
977.5      
  0.217      396.857    1          3          2.107432   1.948      
  1.760302   0.2257265  0.2257265  0.2667372  42.47762   244.3546   
  2.93       0.5063384  0.5661158  13.68018   0.1242748  0.06870776 
  0.1798419 
977.6      
  0.217      403.067    1          3          2.121618   1.91       
  1.757985   0.226023   0.226023   0.2674652  43.01814   240.3548   
  2.878      0.5027415  0.5631433  13.78823   0.1255824  0.06917236 
  0.1819925 
977.7000000000001 
  0.217      413.79     1          3          2.136336   1.874      
  1.756245   0.226116   0.226116   0.2680123  43.18913   236.2742   
  2.792      0.4957924  0.557065   13.89938   0.1269586  0.0696577  
  0.1842594 
977.8      
  0.217      428.39     1          3          2.150152   1.841      
  1.755049   0.2260542  0.2260542  0.2683879  43.07553   232.5067   
  2.682      0.4860695  0.5483848  14.00434   0.128284   0.0701164  
  0.1864517 
977.9      
  0.217      440.405    1          3          2.161973   1.811      
  1.75422    0.2259323  0.2259323  0.2686485  42.8521    229.331    
  2.599      0.4781867  0.5413816  14.09449   0.1294431  0.07051127 
  0.1883749 
978        
  0.217      450.071    1          3          2.171408   1.785      
  1.753359   0.2259072  0.2259072  0.2689191  42.80621   226.8274   
  2.535      0.4719944  0.5358757  14.16248   0.1303393  0.07082801 
  0.1898505 
978.1      
  0.217      456.671    1          3          2.178888   1.754      
  1.751893   0.2261811  0.2261811  0.26938    43.30922   224.8622   
  2.493      0.4684     0.532684   14.2026    0.1309057  0.07108014 
  0.1907313 
978.2000000000001 
  0.217      459.768    1          3          2.185517   1.722      
  1.749183   0.2269654  0.2269654  0.2702318  44.78254   223.1348   
  2.474      0.4680942  0.5324321  14.21098   0.1311103  0.07130432 
  0.1909163 
978.3      
  0.217      459.969    1          3          2.19267    1.696      
  1.744685   0.2284301  0.2284301  0.2716454  47.66914   221.2856   
  2.473      0.4709654  0.5350109  14.18591   0.1309555  0.07154703 
  0.1903641 
978.4      
  0.217      463.481    1          3          2.201525   1.67       
  1.738124   0.2306508  0.2306508  0.2737076  52.40462   219.0174   
  2.452      0.4733008  0.5369572  14.12812   0.1304754  0.07184865 
  0.1891021 
