~Version
 VERS              .         2.0                           : CWLS LOG ASCII STANDARD - VERSION 2.0
 WRAP              .         YES                            : ONE LINE PER DEPTH STEP
 DLM               .         SPACE                         : DELIMITING CHARACTER(SPACE TAB OR COMMA)
~Well Information
#_______________________________________________________________________________
#
#PARAMETER_NAME    .UNIT     VALUE                         : DESCRIPTION
#_______________________________________________________________________________
STRT               .M        950.5                         : First reference value
STOP               .M        1284                          : Last reference value
STEP               .M        0.1                           : Step increment
NULL               .         -9999                         : Missing value
COMP               .                                       : Company
WELL               .         4779                          : Well name
FLD                .         Узень                         : Field
LOC                .                                       : Location
CNTY               .                                       : County
STAT               .                                       : State
CTRY               .                                       : Country
SRVC               .         SCH                           : Service Company
DATE               .         31.05.1990                    : Date
UWI                .                                       : Unique Well ID
Block              .         3а                            : 
Cartographic_reference_system .         GCS_WGS_1984                  : ESRI,PE_10_3_1- <?xml version="1.0" encoding="utf-16"?><ILateBoundCoordinateReferenceSystem name="GCS_WGS_1984"><AuthorityCode>EPSG,4326</AuthorityCode></ILateBoundCoordinateReferenceSystem>
Category           .         Нефтяная                      : 
Condition          .         В работе                      : 
EREF               .m        235.8                         : 100.8
Gorizont           .         15                            : 14
HZCS               .GCS_WGS_1984 WGS_1984_EASE-Grid_2.0_Global : ESRI,PE_10_3_1- <?xml version="1.0" encoding="utf-16"?><ILateBoundCoordinateReferenceSystem name="WGS_1984_EASE-Grid_2.0_Global"><AuthorityCode>EPSG,6933</AuthorityCode></ILateBoundCoordinateReferenceSystem>
Interpretator      .         Сагынбаева А.Н.               : 
Kupol              .         основной                      : osnovnoi
LATI               .dega     0.6302116892                  : GCS_WGS_1984
LONG               .dega     0.5730203284                  : GCS_WGS_1984
Mud                .         глинистый                     : 
Mud_density        .         1,18                          : 
Mud_resistivity    .         0                             : 
NGDU               .         НГДУ-1                        : 
ORIGINALWELLNAME   .         4779                          : 
Spud_date          .         1990                          : 1961
Viscosity          .         40                            : 
X                  .m        55288.6                       : 46154
Y                  .m        80396.6                       : 85761.93
YEAR               .         2018                          : 
~Parameter Information Block
#_______________________________________________________________________________
#
#PARAMETER_NAME    .UNIT     VALUE                         : DESCRIPTION
#_______________________________________________________________________________
SET                .         LQC_KAZNIPI_Petrel            : 
PBBOTTOM           .M        1284                          : Глубина подошвы планшета
PBSCALE            .         1 _ 500                       : Вертикальный масштаб планшета
PBTOP              .M        950                           : Глубина кровли планшета
TLFamily_CALI      .         Caliper                       : 
TLFamily_CILD      .         Conductivity                  : 
TLFamily_COLL      .         Net Reservoir Flag            : 
TLFamily_CSAT      .         Fluid Code                    : 
TLFamily_DEPT      .         Measured Depth                : 
TLFamily_GR        .         Russian Gamma Ray             : 
TLFamily_LLS       .         Lateral Log Resistivity       : 
TLFamily_NGLD      .         Neutron Gamma                 : 
TLFamily_PHIE      .         Effective Porosity            : 
TLFamily_PHIEN     .         Effective Porosity            : 
TLFamily_PHIT      .         Porosity                      : 
TLFamily_PRMB      .         Permeability                  : 
TLFamily_PRMB_DGR  .         Permeability                  : 
TLFamily_RT        .         Formation Resistivity         : 
TLFamily_SOIL_ARCHIE .         Oil Saturation                : 
TLFamily_SOIL_DW   .         Oil Saturation                : 
TLFamily_SP        .         Spontaneous Potential         : 
TLFamily_VSH_FIN   .         Shale Volume                  : 
TLFamily_VSH_GR    .         Shale Volume                  : 
TLFamily_VSH_SP    .         Shale Volume                  : 
~Curve Information
#_______________________________________________________________________________
#
#LOGNAME           .UNIT     LOG_ID                        : DESCRIPTION
#_______________________________________________________________________________
DEPT               .M                                      : Колонка глубины 
CALI               .м                                      : Каверномер 
CILD               .мСм/м                                  : Индукционный каротаж 
COLL               .unitless                               : Описание 
CSAT               .unitless                               :  
GR                 .uR/h                                   : Гамма каротаж 
LLS                .Ohmm                                   : Боковой каротаж 
NGLD               .у.е.                                   : Показания зонда НГК-60 аппаратуры ДРСТ-3-90 
PHIE               .v/v                                    : Описание 
PHIEN              .v/v                                    :  
PHIT               .v/v                                    : Описание 
PRMB               .mD                                     :  
PRMB_DGR           .mD                                     :  
RT                 .ohmm                                   : УЭС пласта 
SOIL_ARCHIE        .v/v                                    :  
SOIL_DW            .v/v                                    :  
SP                 .мВ                                     : Потенциал самополяризации 
VSH_FIN            .v/v                                    : Описание 
VSH_GR             .v/v                                    : Shale volume 
VSH_SP             .v/v                                    : Shale Volume 
~Ascii
# ...
1104.5     
  0.245      485.649    -9999      -9999      8.08756    1.859      
  1.364638   0.2025787  0.2025787  0.3910942  15.8273    1.723104   
  2.325      0.3953705  0.5943478  20.78651   0.571259   0.5195415  
  0.6229765 
1104.6     
  0.245      484.849    -9999      -9999      8.111341   1.854      
  1.363449   0.2025045  0.2025045  0.3914679  15.77727   1.696481   
  2.33       0.3957869  0.5949628  20.77234   0.5726165  0.5228555  
  0.6223776 
1104.7     
  0.245      483.39     -9999      -9999      8.126901   1.859      
  1.362819   0.2025805  0.2025805  0.3916658  15.82854   1.679283   
  2.338      0.3969553  0.5958404  20.73821   0.5729858  0.5250353  
  0.6209363 
1104.8     
  0.245      481.33     -9999      -9999      8.134037   1.887      
  1.362733   0.2027847  0.2027847  0.3916931  15.96695   1.671454   
  2.349      0.3988097  0.5969623  20.68896   0.5724497  0.5260381  
  0.6188614 
1104.9     
  0.245      479.596    -9999      -9999      8.132559   1.933      
  1.363271   0.2030592  0.2030592  0.3915239  16.15503   1.673074   
  2.359      0.4007136  0.5979219  20.62987   0.571105   0.5258302  
  0.6163798 
1105       
  0.245      478.575    -9999      -9999      8.12243    1.972      
  1.364524   0.203336   0.203336   0.3911302  16.34688   1.684207   
  2.364      0.4020187  0.598312   20.56676   0.5690733  0.524408   
  0.6137385 
1105.1     
  0.245      478.444    -9999      -9999      8.103913   2.004      
  1.366501   0.2035603  0.2035603  0.3905087  16.50398   1.704751   
  2.365      0.402711   0.5981777  20.50594   0.5665102  0.5218182  
  0.6112022 
1105.2     
  0.245      479.82     -9999      -9999      8.077674   2.02       
  1.369095   0.2037021  0.2037021  0.3896936  16.60407   1.734294   
  2.357      0.4021232  0.5970903  20.45419   0.5636106  0.5181701  
  0.6090512 
1105.3     
  0.245      481.909    -9999      -9999      8.044648   1.989      
  1.372086   0.2037587  0.2037587  0.3887532  16.6442    1.772207   
  2.346      0.4009543  0.5955933  20.41834   0.5605896  0.5136146  
  0.6075646 
1105.4     
  0.244      483.587    -9999      -9999      8.00561    1.933      
  1.375226   0.2037456  0.2037456  0.3877665  16.63492   1.818093   
  2.337      0.3998392  0.5941751  20.40463   0.5576392  0.5082814  
  0.6069971 
1105.5     
  0.243      484.188    -9999      -9999      7.960797   1.905      
  1.378354   0.2036712  0.2036712  0.3867835  16.58226   1.872232   
  2.333      0.3991656  0.5931389  20.41783   0.5548855  0.5022277  
  0.6075433 
1105.6     
  0.242      483.272    -9999      -9999      7.909748   1.891      
  1.381499   0.2035141  0.2035141  0.3857949  16.47148   1.935873   
  2.338      0.3993653  0.592816   20.46051   0.5523662  0.4954191  
  0.6093132 
1105.7     
  0.241      479.536    -9999      -9999      7.851385   1.896      
  1.384902   0.2032145  0.2032145  0.3847252  16.26233   2.011286   
  2.359      0.4011123  0.5937114  20.5327    0.5500326  0.4877482  
  0.6123168 
1105.8     
  0.241      473.794    -9999      -9999      7.784452   1.93       
  1.388972   0.2026788  0.2026788  0.3834462  15.89502   2.101394   
  2.391      0.4035174  0.5952021  20.63185   0.54778    0.4790972  
  0.6164628 
1105.9     
  0.241      466.687    -9999      -9999      7.70841    2.018      
  1.394179   0.2017899  0.2017899  0.3818094  15.30371   2.208676   
  2.433      0.4061025  0.5969725  20.75329   0.5455136  0.4694546  
  0.6215726 
1106       
  0.241      459.203    -9999      -9999      7.624273   2.127      
  1.4009     0.2004388  0.2004388  0.3796971  14.44676   2.333772   
  2.478      0.4077327  0.5982441  20.89081   0.543207   0.4590116  
  0.6274024 
1106.1     
  0.242      452.06     -9999      -9999      7.535218   2.26       
  1.409262   0.1985581  0.1985581  0.3770689  13.33323   2.473907   
  2.522      0.4077615  0.5986012  21.03754   0.540942   0.4482111  
  0.633673  
1106.2     
  0.241      445.821    -9999      -9999      7.446724   2.397      
  1.41905    0.1961512  0.1961512  0.3739926  12.03244   2.621492   
  2.563      0.4059497  0.5979241  21.18658   0.5389132  0.4377305  
  0.640096  
1106.3     
  0.241      441.005    -9999      -9999      7.365936   2.522      
  1.429672   0.1933156  0.1933156  0.3706539  10.66183   2.763901   
  2.595      0.4018605  0.5959347  21.33167   0.537389   0.4283766  
  0.6464013 
1106.4     
  0.239      438.419    -9999      -9999      7.300518   2.599      
  1.440223   0.190242   0.190242   0.3673379  9.351949   2.884867   
  2.612      0.3953085  0.5925052  21.46768   0.5366539  0.4209489  
  0.652359  
1106.5     
  0.237      437.738    -9999      -9999      7.257287   2.611      
  1.449641   0.1871825  0.1871825  0.3643779  8.207911   2.967699   
  2.617      0.3872594  0.5882952  21.591     0.5369556  0.4161112  
  0.6578001 
1106.6     
  0.234      438.935    -9999      -9999      7.240967   2.569      
  1.456926   0.1843951  0.1843951  0.3620882  7.287915   2.999582   
  2.609      0.3783075  0.5836599  21.69971   0.5384637  0.4142994  
  0.6626281 
1106.7     
  0.232      441.343    -9999      -9999      7.253484   2.487      
  1.46137    0.1820774  0.1820774  0.3606913  6.601959   2.975097   
  2.592      0.3694893  0.5792566  21.79358   0.5412544  0.4156883  
  0.6668205 
1106.8     
  0.231      443.621    -9999      -9999      7.294071   2.379      
  1.462733   0.1803072  0.1803072  0.3602632  6.121879   2.897073   
  2.577      0.3623672  0.5761349  21.87375   0.5453211  0.4202239  
  0.6704183 
1106.9     
  0.23       444.938    -9999      -9999      7.359969   2.268      
  1.461319   0.1790104  0.1790104  0.3607074  5.792483   2.774723   
  2.568      0.3572917  0.574537   21.94215   0.550597   0.4276937  
  0.6735004 
1107       
  0.23       444.012    -9999      -9999      7.447348   2.19       
  1.457925   0.1779704  0.1779704  0.3617741  5.541164   2.620422   
  2.575      0.3548464  0.5749406  22.00093   0.5569811  0.4378035  
  0.6761588 
1107.1     
  0.231      437.105    -9999      -9999      7.552241   2.146      
  1.453661   0.1768739  0.1768739  0.3631143  5.287999   2.446484   
  2.621      0.3567316  0.5786533  22.05197   0.5643649  0.4502558  
  0.6784739 
1107.2     
  0.233      423.668    -9999      -9999      7.671149   2.143      
  1.449746   0.1753686  0.1753686  0.3643447  4.959183   2.263227   
  2.717      0.3627733  0.5856802  22.09671   0.5726548  0.4648007  
  0.6805088 
1107.3     
  0.235      414.041    -9999      -9999      7.801182   2.181      
  1.447293   0.1731271  0.1731271  0.3651158  4.507049   2.0785     
  2.79       0.3635615  0.5896696  22.1365    0.5817838  0.481245   
  0.6823225 
1107.4     
  0.237      411.545    -9999      -9999      7.939772   2.244      
  1.447149   0.1698997  0.1698997  0.3651609  3.927469   1.898185   
  2.809      0.3551019  0.5881667  22.17298   0.5917007  0.4994122  
  0.6839893 
1107.5     
  0.238      412.287    -9999      -9999      8.084235   2.268      
  1.44981    0.1655502  0.1655502  0.3643249  3.262488   1.72686    
  2.804      0.339818   0.5831575  22.2085    0.6023476  0.5190799  
  0.6856152 
1107.6     
  0.238      418.015    -9999      -9999      8.231415   2.284      
  1.4554     0.1600698  0.1600698  0.3625678  2.582489   1.568205   
  2.759      0.3149938  0.5731542  22.24626   0.6136305  0.5399141  
  0.6873469 
1107.7     
  0.237      429.745    -9999      -9999      8.377625   2.279      
  1.463673   0.1535867  0.1535867  0.3599677  1.958647   1.425032   
  2.673      0.2792466  0.5576364  22.28995   0.6253971  0.5614388  
  0.6893554 
1107.8     
  0.236      437.899    -9999      -9999      8.518955   2.259      
  1.474036   0.1463591  0.1463591  0.3567106  1.439073   1.299074   
  2.616      0.2407023  0.5422224  22.34293   0.6374288  0.5830606  
  0.6917971 
1107.9     
  0.235      439.793    -9999      -9999      8.652046   2.235      
  1.485589   0.138752   0.138752   0.3530793  1.040357   1.190656   
  2.603      0.2027101  0.5290281  22.40724   0.6494766  0.6041825  
  0.6947709 
