~Version
 VERS              .         2.0                           : CWLS LOG ASCII STANDARD - VERSION 2.0
 WRAP              .         YES                            : ONE LINE PER DEPTH STEP
 DLM               .         SPACE                         : DELIMITING CHARACTER(SPACE TAB OR COMMA)
~Well Information
#_______________________________________________________________________________
#
#PARAMETER_NAME    .UNIT     VALUE                         : DESCRIPTION
#_______________________________________________________________________________
STRT               .M        950.5                         : First reference value
STOP               .M        1284                          : Last reference value
STEP               .M        0.1                           : Step increment
NULL               .         -9999                         : Missing value
COMP               .                                       : Company
WELL               .         4779                          : Well name
FLD                .         Узень                         : Field
LOC                .                                       : Location
CNTY               .                                       : County
STAT               .                                       : State
CTRY               .                                       : Country
SRVC               .         SCH                           : Service Company
DATE               .         31.05.1990                    : Date
UWI                .                                       : Unique Well ID
Block              .         3а                            : 
Cartographic_reference_system .         GCS_WGS_1984                  : ESRI,PE_10_3_1- <?xml version="1.0" encoding="utf-16"?><ILateBoundCoordinateReferenceSystem name="GCS_WGS_1984"><AuthorityCode>EPSG,4326</AuthorityCode></ILateBoundCoordinateReferenceSystem>
Category           .         Нефтяная                      : 
Condition          .         В работе                      : 
EREF               .m        235.8                         : 100.8
Gorizont           .         15                            : 14
HZCS               .GCS_WGS_1984 WGS_1984_EASE-Grid_2.0_Global : ESRI,PE_10_3_1- <?xml version="1.0" encoding="utf-16"?><ILateBoundCoordinateReferenceSystem name="WGS_1984_EASE-Grid_2.0_Global"><AuthorityCode>EPSG,6933</AuthorityCode></ILateBoundCoordinateReferenceSystem>
Interpretator      .         Сагынбаева А.Н.               : 
Kupol              .         основной                      : osnovnoi
LATI               .dega     0.6302116892                  : GCS_WGS_1984
LONG               .dega     0.5730203284                  : GCS_WGS_1984
Mud                .         глинистый                     : 
Mud_density        .         1,18                          : 
Mud_resistivity    .         0                             : 
NGDU               .         НГДУ-1                        : 
ORIGINALWELLNAME   .         4779                          : 
Spud_date          .         1990                          : 1961
Viscosity          .         40                            : 
X                  .m        55288.6                       : 46154
Y                  .m        80396.6                       : 85761.93
YEAR               .         2018                          : 
~Parameter Information Block
#_______________________________________________________________________________
#
#PARAMETER_NAME    .UNIT     VALUE                         : DESCRIPTION
#_______________________________________________________________________________
SET                .         LQC_KAZNIPI_Petrel            : 
PBBOTTOM           .M        1284                          : Глубина подошвы планшета
PBSCALE            .         1 _ 500                       : Вертикальный масштаб планшета
PBTOP              .M        950                           : Глубина кровли планшета
TLFamily_CALI      .         Caliper                       : 
TLFamily_CILD      .         Conductivity                  : 
TLFamily_COLL      .         Net Reservoir Flag            : 
TLFamily_CSAT      .         Fluid Code                    : 
TLFamily_DEPT      .         Measured Depth                : 
TLFamily_GR        .         Russian Gamma Ray             : 
TLFamily_LLS       .         Lateral Log Resistivity       : 
TLFamily_NGLD      .         Neutron Gamma                 : 
TLFamily_PHIE      .         Effective Porosity            : 
TLFamily_PHIEN     .         Effective Porosity            : 
TLFamily_PHIT      .         Porosity                      : 
TLFamily_PRMB      .         Permeability                  : 
TLFamily_PRMB_DGR  .         Permeability                  : 
TLFamily_RT        .         Formation Resistivity         : 
TLFamily_SOIL_ARCHIE .         Oil Saturation                : 
TLFamily_SOIL_DW   .         Oil Saturation                : 
TLFamily_SP        .         Spontaneous Potential         : 
TLFamily_VSH_FIN   .         Shale Volume                  : 
TLFamily_VSH_GR    .         Shale Volume                  : 
TLFamily_VSH_SP    .         Shale Volume                  : 
~Curve Information
#_______________________________________________________________________________
#
#LOGNAME           .UNIT     LOG_ID                        : DESCRIPTION
#_______________________________________________________________________________
DEPT               .M                                      : Колонка глубины 
CALI               .м                                      : Каверномер 
CILD               .мСм/м                                  : Индукционный каротаж 
COLL               .unitless                               : Описание 
CSAT               .unitless                               :  
GR                 .uR/h                                   : Гамма каротаж 
LLS                .Ohmm                                   : Боковой каротаж 
NGLD               .у.е.                                   : Показания зонда НГК-60 аппаратуры ДРСТ-3-90 
PHIE               .v/v                                    : Описание 
PHIEN              .v/v                                    :  
PHIT               .v/v                                    : Описание 
PRMB               .mD                                     :  
PRMB_DGR           .mD                                     :  
RT                 .ohmm                                   : УЭС пласта 
SOIL_ARCHIE        .v/v                                    :  
SOIL_DW            .v/v                                    :  
SP                 .мВ                                     : Потенциал самополяризации 
VSH_FIN            .v/v                                    : Описание 
VSH_GR             .v/v                                    : Shale volume 
VSH_SP             .v/v                                    : Shale Volume 
~Ascii
# ...
1258.5     
  0.221      193.946    1          2          6.540948   12.55      
  1.729096   0.221241   0.221241   0.276545   35.08145   37.41382   
  7.228      0.6803724  0.7350461  16.78451   0.1675881  0.1478403  
  0.187336  
1258.6     
  0.222      190.252    1          2          6.524271   12.377     
  1.73374    0.219608   0.219608   0.2750855  32.72139   38.06095   
  7.427      0.6823774  0.7369964  16.857     0.1681135  0.1468087  
  0.1894183 
1258.7     
  0.222      186.888    1          2          6.516727   12.205     
  1.738732   0.217711   0.217711   0.2735165  30.17825   38.35729   
  7.617      0.6837395  0.7384792  16.9405    0.1691077  0.1463444  
  0.191871  
1258.8     
  0.222      182.983    1          2          6.5162     11.994     
  1.743738   0.2157117  0.2157117  0.2719431  27.71163   38.37809   
  7.851      0.6856829  0.7405348  17.02735   0.1703983  0.146312   
  0.1944845 
1258.9     
  0.222      178.988    1          2          6.520101   12.047     
  1.748417   0.2137806  0.2137806  0.2704726  25.5208    38.22449   
  8.105      0.6879096  0.7428547  17.11012   0.1717937  0.1465518  
  0.1970356 
1259       
  0.222      176.387    1          2          6.525856   12.345     
  1.752454   0.2120796  0.2120796  0.2692036  23.73488   37.99892   
  8.279      0.6888476  0.7440152  17.18202   0.1731029  0.1469065  
  0.1992994 
1259.1     
  0.222      177.313    1          2          6.531357   12.515     
  1.755594   0.210746   0.210746   0.2682169  22.42258   37.78461   
  8.216      0.6860099  0.7418016  17.23702   0.1741541  0.1472461  
  0.2010621 
1259.2     
  0.222      177.561    1          2          6.53526    12.555     
  1.757649   0.209882   0.209882   0.267571   21.61131   37.6333    
  8.2        0.6845959  0.7407393  17.27034   0.1748152  0.1474876  
  0.2021428 
1259.3     
  0.222      177.169    1          2          6.537016   12.174     
  1.758525   0.2095436  0.2095436  0.2672955  21.30171   37.56539   
  8.226      0.6846213  0.7408186  17.2787    0.1750058  0.1475964  
  0.2024153 
1259.4     
  0.222      176.402    1          2          6.536767   11.684     
  1.758259   0.2097266  0.2097266  0.2673793  21.46855   37.57503   
  8.278      0.6857914  0.741776   17.26071   0.1747051  0.1475809  
  0.2018293 
1259.5     
  0.221      175.192    1          2          6.535161   11.16      
  1.757037   0.210359   0.210359   0.2677631  22.05549   37.63713   
  8.362      0.6880956  0.7436162  17.21716   0.173952   0.1474815  
  0.2004226 
1259.6     
  0.221      173.199    1          2          6.533258   10.829     
  1.755145   0.2113201  0.2113201  0.2683579  22.97837   37.71082   
  8.504      0.6917767  0.7465809  17.15108   0.1728418  0.1473637  
  0.1983199 
1259.7     
  0.221      170.164    1          2          6.532464   10.614     
  1.752893   0.2124651  0.2124651  0.2690657  24.12835   37.74163   
  8.729      0.6969603  0.7508194  17.06764   0.1715168  0.1473146  
  0.195719  
1259.8     
  0.221      167.527    1          2          6.534509   10.781     
  1.750531   0.2136571  0.2136571  0.269808   25.38671   37.66235   
  8.935      0.7017162  0.7546822  16.97385   0.1701541  0.1474411  
  0.192867  
1259.9     
  0.221      167.09     1          2          6.541288   10.956     
  1.748157   0.214802   0.214802   0.2705542  26.65701   37.40073   
  8.97       0.7036455  0.7561042  16.87806   0.1689464  0.1478614  
  0.1900313 
1260       
  0.221      167.531    1          2          6.554502   11.176     
  1.745719   0.2158543  0.2158543  0.2713206  27.88067   36.89603   
  8.934      0.7043468  0.7565167  16.78941   0.1680796  0.148684   
  0.1874753 
1260.1     
  0.221      169.015    1          2          6.575094   11.627     
  1.743094   0.2168023  0.2168023  0.2721456  29.03106   36.12299   
  8.817      0.7036455  0.7557893  16.7171    0.1677068  0.1499751  
  0.1854386 
1260.2     
  0.222      171.195    1          2          6.602731   12.244     
  1.740188   0.217644   0.217644   0.2730588  30.09208   35.11091   
  8.651      0.7019978  0.7543368  16.66954   0.1679237  0.1517255  
  0.184122  
1260.3     
  0.222      173.287    1          2          6.63547    12.921     
  1.73703    0.2183626  0.2183626  0.2740514  31.02863   33.94863   
  8.497      0.7003369  0.7529835  16.65351   0.168754   0.1538255  
  0.1836825 
1260.4     
  0.222      173.006    1          2          6.669894   13.596     
  1.733814   0.2189142  0.2189142  0.2750624  31.76724   32.768     
  8.518      0.7013408  0.7540738  16.67336   0.1701461  0.1560649  
  0.1842272 
1260.5     
  0.222      170.902    1          2          6.701726   14.285     
  1.730855   0.2192372  0.2192372  0.2759924  32.20795   31.71285   
  8.673      0.7042376  0.7569062  16.73027   0.1719855  0.1581648  
  0.1858062 
1260.6     
  0.222      166.302    1          2          6.726809   14.721     
  1.728504   0.219271   0.219271   0.2767311  32.25441   30.90542   
  9.034      0.7098827  0.7621942  16.82186   0.1741214  0.1598392  
  0.1884035 
1260.7     
  0.222      165.013    1          2          6.742131   14.944     
  1.727042   0.2189795  0.2189795  0.2771908  31.8559    30.42231   
  9.14       0.7111319  0.7636694  16.94232   0.1763979  0.1608708  
  0.191925  
1260.8     
  0.222      163.727    1          2          6.746577   15.021     
  1.726598   0.2183657  0.2183657  0.2773302  31.03271   30.28355   
  9.249      0.7120312  0.764854   17.08288   0.1786805  0.1611714  
  0.1961895 
1260.9     
  0.221      161.673    1          2          6.741097   14.946     
  1.72709    0.2174907  0.2174907  0.2771758  29.89609   30.45465   
  9.428      0.7136104  0.7666252  17.23282   0.1808637  0.1608011  
  0.2009263 
1261       
  0.221      160.452    1          2          6.728406   14.706     
  1.728212   0.2164757  0.2164757  0.2768229  28.62948   30.85469   
  9.538      0.7140021  0.7673435  17.38074   0.1828703  0.1599465  
  0.2057941 
1261.1     
  0.221      160.262    1          2          6.712214   14.481     
  1.729501   0.2154872  0.2154872  0.2764178  27.44753   31.37267   
  9.555      0.7130997  0.7669026  17.51588   0.1846384  0.1588628  
  0.2104139 
1261.2     
  0.22       161.724    1          2          6.696383   14.342     
  1.730417   0.2147121  0.2147121  0.2761298  26.5551    31.88755   
  9.423      0.710313   0.7647758  17.62921   0.1861142  0.1578103  
  0.214418  
1261.3     
  0.221      160.818    1          2          6.684227   14.367     
  1.730474   0.214318   0.214318   0.2761121  26.11248   32.28864   
  9.504      0.7110122  0.7655893  17.71428   0.1872547  0.1570069  
  0.2175025 
1261.4     
  0.221      159.6      1          2          6.678101   14.516     
  1.729378   0.2144041  0.2144041  0.2764565  26.20851   32.49266   
  9.616      0.7126971  0.7671655  17.76763   0.1880377  0.1566036  
  0.2194717 
1261.5     
  0.22       158.599    1          2          6.679288   14.7       
  1.727116   0.214972   0.214972   0.2771675  26.85109   32.45302   
  9.709      0.71465    0.7688852  17.7888    0.1884711  0.1566817  
  0.2202606 
1261.6     
  0.22       158.218    1          2          6.687966   14.946     
  1.723974   0.2159185  0.2159185  0.2781551  27.95707   32.16472   
  9.745      0.7162329  0.7702128  17.78015   0.1885957  0.1572537  
  0.2199378 
1261.7     
  0.22       158.419    1          2          6.703265   15.316     
  1.720479   0.2170558  0.2170558  0.2792534  29.34667   31.66269   
  9.726      0.7172696  0.7710205  17.74648   0.1884775  0.158267   
  0.218688  
1261.8     
  0.22       159.383    1          2          6.723475   15.765     
  1.717247   0.2181645  0.2181645  0.2802692  30.76764   31.01151   
  9.636      0.7172907  0.7709295  17.69442   0.188196   0.1596157  
  0.2167762 
1261.9     
  0.22       160.051    1          2          6.74629    16.335     
  1.714812   0.2190494  0.2190494  0.2810345  31.95105   30.29248   
  9.574      0.7174311  0.7709431  17.63192   0.1878335  0.161152   
  0.214515  
