~Version
 VERS              .         2.0                           : CWLS LOG ASCII STANDARD - VERSION 2.0
 WRAP              .         YES                            : ONE LINE PER DEPTH STEP
 DLM               .         SPACE                         : DELIMITING CHARACTER(SPACE TAB OR COMMA)
~Well Information
#_______________________________________________________________________________
#
#PARAMETER_NAME    .UNIT     VALUE                         : DESCRIPTION
#_______________________________________________________________________________
STRT               .M        950.5                         : First reference value
STOP               .M        1284                          : Last reference value
STEP               .M        0.1                           : Step increment
NULL               .         -9999                         : Missing value
COMP               .                                       : Company
WELL               .         4779                          : Well name
FLD                .         Узень                         : Field
LOC                .                                       : Location
CNTY               .                                       : County
STAT               .                                       : State
CTRY               .                                       : Country
SRVC               .         SCH                           : Service Company
DATE               .         31.05.1990                    : Date
UWI                .                                       : Unique Well ID
Block              .         3а                            : 
Cartographic_reference_system .         GCS_WGS_1984                  : ESRI,PE_10_3_1- <?xml version="1.0" encoding="utf-16"?><ILateBoundCoordinateReferenceSystem name="GCS_WGS_1984"><AuthorityCode>EPSG,4326</AuthorityCode></ILateBoundCoordinateReferenceSystem>
Category           .         Нефтяная                      : 
Condition          .         В работе                      : 
EREF               .m        235.8                         : 100.8
Gorizont           .         15                            : 14
HZCS               .GCS_WGS_1984 WGS_1984_EASE-Grid_2.0_Global : ESRI,PE_10_3_1- <?xml version="1.0" encoding="utf-16"?><ILateBoundCoordinateReferenceSystem name="WGS_1984_EASE-Grid_2.0_Global"><AuthorityCode>EPSG,6933</AuthorityCode></ILateBoundCoordinateReferenceSystem>
Interpretator      .         Сагынбаева А.Н.               : 
Kupol              .         основной                      : osnovnoi
LATI               .dega     0.6302116892                  : GCS_WGS_1984
LONG               .dega     0.5730203284                  : GCS_WGS_1984
Mud                .         глинистый                     : 
Mud_density        .         1,18                          : 
Mud_resistivity    .         0                             : 
NGDU               .         НГДУ-1                        : 
ORIGINALWELLNAME   .         4779                          : 
Spud_date          .         1990                          : 1961
Viscosity          .         40                            : 
X                  .m        55288.6                       : 46154
Y                  .m        80396.6                       : 85761.93
YEAR               .         2018                          : 
~Parameter Information Block
#_______________________________________________________________________________
#
#PARAMETER_NAME    .UNIT     VALUE                         : DESCRIPTION
#_______________________________________________________________________________
SET                .         LQC_KAZNIPI_Petrel            : 
PBBOTTOM           .M        1284                          : Глубина подошвы планшета
PBSCALE            .         1 _ 500                       : Вертикальный масштаб планшета
PBTOP              .M        950                           : Глубина кровли планшета
TLFamily_CALI      .         Caliper                       : 
TLFamily_CILD      .         Conductivity                  : 
TLFamily_COLL      .         Net Reservoir Flag            : 
TLFamily_CSAT      .         Fluid Code                    : 
TLFamily_DEPT      .         Measured Depth                : 
TLFamily_GR        .         Russian Gamma Ray             : 
TLFamily_LLS       .         Lateral Log Resistivity       : 
TLFamily_NGLD      .         Neutron Gamma                 : 
TLFamily_PHIE      .         Effective Porosity            : 
TLFamily_PHIEN     .         Effective Porosity            : 
TLFamily_PHIT      .         Porosity                      : 
TLFamily_PRMB      .         Permeability                  : 
TLFamily_PRMB_DGR  .         Permeability                  : 
TLFamily_RT        .         Formation Resistivity         : 
TLFamily_SOIL_ARCHIE .         Oil Saturation                : 
TLFamily_SOIL_DW   .         Oil Saturation                : 
TLFamily_SP        .         Spontaneous Potential         : 
TLFamily_VSH_FIN   .         Shale Volume                  : 
TLFamily_VSH_GR    .         Shale Volume                  : 
TLFamily_VSH_SP    .         Shale Volume                  : 
~Curve Information
#_______________________________________________________________________________
#
#LOGNAME           .UNIT     LOG_ID                        : DESCRIPTION
#_______________________________________________________________________________
DEPT               .M                                      : Колонка глубины 
CALI               .м                                      : Каверномер 
CILD               .мСм/м                                  : Индукционный каротаж 
COLL               .unitless                               : Описание 
CSAT               .unitless                               :  
GR                 .uR/h                                   : Гамма каротаж 
LLS                .Ohmm                                   : Боковой каротаж 
NGLD               .у.е.                                   : Показания зонда НГК-60 аппаратуры ДРСТ-3-90 
PHIE               .v/v                                    : Описание 
PHIEN              .v/v                                    :  
PHIT               .v/v                                    : Описание 
PRMB               .mD                                     :  
PRMB_DGR           .mD                                     :  
RT                 .ohmm                                   : УЭС пласта 
SOIL_ARCHIE        .v/v                                    :  
SOIL_DW            .v/v                                    :  
SP                 .мВ                                     : Потенциал самополяризации 
VSH_FIN            .v/v                                    : Описание 
VSH_GR             .v/v                                    : Shale volume 
VSH_SP             .v/v                                    : Shale Volume 
~Ascii
# ...
1129       
  0.217      587.089    -9999      -9999      10.91879   1.33       
  1.449066   0.2333767  0.2333767  0.3645585  58.86559   1.616801   
  1.882      0.4097484  0.5552509  16.69493   0.3975206  0.5332277  
  0.2618135 
1129.1     
  0.217      573.062    -9999      -9999      10.8424    1.346      
  1.450802   0.2365004  0.2365004  0.364013   67.25417   1.730323   
  1.933      0.4238191  0.5631277  16.47538   0.386402   0.5186554  
  0.2541487 
1129.2     
  0.218      556.563    -9999      -9999      10.73401   1.39       
  1.456152   0.2390668  0.2390668  0.3623315  75.03339   1.905202   
  1.996      0.4377361  0.5707822  16.30495   0.3735296  0.4986603  
  0.2483988 
1129.3     
  0.218      540.128    -9999      -9999      10.59983   1.46       
  1.46419    0.2409827  0.2409827  0.3598051  81.42214   2.146377   
  2.064      0.4503408  0.5775362  16.20676   0.3600679  0.4749715  
  0.2451643 
1129.4     
  0.218      525.895    8          2          10.44729   1.554      
  1.473871   0.2421876  0.2421876  0.3567625  85.71558   2.457844   
  2.126      0.4602716  0.5824988  16.20137   0.3471967  0.449405   
  0.2449884 
1129.5     
  0.218      511.05     8          2          10.28341   1.664      
  1.484216   0.2426599  0.2426599  0.353511   87.45972   2.843004   
  2.196      0.4693157  0.5873103  16.30365   0.3359124  0.4234691  
  0.2483558 
1129.6     
  0.218      496.426    8          2          10.11367   1.806      
  1.494465   0.2424026  0.2424026  0.3502898  86.50521   3.305708   
  2.268      0.4768059  0.5915384  16.51992   0.3269308  0.3981816  
  0.25568   
1129.7     
  0.218      483.571    8          2          9.941736   2.039      
  1.504129   0.2414248  0.2414248  0.3472522  82.97186   3.851178   
  2.337      0.4822931  0.5948713  16.84631   0.3206893  0.3741078  
  0.2672707 
1129.8     
  0.218      473.213    8          2          9.770195   2.344      
  1.513012   0.2397181  0.2397181  0.3444602  77.147     4.485105   
  2.395      0.4850427  0.5967254  17.2688    0.3174004  0.3515391  
  0.2832617 
1129.9     
  0.218      465.073    8          2          9.601591   2.719      
  1.521134   0.2372696  0.2372696  0.3419075  69.497     5.20977    
  2.442      0.4851343  0.5971752  17.76417   0.3170846  0.3306841  
  0.3034852 
1130       
  0.218      459.536    8          2          9.439527   3.034      
  1.528619   0.2340967  0.2340967  0.3395551  60.70116   6.016466   
  2.476      0.482431   0.5960926  18.30237   0.3195709  0.311805   
  0.3273368 
1130.1     
  0.218      455.314    8          2          9.289237   3.246      
  1.53557    0.2302989  0.2302989  0.3373703  51.62407   6.875777   
  2.502      0.4775724  0.5939494  18.849     0.3244587  0.2952621  
  0.3536553 
1130.2     
  0.218      452.027    8          2          9.157046   3.277      
  1.541959   0.2261097  0.2261097  0.3353624  43.17752   7.732498   
  2.523      0.4712302  0.5911542  19.36835   0.3310688  0.2814385  
  0.3806991 
1130.3     
  0.218      448.867    8          2          9.049344   2.976      
  1.547532   0.2219198  0.2219198  0.3336106  36.11195   8.508842   
  2.543      0.4645335  0.5883697  19.82629   0.3384571  0.2706556  
  0.4062586 
1130.4     
  0.217      446.052    8          2          8.971266   2.556      
  1.551812   0.2182437  0.2182437  0.3322655  30.87173   9.119946   
  2.561      0.4584819  0.5860285  20.19335   0.3455205  0.2630979  
  0.4279432 
1130.5     
  0.217      443.855    8          2          8.92553    2.346      
  1.554182   0.2156314  0.2156314  0.3315205  27.61688   9.498094   
  2.576      0.4542702  0.5846574  20.44735   0.3511791  0.2587692  
  0.4435891 
1130.6     
  0.218      442.496    8          2          8.911926   2.206      
  1.554054   0.2145407  0.2145407  0.3315607  26.36169   9.613575   
  2.585      0.4527511  0.5845568  20.57599   0.3546059  0.2574954  
  0.4517164 
1130.7     
  0.218      442.072    8          2          8.927768   2.147      
  1.551074   0.2152025  0.2152025  0.3324975  27.11628   9.479235   
  2.588      0.454514   0.5860108  20.57887   0.3554394  0.2589793  
  0.4518994 
1130.8     
  0.219      442.569    8          2          8.968714   2.123      
  1.54533    0.217526   0.217526   0.3343028  29.94111   9.140641   
  2.584      0.4591999  0.5888174  20.46799   0.3538689  0.2628544  
  0.4448834 
1130.9     
  0.221      443.74     8          2          9.029873   2.111      
  1.537439   0.2210849  0.2210849  0.3367828  34.84873   8.657295   
  2.576      0.4660134  0.5926777  20.26738   0.3505997  0.2687508  
  0.4324487 
1131       
  0.222      445.296    8          2          9.106706   2.101      
  1.528523   0.2251725  0.2251725  0.3395851  41.48585   8.08613    
  2.566      0.473506   0.5969028  20.01147   0.3467048  0.2763461  
  0.4170634 
1131.1     
  0.223      446.684    8          2          9.19537    2.086      
  1.52001    0.2289361  0.2289361  0.342261   48.70914   7.473687   
  2.557      0.480196   0.6007746  19.74215   0.3434086  0.2853781  
  0.4014391 
1131.2     
  0.223      448.078    8          2          9.292407   2.074      
  1.513366   0.2315377  0.2315377  0.3443492  54.42495   6.856442   
  2.548      0.4844342  0.6033415  19.50407   0.3418531  0.2956018  
  0.3881044 
1131.3     
  0.222      449.728    8          2          9.394181   2.071      
  1.509781   0.232302   0.232302   0.3454758  56.22829   6.263761   
  2.537      0.4848671  0.6037835  19.34024   0.3429509  0.3067183  
  0.3791834 
1131.4     
  0.222      451.636    8          2          9.496192   2.08       
  1.509955   0.230814   0.230814   0.3454212  52.77065   5.721113   
  2.525      0.480822   0.6017623  19.28663   0.3472947  0.3182802  
  0.3763092 
1131.5     
  0.221      454.305    8          2          9.592731   2.098      
  1.513957   0.22697    0.22697    0.3441634  44.79128   5.250935   
  2.508      0.4714995  0.5967997  19.36725   0.3551314  0.329623   
  0.3806399 
1131.6     
  0.22       457.012    -9999      -9999      9.677176   2.141      
  1.521235   0.22097    0.22097    0.3418757  34.6783    4.871453   
  2.491      0.4572932  0.5893751  19.59036   0.366381   0.3398758  
  0.3928863 
1131.7     
  0.22       458.949    -9999      -9999      9.742869   2.189      
  1.530726   0.2132702  0.2132702  0.3388929  24.97123   4.595308   
  2.479      0.4389977  0.5802492  19.94713   0.3806749  0.348072   
  0.4132779 
1131.8     
  0.219      459.918    -9999      -9999      9.784269   2.2        
  1.541065   0.2045061  0.2045061  0.3356431  17.18335   4.429379   
  2.473      0.4174534  0.5701174  20.41283   0.3973848  0.3533384  
  0.4414313 
1131.9     
  0.218      460.69     -9999      -9999      9.798221   2.181      
  1.550801   0.1954164  0.1954164  0.3325832  11.66121   4.374825   
  2.469      0.3934622  0.5594666  20.95072   0.4156569  0.355131   
  0.4761828 
1132       
  0.216      461.046    -9999      -9999      9.784859   2.138      
  1.558601   0.1867546  0.1867546  0.3301316  8.059483   4.427059   
  2.466      0.3686731  0.5491944  21.51821   0.4344755  0.3534139  
  0.5155371 
1132.1     
  0.216      461.495    -9999      -9999      9.747659   2.074      
  1.563444   0.1792023  0.1792023  0.3286096  5.840093   4.575797   
  2.464      0.3453127  0.5403406  22.07356   0.4527492  0.3486772  
  0.5568212 
1132.2     
  0.215      462.204    -9999      -9999      9.692836   2.009      
  1.564719   0.1732906  0.1732906  0.3282089  4.538592   4.804155   
  2.459      0.3252602  0.5334595  22.58175   0.4694492  0.3418119  
  0.5970865 
1132.3     
  0.215      463        -9999      -9999      9.628236   1.965      
  1.562246   0.1693456  0.1693456  0.328986   3.835747   5.087907   
  2.455      0.3110644  0.52957    23.01818   0.4837588  0.3338956  
  0.6336221 
1132.4     
  0.215      463.336    -9999      -9999      9.561965   1.955      
  1.556258   0.1674601  0.1674601  0.330868   3.539363   5.396421   
  2.453      0.304047   0.528991   23.36957   0.4951754  0.325965   
  0.6643859 
