~Version
 VERS              .         2.0                           : CWLS LOG ASCII STANDARD - VERSION 2.0
 WRAP              .         YES                            : ONE LINE PER DEPTH STEP
 DLM               .         SPACE                         : DELIMITING CHARACTER(SPACE TAB OR COMMA)
~Well Information
#_______________________________________________________________________________
#
#PARAMETER_NAME    .UNIT     VALUE                         : DESCRIPTION
#_______________________________________________________________________________
STRT               .M        950.5                         : First reference value
STOP               .M        1284                          : Last reference value
STEP               .M        0.1                           : Step increment
NULL               .         -9999                         : Missing value
COMP               .                                       : Company
WELL               .         4779                          : Well name
FLD                .         Узень                         : Field
LOC                .                                       : Location
CNTY               .                                       : County
STAT               .                                       : State
CTRY               .                                       : Country
SRVC               .         SCH                           : Service Company
DATE               .         31.05.1990                    : Date
UWI                .                                       : Unique Well ID
Block              .         3а                            : 
Cartographic_reference_system .         GCS_WGS_1984                  : ESRI,PE_10_3_1- <?xml version="1.0" encoding="utf-16"?><ILateBoundCoordinateReferenceSystem name="GCS_WGS_1984"><AuthorityCode>EPSG,4326</AuthorityCode></ILateBoundCoordinateReferenceSystem>
Category           .         Нефтяная                      : 
Condition          .         В работе                      : 
EREF               .m        235.8                         : 100.8
Gorizont           .         15                            : 14
HZCS               .GCS_WGS_1984 WGS_1984_EASE-Grid_2.0_Global : ESRI,PE_10_3_1- <?xml version="1.0" encoding="utf-16"?><ILateBoundCoordinateReferenceSystem name="WGS_1984_EASE-Grid_2.0_Global"><AuthorityCode>EPSG,6933</AuthorityCode></ILateBoundCoordinateReferenceSystem>
Interpretator      .         Сагынбаева А.Н.               : 
Kupol              .         основной                      : osnovnoi
LATI               .dega     0.6302116892                  : GCS_WGS_1984
LONG               .dega     0.5730203284                  : GCS_WGS_1984
Mud                .         глинистый                     : 
Mud_density        .         1,18                          : 
Mud_resistivity    .         0                             : 
NGDU               .         НГДУ-1                        : 
ORIGINALWELLNAME   .         4779                          : 
Spud_date          .         1990                          : 1961
Viscosity          .         40                            : 
X                  .m        55288.6                       : 46154
Y                  .m        80396.6                       : 85761.93
YEAR               .         2018                          : 
~Parameter Information Block
#_______________________________________________________________________________
#
#PARAMETER_NAME    .UNIT     VALUE                         : DESCRIPTION
#_______________________________________________________________________________
SET                .         LQC_KAZNIPI_Petrel            : 
PBBOTTOM           .M        1284                          : Глубина подошвы планшета
PBSCALE            .         1 _ 500                       : Вертикальный масштаб планшета
PBTOP              .M        950                           : Глубина кровли планшета
TLFamily_CALI      .         Caliper                       : 
TLFamily_CILD      .         Conductivity                  : 
TLFamily_COLL      .         Net Reservoir Flag            : 
TLFamily_CSAT      .         Fluid Code                    : 
TLFamily_DEPT      .         Measured Depth                : 
TLFamily_GR        .         Russian Gamma Ray             : 
TLFamily_LLS       .         Lateral Log Resistivity       : 
TLFamily_NGLD      .         Neutron Gamma                 : 
TLFamily_PHIE      .         Effective Porosity            : 
TLFamily_PHIEN     .         Effective Porosity            : 
TLFamily_PHIT      .         Porosity                      : 
TLFamily_PRMB      .         Permeability                  : 
TLFamily_PRMB_DGR  .         Permeability                  : 
TLFamily_RT        .         Formation Resistivity         : 
TLFamily_SOIL_ARCHIE .         Oil Saturation                : 
TLFamily_SOIL_DW   .         Oil Saturation                : 
TLFamily_SP        .         Spontaneous Potential         : 
TLFamily_VSH_FIN   .         Shale Volume                  : 
TLFamily_VSH_GR    .         Shale Volume                  : 
TLFamily_VSH_SP    .         Shale Volume                  : 
~Curve Information
#_______________________________________________________________________________
#
#LOGNAME           .UNIT     LOG_ID                        : DESCRIPTION
#_______________________________________________________________________________
DEPT               .M                                      : Колонка глубины 
CALI               .м                                      : Каверномер 
CILD               .мСм/м                                  : Индукционный каротаж 
COLL               .unitless                               : Описание 
CSAT               .unitless                               :  
GR                 .uR/h                                   : Гамма каротаж 
LLS                .Ohmm                                   : Боковой каротаж 
NGLD               .у.е.                                   : Показания зонда НГК-60 аппаратуры ДРСТ-3-90 
PHIE               .v/v                                    : Описание 
PHIEN              .v/v                                    :  
PHIT               .v/v                                    : Описание 
PRMB               .mD                                     :  
PRMB_DGR           .mD                                     :  
RT                 .ohmm                                   : УЭС пласта 
SOIL_ARCHIE        .v/v                                    :  
SOIL_DW            .v/v                                    :  
SP                 .мВ                                     : Потенциал самополяризации 
VSH_FIN            .v/v                                    : Описание 
VSH_GR             .v/v                                    : Shale volume 
VSH_SP             .v/v                                    : Shale Volume 
~Ascii
# ...
1237.5     
  0.219      443.845    8          2          8.448015   2.404      
  1.630337   0.1974231  0.1974231  0.3075851  12.70322   5.265206   
  2.576      0.4272144  0.5624807  20.15307   0.333824   0.3292578  
  0.3383902 
1237.6     
  0.219      444.985    8          2          8.427641   2.39       
  1.629444   0.1973094  0.1973094  0.3078657  12.64177   5.376674   
  2.568      0.4260899  0.5619318  20.23381   0.335019   0.3264532  
  0.3435847 
1237.7     
  0.219      446.473    8          2          8.416777   2.371      
  1.631811   0.1958605  0.1958605  0.3071219  11.88421   5.437075   
  2.558      0.4213354  0.5591193  20.32184   0.3371558  0.3249675  
  0.349344  
1237.8     
  0.219      447.874    8          2          8.420257   2.349      
  1.637217   0.1931974  0.1931974  0.3054228  10.60821   5.417655   
  2.549      0.4134249  0.5544012  20.40252   0.340077   0.3254427  
  0.3547114 
1237.9     
  0.219      449.298    8          2          8.439637   2.324      
  1.64512    0.189599   0.189599   0.3029388  9.098969   5.31076    
  2.54       0.4027504  0.5479914  20.46323   0.3434538  0.3281017  
  0.3588059 
1238       
  0.219      450.731    8          2          8.473249   2.294      
  1.654654   0.1854815  0.1854815  0.2999422  7.633527   5.13035    
  2.531      0.3902044  0.5404174  20.49454   0.3468508  0.3327649  
  0.3609367 
1238.1     
  0.219      452.219    8          2          8.517      2.268      
  1.664685   0.1813508  0.1813508  0.2967896  6.400517   4.904668   
  2.521      0.3769686  0.5323449  20.491     0.3498147  0.338934   
  0.3606954 
1238.2     
  0.219      454.141    8          2          8.565493   2.252      
  1.673976   0.1777221  0.1777221  0.2938695  5.482804   4.666109   
  2.509      0.3644824  0.5245801  20.4516    0.3519617  0.3459055  
  0.3580178 
1238.3     
  0.219      456.412    8          2          8.613117   2.25       
  1.681412   0.1750299  0.1750299  0.2915322  4.888069   4.443118   
  2.495      0.3542839  0.5180052  20.37967   0.3530371  0.3528918  
  0.3531825 
1238.4     
  0.219      458.682    8          2          8.654922   2.25       
  1.686252   0.1735389  0.1735389  0.290011   4.586895   4.256173   
  2.481      0.3477343  0.5134571  20.2824    0.352946   0.3591407  
  0.3467512 
1238.5     
  0.219      460.747    8          2          8.687037   2.248      
  1.688283   0.173299   0.173299   0.2893726  4.54021    4.117926   
  2.468      0.3453361  0.5112636  20.16982   0.3517383  0.3640159  
  0.3394606 
1238.6     
  0.219      462.495    8          2          8.706742   2.246      
  1.687864   0.174145   0.174145   0.2895044  4.707025   4.035329   
  2.458      0.3468638  0.5113684  20.05364   0.349574   0.3670402  
  0.3321078 
1238.7     
  0.219      463.437    8          2          8.712632   2.239      
  1.685799   0.1757462  0.1757462  0.2901533  5.039687   4.010963   
  2.452      0.3513059  0.5132321  19.94568   0.3466882  0.367949   
  0.3254275 
1238.8     
  0.219      463.881    8          2          8.704653   2.212      
  1.683099   0.177693   0.177693   0.2910019  5.47601    4.044006   
  2.449      0.3571312  0.5159491  19.8562    0.3433601  0.3667183  
  0.3200018 
1238.9     
  0.219      463.843    8          2          8.684166   2.183      
  1.680702   0.1795922  0.1795922  0.2917553  5.938021   4.130099   
  2.45       0.3631783  0.5188751  19.79249   0.3398881  0.3635775  
  0.3161987 
1239       
  0.219      463.465    8          2          8.653736   2.163      
  1.679231   0.1811559  0.1811559  0.2922178  6.34754    4.261369   
  2.452      0.3682105  0.5212167  19.75765   0.3365511  0.3589618  
  0.3141404 
1239.1     
  0.219      462.867    8          2          8.616593   2.143      
  1.678886   0.1822542  0.1822542  0.2923262  6.651938   4.427266   
  2.455      0.3718882  0.5227924  19.75009   0.3335515  0.3534073  
  0.3136957 
1239.2     
  0.219      461.488    8          2          8.575749   2.115      
  1.679499   0.1829204  0.1829204  0.2921335  6.843647   4.617159   
  2.464      0.3749553  0.5241882  19.76373   0.3309487  0.3473984  
  0.3144989 
1239.3     
  0.219      459.485    8          2          8.533233   2.091      
  1.680711   0.1833096  0.1833096  0.2917525  6.958181   4.823485   
  2.476      0.3775319  0.5253884  19.78877   0.3286151  0.3412519  
  0.3159783 
1239.4     
  0.219      457.11     8          2          8.489388   2.078      
  1.682192   0.1836364  0.1836364  0.2912871  7.055869   5.045916   
  2.491      0.3802561  0.5267176  19.81272   0.3262141  0.3350274  
  0.3174009 
1239.5     
  0.219      452.382    8          2          8.442768   2.075      
  1.683819   0.1841068  0.1841068  0.2907756  7.198828   5.29369    
  2.52       0.3849847  0.5294524  19.82184   0.3232388  0.3285333  
  0.3179444 
1239.6     
  0.219      446.636    8          2          8.390689   2.081      
  1.68574    0.1848686  0.1848686  0.2901719  7.436587   5.584896   
  2.557      0.3913701  0.533086   19.80218   0.3191009  0.3214275  
  0.3167743 
1239.7     
  0.219      440.032    8          2          8.329994   2.099      
  1.688278   0.1860034  0.1860034  0.2893742  7.805354   5.944546   
  2.601      0.3994329  0.5374618  19.74079   0.3132447  0.3133399  
  0.3131495 
1239.8     
  0.219      432.235    8          2          8.257864   2.119      
  1.691768   0.1875419  0.1875419  0.2882773  8.334694   6.402199   
  2.655      0.4094483  0.5427144  19.6265    0.3052586  0.3039927  
  0.3065245 
1239.9     
  0.219      424.368    8          2          8.172531   2.141      
  1.696351   0.1894941  0.1894941  0.2868367  9.058322   6.989324   
  2.712      0.4205552  0.5481414  19.45107   0.2949779  0.293294   
  0.2966618 
1240       
  0.219      418.621    8          2          8.073612   2.189      
  1.701846   0.1918736  0.1918736  0.2851098  10.0259    7.737633   
  2.755      0.4310347  0.552403   19.21008   0.2825339  0.2813622  
  0.2837056 
1240.1     
  0.219      413.339    8          2          7.961993   2.264      
  1.707731   0.194706   0.194706   0.28326    11.31322   8.678659   
  2.795      0.4420372  0.5566215  18.90399   0.2683453  0.2684804  
  0.2682102 
1240.2     
  0.219      408.948    1          2          7.839722   2.386      
  1.713298   0.1980004  0.1980004  0.2815103  13.01987   9.841327   
  2.83       0.4533333  0.5608506  18.53869   0.2530603  0.2550452  
  0.2510753 
1240.3     
  0.219      405.221    1          2          7.709951   2.533      
  1.717865   0.2017136  0.2017136  0.2800751  15.25398   11.24615   
  2.86       0.4647633  0.5652443  18.12556   0.2374592  0.2415206  
  0.2333977 
1240.4     
  0.219      400.275    1          2          7.576759   2.656      
  1.721006   0.2057185  0.2057185  0.2790878  18.0952    12.89681   
  2.901      0.4773527  0.5709918  17.68073   0.2223313  0.2283848  
  0.2162778 
1240.5     
  0.218      395.319    1          2          7.44486    2.743      
  1.72268    0.2098044  0.2098044  0.2785618  21.5399    14.77008   
  2.944      0.489764   0.577184   17.22364   0.2083558  0.2160808  
  0.2006308 
1240.6     
  0.216      391.256    1          2          7.319358   2.801      
  1.723247   0.2136936  0.2136936  0.2783833  25.42628   16.80454   
  2.979      0.5006387  0.5827668  16.77511   0.1960294  0.2049895  
  0.1870693 
1240.7     
  0.214      386.213    1          2          7.205317   2.822      
  1.723327   0.2170984  0.2170984  0.2783585  29.40004   18.89525   
  3.025      0.5109956  0.5886909  16.35497   0.1856364  0.1954055  
  0.1758673 
1240.8     
  0.212      379.389    1          2          7.107087   2.85       
  1.723588   0.2197791  0.2197791  0.2782763  32.96097   20.90346   
  3.088      0.5208516  0.5949528  15.98023   0.1772641  0.1875103  
  0.167018  
1240.9     
  0.21       372.07     1          2          7.027821   2.905      
  1.724552   0.2215926  0.2215926  0.2779732  35.61158   22.67853   
  3.16       0.5293864  0.6007392  15.66375   0.1708503  0.1813725  
  0.1603281 
