~Version
 VERS              .         2.0                           : CWLS LOG ASCII STANDARD - VERSION 2.0
 WRAP              .         YES                            : ONE LINE PER DEPTH STEP
 DLM               .         SPACE                         : DELIMITING CHARACTER(SPACE TAB OR COMMA)
~Well Information
#_______________________________________________________________________________
#
#PARAMETER_NAME    .UNIT     VALUE                         : DESCRIPTION
#_______________________________________________________________________________
STRT               .M        950.5                         : First reference value
STOP               .M        1284                          : Last reference value
STEP               .M        0.1                           : Step increment
NULL               .         -9999                         : Missing value
COMP               .                                       : Company
WELL               .         4779                          : Well name
FLD                .         Узень                         : Field
LOC                .                                       : Location
CNTY               .                                       : County
STAT               .                                       : State
CTRY               .                                       : Country
SRVC               .         SCH                           : Service Company
DATE               .         31.05.1990                    : Date
UWI                .                                       : Unique Well ID
Block              .         3а                            : 
Cartographic_reference_system .         GCS_WGS_1984                  : ESRI,PE_10_3_1- <?xml version="1.0" encoding="utf-16"?><ILateBoundCoordinateReferenceSystem name="GCS_WGS_1984"><AuthorityCode>EPSG,4326</AuthorityCode></ILateBoundCoordinateReferenceSystem>
Category           .         Нефтяная                      : 
Condition          .         В работе                      : 
EREF               .m        235.8                         : 100.8
Gorizont           .         15                            : 14
HZCS               .GCS_WGS_1984 WGS_1984_EASE-Grid_2.0_Global : ESRI,PE_10_3_1- <?xml version="1.0" encoding="utf-16"?><ILateBoundCoordinateReferenceSystem name="WGS_1984_EASE-Grid_2.0_Global"><AuthorityCode>EPSG,6933</AuthorityCode></ILateBoundCoordinateReferenceSystem>
Interpretator      .         Сагынбаева А.Н.               : 
Kupol              .         основной                      : osnovnoi
LATI               .dega     0.6302116892                  : GCS_WGS_1984
LONG               .dega     0.5730203284                  : GCS_WGS_1984
Mud                .         глинистый                     : 
Mud_density        .         1,18                          : 
Mud_resistivity    .         0                             : 
NGDU               .         НГДУ-1                        : 
ORIGINALWELLNAME   .         4779                          : 
Spud_date          .         1990                          : 1961
Viscosity          .         40                            : 
X                  .m        55288.6                       : 46154
Y                  .m        80396.6                       : 85761.93
YEAR               .         2018                          : 
~Parameter Information Block
#_______________________________________________________________________________
#
#PARAMETER_NAME    .UNIT     VALUE                         : DESCRIPTION
#_______________________________________________________________________________
SET                .         LQC_KAZNIPI_Petrel            : 
PBBOTTOM           .M        1284                          : Глубина подошвы планшета
PBSCALE            .         1 _ 500                       : Вертикальный масштаб планшета
PBTOP              .M        950                           : Глубина кровли планшета
TLFamily_CALI      .         Caliper                       : 
TLFamily_CILD      .         Conductivity                  : 
TLFamily_COLL      .         Net Reservoir Flag            : 
TLFamily_CSAT      .         Fluid Code                    : 
TLFamily_DEPT      .         Measured Depth                : 
TLFamily_GR        .         Russian Gamma Ray             : 
TLFamily_LLS       .         Lateral Log Resistivity       : 
TLFamily_NGLD      .         Neutron Gamma                 : 
TLFamily_PHIE      .         Effective Porosity            : 
TLFamily_PHIEN     .         Effective Porosity            : 
TLFamily_PHIT      .         Porosity                      : 
TLFamily_PRMB      .         Permeability                  : 
TLFamily_PRMB_DGR  .         Permeability                  : 
TLFamily_RT        .         Formation Resistivity         : 
TLFamily_SOIL_ARCHIE .         Oil Saturation                : 
TLFamily_SOIL_DW   .         Oil Saturation                : 
TLFamily_SP        .         Spontaneous Potential         : 
TLFamily_VSH_FIN   .         Shale Volume                  : 
TLFamily_VSH_GR    .         Shale Volume                  : 
TLFamily_VSH_SP    .         Shale Volume                  : 
~Curve Information
#_______________________________________________________________________________
#
#LOGNAME           .UNIT     LOG_ID                        : DESCRIPTION
#_______________________________________________________________________________
DEPT               .M                                      : Колонка глубины 
CALI               .м                                      : Каверномер 
CILD               .мСм/м                                  : Индукционный каротаж 
COLL               .unitless                               : Описание 
CSAT               .unitless                               :  
GR                 .uR/h                                   : Гамма каротаж 
LLS                .Ohmm                                   : Боковой каротаж 
NGLD               .у.е.                                   : Показания зонда НГК-60 аппаратуры ДРСТ-3-90 
PHIE               .v/v                                    : Описание 
PHIEN              .v/v                                    :  
PHIT               .v/v                                    : Описание 
PRMB               .mD                                     :  
PRMB_DGR           .mD                                     :  
RT                 .ohmm                                   : УЭС пласта 
SOIL_ARCHIE        .v/v                                    :  
SOIL_DW            .v/v                                    :  
SP                 .мВ                                     : Потенциал самополяризации 
VSH_FIN            .v/v                                    : Описание 
VSH_GR             .v/v                                    : Shale volume 
VSH_SP             .v/v                                    : Shale Volume 
~Ascii
# ...
996        
  0.251      379.519    -9999      -9999      7.248231   2.389      
  1.439726   0.1164928  0.1164928  0.3674942  0.4026132  0.5741732  
  3.087      0.1429587  0.551985   22.96954   0.7606102  0.8        
  0.7212204 
996.1      
  0.252      387.186    -9999      -9999      7.20259    2.4        
  1.436939   0.1169325  0.1169325  0.3683702  0.4102347  0.595237   
  3.016      0.1363878  0.5480327  23.02483   0.7619323  0.8        
  0.7238646 
996.2000000000001 
  0.252      394.414    -9999      -9999      7.156106   2.4        
  1.433018   0.1196512  0.1196512  0.3696026  0.4606679  0.6174846  
  2.951      0.1448043  0.5476397  23.04624   0.7574285  0.7899662  
  0.7248908 
996.3      
  0.251      401.551    -9999      -9999      7.110142   2.382      
  1.428771   0.1229843  0.1229843  0.3709372  0.5310382  0.6403004  
  2.891      0.156939   0.5483238  23.03592   0.7513723  0.7783486  
  0.724396  
996.4      
  0.251      407.198    -9999      -9999      7.064785   2.349      
  1.425031   0.1263264  0.1263264  0.3721127  0.6123915  0.663641   
  2.844      0.1700388  0.5497361  22.99761   0.7448069  0.7670518  
  0.722562  
996.5      
  0.25       411.571    -9999      -9999      7.019498   2.319      
  1.422518   0.1294285  0.1294285  0.3729025  0.6990183  0.687795   
  2.809      0.1826556  0.5513656  22.93692   0.7377998  0.755936   
  0.7196637 
996.6      
  0.25       415.235    -9999      -9999      6.973613   2.294      
  1.421773   0.1320883  0.1320883  0.3731366  0.7829848  0.7131646  
  2.781      0.1932248  0.5524927  22.8612    0.7304495  0.7448376  
  0.7160614 
996.7000000000001 
  0.251      417.842    -9999      -9999      6.926664   2.274      
  1.423146   0.1341438  0.1341438  0.3727053  0.8547249  0.7400909  
  2.761      0.201302   0.5529726  22.7792    0.7229136  0.7336507  
  0.7121766 
996.8      
  0.252      419.415    -9999      -9999      6.878511   2.263      
  1.426785   0.1354792  0.1354792  0.3715616  0.9048167  0.7687644  
  2.749      0.2065427  0.5526748  22.70021   0.7154012  0.7223515  
  0.7084509 
996.9      
  0.253      420.308    -9999      -9999      6.829257   2.265      
  1.432626   0.1360398  0.1360398  0.3697256  0.9267138  0.7992435  
  2.742      0.2084452  0.5513268  22.63322   0.7081386  0.7109737  
  0.7053035 
997        
  0.255      420.792    -9999      -9999      6.77896    2.27       
  1.440365   0.1358596  0.1358596  0.3672931  0.9196177  0.8316146  
  2.738      0.2069876  0.5488716  22.58591   0.7013138  0.6995401  
  0.7030875 
997.1      
  0.255      420.942    -9999      -9999      6.72762    2.277      
  1.449451   0.1350681  0.1350681  0.3644376  0.8890927  0.8660103  
  2.737      0.2028052  0.5455709  22.56391   0.6950591  0.6880588  
  0.7020593 
997.2000000000001 
  0.255      419.552    -9999      -9999      6.675357   2.297      
  1.459082   0.1338879  0.1338879  0.3614104  0.8454494  0.9024852  
  2.748      0.1981991  0.5426119  22.57033   0.689462   0.6765649  
  0.7023592 
997.3      
  0.254      417.301    -9999      -9999      6.622667   2.348      
  1.468241   0.1326176  0.1326176  0.3585317  0.8008624  0.9408141  
  2.765      0.1938504  0.540108   22.60552   0.6845883  0.6651711  
  0.7040054 
997.4      
  0.253      414.245    -9999      -9999      6.570733   2.444      
  1.475774   0.1315947  0.1315947  0.3561641  0.7666743  0.9801853  
  2.788      0.1915442  0.5387812  22.66719   0.6805135  0.6541288  
  0.7068982 
997.5      
  0.251      410.182    -9999      -9999      6.521677   2.558      
  1.480558   0.131136   0.131136   0.3546607  0.7518204  1.018887   
  2.82       0.1934128  0.5395823  22.75066   0.6773477  0.643867   
  0.7108284 
997.6      
  0.248      405.579    -9999      -9999      6.478414   2.641      
  1.481703   0.1314779  0.1314779  0.3543009  0.7628648  1.054284   
  2.857      0.2001478  0.5426976  22.84921   0.6752211  0.6349503  
  0.7154918 
997.7000000000001 
  0.246      401.844    -9999      -9999      6.444187   2.728      
  1.478732   0.1327329  0.1327329  0.3552347  0.80481    1.083158   
  2.888      0.2107458  0.5474624  22.9547    0.6742477  0.6279836  
  0.7205119 
997.8      
  0.242      400.869    -9999      -9999      6.421892   2.822      
  1.471728   0.1348588  0.1348588  0.3574359  0.8811908  1.102389   
  2.896      0.2226027  0.5524254  23.05822   0.6744762  0.6234869  
  0.7254655 
997.9      
  0.239      402.105    -9999      -9999      6.413444   2.849      
  1.461365   0.1376608  0.1376608  0.3606931  0.9930476  1.109765   
  2.886      0.235162   0.557524   23.15081   0.6758556  0.6217914  
  0.7299197 
998        
  0.235      405.308    -9999      -9999      6.41937    2.815      
  1.448811   0.1408245  0.1408245  0.3646387  1.1365     1.104586   
  2.86       0.2469578  0.5621932  23.22427   0.6782247  0.6229802  
  0.7334691 
998.1      
  0.233      409.652    -9999      -9999      6.438665   2.754      
  1.435493   0.143989   0.143989   0.3688246  1.300718   1.08789    
  2.824      0.2569889  0.5661052  23.2718    0.6813202  0.6268669  
  0.7357734 
998.2000000000001 
  0.231      414.865    -9999      -9999      6.469008   2.645      
  1.422803   0.1468273  0.1468273  0.3728129  1.468101   1.062141   
  2.783      0.2644838  0.5689639  23.28844   0.6848049  0.6330283  
  0.7365815 
998.3      
  0.23       418.526    -9999      -9999      6.507184   2.495      
  1.41182    0.1491227  0.1491227  0.376265   1.619092   1.030611   
  2.755      0.2709025  0.5717311  23.2714    0.68831    0.6408659  
  0.7357542 
998.4      
  0.229      420.584    -9999      -9999      6.549537   2.374      
  1.403111   0.1508155  0.1508155  0.3790022  1.740309   0.9967241  
  2.74       0.2761833  0.5742859  23.22025   0.6914749  0.6496749  
  0.7332749 
998.5      
  0.229      421.627    -9999      -9999      6.592481   2.299      
  1.396654   0.1520145  0.1520145  0.3810318  1.83162    0.9635013  
  2.732      0.2801712  0.5763306  23.13698   0.6939917  0.6587305  
  0.7292529 
998.6      
  0.23       422.148    -9999      -9999      6.632931   2.286      
  1.391922   0.1529533  0.1529533  0.3825188  1.906443   0.9332221  
  2.728      0.2835282  0.5780151  23.02621   0.6956532  0.6673756  
  0.7239308 
998.7000000000001 
  0.233      422.583    -9999      -9999      6.668646   2.314      
  1.388081   0.1539181  0.1539181  0.3837262  1.986531   0.9072789  
  2.725      0.2870735  0.579591   22.89512   0.6963881  0.6751028  
  0.7176733 
998.8      
  0.238      423.171    -9999      -9999      6.698467   2.348      
  1.38422    0.1551652  0.1551652  0.3849397  2.095052   0.8861707  
  2.721      0.2915785  0.5813573  22.75321   0.6962862  0.6816235  
  0.7109489 
998.9      
  0.243      424.968    -9999      -9999      6.722361   2.373      
  1.379596   0.1568478  0.1568478  0.3863929  2.250924   0.8696129  
  2.707      0.2965012  0.5829228  22.61156   0.695591   0.6868935  
  0.7042885 
999        
  0.248      428.449    -9999      -9999      6.74108    2.4        
  1.373801   0.1589823  0.1589823  0.3882143  2.465446   0.8568571  
  2.682      0.3017007  0.5842897  22.48186   0.6946425  0.6910505  
  0.6982345 
999.1      
  0.252      432.619    -9999      -9999      6.755641   2.411      
  1.366814   0.1614601  0.1614601  0.3904105  2.740254   0.8470645  
  2.652      0.307397   0.5857893  22.37494   0.693789   0.6943018  
  0.6932763 
999.2000000000001 
  0.256      437.05     -9999      -9999      6.766676   2.396      
  1.358948   0.1640979  0.1640979  0.3928826  3.066543   0.8397176  
  2.622      0.3134482  0.5875483  22.29957   0.693287   0.6967757  
  0.6897984 
999.3      
  0.257      441.5      -9999      -9999      6.773892   2.371      
  1.350713   0.1667082  0.1667082  0.3954708  3.427659   0.8349479  
  2.591      0.3190303  0.5891994  22.26139   0.6932202  0.6983983  
  0.6880421 
999.4      
  0.257      446.467    -9999      -9999      6.77597    2.335      
  1.342642   0.1691595  0.1691595  0.3980075  3.805411   0.8335804  
  2.558      0.3235763  0.5904344  22.26248   0.693479   0.6988661  
  0.6880919 
