~Version
 VERS              .         2.0                           : CWLS LOG ASCII STANDARD - VERSION 2.0
 WRAP              .         YES                            : ONE LINE PER DEPTH STEP
 DLM               .         SPACE                         : DELIMITING CHARACTER(SPACE TAB OR COMMA)
~Well Information
#_______________________________________________________________________________
#
#PARAMETER_NAME    .UNIT     VALUE                         : DESCRIPTION
#_______________________________________________________________________________
STRT               .M        950.5                         : First reference value
STOP               .M        1284                          : Last reference value
STEP               .M        0.1                           : Step increment
NULL               .         -9999                         : Missing value
COMP               .                                       : Company
WELL               .         4779                          : Well name
FLD                .         Узень                         : Field
LOC                .                                       : Location
CNTY               .                                       : County
STAT               .                                       : State
CTRY               .                                       : Country
SRVC               .         SCH                           : Service Company
DATE               .         31.05.1990                    : Date
UWI                .                                       : Unique Well ID
Block              .         3а                            : 
Cartographic_reference_system .         GCS_WGS_1984                  : ESRI,PE_10_3_1- <?xml version="1.0" encoding="utf-16"?><ILateBoundCoordinateReferenceSystem name="GCS_WGS_1984"><AuthorityCode>EPSG,4326</AuthorityCode></ILateBoundCoordinateReferenceSystem>
Category           .         Нефтяная                      : 
Condition          .         В работе                      : 
EREF               .m        235.8                         : 100.8
Gorizont           .         15                            : 14
HZCS               .GCS_WGS_1984 WGS_1984_EASE-Grid_2.0_Global : ESRI,PE_10_3_1- <?xml version="1.0" encoding="utf-16"?><ILateBoundCoordinateReferenceSystem name="WGS_1984_EASE-Grid_2.0_Global"><AuthorityCode>EPSG,6933</AuthorityCode></ILateBoundCoordinateReferenceSystem>
Interpretator      .         Сагынбаева А.Н.               : 
Kupol              .         основной                      : osnovnoi
LATI               .dega     0.6302116892                  : GCS_WGS_1984
LONG               .dega     0.5730203284                  : GCS_WGS_1984
Mud                .         глинистый                     : 
Mud_density        .         1,18                          : 
Mud_resistivity    .         0                             : 
NGDU               .         НГДУ-1                        : 
ORIGINALWELLNAME   .         4779                          : 
Spud_date          .         1990                          : 1961
Viscosity          .         40                            : 
X                  .m        55288.6                       : 46154
Y                  .m        80396.6                       : 85761.93
YEAR               .         2018                          : 
~Parameter Information Block
#_______________________________________________________________________________
#
#PARAMETER_NAME    .UNIT     VALUE                         : DESCRIPTION
#_______________________________________________________________________________
SET                .         LQC_KAZNIPI_Petrel            : 
PBBOTTOM           .M        1284                          : Глубина подошвы планшета
PBSCALE            .         1 _ 500                       : Вертикальный масштаб планшета
PBTOP              .M        950                           : Глубина кровли планшета
TLFamily_CALI      .         Caliper                       : 
TLFamily_CILD      .         Conductivity                  : 
TLFamily_COLL      .         Net Reservoir Flag            : 
TLFamily_CSAT      .         Fluid Code                    : 
TLFamily_DEPT      .         Measured Depth                : 
TLFamily_GR        .         Russian Gamma Ray             : 
TLFamily_LLS       .         Lateral Log Resistivity       : 
TLFamily_NGLD      .         Neutron Gamma                 : 
TLFamily_PHIE      .         Effective Porosity            : 
TLFamily_PHIEN     .         Effective Porosity            : 
TLFamily_PHIT      .         Porosity                      : 
TLFamily_PRMB      .         Permeability                  : 
TLFamily_PRMB_DGR  .         Permeability                  : 
TLFamily_RT        .         Formation Resistivity         : 
TLFamily_SOIL_ARCHIE .         Oil Saturation                : 
TLFamily_SOIL_DW   .         Oil Saturation                : 
TLFamily_SP        .         Spontaneous Potential         : 
TLFamily_VSH_FIN   .         Shale Volume                  : 
TLFamily_VSH_GR    .         Shale Volume                  : 
TLFamily_VSH_SP    .         Shale Volume                  : 
~Curve Information
#_______________________________________________________________________________
#
#LOGNAME           .UNIT     LOG_ID                        : DESCRIPTION
#_______________________________________________________________________________
DEPT               .M                                      : Колонка глубины 
CALI               .м                                      : Каверномер 
CILD               .мСм/м                                  : Индукционный каротаж 
COLL               .unitless                               : Описание 
CSAT               .unitless                               :  
GR                 .uR/h                                   : Гамма каротаж 
LLS                .Ohmm                                   : Боковой каротаж 
NGLD               .у.е.                                   : Показания зонда НГК-60 аппаратуры ДРСТ-3-90 
PHIE               .v/v                                    : Описание 
PHIEN              .v/v                                    :  
PHIT               .v/v                                    : Описание 
PRMB               .mD                                     :  
PRMB_DGR           .mD                                     :  
RT                 .ohmm                                   : УЭС пласта 
SOIL_ARCHIE        .v/v                                    :  
SOIL_DW            .v/v                                    :  
SP                 .мВ                                     : Потенциал самополяризации 
VSH_FIN            .v/v                                    : Описание 
VSH_GR             .v/v                                    : Shale volume 
VSH_SP             .v/v                                    : Shale Volume 
~Ascii
# ...
1041.5     
  0.224      399.299    -9999      -9999      7.381744   2.081      
  1.486363   0.1905746  0.1905746  0.3528361  9.485545   2.735441   
  2.91       0.4260746  0.6045877  19.05294   0.4917014  0.430191   
  0.5532119 
1041.6     
  0.229      402.855    -9999      -9999      7.617078   1.853      
  1.432684   0.2032543  0.2032543  0.3697073  16.28999   2.344792   
  2.88       0.4547411  0.6232941  18.98648   0.5044031  0.4581294  
  0.5506769 
1041.7     
  0.237      408.614    -9999      -9999      7.794571   1.811      
  1.391978   0.2128468  0.2128468  0.3825012  24.52429   2.087516   
  2.833      0.4721467  0.6346275  18.91109   0.5141045  0.4803951  
  0.5478138 
1041.8     
  0.243      416.668    -9999      -9999      7.918849   1.856      
  1.362731   0.2197892  0.2197892  0.3916935  32.97524   1.924369   
  2.77       0.4812526  0.6403522  18.84244   0.5209221  0.4966263  
  0.5452179 
1041.9     
  0.248      425.806    -9999      -9999      7.998377   1.933      
  1.342564   0.2246649  0.2246649  0.3980322  40.59737   1.826724   
  2.701      0.4850115  0.642419   18.79449   0.5253553  0.5072994  
  0.5434112 
1042       
  0.249      435.316    -9999      -9999      8.044305   2.004      
  1.328856   0.2280405  0.2280405  0.4023407  46.88374   1.772606   
  2.634      0.4856299  0.6423636  18.77817   0.5281823  0.5135675  
  0.5427972 
1042.1     
  0.249      446.206    -9999      -9999      8.069115   2.039      
  1.319248   0.2303587  0.2303587  0.4053604  51.75597   1.744042   
  2.56       0.4832774  0.640309   18.80033   0.5303082  0.5169856  
  0.543631  
1042.2     
  0.246      456.016    -9999      -9999      8.085327   2.044      
  1.311924   0.2318985  0.2318985  0.4076625  55.26884   1.725625   
  2.497      0.4802246  0.6379993  18.86328   0.5326181  0.5192314  
  0.5460048 
1042.3     
  0.242      465.003    -9999      -9999      8.104435   2.027      
  1.305699   0.2327785  0.2327785  0.4096189  57.38263   1.70417    
  2.443      0.476594   0.6356243  18.96525   0.5358802  0.521891   
  0.5498694 
1042.4     
  0.24       473.613    -9999      -9999      8.135645   1.982      
  1.299991   0.2329952  0.2329952  0.4114127  57.91537   1.669696   
  2.392      0.4718147  0.6328673  19.10108   0.5406592  0.5262643  
  0.5550542 
1042.5     
  0.239      481.905    -9999      -9999      8.184585   1.948      
  1.29466    0.2324976  0.2324976  0.4130883  56.69938   1.617038   
  2.346      0.4659865  0.6298839  19.26307   0.5472445  0.5331958  
  0.5612934 
1042.6     
  0.239      489.835    -9999      -9999      8.252625   1.92       
  1.289829   0.2312534  0.2312534  0.4146066  53.76912   1.546576   
  2.303      0.4588073  0.6264849  19.44178   0.5556156  0.5429845  
  0.5682467 
1042.7     
  0.241      498.201    -9999      -9999      8.336651   1.897      
  1.285798   0.2292842  0.2292842  0.4158737  49.43754   1.463783   
  2.259      0.4498031  0.6222941  19.62681   0.5654229  0.5553216  
  0.5755241 
1042.8     
  0.244      505.965    -9999      -9999      8.429539   1.855      
  1.282917   0.2266998  0.2266998  0.4167792  44.27795   1.377404   
  2.22       0.4397846  0.6177986  19.80756   0.5759984  0.5692862  
  0.5827104 
1042.9     
  0.245      513.109    -9999      -9999      8.521609   1.809      
  1.28152    0.2236949  0.2236949  0.4172181  38.95203   1.296818   
  2.186      0.4291164  0.6130708  19.97395   0.5864341  0.5834745  
  0.5893938 
1043       
  0.246      519.56     -9999      -9999      8.602772   1.752      
  1.28185    0.2205222  0.2205222  0.4171146  34.02229   1.229698   
  2.155      0.4180823  0.6080621  20.11707   0.5957346  0.5962747  
  0.5951945 
1043.1     
  0.244      524.176    -9999      -9999      8.664781   1.689      
  1.283977   0.2174502  0.2174502  0.4164461  29.84438   1.180769   
  2.134      0.4082155  0.6035963  20.22968   0.6030181  0.6062431  
  0.5997931 
1043.2     
  0.242      526.962    -9999      -9999      8.703135   1.631      
  1.28771    0.2147233  0.2147233  0.4152728  26.56772   1.151483   
  2.122      0.4000899  0.5998365  20.3068    0.6077258  0.6124922  
  0.6029594 
1043.3     
  0.241      529.138    -9999      -9999      8.718061   1.599      
  1.292541   0.2125344  0.2125344  0.4137544  24.19971   1.140284   
  2.112      0.393369   0.5963913  20.34599   0.6097578  0.6149415  
  0.6045741 
1043.4     
  0.241      530.706    -9999      -9999      8.714288   1.581      
  1.297688   0.2110074  0.2110074  0.4121368  22.67394   1.143106   
  2.105      0.3885956  0.5936168  20.3477    0.6094829  0.6143213  
  0.6046445 
1043.5     
  0.242      532.269    -9999      -9999      8.699641   1.581      
  1.302258   0.2101862  0.2101862  0.4107005  21.89355   1.154121   
  2.098      0.385556   0.5914515  20.3155    0.607619   0.6119202  
  0.6033177 
1043.6     
  0.245      533.664    -9999      -9999      8.682859   1.599      
  1.305458   0.2100352  0.2100352  0.4096945  21.75302   1.166873   
  2.092      0.3843444  0.5901361  20.25608   0.6050282  0.6091807  
  0.6008756 
1043.7     
  0.248      535.745    -9999      -9999      8.67134    1.629      
  1.306815   0.2104399  0.2104399  0.4092681  22.13177   1.175708   
  2.083      0.384131   0.5892951  20.1788    0.6025095  0.6073073  
  0.5977117 
1043.8     
  0.249      537.487    -9999      -9999      8.669432   1.664      
  1.306334   0.2112075  0.2112075  0.4094193  22.86825   1.177178   
  2.075      0.3849712  0.5891765  20.09473   0.6006417  0.6069975  
  0.5942859 
1043.9     
  0.25       539.142    -9999      -9999      8.677648   1.694      
  1.30452    0.2120884  0.2120884  0.4099894  23.74375   1.170862   
  2.068      0.3862242  0.5894946  20.01537   0.5997     0.6083324  
  0.5910676 
1044       
  0.251      539.765    -9999      -9999      8.692881   1.7        
  1.302232   0.2128263  0.2128263  0.4107086  24.50293   1.159241   
  2.065      0.3876611  0.5901892  19.95108   0.5996432  0.6108152  
  0.5884714 
1044.1     
  0.252      539.592    -9999      -9999      8.709615   1.686      
  1.300431   0.2132138  0.2132138  0.4112744  24.91125   1.146608   
  2.066      0.3887694  0.5909222  19.90989   0.6001836  0.6135542  
  0.586813  
1044.2     
  0.252      537.54     -9999      -9999      8.721617   1.676      
  1.299899   0.2131428  0.2131428  0.4114416  24.83585   1.137632   
  2.075      0.3898377  0.5918592  19.89675   0.6009056  0.6155263  
  0.5862848 
1044.3     
  0.253      535.439    -9999      -9999      8.723693   1.666      
  1.30104    0.2126168  0.2126168  0.411083   24.28499   1.136087   
  2.084      0.3897641  0.5921338  19.91348   0.6014127  0.6158681  
  0.5869573 
1044.4     
  0.254      533.888    -9999      -9999      8.71309    1.66       
  1.303784   0.2117389  0.2117389  0.4102207  23.39251   1.144003   
  2.091      0.388524   0.5916389  19.95911   0.6014597  0.6141246  
  0.5887949 
1044.5     
  0.254      534.316    -9999      -9999      8.690432   1.671      
  1.307616   0.2106707  0.2106707  0.4090164  22.35065   1.161102   
  2.089      0.3855485  0.5899045  20.03051   0.6010478  0.6104153  
  0.5916802 
1044.6     
  0.254      527.172    -9999      -9999      8.659795   1.676      
  1.311727   0.2095813  0.2095813  0.4077241  21.33595   1.18463    
  2.121      0.3871553  0.5914007  20.12286   0.6004329  0.6054355  
  0.5954303 
1044.7     
  0.252      509.479    -9999      -9999      8.627945   1.698      
  1.315222   0.2086084  0.2086084  0.4066258  20.46877   1.209595   
  2.203      0.395523   0.5976903  20.22995   0.6000527  0.6003016  
  0.5998039 
1044.8     
  0.249      502.999    -9999      -9999      8.602885   1.806      
  1.317301   0.2078406  0.2078406  0.4059723  19.80935   1.229607   
  2.235      0.3976685  0.5996161  20.34432   0.600399   0.5962928  
  0.6045052 
1044.9     
  0.246      502.34     -9999      -9999      8.592033   1.891      
  1.317419   0.2073162  0.2073162  0.4059353  19.37124   1.238375   
  2.238      0.3967217  0.5994714  20.45746   0.6018759  0.5945652  
  0.6091867 
