~Version
 VERS              .         2.0                           : CWLS LOG ASCII STANDARD - VERSION 2.0
 WRAP              .         YES                            : ONE LINE PER DEPTH STEP
 DLM               .         SPACE                         : DELIMITING CHARACTER(SPACE TAB OR COMMA)
~Well Information
#_______________________________________________________________________________
#
#PARAMETER_NAME    .UNIT     VALUE                         : DESCRIPTION
#_______________________________________________________________________________
STRT               .M        950.5                         : First reference value
STOP               .M        1284                          : Last reference value
STEP               .M        0.1                           : Step increment
NULL               .         -9999                         : Missing value
COMP               .                                       : Company
WELL               .         4779                          : Well name
FLD                .         Узень                         : Field
LOC                .                                       : Location
CNTY               .                                       : County
STAT               .                                       : State
CTRY               .                                       : Country
SRVC               .         SCH                           : Service Company
DATE               .         31.05.1990                    : Date
UWI                .                                       : Unique Well ID
Block              .         3а                            : 
Cartographic_reference_system .         GCS_WGS_1984                  : ESRI,PE_10_3_1- <?xml version="1.0" encoding="utf-16"?><ILateBoundCoordinateReferenceSystem name="GCS_WGS_1984"><AuthorityCode>EPSG,4326</AuthorityCode></ILateBoundCoordinateReferenceSystem>
Category           .         Нефтяная                      : 
Condition          .         В работе                      : 
EREF               .m        235.8                         : 100.8
Gorizont           .         15                            : 14
HZCS               .GCS_WGS_1984 WGS_1984_EASE-Grid_2.0_Global : ESRI,PE_10_3_1- <?xml version="1.0" encoding="utf-16"?><ILateBoundCoordinateReferenceSystem name="WGS_1984_EASE-Grid_2.0_Global"><AuthorityCode>EPSG,6933</AuthorityCode></ILateBoundCoordinateReferenceSystem>
Interpretator      .         Сагынбаева А.Н.               : 
Kupol              .         основной                      : osnovnoi
LATI               .dega     0.6302116892                  : GCS_WGS_1984
LONG               .dega     0.5730203284                  : GCS_WGS_1984
Mud                .         глинистый                     : 
Mud_density        .         1,18                          : 
Mud_resistivity    .         0                             : 
NGDU               .         НГДУ-1                        : 
ORIGINALWELLNAME   .         4779                          : 
Spud_date          .         1990                          : 1961
Viscosity          .         40                            : 
X                  .m        55288.6                       : 46154
Y                  .m        80396.6                       : 85761.93
YEAR               .         2018                          : 
~Parameter Information Block
#_______________________________________________________________________________
#
#PARAMETER_NAME    .UNIT     VALUE                         : DESCRIPTION
#_______________________________________________________________________________
SET                .         LQC_KAZNIPI_Petrel            : 
PBBOTTOM           .M        1284                          : Глубина подошвы планшета
PBSCALE            .         1 _ 500                       : Вертикальный масштаб планшета
PBTOP              .M        950                           : Глубина кровли планшета
TLFamily_CALI      .         Caliper                       : 
TLFamily_CILD      .         Conductivity                  : 
TLFamily_COLL      .         Net Reservoir Flag            : 
TLFamily_CSAT      .         Fluid Code                    : 
TLFamily_DEPT      .         Measured Depth                : 
TLFamily_GR        .         Russian Gamma Ray             : 
TLFamily_LLS       .         Lateral Log Resistivity       : 
TLFamily_NGLD      .         Neutron Gamma                 : 
TLFamily_PHIE      .         Effective Porosity            : 
TLFamily_PHIEN     .         Effective Porosity            : 
TLFamily_PHIT      .         Porosity                      : 
TLFamily_PRMB      .         Permeability                  : 
TLFamily_PRMB_DGR  .         Permeability                  : 
TLFamily_RT        .         Formation Resistivity         : 
TLFamily_SOIL_ARCHIE .         Oil Saturation                : 
TLFamily_SOIL_DW   .         Oil Saturation                : 
TLFamily_SP        .         Spontaneous Potential         : 
TLFamily_VSH_FIN   .         Shale Volume                  : 
TLFamily_VSH_GR    .         Shale Volume                  : 
TLFamily_VSH_SP    .         Shale Volume                  : 
~Curve Information
#_______________________________________________________________________________
#
#LOGNAME           .UNIT     LOG_ID                        : DESCRIPTION
#_______________________________________________________________________________
DEPT               .M                                      : Колонка глубины 
CALI               .м                                      : Каверномер 
CILD               .мСм/м                                  : Индукционный каротаж 
COLL               .unitless                               : Описание 
CSAT               .unitless                               :  
GR                 .uR/h                                   : Гамма каротаж 
LLS                .Ohmm                                   : Боковой каротаж 
NGLD               .у.е.                                   : Показания зонда НГК-60 аппаратуры ДРСТ-3-90 
PHIE               .v/v                                    : Описание 
PHIEN              .v/v                                    :  
PHIT               .v/v                                    : Описание 
PRMB               .mD                                     :  
PRMB_DGR           .mD                                     :  
RT                 .ohmm                                   : УЭС пласта 
SOIL_ARCHIE        .v/v                                    :  
SOIL_DW            .v/v                                    :  
SP                 .мВ                                     : Потенциал самополяризации 
VSH_FIN            .v/v                                    : Описание 
VSH_GR             .v/v                                    : Shale volume 
VSH_SP             .v/v                                    : Shale Volume 
~Ascii
# ...
1192       
  0.229      303.717    8          2          7.791086   3.484      
  1.651454   0.2096431  0.2096431  0.300948   21.39229   10.34673   
  4.03       0.5529656  0.6493007  17.76406   0.2766814  0.2498827  
  0.3034801 
1192.1     
  0.229      302.638    8          2          7.697922   3.828      
  1.660285   0.2090166  0.2090166  0.2981724  20.82825   11.38691   
  4.048      0.5527351  0.6477397  17.68256   0.270169   0.240297   
  0.300041  
1192.2     
  0.229      299.385    8          2          7.611175   4.508      
  1.667864   0.208652   0.208652   0.2957903  20.50688   12.44925   
  4.102      0.5548314  0.6481639  17.59531   0.2640556  0.2317024  
  0.2964087 
1192.3     
  0.229      289.338    8          2          7.539911   5.299      
  1.673553   0.2086134  0.2086134  0.2940023  20.47312   13.39573   
  4.278      0.5634512  0.6542261  17.50337   0.2587542  0.2248724  
  0.2926359 
1192.4     
  0.228      282.577    8          2          7.491925   6.168      
  1.677006   0.2089035  0.2089035  0.2929169  20.72801   14.07327   
  4.406      0.56997    0.6587448  17.40809   0.254586   0.2203871  
  0.2887848 
1192.5     
  0.228      280.356    8          2          7.472603   6.964      
  1.678234   0.2094486  0.2094486  0.292531   21.21556   14.35566   
  4.449      0.5728958  0.6605039  17.31104   0.2517648  0.2186065  
  0.2849232 
1192.6     
  0.227      277.89     8          2          7.484171   7.489      
  1.67756    0.2101109  0.2101109  0.2927428  21.82335   14.18591   
  4.499      0.5762965  0.6629811  17.21414   0.2503998  0.2196708  
  0.2811288 
1192.7     
  0.226      278.774    8          2          7.525504   7.555      
  1.675477   0.2107321  0.2107321  0.2933975  22.40929   13.59565   
  4.481      0.5765888  0.663159   17.11963   0.2505011  0.2235163  
  0.277486  
1192.8     
  0.225      287.914    8          2          7.592418   7.269      
  1.672477   0.2111859  0.2111859  0.2943404  22.84726   12.69169   
  4.305      0.5693597  0.6572928  17.02993   0.2519832  0.2298848  
  0.2740815 
1192.9     
  0.224      294.738    8          2          7.678382   6.75       
  1.668938   0.2114138  0.2114138  0.2954527  23.07036   11.61801   
  4.182      0.5638716  0.6532105  16.94738   0.2546635  0.2383337  
  0.2709933 
1193       
  0.224      297.511    8          2          7.775428   6.055      
  1.665096   0.2114339  0.2114339  0.2966603  23.09017   10.51466   
  4.134      0.5615389  0.6520475  16.87384   0.2582618  0.2482453  
  0.2682783 
1193.1     
  0.223      298.836    8          2          7.875103   5.496      
  1.661064   0.2113312  0.2113312  0.2979277  22.98926   9.490412   
  4.111      0.5602034  0.6518742  16.81066   0.2624137  0.2588547  
  0.2659726 
1193.2     
  0.222      300.241    8          2          7.969317   4.996      
  1.656878   0.2112329  0.2112329  0.2992433  22.89305   8.614171   
  4.088      0.5588652  0.651728   16.75876   0.2666983  0.2692993  
  0.2640972 
1193.3     
  0.222      301.92     8          2          8.05114    4.555      
  1.65256    0.2112724  0.2112724  0.3006003  22.93169   7.919093   
  4.06       0.5575123  0.6514808  16.71893   0.2706904  0.2787116  
  0.2626693 
1193.4     
  0.223      304.142    8          2          8.115415   4.199      
  1.648107   0.211572   0.211572   0.302      23.22656   7.412648   
  4.024      0.5562071  0.6510815  16.6921    0.2740242  0.2863354  
  0.261713  
1193.5     
  0.223      307.079    8          2          8.159268   3.921      
  1.643491   0.2122183  0.2122183  0.3034508  23.8757    7.085822   
  3.977      0.5549375  0.6504518  16.67957   0.2764621  0.2916563  
  0.2612678 
1193.6     
  0.224      310.784    8          2          8.182432   3.701      
  1.638675   0.2132434  0.2132434  0.3049645  24.94265   6.919047   
  3.919      0.5537354  0.6495996  16.6827    0.2779428  0.2945067  
  0.2613789 
1193.7     
  0.225      322.098    8          2          8.187387   3.596      
  1.633667   0.2146005  0.2146005  0.3065386  26.42897   6.883884   
  3.752      0.5470319  0.6439017  16.70243   0.2786003  0.2951201  
  0.2620805 
1193.8     
  0.226      329.854    8          2          8.179021   3.569      
  1.628513   0.2161773  0.2161773  0.3081583  28.26738   6.943361   
  3.646      0.5438169  0.6409661  16.73867   0.2787305  0.2940852  
  0.2633758 
1193.9     
  0.227      331.96     8          2          8.16383    3.58       
  1.623327   0.2178124  0.2178124  0.3097883  30.3091    7.052668   
  3.619      0.5452176  0.6418608  16.78972   0.2787147  0.2922154  
  0.2652141 
1194       
  0.227      329.189    8          2          8.148573   3.578      
  1.618272   0.2193356  0.2193356  0.311377   32.34333   7.164177   
  3.655      0.5500641  0.6457195  16.85198   0.2789136  0.2903496  
  0.2674776 
1194.1     
  0.228      323.99     8          2          8.13878    3.547      
  1.613525   0.2206114  0.2206114  0.3128692  34.15203   7.236685   
  3.726      0.5563548  0.6509321  16.92004   0.2795691  0.2891582  
  0.26998   
1194.2     
  0.228      309.75     8          2          8.137214   3.462      
  1.609238   0.2215776  0.2215776  0.3142166  35.58871   7.248345   
  3.935      0.5692151  0.6617954  16.98728   0.2807243  0.2889681  
  0.2724805 
1194.3     
  0.228      303.054    8          2          8.143058   3.341      
  1.605547   0.2222524  0.2222524  0.3153765  36.6279    7.204921   
  4.041      0.5756805  0.6673993  17.0466    0.2821941  0.289678   
  0.2747102 
1194.4     
  0.228      299.901    8          2          8.151987   3.236      
  1.602597   0.2227199  0.2227199  0.3163038  37.3655    7.139073   
  4.093      0.5789899  0.6703737  17.09141   0.2835877  0.2907661  
  0.2764093 
1194.5     
  0.228      298.68     8          2          8.157277   3.192      
  1.600566   0.2230935  0.2230935  0.316942   37.9656    7.100348   
  4.114      0.5806124  0.6718318  17.1165    0.2843894  0.2914126  
  0.2773663 
1194.6     
  0.228      297.248    8          2          8.151506   3.192      
  1.599679   0.2234748  0.2234748  0.3172207  38.58816   7.142601   
  4.138      0.5823773  0.6731848  17.11868   0.2840785  0.2907074  
  0.2774496 
1194.7     
  0.228      296.133    8          2          8.128577   3.206      
  1.600143   0.2239249  0.2239249  0.317075   39.33606   7.313      
  4.157      0.5840037  0.6741167  17.09703   0.2822728  0.2879222  
  0.2766234 
1194.8     
  0.228      290.093    8          2          8.085328   3.334      
  1.602071   0.2244508  0.2244508  0.3164691  40.22824   7.645549   
  4.265      0.5898194  0.6782221  17.05282   0.2788433  0.2827411  
  0.2749455 
1194.9     
  0.228      285.241    8          2          8.022291   3.623      
  1.605394   0.2250209  0.2250209  0.3154247  41.21844   8.157517   
  4.355      0.5947158  0.681284   16.98902   0.2739508  0.2753561  
  0.2725455 
1195       
  0.228      281.979    8          2          7.943533   4.104      
  1.609792   0.2256027  0.2256027  0.3140424  42.25391   8.845604   
  4.417      0.5982997  0.6830558  16.90973   0.2679994  0.2663997  
  0.269599  
1195.1     
  0.227      280.226    1          2          7.855751   4.815      
  1.61472    0.2261888  0.2261888  0.3124937  43.3235    9.681151   
  4.452      0.6006882  0.6837331  16.81966   0.2615298  0.2567599  
  0.2662997 
1195.2     
  0.226      279.257    1          2          7.767029   5.723      
  1.619515   0.2268004  0.2268004  0.3109863  44.46847   10.60587   
  4.471      0.6024216  0.6838703  16.72388   0.2551088  0.2473714  
  0.2628462 
1195.3     
  0.226      278.895    1          2          7.685438   6.731      
  1.623556   0.227467   0.227467   0.3097163  45.75087   11.53403   
  4.478      0.6037275  0.6837505  16.62783   0.2492402  0.2390407  
  0.2594397 
1195.4     
  0.225      279.17     1          2          7.617961   7.52       
  1.626442   0.2281812  0.2281812  0.3088092  47.16586   12.3627    
  4.473      0.6046007  0.6834475  16.5376    0.2443273  0.2323635  
  0.2562911 
