~Version
 VERS              .         2.0                           : CWLS LOG ASCII STANDARD - VERSION 2.0
 WRAP              .         YES                            : ONE LINE PER DEPTH STEP
 DLM               .         SPACE                         : DELIMITING CHARACTER(SPACE TAB OR COMMA)
~Well Information
#_______________________________________________________________________________
#
#PARAMETER_NAME    .UNIT     VALUE                         : DESCRIPTION
#_______________________________________________________________________________
STRT               .M        950.5                         : First reference value
STOP               .M        1284                          : Last reference value
STEP               .M        0.1                           : Step increment
NULL               .         -9999                         : Missing value
COMP               .                                       : Company
WELL               .         4779                          : Well name
FLD                .         Узень                         : Field
LOC                .                                       : Location
CNTY               .                                       : County
STAT               .                                       : State
CTRY               .                                       : Country
SRVC               .         SCH                           : Service Company
DATE               .         31.05.1990                    : Date
UWI                .                                       : Unique Well ID
Block              .         3а                            : 
Cartographic_reference_system .         GCS_WGS_1984                  : ESRI,PE_10_3_1- <?xml version="1.0" encoding="utf-16"?><ILateBoundCoordinateReferenceSystem name="GCS_WGS_1984"><AuthorityCode>EPSG,4326</AuthorityCode></ILateBoundCoordinateReferenceSystem>
Category           .         Нефтяная                      : 
Condition          .         В работе                      : 
EREF               .m        235.8                         : 100.8
Gorizont           .         15                            : 14
HZCS               .GCS_WGS_1984 WGS_1984_EASE-Grid_2.0_Global : ESRI,PE_10_3_1- <?xml version="1.0" encoding="utf-16"?><ILateBoundCoordinateReferenceSystem name="WGS_1984_EASE-Grid_2.0_Global"><AuthorityCode>EPSG,6933</AuthorityCode></ILateBoundCoordinateReferenceSystem>
Interpretator      .         Сагынбаева А.Н.               : 
Kupol              .         основной                      : osnovnoi
LATI               .dega     0.6302116892                  : GCS_WGS_1984
LONG               .dega     0.5730203284                  : GCS_WGS_1984
Mud                .         глинистый                     : 
Mud_density        .         1,18                          : 
Mud_resistivity    .         0                             : 
NGDU               .         НГДУ-1                        : 
ORIGINALWELLNAME   .         4779                          : 
Spud_date          .         1990                          : 1961
Viscosity          .         40                            : 
X                  .m        55288.6                       : 46154
Y                  .m        80396.6                       : 85761.93
YEAR               .         2018                          : 
~Parameter Information Block
#_______________________________________________________________________________
#
#PARAMETER_NAME    .UNIT     VALUE                         : DESCRIPTION
#_______________________________________________________________________________
SET                .         LQC_KAZNIPI_Petrel            : 
PBBOTTOM           .M        1284                          : Глубина подошвы планшета
PBSCALE            .         1 _ 500                       : Вертикальный масштаб планшета
PBTOP              .M        950                           : Глубина кровли планшета
TLFamily_CALI      .         Caliper                       : 
TLFamily_CILD      .         Conductivity                  : 
TLFamily_COLL      .         Net Reservoir Flag            : 
TLFamily_CSAT      .         Fluid Code                    : 
TLFamily_DEPT      .         Measured Depth                : 
TLFamily_GR        .         Russian Gamma Ray             : 
TLFamily_LLS       .         Lateral Log Resistivity       : 
TLFamily_NGLD      .         Neutron Gamma                 : 
TLFamily_PHIE      .         Effective Porosity            : 
TLFamily_PHIEN     .         Effective Porosity            : 
TLFamily_PHIT      .         Porosity                      : 
TLFamily_PRMB      .         Permeability                  : 
TLFamily_PRMB_DGR  .         Permeability                  : 
TLFamily_RT        .         Formation Resistivity         : 
TLFamily_SOIL_ARCHIE .         Oil Saturation                : 
TLFamily_SOIL_DW   .         Oil Saturation                : 
TLFamily_SP        .         Spontaneous Potential         : 
TLFamily_VSH_FIN   .         Shale Volume                  : 
TLFamily_VSH_GR    .         Shale Volume                  : 
TLFamily_VSH_SP    .         Shale Volume                  : 
~Curve Information
#_______________________________________________________________________________
#
#LOGNAME           .UNIT     LOG_ID                        : DESCRIPTION
#_______________________________________________________________________________
DEPT               .M                                      : Колонка глубины 
CALI               .м                                      : Каверномер 
CILD               .мСм/м                                  : Индукционный каротаж 
COLL               .unitless                               : Описание 
CSAT               .unitless                               :  
GR                 .uR/h                                   : Гамма каротаж 
LLS                .Ohmm                                   : Боковой каротаж 
NGLD               .у.е.                                   : Показания зонда НГК-60 аппаратуры ДРСТ-3-90 
PHIE               .v/v                                    : Описание 
PHIEN              .v/v                                    :  
PHIT               .v/v                                    : Описание 
PRMB               .mD                                     :  
PRMB_DGR           .mD                                     :  
RT                 .ohmm                                   : УЭС пласта 
SOIL_ARCHIE        .v/v                                    :  
SOIL_DW            .v/v                                    :  
SP                 .мВ                                     : Потенциал самополяризации 
VSH_FIN            .v/v                                    : Описание 
VSH_GR             .v/v                                    : Shale volume 
VSH_SP             .v/v                                    : Shale Volume 
~Ascii
# ...
954        
  0.22       278.403    -9999      -9999      6.689154   5.59       
  1.739284   -9999      -9999      -9999      -9999      -9999      
  4.488      -9999      -9999      8.941572   -9999      0.07467351 
  0.1241342 
954.1      
  0.219      270.035    -9999      -9999      6.510822   5.824      
  1.76889    -9999      -9999      -9999      -9999      -9999      
  4.663      -9999      -9999      8.864946   -9999      0.06896377 
  0.1238726 
954.2000000000001 
  0.219      265.227    -9999      -9999      6.353952   5.911      
  1.807078   -9999      -9999      -9999      -9999      -9999      
  4.77       -9999      -9999      8.82118    -9999      0.06859596 
  0.1236952 
954.3      
  0.219      264.877    -9999      -9999      6.209474   5.737      
  1.856384   0.1362475  0.1362475  0.2365386  0.9349591  2.067423   
  4.778      0.3908452  0.5512086  8.817766   0.3039125  0.4822961  
  0.1255289 
954.4      
  0.219      266.096    -9999      -9999      6.065251   5.21       
  1.918258   0.1220352  0.1220352  0.2170915  0.5099713  2.445114   
  4.751      0.3277171  0.5048693  8.860367   0.2880495  0.4503588  
  0.1257402 
954.5      
  0.219      266.784    -9999      -9999      5.909085   4.813      
  1.992555   0.1039197  0.1039197  0.1937398  0.2355068  2.932266   
  4.735      0.2255012  0.4339325  8.95238    0.2721821  0.418157   
  0.1262071 
954.6      
  0.219      265.975    6          6          5.731527   4.645      
  2.07729    0.08274474 0.08274474 0.1671078  0.0954534  3.60509    
  4.753      0.05716676 0.3243693  9.094906   0.2556457  0.3843322  
  0.1269592 
954.7000000000001 
  0.219      263.183    6          6          5.527738   4.57       
  2.168629   0.05971168 0.05971168 0.1383999  0.03574071 4.56964    
  4.817      0          0.14645    9.286746   0.2384492  0.348869   
  0.1280295 
954.8      
  0.219      258.07     6          6          5.2981     4.862      
  2.261261   0.03631145 0.03631145 0.1092855  0.0131745  5.969097   
  4.939      0          0          9.524501   0.2211335  0.312813   
  0.1294541 
954.9      
  0.219      250.967    6          6          5.047648   5.503      
  2.348948   0.01424202 0.01424202 0.08172572 0.005139902 7.988244   
  5.119      0          0          9.802677   0.204496   0.2777238  
  0.1312682 
955        
  0.219      242.769    6          6          4.784915   6.785      
  2.425319   0.01       0          0.05772233 0.004289259 10.84425   
  5.343      0          0          10.11378   0.1893181  0.2451363  
  0.1334998 
955.1      
  0.219      234.178    6          6          4.520209   8.799      
  2.484653   0.01       0          0.03907364 0.004289259 14.75517   
  5.6        0          0          10.44849   0.1761643  0.2161699  
  0.1361587 
955.2000000000001 
  0.219      226.016    6          6          4.264155   12.199     
  2.522607   0.01       0          0.02714452 0.004289259 19.87548   
  5.868      0          0          10.7958    0.1653172  0.1914114  
  0.1392229 
955.3      
  0.218      219.02     6          6          4.026042   17.855     
  2.536706   0.01       0          0.02271316 0.004289259 26.21962   
  6.119      0          0          11.14352   0.1567825  0.1709392  
  0.1426257 
955.4      
  0.218      213.691    6          6          3.812744   22.837     
  2.526577   0.01       0          0.02589693 0.004289259 33.60448   
  6.326      0          0          11.4789    0.1503573  0.1544668  
  0.1462478 
955.5      
  0.217      209.988    6          6          3.628039   26.68      
  2.493901   0.01       0          0.03616706 0.004289259 41.66015   
  6.477      0          0          11.78969   0.1457061  0.1414908  
  0.1499214 
955.6      
  0.216      207.933    6          6          3.472714   27.229     
  2.442037   0.01       0.005463656 0.05246766 0.004289259 49.91143   
  6.565      0          0          12.06515   0.1424364  0.1314263  
  0.1534464 
955.7000000000001 
  0.216      207.361    6          6          3.344867   25.346     
  2.37553    0.02712081 0.02712081 0.07337077 0.008902282 57.91562   
  6.589      0          0          12.29716   0.1401514  0.1236818  
  0.1566209 
955.8      
  0.216      208.258    6          6          3.240954   20.885     
  2.299505   0.05156052 0.05156052 0.09726565 0.0252455  65.35798   
  6.551      0          0.0369896  12.48111   0.1385004  0.1177246  
  0.1592762 
955.9      
  0.216      209.737    6          6          3.156895   16.774     
  2.21908    0.07726312 0.07726312 0.1225431  0.07555416 72.07265   
  6.488      0.1351438  0.2830005  12.61629   0.137212   0.1131161  
  0.1613079 
956        
  0.216      214.326    6          6          3.088972   12.056     
  2.138834   0.1028485  0.1028485  0.1477645  0.2249894  77.99899   
  6.3        0.316495   0.4204045  12.70595   0.1361092  0.1095245  
  0.1626939 
956.1      
  0.216      221.252    6          6          3.034374   9.529      
  2.062503   0.1271701  0.1271701  0.1717553  0.6348279  83.11414   
  6.037      0.4203821  0.5034679  12.75677   0.1351067  0.1067203  
  0.1634932 
956.2000000000001 
  0.216      229.806    6          6          2.991387   7.8        
  1.992727   0.1494009  0.1494009  0.193686   1.638421   87.37652   
  5.74       0.484197   0.5560852  12.77809   0.1341972  0.104563   
  0.1638315 
956.3      
  0.216      240.438    1          3          2.95913    5.986      
  1.930995   0.1690584  0.1690584  0.2130884  3.789045   90.71781   
  5.41       0.5237938  0.589257   12.78085   0.1334242  0.1029729  
  0.1638755 
956.4      
  0.216      251.742    1          3          2.936942   4.271      
  1.877731   0.185989   0.185989   0.2298293  7.800569   93.09013   
  5.098      0.5493916  0.610954   12.77643   0.1328492  0.1018932  
  0.1638052 
956.5      
  0.216      260.149    1          3          2.923759   3.797      
  1.832498   0.2003129  0.2003129  0.2440458  14.36944   94.52884   
  4.889      0.5692087  0.6280996  12.77551   0.1325237  0.1012571  
  0.1637904 
956.6      
  0.216      266.893    1          3          2.917706   3.513      
  1.794329   0.2123271  0.2123271  0.2560425  23.98671   95.19682   
  4.733      0.5842389  0.6412901  12.78713   0.132471   0.1009663  
  0.1639755 
956.7000000000001 
  0.216      273.948    1          3          2.915928   3.334      
  1.762034   0.22241    0.22241    0.2661928  36.87496   95.39392   
  4.58       0.5944991  0.6503672  12.81795   0.1326749  0.1008811  
  0.1644688 
956.8      
  0.215      282.718    1          3          2.914826   3.252      
  1.734541   0.2309161  0.2309161  0.2748336  53.00108   95.5163    
  4.403      0.6002138  0.6554371  12.87173   0.1330834  0.1008283  
  0.1653385 
956.9      
  0.215      294.231    1          3          2.910653   3.09       
  1.711068   0.2381162  0.2381162  0.2822114  72.05244   95.98114   
  4.191      0.6016447  0.6566769  12.94941   0.1336218  0.1006286  
  0.1666149 
957        
  0.215      307.009    1          3          2.900215   2.815      
  1.691226   0.244158   0.244158   0.2884476  93.23019   97.15383   
  3.978      0.6005862  0.6556919  13.04926   0.134211   0.1001309  
  0.1682911 
957.1      
  0.215      320.134    1          3          2.881507   2.64       
  1.674908   0.2490973  0.2490973  0.2935764  115.0919   99.29156   
  3.78       0.5979756  0.653314   13.1673    0.134785   0.09924491 
  0.1703251 
957.2000000000001 
  0.215      333.384    1          3          2.854068   2.549      
  1.662157   0.2529349  0.2529349  0.2975841  135.5581   102.5124   
  3.6        0.5941057  0.6497942  13.29787   0.1353007  0.09795964 
  0.1726418 
957.3      
  0.215      343.798    1          3          2.819039   2.485      
  1.652944   0.255686   0.255686   0.3004797  152.4342   106.7763   
  3.47       0.5909121  0.6469021  13.43402   0.1357384  0.09634301 
  0.1751339 
957.4      
  0.215      353.573    1          3          2.778939   2.421      
  1.647058   0.2574187  0.2574187  0.3023296  164.1258   111.8757   
  3.356      0.5868861  0.6432454  13.56794   0.1360938  0.09452507 
  0.1776625 
