~Version
 VERS              .         2.0                           : CWLS LOG ASCII STANDARD - VERSION 2.0
 WRAP              .         YES                            : ONE LINE PER DEPTH STEP
 DLM               .         SPACE                         : DELIMITING CHARACTER(SPACE TAB OR COMMA)
~Well Information
#_______________________________________________________________________________
#
#PARAMETER_NAME    .UNIT     VALUE                         : DESCRIPTION
#_______________________________________________________________________________
STRT               .M        950.5                         : First reference value
STOP               .M        1284                          : Last reference value
STEP               .M        0.1                           : Step increment
NULL               .         -9999                         : Missing value
COMP               .                                       : Company
WELL               .         4779                          : Well name
FLD                .         Узень                         : Field
LOC                .                                       : Location
CNTY               .                                       : County
STAT               .                                       : State
CTRY               .                                       : Country
SRVC               .         SCH                           : Service Company
DATE               .         31.05.1990                    : Date
UWI                .                                       : Unique Well ID
Block              .         3а                            : 
Cartographic_reference_system .         GCS_WGS_1984                  : ESRI,PE_10_3_1- <?xml version="1.0" encoding="utf-16"?><ILateBoundCoordinateReferenceSystem name="GCS_WGS_1984"><AuthorityCode>EPSG,4326</AuthorityCode></ILateBoundCoordinateReferenceSystem>
Category           .         Нефтяная                      : 
Condition          .         В работе                      : 
EREF               .m        235.8                         : 100.8
Gorizont           .         15                            : 14
HZCS               .GCS_WGS_1984 WGS_1984_EASE-Grid_2.0_Global : ESRI,PE_10_3_1- <?xml version="1.0" encoding="utf-16"?><ILateBoundCoordinateReferenceSystem name="WGS_1984_EASE-Grid_2.0_Global"><AuthorityCode>EPSG,6933</AuthorityCode></ILateBoundCoordinateReferenceSystem>
Interpretator      .         Сагынбаева А.Н.               : 
Kupol              .         основной                      : osnovnoi
LATI               .dega     0.6302116892                  : GCS_WGS_1984
LONG               .dega     0.5730203284                  : GCS_WGS_1984
Mud                .         глинистый                     : 
Mud_density        .         1,18                          : 
Mud_resistivity    .         0                             : 
NGDU               .         НГДУ-1                        : 
ORIGINALWELLNAME   .         4779                          : 
Spud_date          .         1990                          : 1961
Viscosity          .         40                            : 
X                  .m        55288.6                       : 46154
Y                  .m        80396.6                       : 85761.93
YEAR               .         2018                          : 
~Parameter Information Block
#_______________________________________________________________________________
#
#PARAMETER_NAME    .UNIT     VALUE                         : DESCRIPTION
#_______________________________________________________________________________
SET                .         LQC_KAZNIPI_Petrel            : 
PBBOTTOM           .M        1284                          : Глубина подошвы планшета
PBSCALE            .         1 _ 500                       : Вертикальный масштаб планшета
PBTOP              .M        950                           : Глубина кровли планшета
TLFamily_CALI      .         Caliper                       : 
TLFamily_CILD      .         Conductivity                  : 
TLFamily_COLL      .         Net Reservoir Flag            : 
TLFamily_CSAT      .         Fluid Code                    : 
TLFamily_DEPT      .         Measured Depth                : 
TLFamily_GR        .         Russian Gamma Ray             : 
TLFamily_LLS       .         Lateral Log Resistivity       : 
TLFamily_NGLD      .         Neutron Gamma                 : 
TLFamily_PHIE      .         Effective Porosity            : 
TLFamily_PHIEN     .         Effective Porosity            : 
TLFamily_PHIT      .         Porosity                      : 
TLFamily_PRMB      .         Permeability                  : 
TLFamily_PRMB_DGR  .         Permeability                  : 
TLFamily_RT        .         Formation Resistivity         : 
TLFamily_SOIL_ARCHIE .         Oil Saturation                : 
TLFamily_SOIL_DW   .         Oil Saturation                : 
TLFamily_SP        .         Spontaneous Potential         : 
TLFamily_VSH_FIN   .         Shale Volume                  : 
TLFamily_VSH_GR    .         Shale Volume                  : 
TLFamily_VSH_SP    .         Shale Volume                  : 
~Curve Information
#_______________________________________________________________________________
#
#LOGNAME           .UNIT     LOG_ID                        : DESCRIPTION
#_______________________________________________________________________________
DEPT               .M                                      : Колонка глубины 
CALI               .м                                      : Каверномер 
CILD               .мСм/м                                  : Индукционный каротаж 
COLL               .unitless                               : Описание 
CSAT               .unitless                               :  
GR                 .uR/h                                   : Гамма каротаж 
LLS                .Ohmm                                   : Боковой каротаж 
NGLD               .у.е.                                   : Показания зонда НГК-60 аппаратуры ДРСТ-3-90 
PHIE               .v/v                                    : Описание 
PHIEN              .v/v                                    :  
PHIT               .v/v                                    : Описание 
PRMB               .mD                                     :  
PRMB_DGR           .mD                                     :  
RT                 .ohmm                                   : УЭС пласта 
SOIL_ARCHIE        .v/v                                    :  
SOIL_DW            .v/v                                    :  
SP                 .мВ                                     : Потенциал самополяризации 
VSH_FIN            .v/v                                    : Описание 
VSH_GR             .v/v                                    : Shale volume 
VSH_SP             .v/v                                    : Shale Volume 
~Ascii
# ...
1279.5     
  -9999      504.501    -9999      -9999      9.461617   2.114      
  1.666021   0.1592105  0.1592105  0.2963697  2.489564   1.856879   
  2.228      0.2604971  0.4753966  19.97696   0.4156338  0.5039192  
  0.3273484 
1279.6     
  -9999      506.025    -9999      -9999      9.491421   2.115      
  1.661882   0.1592802  0.1592802  0.2976706  2.496977   1.800836   
  2.22       0.2595301  0.475931   19.99506   0.4193648  0.5102647  
  0.3284648 
1279.7     
  -9999      506.032    -9999      -9999      9.514078   2.109      
  1.65723    0.1595562  0.1595562  0.2991326  2.526534   1.759366   
  2.22       0.2606454  0.4778375  20.0323    0.4229588  0.515142   
  0.3307756 
1279.8     
  -9999      502.22     -9999      -9999      9.528904   2.089      
  1.652399   0.1600027  0.1600027  0.300651   2.575114   1.732749   
  2.239      0.2653867  0.4822191  20.08467   0.4262069  0.5183587  
  0.3340551 
1279.9     
  -9999      494.006    -9999      -9999      9.536171   2.064      
  1.647514   0.1606241  0.1606241  0.3021863  2.64427    1.71985    
  2.281      0.2742197  0.4893686  20.14711   0.4289765  0.5199427  
  0.3380103 
1280       
  -9999      485.786    -9999      -9999      9.536879   2.044      
  1.642557   0.1614488  0.1614488  0.3037443  2.738929   1.718599   
  2.325      0.2838989  0.4968135  20.21396   0.4311987  0.5200972  
  0.3423002 
1280.1     
  -9999      479.669    -9999      -9999      9.532545   2.025      
  1.637439   0.1625096  0.1625096  0.3053529  2.865691   1.726274   
  2.358      0.2926654  0.5032282  20.27956   0.4328586  0.5191517  
  0.3465655 
1280.2     
  -9999      477.039    -9999      -9999      9.524975   2.01       
  1.63206    0.1638313  0.1638313  0.3070437  3.031879   1.739764   
  2.373      0.2997251  0.50803    20.33856   0.4339768  0.5175043  
  0.3504493 
1280.3     
  -9999      481.052    -9999      -9999      9.516046   2.005      
  1.626343   0.1654244  0.1654244  0.3088405  3.245031   1.755811   
  2.35       0.3024212  0.5092518  20.38624   0.4345944  0.5155677  
  0.3536211 
1280.4     
  -9999      491.605    -9999      -9999      9.507549   2          
  1.620216   0.1672954  0.1672954  0.310766   3.514585   1.771218   
  2.294      0.3013584  0.507359   20.41854   0.4347595  0.5137318  
  0.3557871 
1280.5     
  -9999      504.097    -9999      -9999      9.500971   1.994      
  1.613588   0.1694604  0.1694604  0.3128492  3.854566   1.783239   
  2.23       0.2999044  0.5048822  20.43222   0.4345116  0.5123148  
  0.3567084 
1280.6     
  -9999      515.401    -9999      -9999      9.497305   1.969      
  1.606374   0.1719383  0.1719383  0.3151166  4.284235   1.789974   
  2.175      0.3005513  0.5037094  20.42498   0.4338736  0.5115269  
  0.3562204 
1280.7     
  -9999      524.215    -9999      -9999      9.497087   1.945      
  1.598537   0.1747333  0.1747333  0.3175798  4.826614   1.790375   
  2.134      0.304119   0.504498   20.39573   0.4328682  0.51148    
  0.3542563 
1280.8     
  -9999      530.165    -9999      -9999      9.500486   1.923      
  1.590155   0.1778051  0.1778051  0.3202142  5.50224    1.784128   
  2.107      0.3104938  0.5072402  20.34498   0.4315428  0.5122106  
  0.3508749 
1280.9     
  -9999      533.812    -9999      -9999      9.507401   1.907      
  1.581474   0.1810461  0.1810461  0.3229426  6.317887   1.771486   
  2.091      0.3188246  0.5114109  20.27518   0.4299892  0.5136999  
  0.3462786 
1281       
  -9999      535.509    -9999      -9999      9.517588   1.907      
  1.572917   0.1842749  0.1842749  0.3256322  7.250638   1.753029   
  2.084      0.328175   0.5164528  20.19083   0.4283553  0.5159016  
  0.340809  
1281.1     
  -9999      537.272    -9999      -9999      9.530787   1.915      
  1.565026   0.1872538  0.1872538  0.3281122  8.232915   1.729397   
  2.076      0.3362964  0.5208101  20.09837   0.4268435  0.5187688  
  0.3349182 
1281.2     
  -9999      539.119    -9999      -9999      9.546801   1.916      
  1.558365   0.1897281  0.1897281  0.3302059  9.149202   1.701155   
  2.068      0.3426514  0.5242229  20.00551   0.4256901  0.5222684  
  0.3291118 
1281.3     
  -9999      540.294    -9999      -9999      9.565612   1.915      
  1.553356   0.1914809  0.1914809  0.3317801  9.859372   1.668566   
  2.063      0.3471541  0.5267523  19.92046   0.425149   0.5264097  
  0.3238883 
1281.4     
  -9999      541.061    -9999      -9999      9.587461   1.909      
  1.550153   0.1923823  0.1923823  0.3327868  10.2458    1.631497   
  2.06       0.3493749  0.528157   19.85076   0.4254682  0.5312611  
  0.3196753 
1281.5     
  -9999      541.733    -9999      -9999      9.612838   1.903      
  1.548581   0.1924134  0.1924134  0.3332811  10.2594    1.589478   
  2.057      0.3490215  0.5282624  19.80248   0.4268718  0.5369517  
  0.3167919 
1281.6     
  -9999      542.677    -9999      -9999      9.642312   1.901      
  1.548147   0.191672   0.191672   0.3334174  9.940035   1.542029   
  2.053      0.3462318  0.5271851  19.77942   0.4295315  0.5436379  
  0.3154252 
1281.7     
  -9999      543.723    -9999      -9999      9.676249   1.9        
  1.548188   0.1903383  0.1903383  0.3334045  9.390423   1.489148   
  2.049      0.3416417  0.5253838  19.78286   0.433534   0.5514395  
  0.3156286 
1281.8     
  -9999      544.946    -9999      -9999      9.714384   1.896      
  1.548038   0.1886351  0.1886351  0.3334517  8.732492   1.431885   
  2.044      0.3357063  0.5231283  19.81162   0.4388379  0.56034    
  0.3173358 
1281.9     
  -9999      546.081    -9999      -9999      9.755548   1.887      
  1.54723    0.1867755  0.1867755  0.3337057  8.066647   1.372543   
  2.039      0.3291789  0.5208662  19.86245   0.4452431  0.5701088  
  0.3203775 
1282       
  -9999      546.511    -9999      -9999      9.797696   1.88       
  1.545593   0.1849312  0.1849312  0.3342201  7.456473   1.31433    
  2.037      0.3230445  0.519173   19.93039   0.4523905  0.5802875  
  0.3244935 
1282.1     
  -9999      546.431    -9999      -9999      9.838281   1.875      
  1.543291   0.1832068  0.1832068  0.3349435  6.927762   1.260611   
  2.037      0.3174983  0.5180025  20.00945   0.4598081  0.5902603  
  0.329356  
1282.2     
  -9999      546.599    -9999      -9999      9.874776   1.873      
  1.540734   0.1816438  0.1816438  0.3357472  6.48101    1.214182   
  2.037      0.3123863  0.5170563  20.09309   0.4669799  0.5993745  
  0.3345852 
1282.3     
  -9999      547.207    -9999      -9999      9.905346   1.871      
  1.538441   0.1802304  0.1802304  0.336468   6.101871   1.17661    
  2.034      0.3072132  0.5158275  20.17475   0.473447   0.6071172  
  0.3397768 
1282.4     
  -9999      548.172    -9999      -9999      9.929344   1.871      
  1.536875   0.1789239  0.1789239  0.3369601  5.771161   1.147931   
  2.03       0.3021649  0.5143819  20.24836   0.4788975  0.6132655  
  0.3445295 
1282.5     
  -9999      549.82     -9999      -9999      9.947228   1.873      
  1.536346   0.1776751  0.1776751  0.3371263  5.471818   1.127014   
  2.023      0.2967559  0.5123398  20.30878   0.4831856  0.6178877  
  0.3484834 
1282.6     
  -9999      551.403    -9999      -9999      9.960159   1.871      
  1.536923   0.1764664  0.1764664  0.3369451  5.196889   1.112129   
  2.017      0.2915758  0.5101383  20.35209   0.4862991  0.6212515  
  0.3513467 
1282.7     
  -9999      552.205    -9999      -9999      9.969329   1.874      
  1.538412   -9999      -9999      -9999      -9999      -9999      
  2.014      -9999      -9999      20.37584   -9999      0.8        
  0.1709479 
1282.8     
  -9999      551.467    -9999      -9999      9.975187   1.876      
  1.540386   -9999      -9999      -9999      -9999      -9999      
  2.017      -9999      -9999      20.37892   -9999      0.8        
  0.1708634 
1282.9     
  -9999      549.995    -9999      -9999      9.977034   1.88       
  1.542254   -9999      -9999      -9999      -9999      -9999      
  2.023      -9999      -9999      20.36156   -9999      0.8        
  0.1707298 
