~Version
 VERS              .         2.0                           : CWLS LOG ASCII STANDARD - VERSION 2.0
 WRAP              .         YES                            : ONE LINE PER DEPTH STEP
 DLM               .         SPACE                         : DELIMITING CHARACTER(SPACE TAB OR COMMA)
~Well Information
#_______________________________________________________________________________
#
#PARAMETER_NAME    .UNIT     VALUE                         : DESCRIPTION
#_______________________________________________________________________________
STRT               .M        950.5                         : First reference value
STOP               .M        1284                          : Last reference value
STEP               .M        0.1                           : Step increment
NULL               .         -9999                         : Missing value
COMP               .                                       : Company
WELL               .         4779                          : Well name
FLD                .         Узень                         : Field
LOC                .                                       : Location
CNTY               .                                       : County
STAT               .                                       : State
CTRY               .                                       : Country
SRVC               .         SCH                           : Service Company
DATE               .         31.05.1990                    : Date
UWI                .                                       : Unique Well ID
Block              .         3а                            : 
Cartographic_reference_system .         GCS_WGS_1984                  : ESRI,PE_10_3_1- <?xml version="1.0" encoding="utf-16"?><ILateBoundCoordinateReferenceSystem name="GCS_WGS_1984"><AuthorityCode>EPSG,4326</AuthorityCode></ILateBoundCoordinateReferenceSystem>
Category           .         Нефтяная                      : 
Condition          .         В работе                      : 
EREF               .m        235.8                         : 100.8
Gorizont           .         15                            : 14
HZCS               .GCS_WGS_1984 WGS_1984_EASE-Grid_2.0_Global : ESRI,PE_10_3_1- <?xml version="1.0" encoding="utf-16"?><ILateBoundCoordinateReferenceSystem name="WGS_1984_EASE-Grid_2.0_Global"><AuthorityCode>EPSG,6933</AuthorityCode></ILateBoundCoordinateReferenceSystem>
Interpretator      .         Сагынбаева А.Н.               : 
Kupol              .         основной                      : osnovnoi
LATI               .dega     0.6302116892                  : GCS_WGS_1984
LONG               .dega     0.5730203284                  : GCS_WGS_1984
Mud                .         глинистый                     : 
Mud_density        .         1,18                          : 
Mud_resistivity    .         0                             : 
NGDU               .         НГДУ-1                        : 
ORIGINALWELLNAME   .         4779                          : 
Spud_date          .         1990                          : 1961
Viscosity          .         40                            : 
X                  .m        55288.6                       : 46154
Y                  .m        80396.6                       : 85761.93
YEAR               .         2018                          : 
~Parameter Information Block
#_______________________________________________________________________________
#
#PARAMETER_NAME    .UNIT     VALUE                         : DESCRIPTION
#_______________________________________________________________________________
SET                .         LQC_KAZNIPI_Petrel            : 
PBBOTTOM           .M        1284                          : Глубина подошвы планшета
PBSCALE            .         1 _ 500                       : Вертикальный масштаб планшета
PBTOP              .M        950                           : Глубина кровли планшета
TLFamily_CALI      .         Caliper                       : 
TLFamily_CILD      .         Conductivity                  : 
TLFamily_COLL      .         Net Reservoir Flag            : 
TLFamily_CSAT      .         Fluid Code                    : 
TLFamily_DEPT      .         Measured Depth                : 
TLFamily_GR        .         Russian Gamma Ray             : 
TLFamily_LLS       .         Lateral Log Resistivity       : 
TLFamily_NGLD      .         Neutron Gamma                 : 
TLFamily_PHIE      .         Effective Porosity            : 
TLFamily_PHIEN     .         Effective Porosity            : 
TLFamily_PHIT      .         Porosity                      : 
TLFamily_PRMB      .         Permeability                  : 
TLFamily_PRMB_DGR  .         Permeability                  : 
TLFamily_RT        .         Formation Resistivity         : 
TLFamily_SOIL_ARCHIE .         Oil Saturation                : 
TLFamily_SOIL_DW   .         Oil Saturation                : 
TLFamily_SP        .         Spontaneous Potential         : 
TLFamily_VSH_FIN   .         Shale Volume                  : 
TLFamily_VSH_GR    .         Shale Volume                  : 
TLFamily_VSH_SP    .         Shale Volume                  : 
~Curve Information
#_______________________________________________________________________________
#
#LOGNAME           .UNIT     LOG_ID                        : DESCRIPTION
#_______________________________________________________________________________
DEPT               .M                                      : Колонка глубины 
CALI               .м                                      : Каверномер 
CILD               .мСм/м                                  : Индукционный каротаж 
COLL               .unitless                               : Описание 
CSAT               .unitless                               :  
GR                 .uR/h                                   : Гамма каротаж 
LLS                .Ohmm                                   : Боковой каротаж 
NGLD               .у.е.                                   : Показания зонда НГК-60 аппаратуры ДРСТ-3-90 
PHIE               .v/v                                    : Описание 
PHIEN              .v/v                                    :  
PHIT               .v/v                                    : Описание 
PRMB               .mD                                     :  
PRMB_DGR           .mD                                     :  
RT                 .ohmm                                   : УЭС пласта 
SOIL_ARCHIE        .v/v                                    :  
SOIL_DW            .v/v                                    :  
SP                 .мВ                                     : Потенциал самополяризации 
VSH_FIN            .v/v                                    : Описание 
VSH_GR             .v/v                                    : Shale volume 
VSH_SP             .v/v                                    : Shale Volume 
~Ascii
# ...
1213       
  0.227      454.471    -9999      -9999      9.098912   2.047      
  1.438168   0.1832673  0.1832673  0.3679838  6.945656   2.696428   
  2.507      0.3720287  0.5840104  23.61687   0.5597471  0.4327216  
  0.6867726 
1213.1     
  0.229      448.839    -9999      -9999      9.10002    2.044      
  1.44327    0.1826675  0.1826675  0.3663801  6.770227   2.693358   
  2.543      0.3744327  0.5853323  23.54811   0.5567049  0.432923   
  0.6804867 
1213.2     
  0.231      440.39     -9999      -9999      9.081392   2.046      
  1.449998   0.1829193  0.1829193  0.3642656  6.84332    2.745445   
  2.599      0.3815368  0.5885867  23.42686   0.5495341  0.4295503  
  0.669518  
1213.3     
  0.233      428.292    -9999      -9999      9.041876   2.058      
  1.458083   0.1841047  0.1841047  0.3617246  7.198196   2.859295   
  2.683      0.3941182  0.5943596  23.25251   0.5382423  0.4224823  
  0.6540023 
1213.4     
  0.234      413.118    -9999      -9999      8.97986    2.084      
  1.467318   0.1863038  0.1863038  0.3588219  7.905981   3.047559   
  2.797      0.4119474  0.6025975  23.02189   0.5227823  0.4116237  
  0.6339409 
1213.5     
  0.234      395.435    -9999      -9999      8.893991   2.135      
  1.477569   0.1895395  0.1895395  0.3556     9.075909   3.328874   
  2.943      0.4343688  0.6130679  22.73105   0.5032135  0.3970477  
  0.6093794 
1213.6     
  0.235      377.534    -9999      -9999      8.784043   2.256      
  1.488729   0.1937327  0.1937327  0.3520926  10.85319   3.727305   
  3.106      0.4589086  0.6243432  22.37761   0.4798785  0.3791356  
  0.5806214 
1213.7     
  0.235      361.62     -9999      -9999      8.651718   2.569      
  1.50072    0.198663   0.198663   0.3483238  13.39305   4.270562   
  3.268      0.4831039  0.6350473  21.96313   0.4535173  0.358646   
  0.5483887 
1213.8     
  0.235      348.54     -9999      -9999      8.500947   3.044      
  1.513531   0.2039665  0.2039665  0.3442972  16.79236   4.986692   
  3.414      0.5050848  0.6442053  21.4946    0.4252447  0.3366464  
  0.5138431 
1213.9     
  0.235      336.063    -9999      -9999      8.337759   3.839      
  1.527199   0.209187   0.209187   0.3400013  20.98019   5.897728   
  3.566      0.5256556  0.6528051  20.98469   0.3964068  0.3143532  
  0.4784604 
1214       
  0.234      325.927    1          2          8.169802   4.647      
  1.541789   0.2138511  0.2138511  0.3354157  25.59756   7.009493   
  3.699      0.5426062  0.6594039  20.45082   0.3683777  0.2929491  
  0.4438064 
1214.1     
  0.234      316.808    1          2          8.005348   5.423      
  1.557382   0.2175406  0.2175406  0.3305147  29.95973   8.300878   
  3.828      0.5565611  0.6646145  19.91306   0.3423458  0.2734042  
  0.4112874 
1214.2     
  0.233      306.498    1          2          7.852155   6.03       
  1.574028   0.219956   0.219956   0.3252829  33.21056   9.717015   
  3.986      0.5690623  0.6697235  19.39187   0.3191725  0.2563725  
  0.3819724 
1214.3     
  0.232      296.23     1          2          7.716417   6.487      
  1.591707   0.2209417  0.2209417  0.3197265  34.6365    11.17241   
  4.156      0.5790684  0.6738591  18.90601   0.2993479  0.2421702  
  0.3565256 
1214.4     
  0.23       288.729    1          2          7.601974   6.609      
  1.610271   0.2204964  0.2204964  0.3138919  33.98499   12.5676    
  4.29       0.5845609  0.6752371  18.47095   0.2830167  0.230809   
  0.3352243 
1214.5     
  0.227      282.183    1          2          7.509922   6.669      
  1.629367   0.2187719  0.2187719  0.30789    31.57504   13.81523   
  4.413      0.5872222  0.6750998  18.09817   0.270055   0.2220587  
  0.3180513 
1214.6     
  0.224      275.985    1          2          7.438807   6.669      
  1.64837    0.2160629  0.2160629  0.3019173  28.12984   14.86328   
  4.538      0.5881521  0.6742336  17.79513   0.2601648  0.2155265  
  0.3048032 
1214.7     
  0.221      271.156    1          2          7.385277   6.67       
  1.666364   0.2127844  0.2127844  0.2962617  24.45916   15.70431   
  4.639      0.5869199  0.6721424  17.56567   0.2529615  0.2107365  
  0.2951865 
1214.8     
  0.219      267.173    1          2          7.34509    6.631      
  1.682186   0.2094318  0.2094318  0.2912889  21.20037   16.36683   
  4.727      0.5848437  0.6698075  17.41079   0.2480518  0.2072106  
  0.2888929 
1214.9     
  0.219      264.229    1          2          7.314317   6.558      
  1.694585   0.2065088  0.2065088  0.2873919  18.71556   16.89299   
  4.793      0.5824562  0.6675612  17.32941   0.2451001  0.2045506  
  0.2856496 
1215       
  0.218      262.567    1          2          7.29042    6.471      
  1.70245    0.2044411  0.2044411  0.2849199  17.13579   17.31321   
  4.832      0.5803793  0.6658351  17.31909   0.243875   0.2025085  
  0.2852414 
1215.1     
  0.218      262.374    1          2          7.272779   6.381      
  1.705071   0.2034891  0.2034891  0.2840962  16.45394   17.63012   
  4.836      0.5788335  0.6647579  17.37631   0.2442638  0.2010141  
  0.2875136 
1215.2     
  0.219      263.614    1          2          7.262779   6.266      
  1.702279   0.203706   0.203706   0.2849736  16.60688   17.81234   
  4.807      0.5780349  0.6645023  17.49656   0.2462654  0.2001719  
  0.2923588 
1215.3     
  0.219      267.188    1          2          7.263189   6.15       
  1.694473   0.2049459  0.2049459  0.2874272  17.50871   17.80482   
  4.726      0.5768985  0.6641786  17.67394   0.2499433  0.2002064  
  0.2996803 
1215.4     
  0.219      269.652    1          2          7.277101   6.036      
  1.6825     0.2069211  0.2069211  0.2911902  19.04751   17.55195   
  4.672      0.5781493  0.6661349  17.9006    0.2553611  0.2013792  
  0.3093429 
1215.5     
  0.218      270.518    1          2          7.306697   5.896      
  1.667452   0.2092931  0.2092931  0.2959199  21.07527   17.02586   
  4.653      0.5815169  0.6701565  18.16623   0.2625056  0.2038972  
  0.3211139 
1215.6     
  0.219      273.009    1          2          7.352453   5.68       
  1.650419   0.2117671  0.2117671  0.3012735  23.42065   16.24339   
  4.6        0.5835455  0.6733211  18.45799   0.2712313  0.2078521  
  0.3346105 
1215.7     
  0.219      276.283    -9999      -9999      7.412695   5.341      
  1.632359   0.2141484  0.2141484  0.3069497  25.92427   15.26775   
  4.531      0.5846463  0.6759275  18.76066   0.2812159  0.2131765  
  0.3492553 
1215.8     
  0.219      278.229    -9999      -9999      7.483856   4.93       
  1.614034   0.2163615  0.2163615  0.3127091  28.49041   14.19052   
  4.492      0.5866758  0.6794189  19.05777   0.2919624  0.2196417  
  0.3642831 
1215.9     
  0.219      281.782    -9999      -9999      7.561137   4.48       
  1.596038   0.2184306  0.2184306  0.3183654  31.11878   13.10654   
  4.421      0.5870116  0.6814922  19.33274   0.3028328  0.2268854  
  0.3787802 
1216       
  0.219      287.138    -9999      -9999      7.639482   4.063      
  1.578888   0.2204255  0.2204255  0.3237554  33.88234   12.09214   
  4.319      0.5857562  0.6821108  19.57029   0.3131208  0.2344726  
  0.3917689 
1216.1     
  0.218      291.034    -9999      -9999      7.714253   3.768      
  1.563098   0.2224092  0.2224092  0.3287182  36.87372   11.19731   
  4.248      0.5857665  0.6834905  19.75806   0.3221482  0.2419503  
  0.4023462 
1216.2     
  0.218      294.003    -9999      -9999      7.781806   3.705      
  1.549204   0.2243957  0.2243957  0.3330851  40.13387   10.44595   
  4.195      0.5865333  0.6851159  19.88773   0.3293619  0.2489109  
  0.409813  
1216.3     
  0.218      296.772    -9999      -9999      7.839703   3.786      
  1.537738   0.2263367  0.2263367  0.3366889  43.59772   9.842232   
  4.146      0.5873544  0.6863739  19.95544   0.3344005  0.2550357  
  0.4137653 
1216.4     
  0.218      298.936    -9999      -9999      7.886749   3.894      
  1.52916    0.2281361  0.2281361  0.339385   47.07512   9.377453   
  4.11       0.5885099  0.6874983  19.96136   0.3371179  0.2601234  
  0.4141123 
