~Version
 VERS              .         2.0                           : CWLS LOG ASCII STANDARD - VERSION 2.0
 WRAP              .         YES                            : ONE LINE PER DEPTH STEP
 DLM               .         SPACE                         : DELIMITING CHARACTER(SPACE TAB OR COMMA)
~Well Information
#_______________________________________________________________________________
#
#PARAMETER_NAME    .UNIT     VALUE                         : DESCRIPTION
#_______________________________________________________________________________
STRT               .M        950.5                         : First reference value
STOP               .M        1284                          : Last reference value
STEP               .M        0.1                           : Step increment
NULL               .         -9999                         : Missing value
COMP               .                                       : Company
WELL               .         4779                          : Well name
FLD                .         Узень                         : Field
LOC                .                                       : Location
CNTY               .                                       : County
STAT               .                                       : State
CTRY               .                                       : Country
SRVC               .         SCH                           : Service Company
DATE               .         31.05.1990                    : Date
UWI                .                                       : Unique Well ID
Block              .         3а                            : 
Cartographic_reference_system .         GCS_WGS_1984                  : ESRI,PE_10_3_1- <?xml version="1.0" encoding="utf-16"?><ILateBoundCoordinateReferenceSystem name="GCS_WGS_1984"><AuthorityCode>EPSG,4326</AuthorityCode></ILateBoundCoordinateReferenceSystem>
Category           .         Нефтяная                      : 
Condition          .         В работе                      : 
EREF               .m        235.8                         : 100.8
Gorizont           .         15                            : 14
HZCS               .GCS_WGS_1984 WGS_1984_EASE-Grid_2.0_Global : ESRI,PE_10_3_1- <?xml version="1.0" encoding="utf-16"?><ILateBoundCoordinateReferenceSystem name="WGS_1984_EASE-Grid_2.0_Global"><AuthorityCode>EPSG,6933</AuthorityCode></ILateBoundCoordinateReferenceSystem>
Interpretator      .         Сагынбаева А.Н.               : 
Kupol              .         основной                      : osnovnoi
LATI               .dega     0.6302116892                  : GCS_WGS_1984
LONG               .dega     0.5730203284                  : GCS_WGS_1984
Mud                .         глинистый                     : 
Mud_density        .         1,18                          : 
Mud_resistivity    .         0                             : 
NGDU               .         НГДУ-1                        : 
ORIGINALWELLNAME   .         4779                          : 
Spud_date          .         1990                          : 1961
Viscosity          .         40                            : 
X                  .m        55288.6                       : 46154
Y                  .m        80396.6                       : 85761.93
YEAR               .         2018                          : 
~Parameter Information Block
#_______________________________________________________________________________
#
#PARAMETER_NAME    .UNIT     VALUE                         : DESCRIPTION
#_______________________________________________________________________________
SET                .         LQC_KAZNIPI_Petrel            : 
PBBOTTOM           .M        1284                          : Глубина подошвы планшета
PBSCALE            .         1 _ 500                       : Вертикальный масштаб планшета
PBTOP              .M        950                           : Глубина кровли планшета
TLFamily_CALI      .         Caliper                       : 
TLFamily_CILD      .         Conductivity                  : 
TLFamily_COLL      .         Net Reservoir Flag            : 
TLFamily_CSAT      .         Fluid Code                    : 
TLFamily_DEPT      .         Measured Depth                : 
TLFamily_GR        .         Russian Gamma Ray             : 
TLFamily_LLS       .         Lateral Log Resistivity       : 
TLFamily_NGLD      .         Neutron Gamma                 : 
TLFamily_PHIE      .         Effective Porosity            : 
TLFamily_PHIEN     .         Effective Porosity            : 
TLFamily_PHIT      .         Porosity                      : 
TLFamily_PRMB      .         Permeability                  : 
TLFamily_PRMB_DGR  .         Permeability                  : 
TLFamily_RT        .         Formation Resistivity         : 
TLFamily_SOIL_ARCHIE .         Oil Saturation                : 
TLFamily_SOIL_DW   .         Oil Saturation                : 
TLFamily_SP        .         Spontaneous Potential         : 
TLFamily_VSH_FIN   .         Shale Volume                  : 
TLFamily_VSH_GR    .         Shale Volume                  : 
TLFamily_VSH_SP    .         Shale Volume                  : 
~Curve Information
#_______________________________________________________________________________
#
#LOGNAME           .UNIT     LOG_ID                        : DESCRIPTION
#_______________________________________________________________________________
DEPT               .M                                      : Колонка глубины 
CALI               .м                                      : Каверномер 
CILD               .мСм/м                                  : Индукционный каротаж 
COLL               .unitless                               : Описание 
CSAT               .unitless                               :  
GR                 .uR/h                                   : Гамма каротаж 
LLS                .Ohmm                                   : Боковой каротаж 
NGLD               .у.е.                                   : Показания зонда НГК-60 аппаратуры ДРСТ-3-90 
PHIE               .v/v                                    : Описание 
PHIEN              .v/v                                    :  
PHIT               .v/v                                    : Описание 
PRMB               .mD                                     :  
PRMB_DGR           .mD                                     :  
RT                 .ohmm                                   : УЭС пласта 
SOIL_ARCHIE        .v/v                                    :  
SOIL_DW            .v/v                                    :  
SP                 .мВ                                     : Потенциал самополяризации 
VSH_FIN            .v/v                                    : Описание 
VSH_GR             .v/v                                    : Shale volume 
VSH_SP             .v/v                                    : Shale Volume 
~Ascii
# ...
1150       
  0.221      563.456    -9999      -9999      9.907603   1.69       
  1.443191   0.1825837  0.1825837  0.3664052  6.746076   1.348773   
  1.969      0.2844054  0.5224183  21.85018   0.5570347  0.5741902  
  0.5398792 
1150.1     
  0.221      569.534    -9999      -9999      9.893107   1.679      
  1.443029   0.1810615  0.1810615  0.3664559  6.322016   1.36871    
  1.946      0.2751829  0.5180999  22.02164   0.5618014  0.57076    
  0.5528429 
1150.2     
  0.221      573.092    -9999      -9999      9.867851   1.671      
  1.44405    0.1794654  0.1794654  0.3661352  5.906      1.404155   
  1.932      0.267093   0.5144522  22.19852   0.5656658  0.5648325  
  0.5664992 
1150.3     
  0.221      575.109    -9999      -9999      9.833339   1.673      
  1.446083   0.177918   0.177918   0.365496   5.528792   1.454078   
  1.925      0.2602852  0.5114301  22.36987   0.5684184  0.5568319  
  0.5800049 
1150.4     
  0.221      576.798    -9999      -9999      9.791466   1.683      
  1.448888   0.1765658  0.1765658  0.3646145  5.218969   1.517038   
  1.919      0.2542621  0.5085067  22.52429   0.5698447  0.547277   
  0.5924124 
1150.5     
  0.22       579.827    -9999      -9999      9.744721   1.705      
  1.452191   0.1755413  0.1755413  0.3635764  4.995846   1.590548   
  1.908      0.2484483  0.5051247  22.65149   0.5698034  0.5368041  
  0.6028026 
1150.6     
  0.22       580.277    -9999      -9999      9.696068   1.742      
  1.455743   0.1749325  0.1749325  0.36246    4.867804   1.670846   
  1.906      0.2457999  0.5032646  22.7435    0.568265   0.5261163  
  0.6104137 
1150.7     
  0.22       578.286    -9999      -9999      9.648767   1.792      
  1.459372   0.1747596  0.1747596  0.3613194  4.832023   1.752797   
  1.913      0.2464471  0.5030189  22.79531   0.5653328  0.5159295  
  0.614736  
1150.8     
  0.22       573.621    -9999      -9999      9.606064   1.84       
  1.463003   0.1749703  0.1749703  0.360178   4.875656   1.830228   
  1.93       0.2503566  0.5044715  22.80525   0.5612355  0.5069026  
  0.6155683 
1150.9     
  0.221      567.827    -9999      -9999      9.570816   1.876      
  1.466655   0.1754527  0.1754527  0.3590305  4.977009   1.896711   
  1.952      0.2561192  0.5068182  22.77479   0.5562961  0.4995708  
  0.6130214 
1151       
  0.221      559.237    -9999      -9999      9.545065   1.901      
  1.470394   0.1760666  0.1760666  0.3578552  5.109027   1.946804   
  1.986      0.2643638  0.5107216  22.708     0.5508747  0.4942814  
  0.607468  
1151.1     
  0.222      551.789    -9999      -9999      9.529722   1.923      
  1.474284   0.1766777  0.1766777  0.3566326  5.243931   1.977276   
  2.015      0.2715526  0.5138747  22.61102   0.5453181  0.4911566  
  0.5994797 
1151.2     
  0.222      545.638    -9999      -9999      9.524349   1.94       
  1.478335   0.1771888  0.1771888  0.3553594  5.359506   1.98806    
  2.041      0.2777416  0.5164517  22.49145   0.5399108  0.490067   
  0.5897546 
1151.3     
  0.222      538.862    -9999      -9999      9.527082   1.97       
  1.482495   0.1775561  0.1775561  0.3540518  5.44411    1.982567   
  2.069      0.2836379  0.5190266  22.35787   0.5348357  0.490621   
  0.5790504 
1151.4     
  0.222      536.65     -9999      -9999      9.534814   2.016      
  1.486657   0.1777912  0.1777912  0.3527436  5.498982   1.967111   
  2.079      0.2860803  0.5193357  22.21935   0.5301588  0.4921914  
  0.5681261 
1151.5     
  0.222      540.576    -9999      -9999      9.543446   2.066      
  1.490687   0.177957   0.177957   0.3514771  5.537999   1.949998   
  2.062      0.2839058  0.5164637  22.08481   0.5258186  0.4939507  
  0.5576864 
1151.6     
  0.222      541.504    -9999      -9999      9.548315   2.112      
  1.494457   0.1781504  0.1781504  0.3502921  5.583882   1.940409   
  2.058      0.283931   0.5151919  21.96244   0.5216413  0.4949459  
  0.5483366 
1151.7     
  0.222      536.305    -9999      -9999      9.544837   2.154      
  1.497879   0.1784804  0.1784804  0.3492167  5.663009   1.947253   
  2.08       0.2886423  0.5171965  21.85888   0.5173827  0.4942348  
  0.5405306 
1151.8     
  0.222      538.341    -9999      -9999      9.528876   2.175      
  1.500909   0.1790516  0.1790516  0.3482644  5.802675   1.97897    
  2.072      0.2893355  0.5160525  21.77861   0.5127661  0.4909849  
  0.5345473 
1151.9     
  0.222      540.962    -9999      -9999      9.497191   2.165      
  1.503571   0.1799396  0.1799396  0.3474277  6.02665    2.043473   
  2.06       0.2904596  0.514859   21.72363   0.5075396  0.4845964  
  0.5304826 
1152       
  0.222      534.661    -9999      -9999      9.448055   2.134      
  1.505968   0.1811608  0.1811608  0.3466743  6.348868   2.147685   
  2.087      0.2989244  0.5186309  21.69338   0.5015559  0.4748533  
  0.5282584 
1152.1     
  0.222      528.874    -9999      -9999      9.381634   2.071      
  1.508273   0.1826602  0.1826602  0.3459499  6.768123   2.297056   
  2.113      0.3079716  0.5225217  21.68497   0.4948174  0.4619934  
  0.5276414 
1152.2     
  0.222      527.754    -9999      -9999      9.299928   2.01       
  1.51071    0.1843204  0.1843204  0.3451838  7.264715   2.495124   
  2.118      0.3141646  0.5241203  21.69366   0.487465   0.4466509  
  0.5282791 
1152.3     
  0.222      521.489    -9999      -9999      9.206636   1.978      
  1.513515   0.1859849  0.1859849  0.3443021  7.799201   2.742243   
  2.146      0.3236947  0.5281574  21.71358   0.479749   0.4297549  
  0.5297431 
1152.4     
  0.223      509.862    -9999      -9999      9.106661   1.972      
  1.516862   0.1875012  0.1875012  0.3432503  8.32023    3.0343     
  2.201      0.3363881  0.5347036  21.73846   0.4719668  0.4123572  
  0.5315765 
1152.5     
  0.222      500.731    -9999      -9999      9.005261   1.984      
  1.52079    0.1887663  0.1887663  0.3420156  8.781501   3.362302   
  2.247      0.3466361  0.5396981  21.76248   0.4643917  0.3954311  
  0.5333523 
1152.6     
  0.222      494.263    -9999      -9999      8.907295   2.036      
  1.525178   0.1897477  0.1897477  0.3406365  9.156857   3.712835   
  2.28       0.3540149  0.542853   21.78119   0.4572385  0.3797382  
  0.5347389 
1152.7     
  0.222      489.343    -9999      -9999      8.816669   2.104      
  1.52973    0.1904867  0.1904867  0.3392057  9.450027   4.069563   
  2.306      0.3596145  0.5449739  21.79214   0.4506639  0.3657762  
  0.5355515 
1152.8     
  0.222      484.665    -9999      -9999      8.736139   2.188      
  1.534023   0.1910764  0.1910764  0.3378567  9.690712   4.41521    
  2.331      0.3645597  0.5468806  21.79517   0.444789   0.353801   
  0.535777  
1152.9     
  0.223      480.748    -9999      -9999      8.667377   2.334      
  1.537579   0.1916302  0.1916302  0.3367389  9.92235    4.733487   
  2.352      0.3688216  0.5485197  21.79225   0.4397232  0.3438865  
  0.5355598 
1153       
  0.223      478.908    -9999      -9999      8.611249   2.461      
  1.539958   0.192252   0.192252   0.3359911  10.18898   5.010222   
  2.362      0.3718516  0.5494485  21.78668   0.435573   0.3359999  
  0.5351461 
1153.1     
  0.223      479.756    -9999      -9999      8.568098   2.546      
  1.54081    0.1930211  0.1930211  0.3357233  10.52875   5.233926   
  2.358      0.3735341  0.5495623  21.78204   0.432431   0.33006    
  0.534802  
1153.2     
  0.222      482.102    -9999      -9999      8.537881   2.572      
  1.539921   0.193988   0.193988   0.3360029  10.97201   5.396497   
  2.345      0.3746343  0.5494359  21.78112   0.4303483  0.3259631  
  0.5347335 
1153.3     
  0.222      486.999    -9999      -9999      8.52009    2.521      
  1.537232   0.1951806  0.1951806  0.3368479  11.54451   5.494566   
  2.318      0.3745739  0.5486045  21.78491   0.4292949  0.3235748  
  0.5350149 
1153.4     
  0.222      492.952    -9999      -9999      8.513656   2.368      
  1.532846   0.1966092  0.1966092  0.3382264  12.26978   5.530472   
  2.287      0.3745949  0.547984   21.7924    0.4291432  0.3227153  
  0.5355712 
