~Version
 VERS              .         2.0                           : CWLS LOG ASCII STANDARD - VERSION 2.0
 WRAP              .         YES                            : ONE LINE PER DEPTH STEP
 DLM               .         SPACE                         : DELIMITING CHARACTER(SPACE TAB OR COMMA)
~Well Information
#_______________________________________________________________________________
#
#PARAMETER_NAME    .UNIT     VALUE                         : DESCRIPTION
#_______________________________________________________________________________
STRT               .M        950.5                         : First reference value
STOP               .M        1284                          : Last reference value
STEP               .M        0.1                           : Step increment
NULL               .         -9999                         : Missing value
COMP               .                                       : Company
WELL               .         4779                          : Well name
FLD                .         Узень                         : Field
LOC                .                                       : Location
CNTY               .                                       : County
STAT               .                                       : State
CTRY               .                                       : Country
SRVC               .         SCH                           : Service Company
DATE               .         31.05.1990                    : Date
UWI                .                                       : Unique Well ID
Block              .         3а                            : 
Cartographic_reference_system .         GCS_WGS_1984                  : ESRI,PE_10_3_1- <?xml version="1.0" encoding="utf-16"?><ILateBoundCoordinateReferenceSystem name="GCS_WGS_1984"><AuthorityCode>EPSG,4326</AuthorityCode></ILateBoundCoordinateReferenceSystem>
Category           .         Нефтяная                      : 
Condition          .         В работе                      : 
EREF               .m        235.8                         : 100.8
Gorizont           .         15                            : 14
HZCS               .GCS_WGS_1984 WGS_1984_EASE-Grid_2.0_Global : ESRI,PE_10_3_1- <?xml version="1.0" encoding="utf-16"?><ILateBoundCoordinateReferenceSystem name="WGS_1984_EASE-Grid_2.0_Global"><AuthorityCode>EPSG,6933</AuthorityCode></ILateBoundCoordinateReferenceSystem>
Interpretator      .         Сагынбаева А.Н.               : 
Kupol              .         основной                      : osnovnoi
LATI               .dega     0.6302116892                  : GCS_WGS_1984
LONG               .dega     0.5730203284                  : GCS_WGS_1984
Mud                .         глинистый                     : 
Mud_density        .         1,18                          : 
Mud_resistivity    .         0                             : 
NGDU               .         НГДУ-1                        : 
ORIGINALWELLNAME   .         4779                          : 
Spud_date          .         1990                          : 1961
Viscosity          .         40                            : 
X                  .m        55288.6                       : 46154
Y                  .m        80396.6                       : 85761.93
YEAR               .         2018                          : 
~Parameter Information Block
#_______________________________________________________________________________
#
#PARAMETER_NAME    .UNIT     VALUE                         : DESCRIPTION
#_______________________________________________________________________________
SET                .         LQC_KAZNIPI_Petrel            : 
PBBOTTOM           .M        1284                          : Глубина подошвы планшета
PBSCALE            .         1 _ 500                       : Вертикальный масштаб планшета
PBTOP              .M        950                           : Глубина кровли планшета
TLFamily_CALI      .         Caliper                       : 
TLFamily_CILD      .         Conductivity                  : 
TLFamily_COLL      .         Net Reservoir Flag            : 
TLFamily_CSAT      .         Fluid Code                    : 
TLFamily_DEPT      .         Measured Depth                : 
TLFamily_GR        .         Russian Gamma Ray             : 
TLFamily_LLS       .         Lateral Log Resistivity       : 
TLFamily_NGLD      .         Neutron Gamma                 : 
TLFamily_PHIE      .         Effective Porosity            : 
TLFamily_PHIEN     .         Effective Porosity            : 
TLFamily_PHIT      .         Porosity                      : 
TLFamily_PRMB      .         Permeability                  : 
TLFamily_PRMB_DGR  .         Permeability                  : 
TLFamily_RT        .         Formation Resistivity         : 
TLFamily_SOIL_ARCHIE .         Oil Saturation                : 
TLFamily_SOIL_DW   .         Oil Saturation                : 
TLFamily_SP        .         Spontaneous Potential         : 
TLFamily_VSH_FIN   .         Shale Volume                  : 
TLFamily_VSH_GR    .         Shale Volume                  : 
TLFamily_VSH_SP    .         Shale Volume                  : 
~Curve Information
#_______________________________________________________________________________
#
#LOGNAME           .UNIT     LOG_ID                        : DESCRIPTION
#_______________________________________________________________________________
DEPT               .M                                      : Колонка глубины 
CALI               .м                                      : Каверномер 
CILD               .мСм/м                                  : Индукционный каротаж 
COLL               .unitless                               : Описание 
CSAT               .unitless                               :  
GR                 .uR/h                                   : Гамма каротаж 
LLS                .Ohmm                                   : Боковой каротаж 
NGLD               .у.е.                                   : Показания зонда НГК-60 аппаратуры ДРСТ-3-90 
PHIE               .v/v                                    : Описание 
PHIEN              .v/v                                    :  
PHIT               .v/v                                    : Описание 
PRMB               .mD                                     :  
PRMB_DGR           .mD                                     :  
RT                 .ohmm                                   : УЭС пласта 
SOIL_ARCHIE        .v/v                                    :  
SOIL_DW            .v/v                                    :  
SP                 .мВ                                     : Потенциал самополяризации 
VSH_FIN            .v/v                                    : Описание 
VSH_GR             .v/v                                    : Shale volume 
VSH_SP             .v/v                                    : Shale Volume 
~Ascii
# ...
1020.5     
  0.226      336.535    -9999      -9999      4.366971   2.824      
  1.76465    0.1141781  0.1141781  0.2653704  0.3647657  5.582372   
  3.56       0.1842829  0.4816563  20.1081    0.4581583  0.3214868  
  0.5948297 
1020.6     
  0.225      335.18     -9999      -9999      4.33682    2.854      
  1.778443   0.110615   0.110615   0.2610355  0.3133401  5.716831   
  3.577      0.1633173  0.4713328  20.06953   0.4558198  0.3183775  
  0.5932621 
1020.7     
  0.225      334.754    -9999      -9999      4.304195   2.922      
  1.790174   0.1079831  0.1079831  0.2573482  0.2800705  5.865976   
  3.582      0.146144   0.4621829  19.99382   0.4526215  0.3150469  
  0.5901962 
1020.8     
  0.224      335.346    -9999      -9999      4.270585   3.027      
  1.799108   0.1065145  0.1065145  0.2545404  0.2630657  6.023691   
  3.575      0.1351056  0.4551725  19.87658   0.4485635  0.3116522  
  0.5854748 
1020.9     
  0.224      336.78     -9999      -9999      4.236557   3.12       
  1.80522    0.1062183  0.1062183  0.2526192  0.2597641  6.187689   
  3.556      0.1308351  0.4505343  19.71512   0.4436391  0.3082526  
  0.5790257 
1021       
  0.223      338.459    -9999      -9999      4.201507   3.166      
  1.809212   0.1068798  0.1068798  0.2513647  0.2671964  6.361281   
  3.535      0.1331156  0.4484343  19.50889   0.4378332  0.3047895  
  0.5708768 
1021.1     
  0.223      339.205    -9999      -9999      4.163701   3.165      
  1.812328   0.1081111  0.1081111  0.2503852  0.2816037  6.553986   
  3.526      0.1406941  0.4487127  19.25986   0.4311335  0.3010979  
  0.561169  
1021.2     
  0.224      339.077    -9999      -9999      4.120774   3.124      
  1.816071   0.1094341  0.1094341  0.2492088  0.2979496  6.779881   
  3.528      0.1499751  0.4497284  18.97287   0.4235598  0.2969604  
  0.5501592 
1021.3     
  0.224      338.034    -9999      -9999      4.070467   3.051      
  1.82182    0.1103857  0.1103857  0.2474019  0.3102911  7.054543   
  3.541      0.1578158  0.4500082  18.65587   0.4152005  0.2921837  
  0.5382173 
1021.4     
  0.225      336.669    -9999      -9999      4.011444   2.973      
  1.830504   0.110613   0.110613   0.2446725  0.3133132  7.391007   
  3.558      0.1612103  0.4479288  18.31977   0.4062409  0.2866774  
  0.5258043 
1021.5     
  0.225      335.599    -9999      -9999      3.94389    2.92       
  1.84237    0.1099431  0.1099431  0.2409431  0.304489   7.795837   
  3.571      0.1582031  0.4423534  17.97784   0.3969696  0.2805026  
  0.5134367 
1021.6     
  0.225      335.276    -9999      -9999      3.869761   2.893      
  1.857004   0.1083843  0.1083843  0.2363437  0.284904   8.265634   
  3.576      0.1482276  0.4329652  17.64458   0.3877557  0.2738796  
  0.5016318 
1021.7     
  0.225      335.277    -9999      -9999      3.792483   2.896      
  1.87352    0.1060837  0.1060837  0.2311525  0.2582766  8.785557   
  3.576      0.1321614  0.4203955  17.33403   0.3789966  0.2671417  
  0.4908515 
1021.8     
  0.225      335.178    -9999      -9999      3.71632    2.956      
  1.890899   0.1032406  0.1032406  0.2256903  0.2287832  9.329965   
  3.577      0.1114997  0.4057237  17.05834   0.3710599  0.2606632  
  0.4814566 
1021.9     
  0.225      334.261    -9999      -9999      3.645472   3.063      
  1.908285   0.1000305  0.1000305  0.2202261  0.1995105  9.866624   
  3.589      0.08815134 0.3903777  16.82641   0.3642291  0.254778   
  0.4736801 
1022       
  0.224      332.129    -9999      -9999      3.583278   3.126      
  1.925184   0.09655276 0.09655276 0.2149147  0.1720083  10.36313   
  3.616      0.06291296 0.3750815  16.64337   0.3586724  0.2497212  
  0.4676236 
1022.1     
  0.223      328.468    -9999      -9999      3.531712   3.175      
  1.9415     0.09282098 0.09282098 0.2097864  0.1466992  10.79366   
  3.665      0.03629023 0.3604597  16.51064   0.3544407  0.2456048  
  0.4632766 
1022.2     
  0.222      324.382    -9999      -9999      3.4914     3.226      
  1.957377   0.08880374 0.08880374 0.2047965  0.1236001  11.14266   
  3.721      0.005531331 0.3449263  16.42686   0.3514931  0.242434   
  0.4605521 
1022.3     
  0.221      320.916    -9999      -9999      3.462059   3.256      
  1.972939   0.08449125 0.08449125 0.1999052  0.102835   11.40376   
  3.769      0          0.3268375  16.38902   0.3497391  0.240152   
  0.4593262 
1022.4     
  0.22       318.142    -9999      -9999      3.4434     3.248      
  1.988045   0.07995679 0.07995679 0.1951575  0.08475237 11.57297   
  3.809      0          0.3062062  16.39359   0.349093   0.238712   
  0.4594741 
1022.5     
  0.219      315.841    -9999      -9999      3.436125   3.294      
  2.002084   0.07540213 0.07540213 0.1907451  0.06978925 11.63962   
  3.843      0          0.2840408  16.43744   0.3495241  0.2381528  
  0.4608953 
1022.6     
  0.219      314.793    -9999      -9999      3.442553   3.384      
  2.013877   0.0711803  0.0711803  0.1870386  0.05828944 11.58071   
  3.858      0          0.2612298  16.51823   0.3510856  0.2386468  
  0.4635244 
1022.7     
  0.219      314.967    -9999      -9999      3.467055   3.504      
  2.021726   0.06777309 0.06777309 0.1845716  0.05040575 11.35887   
  3.856      0          0.2415496  16.63446   0.353935   0.2405391  
  0.4673309 
1022.8     
  0.219      316.153    -9999      -9999      3.515771   3.721      
  2.023542   0.0657528  0.0657528  0.1840006  0.04624442 10.93034   
  3.838      0          0.2300605  16.78511   0.3583267  0.2443461  
  0.4723074 
1022.9     
  0.219      319.098    -9999      -9999      3.595915   3.95       
  2.017113   0.06570312 0.06570312 0.1860212  0.04614656 10.26025   
  3.795      0          0.2309735  16.96938   0.3646004  0.2507405  
  0.4784602 
1023       
  0.22       323.775    -9999      -9999      3.71472    4.157      
  2.000433   0.06811997 0.06811997 0.1912638  0.05115702 9.341754   
  3.729      0          0.2476662  17.18631   0.373163   0.2605289  
  0.4857972 
1023.1     
  0.22       329.564    -9999      -9999      3.87854    4.325      
  1.972058   0.07330167 0.07330167 0.2001822  0.06380912 8.208557   
  3.65       0          0.2805252  17.43453   0.3844864  0.2746557  
  0.4943172 
1023.2     
  0.221      336.868    -9999      -9999      4.091686   4.474      
  1.93145    0.08124454 0.08124454 0.2129453  0.08953729 6.93736    
  3.555      0          0.3246321  17.71191   0.3990931  0.2941891  
  0.5039972 
1023.3     
  0.221      346.669    -9999      -9999      4.355527   4.513      
  1.879212   0.09157537 0.09157537 0.2293636  0.1391093  5.633031   
  3.436      0          0.3725811  18.01525   0.41754    0.320303   
  0.5147771 
1023.4     
  0.222      359.064    -9999      -9999      4.66759    4.513      
  1.817143   0.1035506  0.1035506  0.2488718  0.231828   4.403099   
  3.295      0.07900106 0.4183524  18.33979   0.4403674  0.354198   
  0.5265367 
1023.5     
  0.222      373.395    -9999      -9999      5.020841   4.495      
  1.748116   0.1161285  0.1161285  0.2705672  0.3964061  3.33161    
  3.147      0.1483457  0.4587888  18.6789    0.4679959  0.3969146  
  0.5390771 
1023.6     
  0.222      390.981    -9999      -9999      5.40332    4.361      
  1.675802   0.128113   0.128113   0.2932954  0.6608798  2.46337    
  2.982      0.1981575  0.4904321  19.02414   0.5005526  0.448993   
  0.5521122 
1023.7     
  0.221      412.882    -9999      -9999      5.798533   4.056      
  1.60421    0.1383754  0.1383754  0.3157967  1.02378    1.803182   
  2.799      0.2275879  0.5120842  19.36595   0.5376403  0.5099935  
  0.5652871 
1023.8     
  0.221      431.97     -9999      -9999      6.186827   3.619      
  1.537208   0.1460802  0.1460802  0.3368555  1.42206    1.327156   
  2.657      0.2449702  0.5287097  19.69492   0.5781069  0.5779909  
  0.5782229 
1023.9     
  0.222      451.673    -9999      -9999      6.547599   3.089      
  1.478062   0.1508704  0.1508704  0.355445   1.744394   0.9982494  
  2.525      0.2481269  0.5381792  20.00324   0.619923   0.6492693  
  0.5905768 
