~Version
 VERS              .         2.0                           : CWLS LOG ASCII STANDARD - VERSION 2.0
 WRAP              .         NO                            : ONE LINE PER DEPTH STEP
 DLM               .         SPACE                         : DELIMITING CHARACTER(SPACE TAB OR COMMA)
~Well Information
#_______________________________________________________________________________
#
#PARAMETER_NAME    .UNIT     VALUE                         : DESCRIPTION
#_______________________________________________________________________________
STRT               .M        920                           : First reference value
STOP               .M        1182.8                        : Last reference value
STEP               .M        0.1                           : Step increment
NULL               .         -9999                         : Missing value
COMP               .                                       : Company
WELL               .         6316                          : Well name
FLD                .         Узень                         : Field
LOC                .                                       : Location
CNTY               .                                       : County
STAT               .                                       : State
CTRY               .                                       : Country
SRVC               .         AO "UPGF"                     : Service Company
DATE               .         23/09/2019                    : Date
API                .                                       : API number
Block              .         3а                            : 
Category           .                                       : 
Condition          .                                       : 
Date               .         23.09.2019г.                  : 
EREF               .         235.63                        : 
GRP                .                                       : Group name
Gorizont           .         13                            : 
ISS                .                                       : Well surveys
Interpretator      .         Алпанова Н.К.                 : 
Kupol              .                                       : 
Mud                .         полимерный                    : 
Mud_density        .         1.34                          : 
Mud_resistivity    .         0.38                          : 
NGDU               .         НГДУ-1                        : 
TIME               .                                       : LOG TIME
Viscosity          .         45                            : 
YEAR               .         2019                          : 
~Parameter Information Block
#_______________________________________________________________________________
#
#PARAMETER_NAME    .UNIT     VALUE                         : DESCRIPTION
#_______________________________________________________________________________
SET                .         LQC_KAZNIPI_Petrel            : 
TLFamily_CALI      .         Caliper                       : 
TLFamily_COLL      .         Net Reservoir Flag            : 
TLFamily_CSAT      .         Fluid Code                    : 
TLFamily_DEPT      .         Measured Depth                : 
TLFamily_DT        .         Compressional Slowness        : 
TLFamily_GR        .         Russian Gamma Ray             : 
TLFamily_GZ3       .         Gradient 225                  : 
TLFamily_IK1       .         Resistivity 05                : 
TLFamily_IK2       .         Resistivity 07                : 
TLFamily_IK3       .         Resistivity 10                : 
TLFamily_IK4       .         Resistivity 14                : 
TLFamily_IK5       .         Resistivity 20                : 
TLFamily_LLS       .         Lateral Log Resistivity       : 
TLFamily_MBK       .         Micro Lateral Log Resistivity : 
TLFamily_MINV      .         Micro Gradient Resistivity    : 
TLFamily_MNOR      .         Micro Resistivity             : 
TLFamily_NNKTb     .         Neutron Far                   : 
TLFamily_NNKTm     .         Neutron Near                  : 
TLFamily_NPHI      .         Neutron Porosity              : 
TLFamily_OGZ       .         Gradient Inverted 225         : 
TLFamily_PHIE      .         Effective Porosity            : 
TLFamily_PHIED     .         Effective Porosity            : 
TLFamily_PHIEN     .         Effective Porosity            : 
TLFamily_PHIES     .         Effective Porosity            : 
TLFamily_PHIT      .         Porosity                      : 
TLFamily_PRMB      .         Permeability                  : 
TLFamily_PRMB_DGR  .         Permeability                  : 
TLFamily_RHOB      .         Bulk Density                  : 
TLFamily_RT        .         Formation Resistivity         : 
TLFamily_SOIL_ARCHIE .         Oil Saturation                : 
TLFamily_SOIL_DW   .         Oil Saturation                : 
TLFamily_SP        .         Spontaneous Potential         : 
TLFamily_VSH_FIN   .         Shale Volume                  : 
TLFamily_VSH_GR    .         Shale Volume                  : 
TLFamily_VSH_SP    .         Shale Volume                  : 
~Curve Information
#_______________________________________________________________________________
#
#LOGNAME           .UNIT     LOG_ID                        : DESCRIPTION
#_______________________________________________________________________________
DEPT               .M                                      : Depth curve 
CALI               .м                                      : Кавернометрия 
COLL               .unitless                               : Описание 
CSAT               .unitless                               : Описание 
DT                 .мкс/м                                  : 1 ДельтаТ - Волна по породе 
GR                 .мкР/ч                                  : ГК 
GZ3                .Ом·м                                   : A2.0M0.5N 
IK1                .Ом·м                                   : È0.10È0.40 
IK2                .Ом·м                                   : È0.14È0.56 
IK3                .Ом·м                                   : È0.20È0.8 
IK4                .Ом·м                                   : È0.28È1.12 
IK5                .Ом·м                                   : È0.40È1.60 
LLS                .Ом·м                                   : БК 
MBK                .Ом·м                                   : БМК 
MINV               .Ом·м                                   : МГЗ 
MNOR               .Ом·м                                   : МПЗ 
NNKTb              .у.е.                                   : ННКб.з. 
NNKTm              .у.е.                                   : ННКм.з. 
NPHI               .V/V                                    : Neutron porosity index 
OGZ                .Ом·м                                   : N0.5M2.0A 
PHIE               .v/v                                    : Описание 
PHIED              .v/v                                    :  
PHIEN              .v/v                                    :  
PHIES              .v/v                                    :  
PHIT               .v/v                                    : Описание 
PRMB               .mD                                     :  
PRMB_DGR           .mD                                     :  
RHOB               .г/см3                                  : ГГКП 
RT                 .ohmm                                   : Description 
SOIL_ARCHIE        .v/v                                    :  
SOIL_DW            .v/v                                    :  
SP                 .mv                                     : ПС 
VSH_FIN            .v/v                                    : Описание 
VSH_GR             .v/v                                    : Shale volume 
VSH_SP             .v/v                                    : Shale Volume 
~Ascii
# ...
1176.2     0.27003    -9999      -9999      -9999      13.81158   2.88       1.7124     1.4715     1.1959     1.492      1.5964     1.82       0.93       0.85       0.59       1.391629   1.23       -9999      -9999      0.7211902  0.7211902  -9999      -9999      0.7211902  63877734000.0000000 5.009363   1.310769   1.5964     0.7646387  0.8006408  513.7186   0.418496   0.3360235  0.5009683 
1176.3     0.27       -9999      -9999      -9999      -9999      2.83       1.7145     1.4626     1.1929     1.4739     1.5909     1.82       0.93       0.85       0.59       1.361964   1.23       -9999      -9999      0.8130063  0.8130063  -9999      -9999      0.8130063  3206320500000.0000000 -9999      1.312279   1.5909     0.7876215  0.8228498  514.1402   -4999.25   -9999      0.5012488 
1176.4     0.26996    -9999      -9999      -9999      -9999      2.79       1.7124     1.4545     1.1905     1.4854     1.6028     1.83       0.93       0.85       0.59       1.335907   1.22       -9999      -9999      0.8126004  0.8126004  -9999      -9999      0.8126004  3151299300000.0000000 -9999      1.312957   1.6028     0.7882708  0.8234205  514.6706   -4999.228  -9999      0.5442823 
1176.5     0.27002    -9999      -9999      -9999      -9999      2.8        1.7023     1.4545     1.1929     1.4837     1.6019     1.83       0.93       0.85       0.59       1.317096   1.22       -9999      -9999      0.8128465  0.8128465  -9999      -9999      0.8128465  3184550700000.0000000 -9999      1.312546   1.6019     0.7882709  0.8234244  515.2756   -4999.213  -9999      0.5742142 
1176.6     0.27002    -9999      -9999      -9999      -9999      2.77       1.7013     1.4756     1.1959     1.4666     1.5964     1.83       0.93       0.85       0.59       1.307553   1.22       -9999      -9999      0.8137558  0.8137558  -9999      -9999      0.8137558  3310464300000.0000000 -9999      1.311028   1.5964     0.7881353  0.8233181  515.9066   -4999.179  -9999      0.6421358 
1176.7     0.27006    -9999      -9999      -9999      -9999      2.78       1.7084     1.4666     1.1899     1.4796     1.5891     1.83       0.93       0.85       0.59       1.307461   1.23       -9999      -9999      0.8152072  0.8152072  -9999      -9999      0.8152072  3521876100000.0000000 -9999      1.308604   1.5891     0.7880084  0.8232281  516.5093   -4999.162  -9999      0.6765526 
1176.8     0.27015    -9999      -9999      -9999      -9999      2.79       1.7114     1.4715     1.187      1.4796     1.59       1.83       0.93       0.85       0.59       1.315378   1.23       -9999      -9999      0.8169699  0.8169699  -9999      -9999      0.8169699  3796849100000.0004883 -9999      1.30566    1.59       0.7884631  0.8236594  517.0367   -4999.167  -9999      0.666109  
1176.9     0.27036    -9999      -9999      -9999      -9999      2.84       1.7114     1.4666     1.1929     1.4912     1.5945     1.82       0.93       0.85       0.59       1.328734   1.24       -9999      -9999      0.8187427  0.8187427  -9999      -9999      0.8187427  4095049699999.9995117 -9999      1.3027     1.5945     0.7891418  0.8242897  517.45     -4999.153  -9999      0.6941419 
1177       0.2703     -9999      -9999      -9999      -9999      2.9        1.7074     1.4626     1.187      1.4829     1.5863     1.83       0.93       0.85       0.59       1.344565   1.25       -9999      -9999      0.8202482  0.8202482  -9999      -9999      0.8202482  4366622800000.0000000 -9999      1.300185   1.5863     0.788969   0.8241594  517.7233   -4999.151  -9999      0.6978543 
1177.1     0.27024    -9999      -9999      -9999      -9999      2.9        1.7094     1.4698     1.187      1.4805     1.5973     1.83       0.93       0.85       0.59       1.359984   1.26       -9999      -9999      0.8212956  0.8212956  -9999      -9999      0.8212956  4566101800000.0000000 -9999      1.298436   1.5973     0.7898859  0.8249894  517.8416   -4999.149  -9999      0.7012069 
1177.2     0.27019    -9999      -9999      -9999      -9999      2.88       1.7135     1.4626     1.1929     1.4954     1.59       1.83       0.93       0.85       0.59       1.372618   1.26       -9999      -9999      0.8218291  0.8218291  -9999      -9999      0.8218291  4671191600000.0000000 -9999      1.297545   1.59       0.7895528  0.824702   517.7958   -4999.139  -9999      0.7223726 
1177.3     0.27014    -9999      -9999      -9999      -9999      2.82       1.7033     1.4715     1.1959     1.4887     1.5818     1.83       0.93       0.85       0.59       1.380904   1.26       -9999      -9999      0.8219059  0.8219059  -9999      -9999      0.8219059  4686511300000.0000000 -9999      1.297417   1.5818     0.7890587  0.8242646  517.5848   -4999.145  -9999      0.7098371 
1177.4     0.27006    -9999      -9999      -9999      -9999      2.79       1.7104     1.4658     1.1811     1.4879     1.5945     1.82       0.93       0.86       0.59       1.384255   1.25       -9999      -9999      0.8216695  0.8216695  -9999      -9999      0.8216695  4639487400000.0000000 -9999      1.297812   1.5945     0.7897961  0.8249155  517.2144   -4999.158  -9999      0.6838384 
1177.5     0.27006    -9999      -9999      -9999      -9999      2.81       1.7145     1.4666     1.187      1.4895     1.6001     1.83       0.93       0.85       0.59       1.383153   1.24       -9999      -9999      0.8212883  0.8212883  -9999      -9999      0.8212883  4564685700000.0000000 -9999      1.298448   1.6001     0.7900569  0.8251411  516.6943   -4999.166  -9999      0.6682571 
1177.6     0.26995    -9999      -9999      -9999      -9999      2.8        1.7135     1.4715     1.1811     1.4904     1.5918     1.82       -9999      -9999      -9999      1.378968   1.23       -9999      -9999      0.8209143  0.8209143  -9999      -9999      0.8209143  4492448800000.0000000 -9999      1.299073   1.5918     0.7894604  0.8246059  516.0422   -4999.179  -9999      0.6424834 
1177.7     0.27007    -9999      -9999      -9999      -9999      2.76       1.7104     1.4666     1.1959     1.4788     1.5845     1.82       -9999      -9999      -9999      1.373607   1.23       -9999      -9999      0.8206328  0.8206328  -9999      -9999      0.8206328  4438822000000.0000000 -9999      1.299543   1.5845     0.7889427  0.824142   515.278    -4999.208  -9999      0.583113  
1177.8     0.27003    -9999      -9999      -9999      -9999      2.8        1.7074     1.4715     1.1959     1.4772     1.59       1.82       -9999      -9999      -9999      1.369024   1.23       -9999      -9999      0.820476   0.820476   -9999      -9999      0.820476   4409244300000.0000000 -9999      1.299805   1.59       0.7892506  0.8244129  514.4205   -4999.212  -9999      0.5761113 
1177.9     0.27011    -9999      -9999      -9999      -9999      2.83       1.7155     1.4666     1.187      1.4854     1.5945     1.83       -9999      -9999      -9999      1.364991   1.24       -9999      -9999      0.8204159  0.8204159  -9999      -9999      0.8204159  4397949000000.0000000 -9999      1.299906   1.5945     0.7895164  0.824648   513.4869   -4999.231  -9999      0.5382843 
1178       0.2703     -9999      -9999      -9999      -9999      2.84       1.7145     1.4666     1.1923     1.4912     1.5955     1.83       -9999      -9999      -9999      -9999      1.25       -9999      -9999      0.8203967  0.8203967  -9999      -9999      0.8203967  4394361800000.0000000 -9999      1.299937   1.5955     0.7895741  0.8246989  512.4874   -4999.249  -9999      0.502372  
1178.1     0.2703     -9999      -9999      -9999      -9999      2.86       -9999      -9999      -9999      -9999      -9999      1.83       -9999      -9999      -9999      -9999      1.25       -9999      -9999      0.8203514  0.8203514  -9999      -9999      0.8203514  4385868899999.9995117 -9999      1.300013   -9999      -9999      -9999      511.43     -4999.251  -9999      0.4967836 
1178.2     0.27032    -9999      -9999      -9999      -9999      2.85       -9999      -9999      -9999      -9999      -9999      1.83       -9999      -9999      -9999      -9999      1.25       -9999      -9999      0.8202384  0.8202384  -9999      -9999      0.8202384  4364791699999.9995117 -9999      1.300202   -9999      -9999      -9999      510.3268   -4999.271  -9999      0.458959  
