~Version
 VERS              .         2.0                           : CWLS LOG ASCII STANDARD - VERSION 2.0
 WRAP              .         NO                            : ONE LINE PER DEPTH STEP
 DLM               .         SPACE                         : DELIMITING CHARACTER(SPACE TAB OR COMMA)
~Well Information
#_______________________________________________________________________________
#
#PARAMETER_NAME    .UNIT     VALUE                         : DESCRIPTION
#_______________________________________________________________________________
STRT               .M        920                           : First reference value
STOP               .M        1182.8                        : Last reference value
STEP               .M        0.1                           : Step increment
NULL               .         -9999                         : Missing value
COMP               .                                       : Company
WELL               .         6316                          : Well name
FLD                .         Узень                         : Field
LOC                .                                       : Location
CNTY               .                                       : County
STAT               .                                       : State
CTRY               .                                       : Country
SRVC               .         AO "UPGF"                     : Service Company
DATE               .         23/09/2019                    : Date
API                .                                       : API number
Block              .         3а                            : 
Category           .                                       : 
Condition          .                                       : 
Date               .         23.09.2019г.                  : 
EREF               .         235.63                        : 
GRP                .                                       : Group name
Gorizont           .         13                            : 
ISS                .                                       : Well surveys
Interpretator      .         Алпанова Н.К.                 : 
Kupol              .                                       : 
Mud                .         полимерный                    : 
Mud_density        .         1.34                          : 
Mud_resistivity    .         0.38                          : 
NGDU               .         НГДУ-1                        : 
TIME               .                                       : LOG TIME
Viscosity          .         45                            : 
YEAR               .         2019                          : 
~Parameter Information Block
#_______________________________________________________________________________
#
#PARAMETER_NAME    .UNIT     VALUE                         : DESCRIPTION
#_______________________________________________________________________________
SET                .         LQC_KAZNIPI_Petrel            : 
TLFamily_CALI      .         Caliper                       : 
TLFamily_COLL      .         Net Reservoir Flag            : 
TLFamily_CSAT      .         Fluid Code                    : 
TLFamily_DEPT      .         Measured Depth                : 
TLFamily_DT        .         Compressional Slowness        : 
TLFamily_GR        .         Russian Gamma Ray             : 
TLFamily_GZ3       .         Gradient 225                  : 
TLFamily_IK1       .         Resistivity 05                : 
TLFamily_IK2       .         Resistivity 07                : 
TLFamily_IK3       .         Resistivity 10                : 
TLFamily_IK4       .         Resistivity 14                : 
TLFamily_IK5       .         Resistivity 20                : 
TLFamily_LLS       .         Lateral Log Resistivity       : 
TLFamily_MBK       .         Micro Lateral Log Resistivity : 
TLFamily_MINV      .         Micro Gradient Resistivity    : 
TLFamily_MNOR      .         Micro Resistivity             : 
TLFamily_NNKTb     .         Neutron Far                   : 
TLFamily_NNKTm     .         Neutron Near                  : 
TLFamily_NPHI      .         Neutron Porosity              : 
TLFamily_OGZ       .         Gradient Inverted 225         : 
TLFamily_PHIE      .         Effective Porosity            : 
TLFamily_PHIED     .         Effective Porosity            : 
TLFamily_PHIEN     .         Effective Porosity            : 
TLFamily_PHIES     .         Effective Porosity            : 
TLFamily_PHIT      .         Porosity                      : 
TLFamily_PRMB      .         Permeability                  : 
TLFamily_PRMB_DGR  .         Permeability                  : 
TLFamily_RHOB      .         Bulk Density                  : 
TLFamily_RT        .         Formation Resistivity         : 
TLFamily_SOIL_ARCHIE .         Oil Saturation                : 
TLFamily_SOIL_DW   .         Oil Saturation                : 
TLFamily_SP        .         Spontaneous Potential         : 
TLFamily_VSH_FIN   .         Shale Volume                  : 
TLFamily_VSH_GR    .         Shale Volume                  : 
TLFamily_VSH_SP    .         Shale Volume                  : 
~Curve Information
#_______________________________________________________________________________
#
#LOGNAME           .UNIT     LOG_ID                        : DESCRIPTION
#_______________________________________________________________________________
DEPT               .M                                      : Depth curve 
CALI               .м                                      : Кавернометрия 
COLL               .unitless                               : Описание 
CSAT               .unitless                               : Описание 
DT                 .мкс/м                                  : 1 ДельтаТ - Волна по породе 
GR                 .мкР/ч                                  : ГК 
GZ3                .Ом·м                                   : A2.0M0.5N 
IK1                .Ом·м                                   : È0.10È0.40 
IK2                .Ом·м                                   : È0.14È0.56 
IK3                .Ом·м                                   : È0.20È0.8 
IK4                .Ом·м                                   : È0.28È1.12 
IK5                .Ом·м                                   : È0.40È1.60 
LLS                .Ом·м                                   : БК 
MBK                .Ом·м                                   : БМК 
MINV               .Ом·м                                   : МГЗ 
MNOR               .Ом·м                                   : МПЗ 
NNKTb              .у.е.                                   : ННКб.з. 
NNKTm              .у.е.                                   : ННКм.з. 
NPHI               .V/V                                    : Neutron porosity index 
OGZ                .Ом·м                                   : N0.5M2.0A 
PHIE               .v/v                                    : Описание 
PHIED              .v/v                                    :  
PHIEN              .v/v                                    :  
PHIES              .v/v                                    :  
PHIT               .v/v                                    : Описание 
PRMB               .mD                                     :  
PRMB_DGR           .mD                                     :  
RHOB               .г/см3                                  : ГГКП 
RT                 .ohmm                                   : Description 
SOIL_ARCHIE        .v/v                                    :  
SOIL_DW            .v/v                                    :  
SP                 .mv                                     : ПС 
VSH_FIN            .v/v                                    : Описание 
VSH_GR             .v/v                                    : Shale volume 
VSH_SP             .v/v                                    : Shale Volume 
~Ascii
# ...
1125.8     0.21863    1          2          339.173    14.17306   1.7        1.8912     1.8743     1.8156     1.8364     1.772      2.2        2.63       2.3        2.47       2.223698   1.43       0.368      2.79       0.2556775  0.2953355  0.2608193  0.2108778  0.3253482  152.3793   3.410141   2.17679    1.772      0.4392219  0.528063   498.3866   0.32479    0.3931565  0.2564234 
1125.9     0.21779    1          2          337.9171   13.79463   1.73       1.7351     1.6641     1.7124     1.8252     1.8552     2.29       2.32       1.99       2.22       2.273429   1.44       0.329      2.88       0.251264   0.2947754  0.2359587  0.2230579  0.3117436  126.2342   4.84168    2.177725   1.8552     0.4427804  0.523733   497.1865   0.2819432  0.3407277  0.2231588 
1126       0.21812    1          2          337.0288   13.44435   1.75       1.798      1.7909     1.7958     1.9425     2.1116     2.62       3          2.32       2.66       2.316934   1.45       0.309      3.02       0.250547   0.2950494  0.2254286  0.2311629  0.3048708  122.4322   6.697223   2.177268   2.1116     0.4743158  0.5472485  495.9277   0.2532466  0.2984515  0.2080417 
1126.1     0.21802    1          2          336.6191   13.12362   1.9        2.1741     2.1706     2.3171     2.2601     2.3235     3.07       3.87       2.48       3.2        2.35273    1.46       0.305      3.15       0.254136   0.2965655  0.2284355  0.2374069  0.3039052  142.6833   9.013796   2.174736   2.3235     0.5035723  0.5701915  494.673    0.2320137  0.2643586  0.1996687 
1126.2     0.21727    1          2          336.6971   12.83636   2.09       2.6485     2.8382     2.7774     2.7663     2.6407     3.46       6.75       2.75       3.61       2.381056   1.46       0.319      3.29       0.2649015  0.2994034  0.2503223  0.2449788  0.3095441  225.8275   11.76127   2.169996   2.6407     0.5490971  0.6080389  493.4826   0.2081142  0.237144   0.1790845 
1126.3     0.2168     1          2          337.1997   12.58822   2.24       2.7567     2.8951     3.0172     3.0982     3.0577     3.6        5.21       2.78       3.48       2.403382   1.47       0.314      3.41       0.2677642  0.3033782  0.2499923  0.2499221  0.3093711  255.1525   14.80023   2.163358   3.0577     0.5829993  0.6372915  492.4108   0.1939629  0.2159009  0.1720249 
1126.4     0.21693    1          2          338.0273   12.38595   2.29       2.6997     2.8082     3.1089     3.3757     3.3793     3.68       4.92       2.75       3.6        2.421394   1.48       0.309      3.44       0.2700148  0.3080709  0.2481862  0.2537872  0.3095455  280.8578   17.84974   2.155522   3.3793     0.6050067  0.6563217  491.5      0.1842842  0.2000005  0.1685679 
1126.5     0.21731    1          2          339.0614   12.23754   2.24       3.0795     3.4094     3.6298     3.7628     3.6422     3.98       6.92       2.75       3.81       2.43678    1.48       0.291      3.3        0.2681376  0.3128592  0.2335439  0.2580096  0.3054858  259.2486   20.47995   2.147525   3.6422     0.616328   0.665448   490.7838   0.1741094  0.189084   0.1591348 
1126.6     0.21676    1          2          340.1761   12.15088   2.24       3.5145     3.7727     4.066      4.0834     3.9227     4.33       7.43       2.65       3.64       2.450727   1.47       0.287      3.11       0.2695484  0.3168938  0.2311297  0.2606218  0.3058658  275.3269   22.19151   2.140787   3.9227     0.6311457  0.6785818  490.292    0.169304   0.1829874  0.1556206 
1126.7     0.21663    1          2          341.229    12.13264   2.43       3.7151     4.0031     4.3483     4.4464     4.0956     4.51       7.02       2.61       3.53       2.463815   1.47       0.287      3.01       0.2705793  0.3191696  0.2310164  0.2615519  0.3069703  287.7023   22.56962   2.136987   4.0956     0.6397362  0.6865997  490.0524   0.1696472  0.1817293  0.1575651 
1126.8     0.21747    1          2          342.0632   12.1884    2.49       3.8068     4.3149     4.5372     4.5884     4.1481     4.56       8.54       2.61       3.67       2.476096   1.47       0.287      2.93       0.2706352  0.3186488  0.2309503  0.2623067  0.3070692  288.3895   21.43362   2.137856   4.1481     0.6419476  0.6886743  490.0864   0.1698477  0.1856023  0.1540931 
1126.9     0.21686    1          2          342.5219   12.32073   2.38       4.0114     4.4422     4.6519     4.7143     4.1292     4.5        9.5        2.71       3.71       2.487299   1.48       0.278      2.75       0.2654304  0.3145049  0.2204536  0.2613325  0.3028372  230.9789   18.96127   2.144777   4.1292     0.635059   0.6828526  490.412    0.1743829  0.1951274  0.1536385 
1127       0.21697    1          2          342.4643   12.525     2.37       4.2367     4.4633     4.7385     4.5187     3.9297     4.21       8.96       2.82       3.79       2.496924   1.49       0.258      2.59       0.2538596  0.3063501  0.1971198  0.2581089  0.2934335  141.0113   15.69276   2.158395   3.9297     0.6116942  0.6626149  491.04     0.1844855  0.2107998  0.1581712 
1127.1     0.21718    1          2          341.7859   12.78537   2.41       4.2172     4.3149     4.4475     4.0686     3.6831     3.67       7.67       2.96       3.77       2.504434   1.48       0.246      2.28       0.242632   0.2944049  0.1804663  0.2530247  0.2852308  87.35556   12.33013   2.178344   3.6831     0.5836178  0.6388968  491.9637   0.198587   0.2326139  0.1645601 
1127.2     0.21637    1          2          340.4312   13.07613   2.5        3.6298     3.7727     3.8812     3.5827     3.2308     2.86       5.69       2.75       3.42       2.509302   1.48       0.258      2.15       0.2378247  0.279526   0.1872301  0.2467179  0.2838272  71.16204   9.419114   2.203192   3.2308     0.5494279  0.6100539  493.1563   0.2144542  0.259653   0.1692553 
1127.3     0.21932    -9999      -9999      338.4239   13.36462   2.51       2.6214     2.9332     3.0195     2.8796     2.6119     2.05       3.37       2.13       2.6        2.511009   1.46       0.278      1.98       0.2331158  0.2630459  0.1992032  0.2370984  0.2843361  58.21409   7.2105     2.230713   2.6119     0.493398   0.5630738  494.5685   0.2387783  0.2895865  0.1879701 
1127.4     0.22221    -9999      -9999      335.8706   13.61757   2.59       1.8046     2.0066     1.9357     2.2028     2.2094     1.62       1.72       1.58       1.65       2.508865   1.42       0.27       1.78       0.2185675  0.2465173  0.1827181  0.226467   0.2753033  31.30098   5.704471   2.258316   2.2094     0.4203731  0.5026581  496.1227   0.2644908  0.318659   0.2103225 
1127.5     0.22283    -9999      -9999      332.9676   13.80926   2.64       1.3788     1.4262     1.5692     1.7263     1.8877     1.5        1.37       1.4        1.31       2.502095   1.4        0.254      1.67       0.2022616  0.2313669  0.15913    0.216288   0.26393    15.61472   4.776507   2.283617   1.8877     0.3323553  0.430384   497.7238   0.287485   0.3426185  0.2323515 
1127.6     0.2214     -9999      -9999      329.9684   13.92884   2.56       1.2862     1.4146     1.4941     1.6033     1.6803     1.49       1.57       1.49       1.36       2.489933   1.38       0.243      1.67       0.1874789  0.2186553  0.1391489  0.2046323  0.2549852  8.312302   4.275708   2.304846   1.6803     0.2466921  0.3641991  499.2718   0.3147004  0.3584698  0.270931  
1127.7     0.22185    -9999      -9999      327.1516   13.98134   2.43       1.3341     1.4987     1.5647     1.607      1.6366     1.52       1.64       1.53       1.47       2.472099   1.38       0.254      1.74       0.180342   0.2089423  0.1400404  0.1920433  0.2544191  6.130978   4.072783   2.321066   1.6366     0.2110979  0.3444839  500.6751   0.345332   0.3656581  0.3250059 
1127.8     0.22355    -9999      -9999      324.7617   13.98397   2.53       1.3285     1.5138     1.5927     1.667      1.6539     1.57       1.55       1.58       1.55       2.449199   1.39       0.274      1.85       0.1827979  0.2023305  0.1582726  0.1877905  0.2580241  6.80798    4.062878   2.332108   1.6539     0.2241747  0.3568875  501.8653   0.3506889  0.3660219  0.335356  
