~Version
 VERS              .         2.0                           : CWLS LOG ASCII STANDARD - VERSION 2.0
 WRAP              .         NO                            : ONE LINE PER DEPTH STEP
 DLM               .         SPACE                         : DELIMITING CHARACTER(SPACE TAB OR COMMA)
~Well Information
#_______________________________________________________________________________
#
#PARAMETER_NAME    .UNIT     VALUE                         : DESCRIPTION
#_______________________________________________________________________________
STRT               .M        920                           : First reference value
STOP               .M        1182.8                        : Last reference value
STEP               .M        0.1                           : Step increment
NULL               .         -9999                         : Missing value
COMP               .                                       : Company
WELL               .         6316                          : Well name
FLD                .         Узень                         : Field
LOC                .                                       : Location
CNTY               .                                       : County
STAT               .                                       : State
CTRY               .                                       : Country
SRVC               .         AO "UPGF"                     : Service Company
DATE               .         23/09/2019                    : Date
API                .                                       : API number
Block              .         3а                            : 
Category           .                                       : 
Condition          .                                       : 
Date               .         23.09.2019г.                  : 
EREF               .         235.63                        : 
GRP                .                                       : Group name
Gorizont           .         13                            : 
ISS                .                                       : Well surveys
Interpretator      .         Алпанова Н.К.                 : 
Kupol              .                                       : 
Mud                .         полимерный                    : 
Mud_density        .         1.34                          : 
Mud_resistivity    .         0.38                          : 
NGDU               .         НГДУ-1                        : 
TIME               .                                       : LOG TIME
Viscosity          .         45                            : 
YEAR               .         2019                          : 
~Parameter Information Block
#_______________________________________________________________________________
#
#PARAMETER_NAME    .UNIT     VALUE                         : DESCRIPTION
#_______________________________________________________________________________
SET                .         LQC_KAZNIPI_Petrel            : 
TLFamily_CALI      .         Caliper                       : 
TLFamily_COLL      .         Net Reservoir Flag            : 
TLFamily_CSAT      .         Fluid Code                    : 
TLFamily_DEPT      .         Measured Depth                : 
TLFamily_DT        .         Compressional Slowness        : 
TLFamily_GR        .         Russian Gamma Ray             : 
TLFamily_GZ3       .         Gradient 225                  : 
TLFamily_IK1       .         Resistivity 05                : 
TLFamily_IK2       .         Resistivity 07                : 
TLFamily_IK3       .         Resistivity 10                : 
TLFamily_IK4       .         Resistivity 14                : 
TLFamily_IK5       .         Resistivity 20                : 
TLFamily_LLS       .         Lateral Log Resistivity       : 
TLFamily_MBK       .         Micro Lateral Log Resistivity : 
TLFamily_MINV      .         Micro Gradient Resistivity    : 
TLFamily_MNOR      .         Micro Resistivity             : 
TLFamily_NNKTb     .         Neutron Far                   : 
TLFamily_NNKTm     .         Neutron Near                  : 
TLFamily_NPHI      .         Neutron Porosity              : 
TLFamily_OGZ       .         Gradient Inverted 225         : 
TLFamily_PHIE      .         Effective Porosity            : 
TLFamily_PHIED     .         Effective Porosity            : 
TLFamily_PHIEN     .         Effective Porosity            : 
TLFamily_PHIES     .         Effective Porosity            : 
TLFamily_PHIT      .         Porosity                      : 
TLFamily_PRMB      .         Permeability                  : 
TLFamily_PRMB_DGR  .         Permeability                  : 
TLFamily_RHOB      .         Bulk Density                  : 
TLFamily_RT        .         Formation Resistivity         : 
TLFamily_SOIL_ARCHIE .         Oil Saturation                : 
TLFamily_SOIL_DW   .         Oil Saturation                : 
TLFamily_SP        .         Spontaneous Potential         : 
TLFamily_VSH_FIN   .         Shale Volume                  : 
TLFamily_VSH_GR    .         Shale Volume                  : 
TLFamily_VSH_SP    .         Shale Volume                  : 
~Curve Information
#_______________________________________________________________________________
#
#LOGNAME           .UNIT     LOG_ID                        : DESCRIPTION
#_______________________________________________________________________________
DEPT               .M                                      : Depth curve 
CALI               .м                                      : Кавернометрия 
COLL               .unitless                               : Описание 
CSAT               .unitless                               : Описание 
DT                 .мкс/м                                  : 1 ДельтаТ - Волна по породе 
GR                 .мкР/ч                                  : ГК 
GZ3                .Ом·м                                   : A2.0M0.5N 
IK1                .Ом·м                                   : È0.10È0.40 
IK2                .Ом·м                                   : È0.14È0.56 
IK3                .Ом·м                                   : È0.20È0.8 
IK4                .Ом·м                                   : È0.28È1.12 
IK5                .Ом·м                                   : È0.40È1.60 
LLS                .Ом·м                                   : БК 
MBK                .Ом·м                                   : БМК 
MINV               .Ом·м                                   : МГЗ 
MNOR               .Ом·м                                   : МПЗ 
NNKTb              .у.е.                                   : ННКб.з. 
NNKTm              .у.е.                                   : ННКм.з. 
NPHI               .V/V                                    : Neutron porosity index 
OGZ                .Ом·м                                   : N0.5M2.0A 
PHIE               .v/v                                    : Описание 
PHIED              .v/v                                    :  
PHIEN              .v/v                                    :  
PHIES              .v/v                                    :  
PHIT               .v/v                                    : Описание 
PRMB               .mD                                     :  
PRMB_DGR           .mD                                     :  
RHOB               .г/см3                                  : ГГКП 
RT                 .ohmm                                   : Description 
SOIL_ARCHIE        .v/v                                    :  
SOIL_DW            .v/v                                    :  
SP                 .mv                                     : ПС 
VSH_FIN            .v/v                                    : Описание 
VSH_GR             .v/v                                    : Shale volume 
VSH_SP             .v/v                                    : Shale Volume 
~Ascii
# ...
1006.1     0.24422    -9999      -9999      312.663    10.26988   2.11       1.4541     1.4426     1.5559     1.6495     1.7165     1.72       1.41       1.08       1.54       2.939746   1.54       -9999      2.63       0.05293027 0.0141714  -9999      0.09168914 0.1491411  0.02676425 1.195766   2.419255   1.7165     0          0          514.6899   0.6137276  0.6031268  0.6243285 
1006.2     0.23941    -9999      -9999      311.4139   10.23187   2.04       1.5058     1.492      1.5918     1.67       1.7206     1.77       1.55       0.96       1.55       2.935974   1.57       -9999      2.71       0.0505674  0.01103533 -9999      0.09009948 0.1468393  0.02419853 1.235969   2.424348   1.7206     0          0          514.701    0.6141172  0.5950375  0.6331969 
1006.3     0.22887    -9999      -9999      310.0714   10.18249   2.08       1.5809     1.5914     1.7013     1.7715     1.7699     1.84       1.58       0.92       1.61       2.928874   1.59       -9999      2.71       0.05213763 0.01169572 -9999      0.09257954 0.1463742  0.02587459 1.290226   2.428049   1.7699     0          0          514.6241   0.6011339  0.58469    0.6175779 
1006.4     0.22694    -9999      -9999      308.7964   10.13031   1.99       1.6461     1.6998     1.7828     1.8581     1.8415     1.89       1.68       1.15       1.78       2.918821   1.61       -9999      2.67       0.05382074 0.01302136 -9999      0.09462012 0.1462754  0.02780025 1.350153   2.430041   1.8415     0          0          514.4577   0.5897669  0.5739505  0.6055833 
1006.5     0.22706    -9999      -9999      307.7341   10.08295   2.09       1.7033     1.7747     1.8449     1.9037     1.9043     1.91       1.92       1.36       2.06       2.905791   1.61       -9999      2.66       0.05409776 0.0137164  -9999      0.09447912 0.1459834  0.02813065 1.406946   2.430223   1.9043     0          0          514.2096   0.5861375  0.5643746  0.6079003 
1006.6     0.22685    -9999      -9999      306.9937   10.04524   2.18       1.7403     1.7909     1.8403     1.9205     1.9296     1.9        1.87       1.59       2.07       2.88973    1.6        -9999      2.57       0.05739065 0.01735122 -9999      0.09743008 0.1473526  0.0323722  1.453871   2.428693   1.9296     0          0          513.8953   0.573866   0.5568644  0.5908675 
1006.7     0.22777    -9999      -9999      306.6287   10.01814   2.24       1.6953     1.7408     1.7882     1.8778     1.943      1.86       1.67       1.37       1.87       2.871137   1.6        -9999      2.64       0.06376925 0.02384531 -9999      0.1036932  0.1503778  0.04249318 1.488562   2.425763   1.943      0          0          513.538    0.5524748  0.551528   0.5534216 
1006.8     0.2275     -9999      -9999      306.6251   9.998385   2.27       1.6084     1.6352     1.7382     1.8478     1.9019     1.85       1.52       1.06       1.7        2.85176    1.59       -9999      2.68       0.06622889 0.02721037 -9999      0.1052474  0.1520582  0.04719302 1.514361   2.421982   1.9019     0          0          513.1649   0.5475038  0.5476719  0.5473356 
1006.9     0.22613    -9999      -9999      306.8968   9.979878   2.3        1.6385     1.6838     1.7709     1.8558     1.8889     1.88       1.75       1.23       1.82       2.834744   1.6        -9999      2.66       0.06830873 0.03014529 -9999      0.1064722  0.1536907  0.05157052 1.538942   2.418137   1.8889     0          0          512.801    0.5446507  0.5440829  0.5452186 
1007       0.22611    -9999      -9999      307.2993   9.957067   2.16       1.8101     1.8421     1.8748     1.9073     1.8971     1.88       2          1.71       2.12       2.824245   1.6        -9999      2.64       0.074306   0.03593932 -9999      0.1126727  0.1568319  0.06660171 1.56979    2.415202   1.8971     0          0          512.468    0.5264316  0.5396914  0.5131717 
1007.1     0.2262     -9999      -9999      307.6382   9.926555   2.18       1.8347     1.8848     1.9115     1.9109     1.9043     1.83       1.81       1.79       2.12       2.824558   1.58       -9999      2.52       0.07717244 0.03848518 -9999      0.1158597  0.1583099  0.07526252 1.612019   2.414227   1.9043     0          0          512.1824   0.517575   0.533873   0.501277  
1007.2     0.22753    -9999      -9999      307.7112   9.887886   2.22       1.6973     1.6838     1.7763     1.8512     1.8632     1.76       1.58       1.34       1.87       2.839273   1.56       -9999      2.44       0.07629155 0.03704455 -9999      0.1155385  0.1576337  0.07248741 1.667175   2.41615    1.8632     0          0          511.9523   0.5188804  0.5265891  0.5111716 
1007.3     0.22733    -9999      -9999      307.3235   9.842337   2.32       1.5719     1.5679     1.6607     1.7769     1.809      1.73       1.49       1.13       1.66       2.870695   1.55       -9999      2.41       0.07763156 0.03644298 -9999      0.1188201  0.1570984  0.07675078 1.734569   2.421581   1.809      0          0          511.7774   0.506918   0.5181365  0.4956996 
1007.4     0.22684    -9999      -9999      306.3166   9.789493   2.25       1.5349     1.5405     1.6366     1.7284     1.7774     1.75       1.5        1.13       1.75       2.919897   1.56       -9999      2.49       0.0750846  0.03167323 -9999      0.118496   0.1541017  0.06885049 1.816179   2.430608   1.7774     0          0          511.6512   0.5040491  0.5085001  0.4995981 
1007.5     0.22707    -9999      -9999      304.5708   9.724305   2.17       1.5603     1.5823     1.7074     1.7747     1.7914     1.82       1.62       1.33       1.94       2.987235   1.58       -9999      2.55       0.06988555 0.02398842 -9999      0.1157827  0.149189   0.05515794 1.92216    2.442765   1.7914     0          0          511.5626   0.5058753  0.4968593  0.5148913 
1007.6     0.22636    -9999      -9999      302.0076   9.635512   2.12       1.6655     1.7683     1.8335     1.8581     1.8563     1.91       1.98       1.96       2.08       3.072803   1.61       -9999      2.53       0.06775532 0.01849472 -9999      0.1170159  0.1448482  0.05036756 2.076535   2.457157   1.8563     0          0          511.4975   0.4917742  0.4814308  0.5021175 
1007.7     0.22629    -9999      -9999      298.5887   9.5067     2.21       1.8002     1.8966     1.9235     1.9266     1.9031     1.96       2.14       2.54       2.39       3.176106   1.61       -9999      2.52       0.06520957 0.01275176 -9999      0.1176674  0.139808   0.04518533 2.322794   2.472636   1.9031     0          0          511.4394   0.4758623  0.4598961  0.4918285 
1007.8     0.22589    -9999      -9999      294.3326   9.322028   2.11       1.8179     1.865      1.8948     1.9363     1.9271     1.95       2          2.39       2.3        3.29511    1.61       -9999      2.55       0.06023374 0.005507288 -9999      0.1149602  0.1334157  0.03654543 2.727646   2.488077   1.9271     0          0          511.3716   0.4668268  0.4306926  0.502961  
1007.9     0.22582    -9999      -9999      289.3351   9.072986   2.07       1.7186     1.7079     1.7763     1.8919     1.9804     1.96       1.84       1.7        2.15       3.42482    1.63       -9999      2.52       0.05716857 0.0006824873 -9999      0.1136547  0.1276466  0.03206703 3.387566   2.502516   1.9804     0          0          511.275    0.4495783  0.3942243  0.5049324 
1008       0.22606    -9999      -9999      283.8066   8.764457   2.12       1.6309     1.6144     1.755      1.8954     2.0611     2.09       1.82       1.49       2.04       3.556516   1.66       -9999      2.59       0.05562361 -0.001869683 -9999      0.1131169  0.1225195  0.03002218 4.430614   2.515233   2.0611     0          0          511.1306   0.4267279  0.3532981  0.5001577 
1008.1     0.22548    -9999      -9999      278.1      8.417459   2.38       1.7752     1.7855     1.8713     2.0472     2.1858     2.37       2.44       2.13       2.31       3.677896   1.74       -9999      2.57       0.05311453 -0.004202972 -9999      0.110432   0.1172171  0.02697541 5.992054   2.525723   2.1858     0          0          510.9241   0.4089094  0.312323   0.5054957 
