~Version
 VERS              .         2.0                           : CWLS LOG ASCII STANDARD - VERSION 2.0
 WRAP              .         NO                            : ONE LINE PER DEPTH STEP
 DLM               .         SPACE                         : DELIMITING CHARACTER(SPACE TAB OR COMMA)
~Well Information
#_______________________________________________________________________________
#
#PARAMETER_NAME    .UNIT     VALUE                         : DESCRIPTION
#_______________________________________________________________________________
STRT               .M        920                           : First reference value
STOP               .M        1182.8                        : Last reference value
STEP               .M        0.1                           : Step increment
NULL               .         -9999                         : Missing value
COMP               .                                       : Company
WELL               .         6316                          : Well name
FLD                .         Узень                         : Field
LOC                .                                       : Location
CNTY               .                                       : County
STAT               .                                       : State
CTRY               .                                       : Country
SRVC               .         AO "UPGF"                     : Service Company
DATE               .         23/09/2019                    : Date
API                .                                       : API number
Block              .         3а                            : 
Category           .                                       : 
Condition          .                                       : 
Date               .         23.09.2019г.                  : 
EREF               .         235.63                        : 
GRP                .                                       : Group name
Gorizont           .         13                            : 
ISS                .                                       : Well surveys
Interpretator      .         Алпанова Н.К.                 : 
Kupol              .                                       : 
Mud                .         полимерный                    : 
Mud_density        .         1.34                          : 
Mud_resistivity    .         0.38                          : 
NGDU               .         НГДУ-1                        : 
TIME               .                                       : LOG TIME
Viscosity          .         45                            : 
YEAR               .         2019                          : 
~Parameter Information Block
#_______________________________________________________________________________
#
#PARAMETER_NAME    .UNIT     VALUE                         : DESCRIPTION
#_______________________________________________________________________________
SET                .         LQC_KAZNIPI_Petrel            : 
TLFamily_CALI      .         Caliper                       : 
TLFamily_COLL      .         Net Reservoir Flag            : 
TLFamily_CSAT      .         Fluid Code                    : 
TLFamily_DEPT      .         Measured Depth                : 
TLFamily_DT        .         Compressional Slowness        : 
TLFamily_GR        .         Russian Gamma Ray             : 
TLFamily_GZ3       .         Gradient 225                  : 
TLFamily_IK1       .         Resistivity 05                : 
TLFamily_IK2       .         Resistivity 07                : 
TLFamily_IK3       .         Resistivity 10                : 
TLFamily_IK4       .         Resistivity 14                : 
TLFamily_IK5       .         Resistivity 20                : 
TLFamily_LLS       .         Lateral Log Resistivity       : 
TLFamily_MBK       .         Micro Lateral Log Resistivity : 
TLFamily_MINV      .         Micro Gradient Resistivity    : 
TLFamily_MNOR      .         Micro Resistivity             : 
TLFamily_NNKTb     .         Neutron Far                   : 
TLFamily_NNKTm     .         Neutron Near                  : 
TLFamily_NPHI      .         Neutron Porosity              : 
TLFamily_OGZ       .         Gradient Inverted 225         : 
TLFamily_PHIE      .         Effective Porosity            : 
TLFamily_PHIED     .         Effective Porosity            : 
TLFamily_PHIEN     .         Effective Porosity            : 
TLFamily_PHIES     .         Effective Porosity            : 
TLFamily_PHIT      .         Porosity                      : 
TLFamily_PRMB      .         Permeability                  : 
TLFamily_PRMB_DGR  .         Permeability                  : 
TLFamily_RHOB      .         Bulk Density                  : 
TLFamily_RT        .         Formation Resistivity         : 
TLFamily_SOIL_ARCHIE .         Oil Saturation                : 
TLFamily_SOIL_DW   .         Oil Saturation                : 
TLFamily_SP        .         Spontaneous Potential         : 
TLFamily_VSH_FIN   .         Shale Volume                  : 
TLFamily_VSH_GR    .         Shale Volume                  : 
TLFamily_VSH_SP    .         Shale Volume                  : 
~Curve Information
#_______________________________________________________________________________
#
#LOGNAME           .UNIT     LOG_ID                        : DESCRIPTION
#_______________________________________________________________________________
DEPT               .M                                      : Depth curve 
CALI               .м                                      : Кавернометрия 
COLL               .unitless                               : Описание 
CSAT               .unitless                               : Описание 
DT                 .мкс/м                                  : 1 ДельтаТ - Волна по породе 
GR                 .мкР/ч                                  : ГК 
GZ3                .Ом·м                                   : A2.0M0.5N 
IK1                .Ом·м                                   : È0.10È0.40 
IK2                .Ом·м                                   : È0.14È0.56 
IK3                .Ом·м                                   : È0.20È0.8 
IK4                .Ом·м                                   : È0.28È1.12 
IK5                .Ом·м                                   : È0.40È1.60 
LLS                .Ом·м                                   : БК 
MBK                .Ом·м                                   : БМК 
MINV               .Ом·м                                   : МГЗ 
MNOR               .Ом·м                                   : МПЗ 
NNKTb              .у.е.                                   : ННКб.з. 
NNKTm              .у.е.                                   : ННКм.з. 
NPHI               .V/V                                    : Neutron porosity index 
OGZ                .Ом·м                                   : N0.5M2.0A 
PHIE               .v/v                                    : Описание 
PHIED              .v/v                                    :  
PHIEN              .v/v                                    :  
PHIES              .v/v                                    :  
PHIT               .v/v                                    : Описание 
PRMB               .mD                                     :  
PRMB_DGR           .mD                                     :  
RHOB               .г/см3                                  : ГГКП 
RT                 .ohmm                                   : Description 
SOIL_ARCHIE        .v/v                                    :  
SOIL_DW            .v/v                                    :  
SP                 .mv                                     : ПС 
VSH_FIN            .v/v                                    : Описание 
VSH_GR             .v/v                                    : Shale volume 
VSH_SP             .v/v                                    : Shale Volume 
~Ascii
# ...
1022.9     0.22537    -9999      -9999      234.7181   5.897492   3.48       2.563      2.6093     2.7774     2.8512     2.9613     2.62       3.37       4          3.41       4.374561   1.79       -9999      2.01       0.09480071 0.09113281 -9999      0.09846861 0.1268698  0.1596236  53.67032   2.517808   2.9613     0          0.04387681 501.8644   0.2045685  0.1275869  0.2815501 
1023       0.22453    -9999      -9999      232.1688   5.84749    3.58       2.7158     2.7621     2.9362     3.0738     3.1039     2.8        3.07       3.92       3.52       4.426147   1.83       -9999      1.98       0.09014463 0.0861363  -9999      0.09415295 0.1216957  0.1308746  56.05667   2.526152   3.1039     0          0.02285271 501.5209   0.2012637  0.1253405  0.277187  
1023.1     0.22458    -9999      -9999      229.9045   5.838364   3.66       3.0722     3.113      3.2074     3.2721     3.2917     3.01       3.51       4.3        4.03       4.460151   1.86       -9999      1.89       0.08509158 0.08054989 -9999      0.08963326 0.116476   0.1055019  56.50355   2.535482   3.2917     0          0.002898866 501.2783   0.2002007  0.1249347  0.2754667 
1023.2     0.22428    -9999      -9999      228.2531   5.883834   3.9        3.1437     3.1962     3.4159     3.4988     3.4388     3.14       4          4.55       4.19       4.467338   1.89       -9999      1.9        0.08170513 0.07532495 -9999      0.08808531 0.1120635  0.09131356 54.3119    2.544207   3.4388     0          0          501.1717   0.1936556  0.1269693  0.2603418 
1023.3     0.22405    -9999      -9999      227.557    5.993743   3.97       3.2048     3.2694     3.3737     3.4842     3.4705     3.14       4.17       4.66       4.37       4.439264   1.9        -9999      1.9        0.07879309 0.07142402 -9999      0.08616217 0.1093464  0.08064868 49.35899   2.550722   3.4705     0          0          501.2305   0.194899   0.132025   0.2577729 
1023.4     0.22486    -9999      -9999      228.1109   6.173696   3.91       3.1312     3.1229     3.2863     3.4436     3.4792     3.06       3.91       4.94       4.63       4.36959    1.89       -9999      1.87       0.07713129 0.06973896 -9999      0.08452363 0.1091143  0.07513058 42.20577   2.553536   3.4792     0          0          501.4713   0.2040192  0.140741   0.2672974 
1023.5     0.22464    -9999      -9999      230.178    6.427483   3.97       2.9362     3.0235     3.174      3.3124     3.3488     2.93       3.96       4.24       4.02       4.255092   1.87       -9999      1.92       0.07821929 0.07098359 -9999      0.08545499 0.1119885  0.07869899 33.84383   2.551457   3.3488     0          0          501.8916   0.2154134  0.1540198  0.2768069 
1023.6     0.22487    -9999      -9999      233.9651   6.760753   4.03       2.6818     2.7913     2.9567     3.1808     3.2203     2.76       4.74       3.8        4.19       4.09611    1.83       -9999      1.81       0.08252013 0.07566016 -9999      0.08938009 0.1183492  0.09454335 25.32532   2.543648   3.2203     0          0          502.4731   0.228553   0.1733788  0.2837273 
1023.7     0.22552    -9999      -9999      239.6615   7.181908   4.04       2.4484     2.5698     2.8325     3.0665     3.0892     2.59       3.28       4.36       3.12       3.896634   1.79       -9999      1.7        0.0886198  0.0840378  -9999      0.09320179 0.1283489  0.1226342  17.5559    2.529657   3.0892     0          0.04394283 503.1845   0.2534315  0.2013607  0.3055024 
1023.8     0.22599    -9999      -9999      247.4323   7.696708   3.98       2.3806     2.5605     2.8005     2.9883     3.0101     2.47       2.63       3.55       2.64       3.663965   1.75       -9999      1.64       0.09741098 0.09615474 -9999      0.0986672  0.1419031  0.1784209  11.21781   2.509422   3.0101     0          0.121884   503.9826   0.2838144  0.2417696  0.3258592 
1023.9     0.22607    -9999      -9999      257.3784   8.301564   4          2.5048     2.6831     2.9453     2.9813     2.8847     2.42       2.61       2.98       2.78       3.408029   1.72       -9999      1.68       0.1076676  0.1118375  -9999      0.1034976  0.1586779  0.2763269  6.627748   2.483231   2.8847     0.05242429 0.1939996  504.8187   0.3253942  0.2997251  0.3510633 
1024       0.22601    -9999      -9999      269.455    8.977719   3.95       2.6878     2.849      2.9937     2.8951     2.6641     2.34       3.1        3.08       3.18       3.1406     1.68       -9999      1.7        0.1189911  0.1306896  -9999      0.1072926  0.1780645  0.4478804  3.680303   2.451748   2.6641     0.0984247  0.2479275  505.6465   0.3768282  0.3811053  0.3725511 
1024.1     0.22611    -9999      -9999      283.3866   9.689186   3.82       2.3559     2.4582     2.6272     2.5513     2.3592     2.1        3.35       3.2        3.16       2.874518   1.62       -9999      1.68       0.08068024 0.05391818 -9999      0.1074423  0.1501147  0.08740812 1.981796   2.416076   2.3592     0          0          506.4221   0.4429214  0.4906989  0.395144  
1024.2     0.22704    -9999      -9999      298.6161   10.38553   3.76       1.6243     1.7513     1.9151     1.9536     1.9893     1.75       2.62       2.65       2.54       2.622158   1.51       -9999      1.69       0.08317678 0.06085912 -9999      0.1054944  0.1638793  0.09722856 1.081307   2.377889   1.9893     0          0          507.1095   0.5148003  0.6284224  0.4011782 
1024.3     0.23079    -9999      -9999      314.3152   11.01068   3.64       1.1483     1.1902     1.2307     1.3978     1.5863     1.44       1.48       1.71       1.7        2.394611   1.41       -9999      1.66       0.08093348 0.06456956 -9999      0.0972974  0.1753019  0.08835731 0.6276825  2.339438   1.5863     0          0          507.6822   0.6019747  0.7847     0.4192494 
1024.4     0.2304     -9999      -9999      329.5082   11.51569   3.51       0.9508     0.9442     1.038      1.1755     1.2796     1.25       0.98       1.22       1.16       2.20062    1.34       -9999      1.62       0.09306841 0.08034074 -9999      0.1057961  0.1915783  0.1482555  0.4045026  2.303325   1.2796     0          0          508.1229   0.6283934  0.8        0.4567868 
1024.5     0.22855    -9999      -9999      343.2157   11.86927   3.15       0.8722     0.9227     0.9898     1.0746     1.1562     1.16       0.85       1.16       1.02       2.046114   1.32       -9999      1.75       0.1101576  0.09971868 -9999      0.1205966  0.2082003  0.3072874  0.297389   2.272067   1.1562     0          0          508.425    0.6254128  0.8        0.4508256 
1024.6     0.23688    -9999      -9999      354.626    12.06264   2.88       0.8061     0.9102     0.9746     1.046      1.0872     1.16       0.9        1.22       1.04       1.934151   1.3        -9999      1.8        0.1251515  0.1162682  -9999      0.1340348  0.2218374  0.5824615  0.2513396  2.247632   1.0872     0          0          508.5931   0.6167582  0.8        0.4335164 
1024.7     0.24286    -9999      -9999      363.1923   12.10812   2.76       0.7563     0.8693     0.9474     1.0252     1.0547     1.15       0.93       1.05       0.99       1.865222   1.3        -9999      1.87       0.1327795  0.1252228  -9999      0.1403362  0.230119   0.8064104  0.2415876  2.231135   1.0547     0          0.01880683 508.6437   0.6209279  0.8        0.4418557 
1024.8     0.24813    -9999      -9999      368.6568   12.03221   2.64       0.7532     0.8648     0.9386     1.0028     1.0449     1.15       0.93       0.88       0.94       1.837485   1.3        -9999      1.91       0.1361101  0.1289852  -9999      0.143235   0.2343348  0.9294955  0.2580823  2.222762   1.0449     0          0.03449083 508.6016   0.6265739  0.8        0.4531477 
1024.9     0.25105    -9999      -9999      371.025    11.86719   2.51       0.7482     0.8335     0.9299     0.981      1.0194     1.15       0.98       0.9        0.93       1.846832   1.29       -9999      2.06       0.1413854  0.1328099  -9999      0.1499608  0.2372375  1.164013   0.2979268  2.221975   1.0194     0          0.04428553 508.4986   0.6114393  0.8        0.4228787 
