~Version
 VERS              .         2.0                           : CWLS LOG ASCII STANDARD - VERSION 2.0
 WRAP              .         NO                            : ONE LINE PER DEPTH STEP
 DLM               .         SPACE                         : DELIMITING CHARACTER(SPACE TAB OR COMMA)
~Well Information
#_______________________________________________________________________________
#
#PARAMETER_NAME    .UNIT     VALUE                         : DESCRIPTION
#_______________________________________________________________________________
STRT               .M        920                           : First reference value
STOP               .M        1182.8                        : Last reference value
STEP               .M        0.1                           : Step increment
NULL               .         -9999                         : Missing value
COMP               .                                       : Company
WELL               .         6316                          : Well name
FLD                .         Узень                         : Field
LOC                .                                       : Location
CNTY               .                                       : County
STAT               .                                       : State
CTRY               .                                       : Country
SRVC               .         AO "UPGF"                     : Service Company
DATE               .         23/09/2019                    : Date
API                .                                       : API number
Block              .         3а                            : 
Category           .                                       : 
Condition          .                                       : 
Date               .         23.09.2019г.                  : 
EREF               .         235.63                        : 
GRP                .                                       : Group name
Gorizont           .         13                            : 
ISS                .                                       : Well surveys
Interpretator      .         Алпанова Н.К.                 : 
Kupol              .                                       : 
Mud                .         полимерный                    : 
Mud_density        .         1.34                          : 
Mud_resistivity    .         0.38                          : 
NGDU               .         НГДУ-1                        : 
TIME               .                                       : LOG TIME
Viscosity          .         45                            : 
YEAR               .         2019                          : 
~Parameter Information Block
#_______________________________________________________________________________
#
#PARAMETER_NAME    .UNIT     VALUE                         : DESCRIPTION
#_______________________________________________________________________________
SET                .         LQC_KAZNIPI_Petrel            : 
TLFamily_CALI      .         Caliper                       : 
TLFamily_COLL      .         Net Reservoir Flag            : 
TLFamily_CSAT      .         Fluid Code                    : 
TLFamily_DEPT      .         Measured Depth                : 
TLFamily_DT        .         Compressional Slowness        : 
TLFamily_GR        .         Russian Gamma Ray             : 
TLFamily_GZ3       .         Gradient 225                  : 
TLFamily_IK1       .         Resistivity 05                : 
TLFamily_IK2       .         Resistivity 07                : 
TLFamily_IK3       .         Resistivity 10                : 
TLFamily_IK4       .         Resistivity 14                : 
TLFamily_IK5       .         Resistivity 20                : 
TLFamily_LLS       .         Lateral Log Resistivity       : 
TLFamily_MBK       .         Micro Lateral Log Resistivity : 
TLFamily_MINV      .         Micro Gradient Resistivity    : 
TLFamily_MNOR      .         Micro Resistivity             : 
TLFamily_NNKTb     .         Neutron Far                   : 
TLFamily_NNKTm     .         Neutron Near                  : 
TLFamily_NPHI      .         Neutron Porosity              : 
TLFamily_OGZ       .         Gradient Inverted 225         : 
TLFamily_PHIE      .         Effective Porosity            : 
TLFamily_PHIED     .         Effective Porosity            : 
TLFamily_PHIEN     .         Effective Porosity            : 
TLFamily_PHIES     .         Effective Porosity            : 
TLFamily_PHIT      .         Porosity                      : 
TLFamily_PRMB      .         Permeability                  : 
TLFamily_PRMB_DGR  .         Permeability                  : 
TLFamily_RHOB      .         Bulk Density                  : 
TLFamily_RT        .         Formation Resistivity         : 
TLFamily_SOIL_ARCHIE .         Oil Saturation                : 
TLFamily_SOIL_DW   .         Oil Saturation                : 
TLFamily_SP        .         Spontaneous Potential         : 
TLFamily_VSH_FIN   .         Shale Volume                  : 
TLFamily_VSH_GR    .         Shale Volume                  : 
TLFamily_VSH_SP    .         Shale Volume                  : 
~Curve Information
#_______________________________________________________________________________
#
#LOGNAME           .UNIT     LOG_ID                        : DESCRIPTION
#_______________________________________________________________________________
DEPT               .M                                      : Depth curve 
CALI               .м                                      : Кавернометрия 
COLL               .unitless                               : Описание 
CSAT               .unitless                               : Описание 
DT                 .мкс/м                                  : 1 ДельтаТ - Волна по породе 
GR                 .мкР/ч                                  : ГК 
GZ3                .Ом·м                                   : A2.0M0.5N 
IK1                .Ом·м                                   : È0.10È0.40 
IK2                .Ом·м                                   : È0.14È0.56 
IK3                .Ом·м                                   : È0.20È0.8 
IK4                .Ом·м                                   : È0.28È1.12 
IK5                .Ом·м                                   : È0.40È1.60 
LLS                .Ом·м                                   : БК 
MBK                .Ом·м                                   : БМК 
MINV               .Ом·м                                   : МГЗ 
MNOR               .Ом·м                                   : МПЗ 
NNKTb              .у.е.                                   : ННКб.з. 
NNKTm              .у.е.                                   : ННКм.з. 
NPHI               .V/V                                    : Neutron porosity index 
OGZ                .Ом·м                                   : N0.5M2.0A 
PHIE               .v/v                                    : Описание 
PHIED              .v/v                                    :  
PHIEN              .v/v                                    :  
PHIES              .v/v                                    :  
PHIT               .v/v                                    : Описание 
PRMB               .mD                                     :  
PRMB_DGR           .mD                                     :  
RHOB               .г/см3                                  : ГГКП 
RT                 .ohmm                                   : Description 
SOIL_ARCHIE        .v/v                                    :  
SOIL_DW            .v/v                                    :  
SP                 .mv                                     : ПС 
VSH_FIN            .v/v                                    : Описание 
VSH_GR             .v/v                                    : Shale volume 
VSH_SP             .v/v                                    : Shale Volume 
~Ascii
920.0      0.21999    -9999      -9999      -9999      -9999      7.87       5.78       4.8311     4.7201     4.450601   3.9756     3.28       4.13       3.11       3.58       -9999      1.47       -9999      3.72       -9999      -9999      -9999      -9999      -9999      -9999      -9999      -9999      3.9756     -9999      -9999      -9999      -9999      0.3375753  0.8       
920.1      0.22022    -9999      -9999      -9999      -9999      6.74       3.8778     3.6885     3.6391     3.493      3.3433     2.68       3.49       2.75       2.95       -9999      1.41       -9999      3.04       -9999      -9999      -9999      -9999      -9999      -9999      -9999      -9999      3.3433     -9999      -9999      -9999      -9999      0.3706912  0.8       
920.2000000000001 0.2199     -9999      -9999      -9999      -9999      5.469999   3.0031     3.0714     3.1089     2.9107     2.8584     2.47       3.03       2.62       2.78       -9999      1.39       -9999      2.21       -9999      -9999      -9999      -9999      -9999      -9999      -9999      -9999      2.8584     -9999      -9999      -9999      -9999      0.3136445  0.8       
920.3      0.22011    -9999      -9999      -9999      -9999      4.27       2.6739     2.7252     2.7567     2.7252     2.541      2.38       2.97       2.58       2.74       -9999      1.39       -9999      1.66       -9999      -9999      -9999      -9999      -9999      -9999      -9999      -9999      2.541      -9999      -9999      -9999      -9999      0.2799543  0.8       
920.4      0.22049    -9999      -9999      -9999      -9999      3.49       2.4711     2.4237     2.6138     2.5998     2.4295     2.33       3.29       2.59       2.73       -9999      1.4        -9999      1.49       -9999      -9999      -9999      -9999      -9999      -9999      -9999      -9999      2.4295     -9999      -9999      -9999      -9999      0.2707523  0.8       
920.5      0.21939    -9999      -9999      -9999      -9999      3.03       2.3707     2.2803     2.4816     2.5095     2.3608     2.29       3.07       2.51       2.69       -9999      1.41       -9999      1.45       -9999      -9999      -9999      -9999      -9999      -9999      -9999      -9999      2.3608     -9999      -9999      -9999      -9999      0.2432901  0.8       
920.6      0.2195     -9999      -9999      -9999      -9999      2.54       2.3889     2.194      2.3543     2.446      2.3251     2.26       2.71       2.37       2.58       -9999      1.42       -9999      1.45       -9999      -9999      -9999      -9999      -9999      -9999      -9999      -9999      2.3251     -9999      -9999      -9999      -9999      0.2200794  0.8       
920.7000000000001 0.21958    -9999      -9999      -9999      -9999      2.31       2.4057     2.0713     2.2288     2.4203     2.2934     2.27       2.72       2.41       2.53       -9999      1.43       -9999      1.47       -9999      -9999      -9999      -9999      -9999      -9999      -9999      -9999      2.2934     -9999      -9999      -9999      -9999      0.2260432  0.8       
920.8      0.21921    -9999      -9999      -9999      -9999      2.15       2.404      2.0579     2.1312     2.4        2.2903     2.28       2.91       2.47       2.62       -9999      1.43       -9999      1.53       -9999      -9999      -9999      -9999      -9999      -9999      -9999      -9999      2.2903     -9999      -9999      -9999      -9999      0.2566541  0.8       
920.9      0.2196     -9999      -9999      -9999      -9999      2.08       2.4227     2.0794     2.0854     2.3504     2.27       2.29       2.91       2.41       2.64       -9999      1.42       -9999      1.68       -9999      -9999      -9999      -9999      -9999      -9999      -9999      -9999      2.27       -9999      -9999      -9999      -9999      0.2799543  0.8       
921        0.21959    -9999      -9999      333.3995   8.218763   2.07       2.4295     2.1082     2.0136     2.2418     2.2318     2.29       2.88       2.35       2.7        2.167696   1.4        -9999      1.9        -9999      -9999      -9999      -9999      -9999      -9999      -9999      -9999      2.2318     -9999      -9999      473.2088   -9999      0.3221439  0.8       
921.1      0.22072    -9999      -9999      334.3372   8.204871   2.01       2.4023     2.0794     1.9418     2.1292     2.1887     2.27       2.94       2.6        2.74       2.200676   1.39       -9999      2.08       -9999      -9999      -9999      -9999      -9999      -9999      -9999      -9999      2.1887     -9999      -9999      473.5396   -9999      0.2953323  0.8       
921.2000000000001 0.22019    -9999      -9999      334.5017   8.180457   2.03       2.3657     2.0235     1.8807     2.0235     2.1727     2.25       2.84       2.47       2.63       2.234281   1.39       -9999      2.21       -9999      -9999      -9999      -9999      -9999      -9999      -9999      -9999      2.1727     -9999      -9999      473.8816   -9999      0.2799543  0.8       
921.3      0.22011    -9999      -9999      333.7797   8.150455   2.27       2.3283     1.9773     1.8324     1.9327     2.1511     2.26       2.63       2.42       2.57       2.266122   1.4        -9999      2.48       -9999      -9999      -9999      -9999      -9999      -9999      -9999      -9999      2.1511     -9999      -9999      474.1919   -9999      0.2818317  0.8       
921.4      0.22023    -9999      -9999      332.1301   8.123734   2.8        2.3267     1.9673     1.8335     1.9014     2.1539     2.3        2.5        2.46       2.56       2.293678   1.42       -9999      2.99       -9999      -9999      -9999      -9999      -9999      -9999      -9999      -9999      2.1539     -9999      -9999      474.4413   -9999      0.2416692  0.8       
921.5      0.21989    -9999      -9999      329.6875   8.110681   3.45       2.3235     2.0041     1.9055     1.971      2.2333     2.4        2.48       2.45       2.57       2.314509   1.42       -9999      3.38       -9999      -9999      -9999      -9999      -9999      -9999      -9999      -9999      2.2333     -9999      -9999      474.6154   -9999      0.1765147  0.8       
921.6      0.22017    -9999      -9999      326.7755   8.120131   5.15       2.5336     2.2102     2.0991     2.1096     2.3592     2.57       2.79       2.31       2.61       2.326722   1.42       -9999      3.46       -9999      -9999      -9999      -9999      -9999      -9999      -9999      2.142557   2.3592     -9999      -9999      474.7128   -9999      0.1862108  0.8       
921.7000000000001 0.22046    -9999      -9999      323.8563   8.155573   5.79       3.1237     2.6381     2.3889     2.2928     2.4502     2.82       3.21       2.19       2.87       2.329308   1.42       -9999      3.38       -9999      -9999      -9999      -9999      -9999      -9999      -9999      2.154951   2.4502     -9999      -9999      474.7438   -9999      0.2275592  0.8       
921.8      0.22022    -9999      -9999      321.4273   8.214084   6.07       3.4216     2.9196     2.5649     2.4169     2.521      2.92       8.17       2.77       3.49       2.322247   1.41       -9999      3.12       -9999      -9999      -9999      -9999      -9999      -9999      -9999      2.161971   2.521      -9999      -9999      474.7233   -9999      0.2290854  0.8       
921.9      0.22064    -9999      -9999      319.8935   8.28694    6          3.0868     2.5221     2.3171     2.3487     2.4623     2.7        5.2        3          3.35       2.306441   1.41       -9999      2.77       -9999      -9999      -9999      -9999      -9999      -9999      -9999      2.166374   2.4623     -9999      -9999      474.6659   -9999      0.2653768  0.8       
922        0.22038    -9999      -9999      319.479    8.36273    5.71       2.767      2.3293     2.1383     2.1793     2.3624     2.44       2.85       2.62       2.87       2.283546   1.41       -9999      2.47       -9999      -9999      -9999      -9999      -9999      -9999      -9999      2.16846    2.3624     -9999      -9999      474.5817   -9999      0.3221439  0.8       
