~Version
 VERS              .         2.0                           : CWLS LOG ASCII STANDARD - VERSION 2.0
 WRAP              .         NO                            : ONE LINE PER DEPTH STEP
 DLM               .         SPACE                         : DELIMITING CHARACTER(SPACE TAB OR COMMA)
~Well Information
#_______________________________________________________________________________
#
#PARAMETER_NAME    .UNIT     VALUE                         : DESCRIPTION
#_______________________________________________________________________________
STRT               .M        920                           : First reference value
STOP               .M        1182.8                        : Last reference value
STEP               .M        0.1                           : Step increment
NULL               .         -9999                         : Missing value
COMP               .                                       : Company
WELL               .         6316                          : Well name
FLD                .         Узень                         : Field
LOC                .                                       : Location
CNTY               .                                       : County
STAT               .                                       : State
CTRY               .                                       : Country
SRVC               .         AO "UPGF"                     : Service Company
DATE               .         23/09/2019                    : Date
API                .                                       : API number
Block              .         3а                            : 
Category           .                                       : 
Condition          .                                       : 
Date               .         23.09.2019г.                  : 
EREF               .         235.63                        : 
GRP                .                                       : Group name
Gorizont           .         13                            : 
ISS                .                                       : Well surveys
Interpretator      .         Алпанова Н.К.                 : 
Kupol              .                                       : 
Mud                .         полимерный                    : 
Mud_density        .         1.34                          : 
Mud_resistivity    .         0.38                          : 
NGDU               .         НГДУ-1                        : 
TIME               .                                       : LOG TIME
Viscosity          .         45                            : 
YEAR               .         2019                          : 
~Parameter Information Block
#_______________________________________________________________________________
#
#PARAMETER_NAME    .UNIT     VALUE                         : DESCRIPTION
#_______________________________________________________________________________
SET                .         LQC_KAZNIPI_Petrel            : 
TLFamily_CALI      .         Caliper                       : 
TLFamily_COLL      .         Net Reservoir Flag            : 
TLFamily_CSAT      .         Fluid Code                    : 
TLFamily_DEPT      .         Measured Depth                : 
TLFamily_DT        .         Compressional Slowness        : 
TLFamily_GR        .         Russian Gamma Ray             : 
TLFamily_GZ3       .         Gradient 225                  : 
TLFamily_IK1       .         Resistivity 05                : 
TLFamily_IK2       .         Resistivity 07                : 
TLFamily_IK3       .         Resistivity 10                : 
TLFamily_IK4       .         Resistivity 14                : 
TLFamily_IK5       .         Resistivity 20                : 
TLFamily_LLS       .         Lateral Log Resistivity       : 
TLFamily_MBK       .         Micro Lateral Log Resistivity : 
TLFamily_MINV      .         Micro Gradient Resistivity    : 
TLFamily_MNOR      .         Micro Resistivity             : 
TLFamily_NNKTb     .         Neutron Far                   : 
TLFamily_NNKTm     .         Neutron Near                  : 
TLFamily_NPHI      .         Neutron Porosity              : 
TLFamily_OGZ       .         Gradient Inverted 225         : 
TLFamily_PHIE      .         Effective Porosity            : 
TLFamily_PHIED     .         Effective Porosity            : 
TLFamily_PHIEN     .         Effective Porosity            : 
TLFamily_PHIES     .         Effective Porosity            : 
TLFamily_PHIT      .         Porosity                      : 
TLFamily_PRMB      .         Permeability                  : 
TLFamily_PRMB_DGR  .         Permeability                  : 
TLFamily_RHOB      .         Bulk Density                  : 
TLFamily_RT        .         Formation Resistivity         : 
TLFamily_SOIL_ARCHIE .         Oil Saturation                : 
TLFamily_SOIL_DW   .         Oil Saturation                : 
TLFamily_SP        .         Spontaneous Potential         : 
TLFamily_VSH_FIN   .         Shale Volume                  : 
TLFamily_VSH_GR    .         Shale Volume                  : 
TLFamily_VSH_SP    .         Shale Volume                  : 
~Curve Information
#_______________________________________________________________________________
#
#LOGNAME           .UNIT     LOG_ID                        : DESCRIPTION
#_______________________________________________________________________________
DEPT               .M                                      : Depth curve 
CALI               .м                                      : Кавернометрия 
COLL               .unitless                               : Описание 
CSAT               .unitless                               : Описание 
DT                 .мкс/м                                  : 1 ДельтаТ - Волна по породе 
GR                 .мкР/ч                                  : ГК 
GZ3                .Ом·м                                   : A2.0M0.5N 
IK1                .Ом·м                                   : È0.10È0.40 
IK2                .Ом·м                                   : È0.14È0.56 
IK3                .Ом·м                                   : È0.20È0.8 
IK4                .Ом·м                                   : È0.28È1.12 
IK5                .Ом·м                                   : È0.40È1.60 
LLS                .Ом·м                                   : БК 
MBK                .Ом·м                                   : БМК 
MINV               .Ом·м                                   : МГЗ 
MNOR               .Ом·м                                   : МПЗ 
NNKTb              .у.е.                                   : ННКб.з. 
NNKTm              .у.е.                                   : ННКм.з. 
NPHI               .V/V                                    : Neutron porosity index 
OGZ                .Ом·м                                   : N0.5M2.0A 
PHIE               .v/v                                    : Описание 
PHIED              .v/v                                    :  
PHIEN              .v/v                                    :  
PHIES              .v/v                                    :  
PHIT               .v/v                                    : Описание 
PRMB               .mD                                     :  
PRMB_DGR           .mD                                     :  
RHOB               .г/см3                                  : ГГКП 
RT                 .ohmm                                   : Description 
SOIL_ARCHIE        .v/v                                    :  
SOIL_DW            .v/v                                    :  
SP                 .mv                                     : ПС 
VSH_FIN            .v/v                                    : Описание 
VSH_GR             .v/v                                    : Shale volume 
VSH_SP             .v/v                                    : Shale Volume 
~Ascii
# ...
1159.4     0.23035    -9999      -9999      302.8773   14.17272   2.11       1.4336     1.4666     1.4899     1.5688     1.6149     1.62       1.7        2.56       1.47       2.426284   1.4        0.274      1.94       0.1082802  0.05966076 0.1298479  0.135332   0.2019834  0.283642   3.411201   2.408741   1.6149     0          0.07006076 509.4747   0.4368245  0.3931066  0.4805424 
1159.5     0.2257     -9999      -9999      303.8868   14.13985   2.19       1.4234     1.4796     1.516      1.5732     1.5909     1.61       1.84       2.43       1.63       2.400993   1.39       0.291      1.91       0.1179108  0.06052156 0.1518611  0.1413497  0.2083552  0.4277126  3.516672   2.412925   1.5909     0          0.1108357  509.0984   0.421633   0.388249   0.4550171 
1159.6     0.22603    -9999      -9999      305.4224   14.12614   2.1        1.4181     1.4715     1.5323     1.5723     1.58       1.6        1.7        2.23       1.62       2.374907   1.4        0.329      1.87       0.1378515  0.06495962 0.1978051  0.1507899  0.2231321  1.001159   3.561597   2.41442    1.58       0          0.19549    508.6989   0.3975603  0.3862417  0.4088788 
1159.7     0.22748    -9999      -9999      307.4014   14.13523   2.06       1.4165     1.4505     1.5025     1.5493     1.5818     1.59       1.73       2.27       1.49       2.349729   1.39       0.368      1.88       0.1518122  0.06600738 0.2365091  0.1529201  0.2372852  1.815885   3.531735   2.412338   1.5818     0.06867179 0.2544983  508.3138   0.3984573  0.3875719  0.4093426 
1159.8     0.22811    -9999      -9999      309.6832   14.16204   2.06       1.3605     1.3986     1.4686     1.5224     1.5719     1.58       1.64       2.33       1.34       2.326911   1.39       0.368      1.89       0.1561385  0.0711708  0.2391108  0.158134   0.2399203  2.183849   3.445126   2.406633   1.5719     0.08850635 0.2654655  507.9746   0.3905733  0.3915212  0.3896253 
1159.9     0.23032    -9999      -9999      312.0946   14.19419   1.97       1.3292     1.3792     1.4438     1.4937     1.5576     1.57       1.6        2.2        1.28       2.307343   1.39       0.368      1.84       0.158933   0.07640409 0.2392626  0.1611325  0.2426162  2.460275   3.344051   2.398063   1.5576     0.09862347 0.2722449  507.7017   0.3901135  0.3963109  0.383916  
1160       0.22573    -9999      -9999      314.4555   14.21719   1.95       1.316      1.366      1.4119     1.4666     1.5374     1.56       1.64       2.22       1.32       2.291253   1.39       0.365      1.78       0.1587504  0.08084691 0.2338305  0.1615738  0.2440145  2.441186   3.273577   2.387917   1.5374     0.0921765  0.2696331  507.5049   0.3974834  0.3997729  0.3951939 
1160.1     0.22676    -9999      -9999      316.6082   14.21852   1.91       1.2875     1.3352     1.3967     1.4739     1.5185     1.56       1.59       2.37       1.36       2.278195   1.38       0.371      1.76       0.1619933  0.08575185 0.2379589  0.1622693  0.248474   2.803288   3.269545   2.377627   1.5185     0.1028328  0.2789102  507.381    0.4031548  0.399974   0.4063355 
1160.2     0.22322    -9999      -9999      318.4315   14.19359   2.04       1.2677     1.3352     1.3855     1.4529     1.5271     1.55       1.55       2.26       1.35       2.267359   1.37       0.368      1.84       0.1658638  0.0930692  0.2376383  0.1668838  0.2506028  3.306413   3.345917   2.368411   1.5271     0.1234203  0.2914122  507.3218   0.3950355  0.3962206  0.3938504 
1160.3     0.22215    -9999      -9999      319.8537   14.14811   2.07       1.2684     1.3387     1.4157     1.469      1.5211     1.55       1.52       2.21       1.31       2.257833   1.37       0.368      1.87       0.1697224  0.09887528 0.2397778  0.170514   0.2530706  3.897876   3.489856   2.361114   1.5211     0.1392144  0.3007142  507.3217   0.388552   0.3894644  0.3876397 
1160.4     0.22199    -9999      -9999      320.856    14.09567   2.2        1.2889     1.3645     1.4399     1.4979     1.5401     1.55       1.52       2.25       1.28       2.248935   1.38       0.368      1.95       0.1705154  0.1014125  0.2391238  0.1710098  0.2542888  4.031965   3.663542   2.356143   1.5401     0.1476816  0.3083306  507.3781   0.390534   0.3818163  0.3992516 
1160.5     0.2231     -9999      -9999      321.4662   14.05159   2.24       1.2936     1.3755     1.4438     1.502      1.5349     1.55       1.48       2.18       1.28       2.24035    1.38       0.368      2.02       0.1739695  0.1050472  0.2422266  0.1746347  0.2557259  4.671917   3.816235   2.353553   1.5349     0.1611089  0.3151037  507.4892   0.3811315  0.3755027  0.3867602 
1160.6     0.22233    -9999      -9999      321.7493   14.02893   2.27       1.2849     1.3682     1.4204     1.4954     1.5366     1.54       1.46       2.19       1.32       2.232238   1.37       0.368      1.93       0.1740757  0.1052286  0.2421364  0.1748621  0.2558908  4.693123   3.897173   2.353148   1.5366     0.1619901  0.3159141  507.6544   0.3814049  0.3722985  0.3905112 
1160.7     0.22189    -9999      -9999      321.7924   14.03408   2.12       1.2855     1.3529     1.4119     1.4545     1.5262     1.54       1.49       2.22       1.3        2.225041   1.38       0.368      2.01       0.1715214  0.1026212  0.2395195  0.1724233  0.2550375  4.208716   3.878617   2.354569   1.5262     0.1484216  0.3080599  507.8656   0.3893348  0.3730249  0.4056447 
1160.8     0.22202    -9999      -9999      321.6859   14.06493   2.17       1.2769     1.3205     1.3796     1.4355     1.5109     1.53       1.48       2.25       1.27       2.219297   1.4        0.368      2.07       0.1695907  0.09991899 0.2379954  0.1708577  0.2540976  3.876046   3.769367   2.357373   1.5109     0.1359084  0.2998155  508.1053   0.3939534  0.3774023  0.4105045 
1160.9     0.22237    -9999      -9999      321.5151   14.11334   2.14       1.2529     1.3026     1.362      1.4363     1.4899     1.53       1.49       2.21       1.28       2.215296   1.4        0.368      2.15       0.1677931  0.09695905 0.2368448  0.1695755  0.2530479  3.589995   3.604096   2.361026   1.4899     0.1221044  0.2900895  508.3508   0.39744    0.3843755  0.4105045 
1161       0.22191    -9999      -9999      321.3407   14.17039   2          1.2339     1.2583     1.3664     1.4402     1.4908     1.53       1.44       2.22       1.34       2.212849   1.39       0.368      2.16       0.1603875  0.08957928 0.2293354  0.1622478  0.2505236  2.617721   3.418594   2.36493    1.4908     0.08716209 0.272855   508.5737   0.4201958  0.3927593  0.4476323 
1161.1     0.22216    -9999      -9999      321.1965   14.23071   1.85       1.2208     1.2654     1.381      1.4642     1.4966     1.54       1.53       2.29       1.4        2.21111    1.38       0.368      2.1        0.1561672  0.08478301 0.2253844  0.1583342  0.2488716  2.18652    3.232837   2.36851    1.4966     0.06741476 0.2635052  508.7484   0.4321685  0.4018223  0.4625148 
1161.2     0.22209    -9999      -9999      321.0877   14.29356   1.9        1.2134     1.2661     1.4081     1.4764     1.505      1.55       1.58       2.23       1.44       2.208795   1.37       0.368      2.12       0.156172   0.08356515 0.2260781  0.1588727  0.2484254  2.186966   3.050019   2.371322   1.505      0.06988576 0.2647858  508.8576   0.4300663  0.4114881  0.4486444 
1161.3     0.22143    -9999      -9999      321.0005   14.36118   2          1.258      1.317      1.4438     1.5172     1.5117     1.56       1.55       2.17       1.48       2.204491   1.37       0.368      2.07       0.1548854  0.08177251 0.2250677  0.1578159  0.2477956  2.070197   2.864837   2.373183   1.5117     0.06511109 0.2628501  508.8954   0.433128   0.4221482  0.4441079 
1161.4     0.22191    -9999      -9999      320.9135   14.43451   1.96       1.3071     1.3494     1.4983     1.5284     1.5109     1.58       1.58       2.18       1.52       2.197178   1.37       0.368      1.93       0.1536269  0.08038756 0.2238914  0.1566016  0.2473017  1.962007   2.676723   2.374177   1.5109     0.05821027 0.259346   508.8632   0.4366927  0.4340197  0.4393656 
