~Version
 VERS              .         2.0                           : CWLS LOG ASCII STANDARD - VERSION 2.0
 WRAP              .         NO                            : ONE LINE PER DEPTH STEP
 DLM               .         SPACE                         : DELIMITING CHARACTER(SPACE TAB OR COMMA)
~Well Information
#_______________________________________________________________________________
#
#PARAMETER_NAME    .UNIT     VALUE                         : DESCRIPTION
#_______________________________________________________________________________
STRT               .M        920                           : First reference value
STOP               .M        1182.8                        : Last reference value
STEP               .M        0.1                           : Step increment
NULL               .         -9999                         : Missing value
COMP               .                                       : Company
WELL               .         6316                          : Well name
FLD                .         Узень                         : Field
LOC                .                                       : Location
CNTY               .                                       : County
STAT               .                                       : State
CTRY               .                                       : Country
SRVC               .         AO "UPGF"                     : Service Company
DATE               .         23/09/2019                    : Date
API                .                                       : API number
Block              .         3а                            : 
Category           .                                       : 
Condition          .                                       : 
Date               .         23.09.2019г.                  : 
EREF               .         235.63                        : 
GRP                .                                       : Group name
Gorizont           .         13                            : 
ISS                .                                       : Well surveys
Interpretator      .         Алпанова Н.К.                 : 
Kupol              .                                       : 
Mud                .         полимерный                    : 
Mud_density        .         1.34                          : 
Mud_resistivity    .         0.38                          : 
NGDU               .         НГДУ-1                        : 
TIME               .                                       : LOG TIME
Viscosity          .         45                            : 
YEAR               .         2019                          : 
~Parameter Information Block
#_______________________________________________________________________________
#
#PARAMETER_NAME    .UNIT     VALUE                         : DESCRIPTION
#_______________________________________________________________________________
SET                .         LQC_KAZNIPI_Petrel            : 
TLFamily_CALI      .         Caliper                       : 
TLFamily_COLL      .         Net Reservoir Flag            : 
TLFamily_CSAT      .         Fluid Code                    : 
TLFamily_DEPT      .         Measured Depth                : 
TLFamily_DT        .         Compressional Slowness        : 
TLFamily_GR        .         Russian Gamma Ray             : 
TLFamily_GZ3       .         Gradient 225                  : 
TLFamily_IK1       .         Resistivity 05                : 
TLFamily_IK2       .         Resistivity 07                : 
TLFamily_IK3       .         Resistivity 10                : 
TLFamily_IK4       .         Resistivity 14                : 
TLFamily_IK5       .         Resistivity 20                : 
TLFamily_LLS       .         Lateral Log Resistivity       : 
TLFamily_MBK       .         Micro Lateral Log Resistivity : 
TLFamily_MINV      .         Micro Gradient Resistivity    : 
TLFamily_MNOR      .         Micro Resistivity             : 
TLFamily_NNKTb     .         Neutron Far                   : 
TLFamily_NNKTm     .         Neutron Near                  : 
TLFamily_NPHI      .         Neutron Porosity              : 
TLFamily_OGZ       .         Gradient Inverted 225         : 
TLFamily_PHIE      .         Effective Porosity            : 
TLFamily_PHIED     .         Effective Porosity            : 
TLFamily_PHIEN     .         Effective Porosity            : 
TLFamily_PHIES     .         Effective Porosity            : 
TLFamily_PHIT      .         Porosity                      : 
TLFamily_PRMB      .         Permeability                  : 
TLFamily_PRMB_DGR  .         Permeability                  : 
TLFamily_RHOB      .         Bulk Density                  : 
TLFamily_RT        .         Formation Resistivity         : 
TLFamily_SOIL_ARCHIE .         Oil Saturation                : 
TLFamily_SOIL_DW   .         Oil Saturation                : 
TLFamily_SP        .         Spontaneous Potential         : 
TLFamily_VSH_FIN   .         Shale Volume                  : 
TLFamily_VSH_GR    .         Shale Volume                  : 
TLFamily_VSH_SP    .         Shale Volume                  : 
~Curve Information
#_______________________________________________________________________________
#
#LOGNAME           .UNIT     LOG_ID                        : DESCRIPTION
#_______________________________________________________________________________
DEPT               .M                                      : Depth curve 
CALI               .м                                      : Кавернометрия 
COLL               .unitless                               : Описание 
CSAT               .unitless                               : Описание 
DT                 .мкс/м                                  : 1 ДельтаТ - Волна по породе 
GR                 .мкР/ч                                  : ГК 
GZ3                .Ом·м                                   : A2.0M0.5N 
IK1                .Ом·м                                   : È0.10È0.40 
IK2                .Ом·м                                   : È0.14È0.56 
IK3                .Ом·м                                   : È0.20È0.8 
IK4                .Ом·м                                   : È0.28È1.12 
IK5                .Ом·м                                   : È0.40È1.60 
LLS                .Ом·м                                   : БК 
MBK                .Ом·м                                   : БМК 
MINV               .Ом·м                                   : МГЗ 
MNOR               .Ом·м                                   : МПЗ 
NNKTb              .у.е.                                   : ННКб.з. 
NNKTm              .у.е.                                   : ННКм.з. 
NPHI               .V/V                                    : Neutron porosity index 
OGZ                .Ом·м                                   : N0.5M2.0A 
PHIE               .v/v                                    : Описание 
PHIED              .v/v                                    :  
PHIEN              .v/v                                    :  
PHIES              .v/v                                    :  
PHIT               .v/v                                    : Описание 
PRMB               .mD                                     :  
PRMB_DGR           .mD                                     :  
RHOB               .г/см3                                  : ГГКП 
RT                 .ohmm                                   : Description 
SOIL_ARCHIE        .v/v                                    :  
SOIL_DW            .v/v                                    :  
SP                 .mv                                     : ПС 
VSH_FIN            .v/v                                    : Описание 
VSH_GR             .v/v                                    : Shale volume 
VSH_SP             .v/v                                    : Shale Volume 
~Ascii
# ...
1106.9     0.2366     -9999      -9999      304.9386   11.57974   1.77       1.5638     1.7049     1.7603     1.7577     1.7838     1.76       1.75       2.21       1.78       2.462855   1.45       0.305      1.76       0.1713293  0.1339771  0.2025268  0.1774839  0.2379399  4.174376   37.66405   2.446258   1.7838     0.2077485  0.3329653  510.1034   0.3105248  0.1474384  0.4736111 
1107       0.23338    -9999      -9999      305.7548   11.64318   1.68       1.5314     1.6888     1.732      1.7232     1.7518     1.73       1.79       2.13       1.75       2.470026   1.45       0.278      1.85       0.1607613  0.1339107  0.1726351  0.175738   0.2292516  2.659785   35.51488   2.446369   1.7518     0.1554327  0.293719   510.5415   0.3192875  0.1510184  0.4875566 
1107.1     0.23142    -9999      -9999      306.0869   11.71928   1.64       1.51       1.6438     1.6963     1.6868     1.7135     1.71       1.85       2.08       1.78       2.483089   1.45       0.278      2.08       0.1611755  0.1336951  0.1731747  0.1766566  0.229315   2.707191   33.09753   2.446729   1.7135     0.1485366  0.2867417  510.9937   0.3176523  0.1554286  0.479876  
1107.2     0.23875    -9999      -9999      305.56     11.82783   1.71       1.4924     1.6238     1.6763     1.6719     1.6963     1.7        1.78       2.07       1.77       2.503013   1.43       0.3        2.24       0.1666343  0.1333172  0.1928153  0.1737704  0.2363076  3.416878   29.93186   2.44736    1.6963     0.1689573  0.305284   511.4488   0.3248023  0.161942   0.4876626 
1107.3     0.23445    -9999      -9999      303.9056   11.98851   1.84       1.4654     1.5904     1.6075     1.6592     1.7043     1.71       1.57       1.96       1.71       2.529233   1.42       0.309      2.51       0.1630058  0.1328839  0.1928854  0.1632482  0.2384838  2.926992   25.79293   2.448084   1.7043     0.154737   0.3043838  511.8979   0.3518623  0.1720883  0.5316364 
1107.4     0.2338     -9999      -9999      301.0522   12.21024   2.01       1.4383     1.5292     1.5559     1.6467     1.7206     1.75       1.7        1.62       1.63       2.559235   1.43       0.287      3.06       0.1513981  0.1326683  0.1662499  0.1552761  0.2298893  1.784095   21.00437   2.448444   1.7206     0.1025825  0.2708184  512.3317   0.3659095  0.1871419  0.5446771 
1107.5     0.23187    6          6          297.1967   12.4847    2.48       1.4058     1.4879     1.5559     1.6998     1.7914     1.84       1.75       1.63       1.63       2.588436   1.45       0.239      3.62       0.1344719  0.1331103  0.1191263  0.151179   0.2123933  0.8667693  16.2896    2.447706   1.7914     0.02361548 0.2140479  512.7404   0.3632536  0.2076112  0.518896  
1107.6     0.23094    6          6          292.8199   12.78719   2.88       1.405      1.5147     1.6394     1.8627     2.0085     2.17       1.75       1.93       1.83       2.610717   1.48       0.199      3.99       0.08435912 0.04769101 0.06929834 0.136088   0.1686691  0.1022572  12.30935   2.444933   2.0085     0          0          513.1079   0.3930353  0.2327742  0.5532964 
1107.7     0.22493    6          6          288.6287   13.0848    3.37       1.6646     1.8063     2.2288     2.2586     2.3155     2.88       3.26       2.48       2.53       2.619808   1.53       0.166      4.25       0.0648813  0.04515291 0.02746681 0.1220242  0.154932   0.04455712 9.343789   2.43927    2.3155     0          0          513.4133   0.4197975  0.2605057  0.5790894 
1107.8     0.22378    6          6          285.4081   13.34798   3.76       2.6214     3.1757     3.1163     3.0689     2.728      3.67       6.29       3.58       4.05       2.611065   1.56       0.166      4.29       0.06117254 0.04744554 0.02287916 0.1131929  0.1542053  0.03803837 7.322494   2.430297   2.728      0          0          513.6315   0.4336995  0.2877697  0.5796293 
1107.9     0.22275    6          6          283.836    13.55743   3.95       4.0623     4.2122     3.9192     3.635      3.2022     3.9        10.95      4.24       4.86       2.583053   1.56       0.166      4.1        0.05448152 0.04821477 0.01332977 0.1019     0.1537217  0.02859487 6.031271   2.418306   3.2022     0          0          513.7399   0.462637   0.3114922  0.6137819 
1108       0.22261    6          6          284.3019   13.70692   3.93       3.8778     4.0031     3.6453     3.6195     3.2944     3.24       7.65       4.14       4.59       2.538246   1.53       0.218      3.47       0.07247748 0.05480238 0.06263235 0.09999771 0.1734711  0.06160513 5.251412   2.40428    3.2944     0          0.1667275  513.7226   0.470811   0.3296108  0.6120113 
1108.1     0.22321    6          6          286.8159   13.80003   3.62       2.767      2.5421     2.7774     2.8686     2.9705     2.37       3.01       2.99       2.93       2.482421   1.48       0.295      2.84       0.1042277  0.06507738 0.1419136  0.1056921  0.2037384  0.2386207  4.8175     2.389678   2.9705     0.03855877 0.307772   513.5739   0.4638981  0.3414249  0.5863712 
1108.2     0.22655    6          6          291.0135   13.84505   3.14       1.9918     2.0041     2.1511     2.3358     2.4536     1.87       1.67       2.26       1.89       2.422855   1.43       0.365      2.43       0.1332638  0.07408772 0.2131159  0.1125877  0.2319929  0.8232397  4.620739   2.375979   2.4536     0.1509605  0.3607593  513.3035   0.4602549  0.3472884  0.5732214 
1108.3     0.22874    6          6          296.2726   13.85155   2.68       1.7094     1.8019     1.9055     2.0144     2.1697     1.75       1.58       2.07       1.78       2.366061   1.41       0.368      2.1        0.1385867  0.08082957 0.2157308  0.1191998  0.2375662  1.033049   4.593024   2.364289   2.1697     0.1306916  0.3402223  512.9338   0.4614218  0.3481426  0.574701  
1108.4     0.22952    -9999      -9999      301.8684   13.83056   2.34       1.6196     1.7888     1.8101     1.8778     1.9716     1.7        1.74       2.2        1.81       2.31608    1.4        0.368      1.86       0.149059   0.09116773 0.2228694  0.1331399  0.2433982  1.614702   4.683205   2.355028   1.9716     0.1466398  0.3374397  512.4969   0.4397898  0.3453894  0.5341902 
1108.5     0.22909    -9999      -9999      307.1428   13.79522   2.14       1.5323     1.7201     1.7991     1.8376     1.854      1.66       1.73       2.12       1.81       2.273875   1.39       0.368      1.74       0.1579336  0.0994735  0.2289256  0.1454017  0.2483361  2.357607   4.83903    2.347947   1.854      0.1647993  0.3404422  512.0334   0.4214376  0.3408039  0.5020713 
1108.6     0.23188    -9999      -9999      311.6164   13.76035   1.97       1.4743     1.6888     1.7763     1.778      1.8002     1.62       1.64       2.14       1.73       2.237944   1.38       0.368      1.77       0.1627778  0.1043284  0.2311462  0.1528586  0.2517368  2.898658   4.997857   2.34233    1.8002     0.1751692  0.3441281  511.5829   0.4147084  0.3363391  0.4930776 
1108.7     0.23024    -9999      -9999      315.0356   13.74135   1.87       1.4028     1.5054     1.6813     1.711      1.7278     1.57       1.53       2.02       1.57       2.205703   1.36       0.349      1.91       0.1597303  0.1080719  0.2132383  0.1578807  0.2479794  2.545369   5.086606   2.337302   1.7278     0.1451713  0.3193192  511.1763   0.4113991  0.3339304  0.4888678 
1108.8     0.23139    -9999      -9999      317.3522   13.75021   1.78       1.3188     1.4024     1.5647     1.638      1.6714     1.53       1.55       2.03       1.54       2.174907   1.36       0.368      1.91       0.1718417  0.1141604  0.2366457  0.1647189  0.2572259  4.266604   5.045021   2.332076   1.6714     0.1853002  0.3426332  510.839    0.3980435  0.3350517  0.4610352 
1108.9     0.23179    -9999      -9999      318.6789   13.79105   1.69       1.3098     1.3799     1.5401     1.5904     1.613      1.51       1.52       1.96       1.53       2.144657   1.36       0.368      1.81       0.1733987  0.1176521  0.2364809  0.1660631  0.25889    4.559558   4.857749   2.32606    1.613      0.1780716  0.3358376  510.5858   0.3985426  0.340267   0.4568183 
