~Version
 VERS              .         2.0                           : CWLS LOG ASCII STANDARD - VERSION 2.0
 WRAP              .         NO                            : ONE LINE PER DEPTH STEP
 DLM               .         SPACE                         : DELIMITING CHARACTER(SPACE TAB OR COMMA)
~Well Information
#_______________________________________________________________________________
#
#PARAMETER_NAME    .UNIT     VALUE                         : DESCRIPTION
#_______________________________________________________________________________
STRT               .M        920                           : First reference value
STOP               .M        1182.8                        : Last reference value
STEP               .M        0.1                           : Step increment
NULL               .         -9999                         : Missing value
COMP               .                                       : Company
WELL               .         6316                          : Well name
FLD                .         Узень                         : Field
LOC                .                                       : Location
CNTY               .                                       : County
STAT               .                                       : State
CTRY               .                                       : Country
SRVC               .         AO "UPGF"                     : Service Company
DATE               .         23/09/2019                    : Date
API                .                                       : API number
Block              .         3а                            : 
Category           .                                       : 
Condition          .                                       : 
Date               .         23.09.2019г.                  : 
EREF               .         235.63                        : 
GRP                .                                       : Group name
Gorizont           .         13                            : 
ISS                .                                       : Well surveys
Interpretator      .         Алпанова Н.К.                 : 
Kupol              .                                       : 
Mud                .         полимерный                    : 
Mud_density        .         1.34                          : 
Mud_resistivity    .         0.38                          : 
NGDU               .         НГДУ-1                        : 
TIME               .                                       : LOG TIME
Viscosity          .         45                            : 
YEAR               .         2019                          : 
~Parameter Information Block
#_______________________________________________________________________________
#
#PARAMETER_NAME    .UNIT     VALUE                         : DESCRIPTION
#_______________________________________________________________________________
SET                .         LQC_KAZNIPI_Petrel            : 
TLFamily_CALI      .         Caliper                       : 
TLFamily_COLL      .         Net Reservoir Flag            : 
TLFamily_CSAT      .         Fluid Code                    : 
TLFamily_DEPT      .         Measured Depth                : 
TLFamily_DT        .         Compressional Slowness        : 
TLFamily_GR        .         Russian Gamma Ray             : 
TLFamily_GZ3       .         Gradient 225                  : 
TLFamily_IK1       .         Resistivity 05                : 
TLFamily_IK2       .         Resistivity 07                : 
TLFamily_IK3       .         Resistivity 10                : 
TLFamily_IK4       .         Resistivity 14                : 
TLFamily_IK5       .         Resistivity 20                : 
TLFamily_LLS       .         Lateral Log Resistivity       : 
TLFamily_MBK       .         Micro Lateral Log Resistivity : 
TLFamily_MINV      .         Micro Gradient Resistivity    : 
TLFamily_MNOR      .         Micro Resistivity             : 
TLFamily_NNKTb     .         Neutron Far                   : 
TLFamily_NNKTm     .         Neutron Near                  : 
TLFamily_NPHI      .         Neutron Porosity              : 
TLFamily_OGZ       .         Gradient Inverted 225         : 
TLFamily_PHIE      .         Effective Porosity            : 
TLFamily_PHIED     .         Effective Porosity            : 
TLFamily_PHIEN     .         Effective Porosity            : 
TLFamily_PHIES     .         Effective Porosity            : 
TLFamily_PHIT      .         Porosity                      : 
TLFamily_PRMB      .         Permeability                  : 
TLFamily_PRMB_DGR  .         Permeability                  : 
TLFamily_RHOB      .         Bulk Density                  : 
TLFamily_RT        .         Formation Resistivity         : 
TLFamily_SOIL_ARCHIE .         Oil Saturation                : 
TLFamily_SOIL_DW   .         Oil Saturation                : 
TLFamily_SP        .         Spontaneous Potential         : 
TLFamily_VSH_FIN   .         Shale Volume                  : 
TLFamily_VSH_GR    .         Shale Volume                  : 
TLFamily_VSH_SP    .         Shale Volume                  : 
~Curve Information
#_______________________________________________________________________________
#
#LOGNAME           .UNIT     LOG_ID                        : DESCRIPTION
#_______________________________________________________________________________
DEPT               .M                                      : Depth curve 
CALI               .м                                      : Кавернометрия 
COLL               .unitless                               : Описание 
CSAT               .unitless                               : Описание 
DT                 .мкс/м                                  : 1 ДельтаТ - Волна по породе 
GR                 .мкР/ч                                  : ГК 
GZ3                .Ом·м                                   : A2.0M0.5N 
IK1                .Ом·м                                   : È0.10È0.40 
IK2                .Ом·м                                   : È0.14È0.56 
IK3                .Ом·м                                   : È0.20È0.8 
IK4                .Ом·м                                   : È0.28È1.12 
IK5                .Ом·м                                   : È0.40È1.60 
LLS                .Ом·м                                   : БК 
MBK                .Ом·м                                   : БМК 
MINV               .Ом·м                                   : МГЗ 
MNOR               .Ом·м                                   : МПЗ 
NNKTb              .у.е.                                   : ННКб.з. 
NNKTm              .у.е.                                   : ННКм.з. 
NPHI               .V/V                                    : Neutron porosity index 
OGZ                .Ом·м                                   : N0.5M2.0A 
PHIE               .v/v                                    : Описание 
PHIED              .v/v                                    :  
PHIEN              .v/v                                    :  
PHIES              .v/v                                    :  
PHIT               .v/v                                    : Описание 
PRMB               .mD                                     :  
PRMB_DGR           .mD                                     :  
RHOB               .г/см3                                  : ГГКП 
RT                 .ohmm                                   : Description 
SOIL_ARCHIE        .v/v                                    :  
SOIL_DW            .v/v                                    :  
SP                 .mv                                     : ПС 
VSH_FIN            .v/v                                    : Описание 
VSH_GR             .v/v                                    : Shale volume 
VSH_SP             .v/v                                    : Shale Volume 
~Ascii
# ...
1073.3     0.22545    -9999      -9999      327.2486   12.65308   1.82       1.2289     1.3494     1.393      1.4458     1.4768     1.48       1.56       1.6        1.31       2.250695   1.33       -9999      1.86       0.110358   0.08637954 -9999      0.1343365  0.1933991  0.3099251  1.309538   2.329751   1.4768     0          0.009010336 511.1169   0.5297179  0.5811536  0.4782823 
1073.4     0.22469    -9999      -9999      329.7596   12.79075   1.82       1.2141     1.3422     1.3967     1.4293     1.4533     1.48       1.49       1.33       1.36       2.247445   1.35       -9999      1.88       0.1086887  0.08493605 -9999      0.1324414  0.1940083  0.2886272  1.189395   2.326783   1.4533     0          0          511.046    0.5442524  0.6044437  0.484061  
1073.5     0.22539    -9999      -9999      332.0026   12.92776   1.91       1.2098     1.3345     1.3885     1.4418     1.4694     1.47       1.45       1.26       1.4        2.239629   1.37       -9999      1.86       0.1072019  0.08286248 -9999      0.1315414  0.1941434  0.2708932  1.080778   2.326418   1.4694     0          0          511.0522   0.5545986  0.628548   0.4806493 
1073.6     0.22553    -9999      -9999      333.9056   13.05252   1.86       1.2128     1.331      1.3848     1.4418     1.4517     1.46       1.39       1.3        1.48       2.230067   1.39       -9999      1.91       0.1033902  0.07827202 -9999      0.1285084  0.1928301  0.2302479  0.9905191  2.328187   1.4517     0          0          511.1247   0.5705358  0.6513336  0.489738  
1073.7     0.2248     -9999      -9999      335.4737   13.15938   1.75       1.2043     1.3026     1.3729     1.4223     1.4486     1.45       1.42       1.42       1.32       2.221933   1.4        -9999      1.79       0.09879821 0.07271211 -9999      0.1248843  0.1908509  0.1892956  0.9192367  2.331306   1.4486     0          0          511.2481   0.5872028  0.6715031  0.5029025 
1073.8     0.22439    -9999      -9999      336.7583   13.24909   1.68       1.1811     1.2832     1.3405     1.4123     1.4422     1.44       1.45       1.3        1.36       2.217368   1.39       -9999      1.68       0.09773944 0.06999433 -9999      0.1254845  0.1901424  0.1809379  0.8633628  2.335018   1.4422     0          0          511.4056   0.5894372  0.6889195  0.489955  
1073.9     0.22534    -9999      -9999      337.8157   13.32738   1.66       1.1643     1.2551     1.3188     1.3748     1.4088     1.42       1.42       1.35       1.36       2.216559   1.38       -9999      1.65       0.09439319 0.06543106 -9999      0.1233553  0.1883924  0.1568733  0.8173881  2.338871   1.4088     0          0          511.582    0.5996199  0.7044863  0.4947536 
1074       0.22548    -9999      -9999      338.6868   13.39987   1.64       1.1562     1.2392     1.2835     1.3472     1.3759     1.4        1.42       1.37       1.34       2.21785    1.36       -9999      1.69       0.08628611 0.05696892 -9999      0.1156033  0.1845969  0.1110161  0.7770061  2.342826   1.3759     0          0          511.7578   0.6271231  0.719213   0.5350331 
1074.1     0.22497    -9999      -9999      339.364    13.46723   1.66       1.1494     1.2137     1.2691     1.317      1.349      1.37       1.33       1.22       1.33       2.219218   1.35       -9999      1.71       0.08540449 0.05443902 -9999      0.11637    0.1836689  0.1069193  0.7412656  2.347161   1.349      0          0          511.9126   0.6268277  0.7331759  0.5204794 
1074.2     0.22426    -9999      -9999      339.783    13.52181   1.64       1.1322     1.207      1.2307     1.2832     1.3188     1.36       1.25       1.28       1.29       2.21937    1.34       -9999      1.74       0.08272992 0.05026985 -9999      0.11519    0.1817922  0.09539308 0.7135233  2.35224    1.3188     0          0          512.0275   0.6319169  0.7446848  0.5191491 
1074.3     0.22448    -9999      -9999      339.8078   13.54874   1.63       1.1035     1.1884     1.2339     1.2564     1.2889     1.34       1.26       1.12       1.31       2.21925    1.35       -9999      1.73       0.07618319 0.0427173  -9999      0.1096491  0.1780282  0.0721532  0.7002155  2.358285   1.2889     0          0          512.0877   0.649668   0.7504318  0.5489042 
1074.4     0.22489    -9999      -9999      339.2213   13.5286    1.61       1.0831     1.1732     1.2116     1.2404     1.2776     1.33       1.24       1.09       1.38       2.222148   1.35       -9999      1.82       0.07488193 0.03942394 -9999      0.1103399  0.1760905  0.06825791 0.7101448  2.365287   1.2776     0          0          512.0838   0.645608   0.7461294  0.5450867 
1074.5     0.22428    -9999      -9999      337.7431   13.44322   1.57       1.0826     1.1645     1.1811     1.2174     1.2658     1.34       1.24       1.1        1.42       2.233028   1.36       -9999      2.01       0.07644046 0.0386056  -9999      0.1142753  0.1749433  0.07294925 0.7538127  2.37304    1.2658     0          0          512.0165   0.6283485  0.7281679  0.528529  
1074.6     0.22462    -9999      -9999      335.0616   13.28139   1.54       1.0779     1.1588     1.1899     1.2052     1.2632     1.36       1.24       1.13       1.41       2.256845   1.36       -9999      2.15       0.07584235 0.03637817 -9999      0.1153065  0.1724742  0.07111192 0.8440889  2.381176   1.2632     0          0          511.8975   0.6164134  0.6953001  0.5375266 
1074.7     0.22471    -9999      -9999      330.9112   13.04459   1.53       1.0718     1.1497     1.1602     1.198      1.273      1.4        1.33       1.2        1.28       2.296726   1.35       -9999      2.35       0.08020622 0.03893061 -9999      0.1214818  0.1716093  0.08565875 0.9960311  2.389254   1.273      0          0          511.7468   0.5830589  0.6498594  0.5162584 
1074.8     0.22439    -9999      -9999      325.178    12.74731   1.6        1.0688     1.1122     1.1602     1.2298     1.3167     1.47       1.37       1.3        1.24       2.352237   1.35       -9999      2.51       0.08623068 0.04380621 -9999      0.1286552  0.1709995  0.110754   1.226065   2.39677    1.3167     0          0          511.5905   0.5407389  0.5969956  0.4844822 
1074.9     0.22602    -9999      -9999      318.0253   12.41525   1.74       1.0919     1.1559     1.2116     1.3429     1.4375     1.68       1.5        1.39       1.38       2.418687   1.37       -9999      2.72       0.0860669  0.04471139 -9999      0.1274224  0.1674958  0.1099831  1.546371   2.403141   1.4375     0          0          511.4562   0.5194337  0.5430139  0.4958535 
1075       0.22469    -9999      -9999      309.9663   12.08186   1.98       1.1455     1.3458     1.4066     1.5405     1.6626     2.02       2.37       2.23       2.22       2.487699   1.4        -9999      2.88       0.08661336 0.04744754 -9999      0.1257792  0.1641876  0.1125764  1.952163   2.40767    1.6626     0          0          511.3646   0.4948448  0.4937268  0.4959628 
1075.1     0.22379    -9999      -9999      301.8518   11.78117   2.15       1.9603     1.7089     1.7645     1.8895     1.9381     2.36       2.92       3.61       3.12       2.548916   1.45       -9999      3.05       0.08814023 0.05213802 -9999      0.1241424  0.1615721  0.1201515  2.408763   2.409614   1.9381     0          0          511.3268   0.4684207  0.4531217  0.4837197 
1075.2     0.22359    -9999      -9999      294.7356   11.54422   2.31       2.7879     2.873      2.3332     2.4426     2.2424     2.7        8.72       7          6.77       2.592561   1.52       -9999      3.15       0.08882367 0.05692847 -9999      0.1207189  0.159392   0.1237052  2.842636   2.408372   2.2424     0          0.01503256 511.3487   0.4501542  0.4234914  0.476817  
1075.3     0.22284    -9999      -9999      289.6444   11.3926    2.43       3.2334     3.326      2.8454     2.7559     2.6195     2.95       5.52       9.66       8.11       2.611885   1.58       -9999      3.12       0.08578785 0.05888398 -9999      0.1126917  0.1569585  0.1086819  3.160454   2.403685   2.6195     0          0.06747696 511.4236   0.4539964  0.405555   0.5024378 
