~Version
 VERS              .         2.0                           : CWLS LOG ASCII STANDARD - VERSION 2.0
 WRAP              .         NO                            : ONE LINE PER DEPTH STEP
 DLM               .         SPACE                         : DELIMITING CHARACTER(SPACE TAB OR COMMA)
~Well Information
#_______________________________________________________________________________
#
#PARAMETER_NAME    .UNIT     VALUE                         : DESCRIPTION
#_______________________________________________________________________________
STRT               .M        920                           : First reference value
STOP               .M        1182.8                        : Last reference value
STEP               .M        0.1                           : Step increment
NULL               .         -9999                         : Missing value
COMP               .                                       : Company
WELL               .         6316                          : Well name
FLD                .         Узень                         : Field
LOC                .                                       : Location
CNTY               .                                       : County
STAT               .                                       : State
CTRY               .                                       : Country
SRVC               .         AO "UPGF"                     : Service Company
DATE               .         23/09/2019                    : Date
API                .                                       : API number
Block              .         3а                            : 
Category           .                                       : 
Condition          .                                       : 
Date               .         23.09.2019г.                  : 
EREF               .         235.63                        : 
GRP                .                                       : Group name
Gorizont           .         13                            : 
ISS                .                                       : Well surveys
Interpretator      .         Алпанова Н.К.                 : 
Kupol              .                                       : 
Mud                .         полимерный                    : 
Mud_density        .         1.34                          : 
Mud_resistivity    .         0.38                          : 
NGDU               .         НГДУ-1                        : 
TIME               .                                       : LOG TIME
Viscosity          .         45                            : 
YEAR               .         2019                          : 
~Parameter Information Block
#_______________________________________________________________________________
#
#PARAMETER_NAME    .UNIT     VALUE                         : DESCRIPTION
#_______________________________________________________________________________
SET                .         LQC_KAZNIPI_Petrel            : 
TLFamily_CALI      .         Caliper                       : 
TLFamily_COLL      .         Net Reservoir Flag            : 
TLFamily_CSAT      .         Fluid Code                    : 
TLFamily_DEPT      .         Measured Depth                : 
TLFamily_DT        .         Compressional Slowness        : 
TLFamily_GR        .         Russian Gamma Ray             : 
TLFamily_GZ3       .         Gradient 225                  : 
TLFamily_IK1       .         Resistivity 05                : 
TLFamily_IK2       .         Resistivity 07                : 
TLFamily_IK3       .         Resistivity 10                : 
TLFamily_IK4       .         Resistivity 14                : 
TLFamily_IK5       .         Resistivity 20                : 
TLFamily_LLS       .         Lateral Log Resistivity       : 
TLFamily_MBK       .         Micro Lateral Log Resistivity : 
TLFamily_MINV      .         Micro Gradient Resistivity    : 
TLFamily_MNOR      .         Micro Resistivity             : 
TLFamily_NNKTb     .         Neutron Far                   : 
TLFamily_NNKTm     .         Neutron Near                  : 
TLFamily_NPHI      .         Neutron Porosity              : 
TLFamily_OGZ       .         Gradient Inverted 225         : 
TLFamily_PHIE      .         Effective Porosity            : 
TLFamily_PHIED     .         Effective Porosity            : 
TLFamily_PHIEN     .         Effective Porosity            : 
TLFamily_PHIES     .         Effective Porosity            : 
TLFamily_PHIT      .         Porosity                      : 
TLFamily_PRMB      .         Permeability                  : 
TLFamily_PRMB_DGR  .         Permeability                  : 
TLFamily_RHOB      .         Bulk Density                  : 
TLFamily_RT        .         Formation Resistivity         : 
TLFamily_SOIL_ARCHIE .         Oil Saturation                : 
TLFamily_SOIL_DW   .         Oil Saturation                : 
TLFamily_SP        .         Spontaneous Potential         : 
TLFamily_VSH_FIN   .         Shale Volume                  : 
TLFamily_VSH_GR    .         Shale Volume                  : 
TLFamily_VSH_SP    .         Shale Volume                  : 
~Curve Information
#_______________________________________________________________________________
#
#LOGNAME           .UNIT     LOG_ID                        : DESCRIPTION
#_______________________________________________________________________________
DEPT               .M                                      : Depth curve 
CALI               .м                                      : Кавернометрия 
COLL               .unitless                               : Описание 
CSAT               .unitless                               : Описание 
DT                 .мкс/м                                  : 1 ДельтаТ - Волна по породе 
GR                 .мкР/ч                                  : ГК 
GZ3                .Ом·м                                   : A2.0M0.5N 
IK1                .Ом·м                                   : È0.10È0.40 
IK2                .Ом·м                                   : È0.14È0.56 
IK3                .Ом·м                                   : È0.20È0.8 
IK4                .Ом·м                                   : È0.28È1.12 
IK5                .Ом·м                                   : È0.40È1.60 
LLS                .Ом·м                                   : БК 
MBK                .Ом·м                                   : БМК 
MINV               .Ом·м                                   : МГЗ 
MNOR               .Ом·м                                   : МПЗ 
NNKTb              .у.е.                                   : ННКб.з. 
NNKTm              .у.е.                                   : ННКм.з. 
NPHI               .V/V                                    : Neutron porosity index 
OGZ                .Ом·м                                   : N0.5M2.0A 
PHIE               .v/v                                    : Описание 
PHIED              .v/v                                    :  
PHIEN              .v/v                                    :  
PHIES              .v/v                                    :  
PHIT               .v/v                                    : Описание 
PRMB               .mD                                     :  
PRMB_DGR           .mD                                     :  
RHOB               .г/см3                                  : ГГКП 
RT                 .ohmm                                   : Description 
SOIL_ARCHIE        .v/v                                    :  
SOIL_DW            .v/v                                    :  
SP                 .mv                                     : ПС 
VSH_FIN            .v/v                                    : Описание 
VSH_GR             .v/v                                    : Shale volume 
VSH_SP             .v/v                                    : Shale Volume 
~Ascii
# ...
1142.6     0.22081    1          2          285.6853   13.48884   5.130001   3.2125     3.6569     3.5503     3.1304     2.8454     3.55       7.41       2.79       3.89       2.724688   1.55       0.166      4.02       0.1545739  0.2028659  0.08666854 0.1741874  0.2061417  2.042879   6.426837   2.331214   2.8454     0.3039744  0.4005621  491.9886   0.2403983  0.3035162  0.1772804 
1142.7     0.21778    1          2          280.7741   13.32024   5.21       3.9934     4.1319     3.8812     3.6601     3.2125     4.4        12.17      2.71       4.05       2.761583   1.58       0.166      3.98       0.1579944  0.2082906  0.09274052 0.172952   0.2056152  2.363726   7.513046   2.322155   3.2125     0.3549157  0.4401458  490.9408   0.2219984  0.2847667  0.15923   
1142.8     0.2161     1          2          278.4223   13.24162   4.95       4.0623     4.0357     3.7312     3.5374     3.2491     4.21       9.21       2.84       4.08       2.770154   1.58       0.166      3.72       0.1608893  0.2148102  0.09561566 0.172242   0.2066412  2.67435    8.080546   2.311267   3.2491     0.3684034  0.4491195  490.058    0.2132859  0.2764241  0.1501477 
1142.9     0.21489    1          2          278.6206   13.24721   4.69       3.3214     3.3535     3.0409     3.1732     3.0433     3.4        6.13       3.17       3.91       2.750929   1.56       0.166      3.33       0.1632063  0.2214748  0.09561264 0.1725315  0.2089602  2.95213    8.03885    2.300137   3.0433     0.356769   0.4378548  489.3928   0.213295   0.2770087  0.1495814 
1143       0.2142     1          2          280.9043   13.31816   4.35       2.8389     2.7518     2.767      2.7683     2.7963     2.89       4.2        2.98       3.37       2.709491   1.53       0.171      3.02       0.1674372  0.2271412  0.09993992 0.1752304  0.2136284  3.535907   7.527575   2.290674   2.7963     0.3454587  0.4272086  488.9709   0.2153336  0.2845422  0.146125  
1143.1     0.21433    1          2          284.5482   13.43056   3.91       2.7691     2.8599     2.7443     2.6112     2.563      2.66       3.81       2.79       3.27       2.655016   1.51       0.239      2.64       0.1914723  0.2307773  0.1655062  0.1781335  0.2392455  9.855757   6.783279   2.284602   2.563      0.3933264  0.470436   488.7948   0.2227086  0.2968996  0.1485176 
1143.2     0.21427    1          2          288.7823   13.56175   3.18       2.5155     2.6653     2.5464     2.5149     2.4641     2.56       4.51       2.83       3.38       2.597563   1.5        0.305      2.19       0.2134557  0.2317585  0.2279547  0.1806538  0.2635374  25.16953   6.007189   2.282963   2.4641     0.4378341  0.5121649  488.8454   0.2334707  0.3120015  0.1549399 
1143.3     0.21532    1          2          292.9974   13.69399   2.85       2.1843     2.2418     2.3839     2.3866     2.3773     2.45       3.86       2.72       3.05       2.545254   1.49       0.344      1.91       0.2259567  0.2300396  0.264146   0.1836844  0.2778642  42.89673   5.314691   2.285834   2.3773     0.455942   0.5297363  489.0931   0.2419818  0.3280026  0.1559609 
1143.4     0.21614    1          2          296.8539   13.81582   2.69       2.0814     2.1721     2.3332     2.3342     2.2981     2.32       3.63       2.73       2.98       2.502319   1.49       0.349      1.78       0.2265647  0.2261433  0.2669143  0.1866365  0.2799228  44.0236    4.747566   2.292341   2.2981     0.4485146  0.5242782  489.508    0.2487446  0.3434697  0.1540195 
1143.5     0.21648    1          2          300.3239   13.92194   2.45       2.0451     2.0646     2.2762     2.3086     2.2108     2.25       3.79       2.64       2.93       2.468581   1.49       0.314      1.78       0.2124329  0.2210183  0.2284668  0.1878138  0.2680321  24.09525   4.303134   2.3009     2.2108     0.4059983  0.4889625  490.0689   0.2591916  0.357535   0.1608482 
1143.6     0.21668    1          2          303.6117   14.01276   2.12       1.9779     1.9205     2.1828     2.274      2.1511     2.23       3.58       2.61       2.97       2.440659   1.49       0.274      1.7        0.1969011  0.2157859  0.1856525  0.1892649  0.2543296  12.4235    3.955958   2.309638   2.1511     0.3571861  0.4486103  490.7615   0.2677198  0.3700295  0.16541   
1143.7     0.21619    1          2          307.0563   14.09551   2.05       1.9816     1.94       2.1242     2.2162     2.0544     2.19       3.52       2.88       3.07       2.413905   1.49       0.239      1.55       0.1834484  0.2114712  0.1479499  0.1909242  0.2426337  6.999518   3.664082   2.316843   2.0544     0.3014026  0.4027021  491.5812   0.2759094  0.3817933  0.1700255 
1143.8     0.21443    1          2          310.9664   14.18242   1.95       1.9804     1.9254     1.9893     2.0525     1.9235     2.13       3.54       2.97       3.08       2.384659   1.47       0.254      1.42       0.1872226  0.2087269  0.160069   0.1928718  0.2482805  8.22194    3.380709   2.321426   1.9235     0.2921493  0.3960871  492.5275   0.2846393  0.3945505  0.174728  
1143.9     0.21622    1          2          315.4999   14.28649   1.91       1.7991     1.6191     1.6607     1.7866     1.7903     1.93       3.24       2.77       2.79       2.351709   1.46       0.3        1.35       0.2015011  0.2077226  0.2022506  0.1945302  0.2650412  15.11639   3.07006    2.323103   1.7903     0.3133006  0.4156049  493.592    0.2962103  0.4103891  0.1820315 
1144       0.21829    -9999      -9999      320.578    14.41659   1.62       1.4719     1.3829     1.4081     1.5607     1.6102     1.66       2.72       2.62       2.41       2.316605   1.44       0.368      1.32       0.2232422  0.2081378  0.2656684  0.1959205  0.2897608  38.20726   2.721522   2.32241    1.6102     0.3398874  0.43948    494.7556   0.3100957  0.4310881  0.1891033 
1144.1     0.22032    -9999      -9999      325.8843   14.57223   1.47       1.158      1.1576     1.2049     1.3551     1.4266     1.49       2.21       2.37       1.93       2.28303    1.42       0.368      1.3        0.2208641  0.2093408  0.2584134  0.1948381  0.2920986  34.52202   2.356182   2.320401   1.4266     0.2947521  0.4046253  495.9869   0.3320807  0.4572238  0.2069376 
1144.2     0.22524    -9999      -9999      330.9415   14.74142   1.44       0.9751     1          1.0458     1.192      1.3327     1.34       1.4        1.58       1.28       2.255298   1.39       0.368      1.35       0.2168679  0.2105991  0.2488695  0.191135   0.2943062  29.11237   2.014425   2.3183     1.3327     0.260183   0.3820321  497.2404   0.3610014  0.4874377  0.2345651 
1144.3     0.22431    -9999      -9999      335.2298   14.90435   1.49       0.9407     1.0028     1.0409     1.1565     1.2855     1.26       1.08       1.23       0.95       2.237108   1.37       0.368      1.51       0.1841756  0.125379   0.240009   0.1871387  0.2673735  7.219991   1.732258   2.317112   1.2855     0.1324816  0.2878601  498.4644   0.3878515  0.5184188  0.2572843 
1144.4     0.21942    -9999      -9999      338.3132   15.03944   1.53       0.9663     1.0446     1.0769     1.1639     1.2651     1.26       1.05       1.19       0.89       2.230344   1.36       0.368      1.7        0.1788913  0.1203983  0.2328389  0.1834367  0.2667501  5.763137   1.528536   2.31739    1.2651     0.1035004  0.2725327  499.614    0.4095792  0.5455923  0.2735662 
1144.5     0.22136    -9999      -9999      339.9427   15.13103   1.54       0.9512     1.0475     1.1115     1.1861     1.2769     1.27       1.02       1.3        0.9        2.234697   1.36       0.368      1.81       0.1728885  0.1145593  0.2257673  0.1783389  0.265344   4.461411   1.404207   2.319213   1.2769     0.080465   0.2634616  500.6583   0.4310083  0.5648239  0.2971928 
1144.6     0.2247     -9999      -9999      340.1086   15.17341   1.63       0.9607     1.0859     1.1427     1.204      1.3105     1.34       0.98       1.36       0.93       2.247776   1.36       0.368      1.88       0.1706142  0.1113943  0.2238073  0.1766409  0.2643437  4.048985   1.350154   2.322301   1.3105     0.08106714 0.2674051  501.5839   0.4369476  0.5739504  0.2999449 
