~Version
 VERS              .         2.0                           : CWLS LOG ASCII STANDARD - VERSION 2.0
 WRAP              .         NO                            : ONE LINE PER DEPTH STEP
 DLM               .         SPACE                         : DELIMITING CHARACTER(SPACE TAB OR COMMA)
~Well Information
#_______________________________________________________________________________
#
#PARAMETER_NAME    .UNIT     VALUE                         : DESCRIPTION
#_______________________________________________________________________________
STRT               .M        920                           : First reference value
STOP               .M        1182.8                        : Last reference value
STEP               .M        0.1                           : Step increment
NULL               .         -9999                         : Missing value
COMP               .                                       : Company
WELL               .         6316                          : Well name
FLD                .         Узень                         : Field
LOC                .                                       : Location
CNTY               .                                       : County
STAT               .                                       : State
CTRY               .                                       : Country
SRVC               .         AO "UPGF"                     : Service Company
DATE               .         23/09/2019                    : Date
API                .                                       : API number
Block              .         3а                            : 
Category           .                                       : 
Condition          .                                       : 
Date               .         23.09.2019г.                  : 
EREF               .         235.63                        : 
GRP                .                                       : Group name
Gorizont           .         13                            : 
ISS                .                                       : Well surveys
Interpretator      .         Алпанова Н.К.                 : 
Kupol              .                                       : 
Mud                .         полимерный                    : 
Mud_density        .         1.34                          : 
Mud_resistivity    .         0.38                          : 
NGDU               .         НГДУ-1                        : 
TIME               .                                       : LOG TIME
Viscosity          .         45                            : 
YEAR               .         2019                          : 
~Parameter Information Block
#_______________________________________________________________________________
#
#PARAMETER_NAME    .UNIT     VALUE                         : DESCRIPTION
#_______________________________________________________________________________
SET                .         LQC_KAZNIPI_Petrel            : 
TLFamily_CALI      .         Caliper                       : 
TLFamily_COLL      .         Net Reservoir Flag            : 
TLFamily_CSAT      .         Fluid Code                    : 
TLFamily_DEPT      .         Measured Depth                : 
TLFamily_DT        .         Compressional Slowness        : 
TLFamily_GR        .         Russian Gamma Ray             : 
TLFamily_GZ3       .         Gradient 225                  : 
TLFamily_IK1       .         Resistivity 05                : 
TLFamily_IK2       .         Resistivity 07                : 
TLFamily_IK3       .         Resistivity 10                : 
TLFamily_IK4       .         Resistivity 14                : 
TLFamily_IK5       .         Resistivity 20                : 
TLFamily_LLS       .         Lateral Log Resistivity       : 
TLFamily_MBK       .         Micro Lateral Log Resistivity : 
TLFamily_MINV      .         Micro Gradient Resistivity    : 
TLFamily_MNOR      .         Micro Resistivity             : 
TLFamily_NNKTb     .         Neutron Far                   : 
TLFamily_NNKTm     .         Neutron Near                  : 
TLFamily_NPHI      .         Neutron Porosity              : 
TLFamily_OGZ       .         Gradient Inverted 225         : 
TLFamily_PHIE      .         Effective Porosity            : 
TLFamily_PHIED     .         Effective Porosity            : 
TLFamily_PHIEN     .         Effective Porosity            : 
TLFamily_PHIES     .         Effective Porosity            : 
TLFamily_PHIT      .         Porosity                      : 
TLFamily_PRMB      .         Permeability                  : 
TLFamily_PRMB_DGR  .         Permeability                  : 
TLFamily_RHOB      .         Bulk Density                  : 
TLFamily_RT        .         Formation Resistivity         : 
TLFamily_SOIL_ARCHIE .         Oil Saturation                : 
TLFamily_SOIL_DW   .         Oil Saturation                : 
TLFamily_SP        .         Spontaneous Potential         : 
TLFamily_VSH_FIN   .         Shale Volume                  : 
TLFamily_VSH_GR    .         Shale Volume                  : 
TLFamily_VSH_SP    .         Shale Volume                  : 
~Curve Information
#_______________________________________________________________________________
#
#LOGNAME           .UNIT     LOG_ID                        : DESCRIPTION
#_______________________________________________________________________________
DEPT               .M                                      : Depth curve 
CALI               .м                                      : Кавернометрия 
COLL               .unitless                               : Описание 
CSAT               .unitless                               : Описание 
DT                 .мкс/м                                  : 1 ДельтаТ - Волна по породе 
GR                 .мкР/ч                                  : ГК 
GZ3                .Ом·м                                   : A2.0M0.5N 
IK1                .Ом·м                                   : È0.10È0.40 
IK2                .Ом·м                                   : È0.14È0.56 
IK3                .Ом·м                                   : È0.20È0.8 
IK4                .Ом·м                                   : È0.28È1.12 
IK5                .Ом·м                                   : È0.40È1.60 
LLS                .Ом·м                                   : БК 
MBK                .Ом·м                                   : БМК 
MINV               .Ом·м                                   : МГЗ 
MNOR               .Ом·м                                   : МПЗ 
NNKTb              .у.е.                                   : ННКб.з. 
NNKTm              .у.е.                                   : ННКм.з. 
NPHI               .V/V                                    : Neutron porosity index 
OGZ                .Ом·м                                   : N0.5M2.0A 
PHIE               .v/v                                    : Описание 
PHIED              .v/v                                    :  
PHIEN              .v/v                                    :  
PHIES              .v/v                                    :  
PHIT               .v/v                                    : Описание 
PRMB               .mD                                     :  
PRMB_DGR           .mD                                     :  
RHOB               .г/см3                                  : ГГКП 
RT                 .ohmm                                   : Description 
SOIL_ARCHIE        .v/v                                    :  
SOIL_DW            .v/v                                    :  
SP                 .mv                                     : ПС 
VSH_FIN            .v/v                                    : Описание 
VSH_GR             .v/v                                    : Shale volume 
VSH_SP             .v/v                                    : Shale Volume 
~Ascii
# ...
936.8      0.23734    -9999      -9999      309.9761   10.84748   4.32       1.3907     1.5634     1.7445     2.1152     2.4007     2.1        1.5        1.42       1.45       2.746987   1.32       -9999      6.06       -9999      -9999      -9999      -9999      -9999      -9999      -9999      2.341483   2.4007     -9999      -9999      487.4034   -9999      0.8        0.8       
936.9      0.2344     -9999      -9999      305.8618   10.66963   4.16       1.5228     1.8478     2.0477     2.4478     2.633      2.32       1.78       1.69       1.76       2.851231   1.34       -9999      7.61       -9999      -9999      -9999      -9999      -9999      -9999      -9999      2.342045   2.633      -9999      -9999      487.2562   -9999      0.8        0.8       
937        0.22828    -9999      -9999      296.9855   10.41797   4.32       1.9479     2.4495     2.7484     3.2962     3.2438     2.9        2.72       2.37       3.41       2.982044   1.39       -9999      9.429999   -9999      -9999      -9999      -9999      -9999      -9999      -9999      2.350442   3.2438     -9999      -9999      487.0646   -9999      0.8        0.8       
937.1      0.22591    -9999      -9999      284.5092   10.11141   4.75       3.1039     3.8699     5.0184     5.3004     4.368701   4.16       8.33       4.68       5.74       3.123851   1.49       -9999      12.76      -9999      -9999      -9999      -9999      -9999      -9999      -9999      2.364762   4.368701   -9999      -9999      486.8213   -9999      0.8        0.8       
937.2000000000001 0.22441    -9999      -9999      270.3395   9.78274    5.49       4.9833     6.7983     7.3831     7.2396     6.369      6.81       25.15      8.47       9.63       3.256998   1.57       -9999      13.88      -9999      -9999      -9999      -9999      -9999      -9999      -9999      2.381944   6.369      -9999      -9999      486.5225   -9999      0.5389888  0.8       
937.3      0.22478    -9999      -9999      256.665    9.46971    6.309999   7.4011     8.0534     8.8013     8.822699   7.8541     11.25      63.99      12.4       13.25      3.361786   1.66       -9999      14.25      -9999      -9999      -9999      -9999      -9999      -9999      -9999      2.398624   7.8541     -9999      -9999      486.1674   -9999      0.3421185  0.8       
937.4      0.22535    -9999      -9999      245.4267   9.206452   7.26       9.3284     8.5469     9.1392     8.9778     8.6737     14.84      75.35      14.46      13.46      3.422893   1.7        -9999      13.78      -9999      -9999      -9999      -9999      -9999      -9999      -9999      2.411969   8.6737     -9999      -9999      485.7578   -9999      0.2743961  0.8       
937.5      0.22669    -9999      -9999      237.9268   9.01745    8.33       8.8839     8.0946     7.5198     7.972099   8.448799   13.31      37.57      10.95      9.5        3.432884   1.69       -9999      12.86      -9999      -9999      -9999      -9999      -9999      -9999      -9999      2.420225   8.448799   -9999      -9999      485.2955   -9999      0.3033353  0.8       
937.6      0.2274     -9999      -9999      234.6334   8.913603   9.250001   7.5943     6.7983     6.3834     6.959899   7.6037     9.11       11.99      4.99       5.48       3.393415   1.64       -9999      11.75      -9999      -9999      -9999      -9999      -9999      -9999      -9999      2.42288    7.6037     -9999      -9999      484.7785   -9999      0.3398394  0.8       
937.7000000000001 0.22518    -9999      -9999      235.2556   8.892634   9.859999   7.061399   6.919001   5.9258     6.367401   6.8801     7.03       9.27       3.07       4.23       3.314008   1.59       -9999      10.68      -9999      -9999      -9999      -9999      -9999      -9999      -9999      2.420468   6.8801     -9999      -9999      484.2039   -9999      0.3053696  0.8       
937.8      0.21867    -9999      -9999      238.9657   8.942654   10.25      6.937      7.3634     6.185901   6.0423     6.3979     6.28       9.71       3          4.27       3.20902    1.56       -9999      9.6        -9999      -9999      -9999      -9999      -9999      -9999      -9999      2.414106   6.3979     -9999      -9999      483.5705   -9999      0.3243043  0.8       
937.9      0.21917    -9999      -9999      244.695    9.045332   9.960001   6.5603     7.4629     6.471001   5.8098     5.9258     5.94       7.68       3.11       4.09       3.093795   1.55       -9999      8.570001   -9999      -9999      -9999      -9999      -9999      -9999      -9999      2.40499    5.9258     -9999      -9999      482.877    -9999      0.3936763  0.8       
938        0.21759    -9999      -9999      251.3917   9.17931    9.41       5.6275     6.1913     6.1997     5.451      5.4753     5.44       6.08       2.7        3.77       2.981477   1.55       -9999      7.690001   -9999      -9999      -9999      -9999      -9999      -9999      -9999      2.394035   5.4753     -9999      -9999      482.1312   -9999      0.4652795  0.8       
938.1      0.21833    -9999      -9999      258.2019   9.322966   8.739999   4.8803     5.4739     5.7614     5.1768     5.2206     4.86       5.03       2.72       3.78       2.880935   1.54       -9999      6.74       -9999      -9999      -9999      -9999      -9999      -9999      -9999      2.381767   5.2206     -9999      -9999      481.3499   -9999      0.5573073  0.8       
938.2000000000001 0.21777    -9999      -9999      264.5638   9.456889   8          4.6609     5.0322     5.5623     4.987      4.9142     4.66       4.78       2.86       3.89       2.796355   1.52       -9999      6.039999   -9999      -9999      -9999      -9999      -9999      -9999      -9999      2.36842    4.9142     -9999      -9999      480.555    -9999      0.8        0.8       
938.3      0.2179     -9999      -9999      270.1897   9.565446   7.22       4.8418     4.855      5.4581     4.9277     4.67       4.57       5.16       2.91       4.04       2.728165   1.51       -9999      5.73       -9999      -9999      -9999      -9999      -9999      -9999      -9999      2.354174   4.67       -9999      -9999      479.7759   -9999      0.8        0.8       
938.4      0.21805    -9999      -9999      275.0311   9.640234   6.51       4.9833     4.7839     5.3126     4.997      4.4686     4.51       5.5        2.97       4.05       2.674374   1.5        -9999      5.469999   -9999      -9999      -9999      -9999      -9999      -9999      -9999      2.339396   4.4686     -9999      -9999      479.0446   -9999      0.8        0.8       
938.5      0.21914    -9999      -9999      279.1632   9.680942   5.96       4.7617     4.5058     4.8658     4.908101   4.3281     4.36       4.86       3.13       3.94       2.632217   1.5        -9999      5.19       -9999      -9999      -9999      -9999      -9999      -9999      -9999      2.324787   4.3281     -9999      -9999      478.389    -9999      0.7184694  0.8       
938.6      0.2183     -9999      -9999      282.7234   9.694154   5.31       4.5027     4.271      4.494201   4.718901   4.1481     4.15       4.58       3.4        3.99       2.59898    1.49       -9999      4.93       -9999      -9999      -9999      -9999      -9999      -9999      -9999      2.311337   4.1481     -9999      -9999      477.8325   -9999      0.7428879  0.8       
938.7000000000001 0.21944    -9999      -9999      285.8178   9.690538   4.78       4.3483     4.043      4.0258     4.383999   3.9649     3.96       4.24       3.13       3.81       2.572545   1.48       -9999      4.77       -9999      -9999      -9999      -9999      -9999      -9999      -9999      2.300138   3.9649     -9999      -9999      477.3912   -9999      0.7528858  0.8       
938.8      0.21998    -9999      -9999      288.49     9.681197   4.55       4.1863     3.7367     3.7442     4.1852     3.7704     3.78       4.03       2.91       3.63       2.551669   1.46       -9999      4.650001   -9999      -9999      -9999      -9999      -9999      -9999      -9999      2.292051   3.7704     -9999      -9999      477.0714   -9999      0.6810585  0.8       
