~Version
 VERS              .         2.0                           : CWLS LOG ASCII STANDARD - VERSION 2.0
 WRAP              .         NO                            : ONE LINE PER DEPTH STEP
 DLM               .         SPACE                         : DELIMITING CHARACTER(SPACE TAB OR COMMA)
~Well Information
#_______________________________________________________________________________
#
#PARAMETER_NAME    .UNIT     VALUE                         : DESCRIPTION
#_______________________________________________________________________________
STRT               .M        920                           : First reference value
STOP               .M        1182.8                        : Last reference value
STEP               .M        0.1                           : Step increment
NULL               .         -9999                         : Missing value
COMP               .                                       : Company
WELL               .         6316                          : Well name
FLD                .         Узень                         : Field
LOC                .                                       : Location
CNTY               .                                       : County
STAT               .                                       : State
CTRY               .                                       : Country
SRVC               .         AO "UPGF"                     : Service Company
DATE               .         23/09/2019                    : Date
API                .                                       : API number
Block              .         3а                            : 
Category           .                                       : 
Condition          .                                       : 
Date               .         23.09.2019г.                  : 
EREF               .         235.63                        : 
GRP                .                                       : Group name
Gorizont           .         13                            : 
ISS                .                                       : Well surveys
Interpretator      .         Алпанова Н.К.                 : 
Kupol              .                                       : 
Mud                .         полимерный                    : 
Mud_density        .         1.34                          : 
Mud_resistivity    .         0.38                          : 
NGDU               .         НГДУ-1                        : 
TIME               .                                       : LOG TIME
Viscosity          .         45                            : 
YEAR               .         2019                          : 
~Parameter Information Block
#_______________________________________________________________________________
#
#PARAMETER_NAME    .UNIT     VALUE                         : DESCRIPTION
#_______________________________________________________________________________
SET                .         LQC_KAZNIPI_Petrel            : 
TLFamily_CALI      .         Caliper                       : 
TLFamily_COLL      .         Net Reservoir Flag            : 
TLFamily_CSAT      .         Fluid Code                    : 
TLFamily_DEPT      .         Measured Depth                : 
TLFamily_DT        .         Compressional Slowness        : 
TLFamily_GR        .         Russian Gamma Ray             : 
TLFamily_GZ3       .         Gradient 225                  : 
TLFamily_IK1       .         Resistivity 05                : 
TLFamily_IK2       .         Resistivity 07                : 
TLFamily_IK3       .         Resistivity 10                : 
TLFamily_IK4       .         Resistivity 14                : 
TLFamily_IK5       .         Resistivity 20                : 
TLFamily_LLS       .         Lateral Log Resistivity       : 
TLFamily_MBK       .         Micro Lateral Log Resistivity : 
TLFamily_MINV      .         Micro Gradient Resistivity    : 
TLFamily_MNOR      .         Micro Resistivity             : 
TLFamily_NNKTb     .         Neutron Far                   : 
TLFamily_NNKTm     .         Neutron Near                  : 
TLFamily_NPHI      .         Neutron Porosity              : 
TLFamily_OGZ       .         Gradient Inverted 225         : 
TLFamily_PHIE      .         Effective Porosity            : 
TLFamily_PHIED     .         Effective Porosity            : 
TLFamily_PHIEN     .         Effective Porosity            : 
TLFamily_PHIES     .         Effective Porosity            : 
TLFamily_PHIT      .         Porosity                      : 
TLFamily_PRMB      .         Permeability                  : 
TLFamily_PRMB_DGR  .         Permeability                  : 
TLFamily_RHOB      .         Bulk Density                  : 
TLFamily_RT        .         Formation Resistivity         : 
TLFamily_SOIL_ARCHIE .         Oil Saturation                : 
TLFamily_SOIL_DW   .         Oil Saturation                : 
TLFamily_SP        .         Spontaneous Potential         : 
TLFamily_VSH_FIN   .         Shale Volume                  : 
TLFamily_VSH_GR    .         Shale Volume                  : 
TLFamily_VSH_SP    .         Shale Volume                  : 
~Curve Information
#_______________________________________________________________________________
#
#LOGNAME           .UNIT     LOG_ID                        : DESCRIPTION
#_______________________________________________________________________________
DEPT               .M                                      : Depth curve 
CALI               .м                                      : Кавернометрия 
COLL               .unitless                               : Описание 
CSAT               .unitless                               : Описание 
DT                 .мкс/м                                  : 1 ДельтаТ - Волна по породе 
GR                 .мкР/ч                                  : ГК 
GZ3                .Ом·м                                   : A2.0M0.5N 
IK1                .Ом·м                                   : È0.10È0.40 
IK2                .Ом·м                                   : È0.14È0.56 
IK3                .Ом·м                                   : È0.20È0.8 
IK4                .Ом·м                                   : È0.28È1.12 
IK5                .Ом·м                                   : È0.40È1.60 
LLS                .Ом·м                                   : БК 
MBK                .Ом·м                                   : БМК 
MINV               .Ом·м                                   : МГЗ 
MNOR               .Ом·м                                   : МПЗ 
NNKTb              .у.е.                                   : ННКб.з. 
NNKTm              .у.е.                                   : ННКм.з. 
NPHI               .V/V                                    : Neutron porosity index 
OGZ                .Ом·м                                   : N0.5M2.0A 
PHIE               .v/v                                    : Описание 
PHIED              .v/v                                    :  
PHIEN              .v/v                                    :  
PHIES              .v/v                                    :  
PHIT               .v/v                                    : Описание 
PRMB               .mD                                     :  
PRMB_DGR           .mD                                     :  
RHOB               .г/см3                                  : ГГКП 
RT                 .ohmm                                   : Description 
SOIL_ARCHIE        .v/v                                    :  
SOIL_DW            .v/v                                    :  
SP                 .mv                                     : ПС 
VSH_FIN            .v/v                                    : Описание 
VSH_GR             .v/v                                    : Shale volume 
VSH_SP             .v/v                                    : Shale Volume 
~Ascii
# ...
1039.7     0.22481    -9999      -9999      244.6409   6.825453   2.89       3.077      3.2273     3.1163     2.9906     2.7038     2.8        3.84       3.97       3.84       3.387403   1.7        -9999      2.05       0.1123654  0.1145315  -9999      0.1101993  0.1484536  0.3376277  23.93912   2.478732   2.7038     0.05885105 0.1494363  502.4394   0.2302063  0.1774101  0.2830025 
1039.8     0.22569    -9999      -9999      247.4705   6.903674   2.83       2.6504     2.6477     2.7837     2.7788     2.5593     2.64       4.06       3.44       3.76       3.390405   1.68       -9999      2.01       0.1137822  0.1159697  -9999      0.1115946  0.1518462  0.3586572  22.36417   2.476331   2.5593     0.04475982 0.1416937  502.5973   0.2428099  0.1824092  0.3032105 
1039.9     0.22534    -9999      -9999      249.9692   6.968107   2.8        2.0923     2.1548     2.1916     2.4271     2.4381     2.34       2.82       2.79       2.89       3.419573   1.64       -9999      2.06       0.1161003  0.117287   -9999      0.1149135  0.1548153  0.3959289  21.14497   2.474131   2.4381     0.03977953 0.137773   502.8706   0.2469627  0.1866328  0.3072927 
1040       0.2259     -9999      -9999      251.3685   7.003155   2.84       1.9187     1.9169     2.0332     2.175      2.3348     2.12       2.09       2.58       2.28       3.48499    1.6        -9999      2.27       0.117132   0.1176278  -9999      0.1166362  0.1562595  0.4137398  20.50993   2.473562   2.3348     0.02759429 0.1268895  503.2206   0.2495939  0.1889711  0.3102166 
1040.1     0.22575    -9999      -9999      250.9991   6.99808    2.97       1.8877     1.8895     1.9944     2.1692     2.338      2.08       2.23       2.36       2.15       3.590661   1.57       -9999      2.6        0.11455    0.1162433  -9999      0.1128567  0.1552324  0.3705966  20.60069   2.475874   2.338      0.009168599 0.1159621  503.611    0.2595124  0.1886307  0.330394  
1040.2     0.22677    -9999      -9999      248.491    6.949533   3.18       1.8201     1.8364     2.0491     2.3054     2.5137     2.25       2.17       2.51       2.19       3.730671   1.58       -9999      2.92       0.1112235  0.1128118  -9999      0.1096351  0.1512164  0.321578   21.48943   2.481604   2.5137     0.01739377 0.1235901  504.0146   0.2551147  0.1854054  0.3248241 
1040.3     0.2262     -9999      -9999      243.9591   6.86275    3.5        2.0098     2.1082     2.6838     2.7559     2.9204     2.67       2.09       2.2        2.09       3.887177   1.62       -9999      3.2        0.1041096  0.1077082  -9999      0.100511   0.1443886  0.2374214  23.17478   2.490127   2.9204     0.02989606 0.1414033  504.4125   0.2569393  0.1797764  0.3341022 
1040.4     0.22503    -9999      -9999      238.0959   6.753284   3.96       2.7443     3.0329     3.7769     3.8665     3.7902     3.49       2.83       2.07       2.4        4.032208   1.72       -9999      3.47       0.09404085 0.1021061  -9999      0.08597563 0.1358137  0.1545335  25.49043   2.499483   3.7902     0.06208831 0.1852628  504.7929   0.2664686  0.1729193  0.3600179 
1040.5     0.22522    -9999      -9999      232.1093   6.647303   4.87       3.9088     4.7097     5.1782     5.1349     4.6117     5.06       9.49       2.41       3.26       4.133028   1.81       -9999      3.58       0.085997   0.09782324 -9999      0.07417077 0.127476   0.1096557  27.95255   2.506635   4.6117     0.07529519 0.2046262  505.152    0.264594   0.1665298  0.3626583 
1040.6     0.22513    -9999      -9999      227.509    6.579922   5.469999   5.3568     5.6924     6.276501   6.3174     5.4467     6.93       12.22      2.8        4.17       4.160091   1.88       -9999      3.54       0.08153585 0.09690697 -9999      0.06616473 0.1220349  0.09065666 29.6402    2.508165   5.4467     0.1041453  0.2324774  505.4929   0.2583427  0.1625908  0.3540945 
1040.7     0.22516    -9999      -9999      225.7775   6.589238   6.07       7.163401   6.7667     7.1979     6.7352     5.792399   7.97       16.27      2.69       4.26       4.09515    1.91       -9999      3.38       0.08089425 0.1010605  -9999      0.06072804 0.1221835  0.08820958 29.40094   2.501229   5.792399   0.1236357  0.2538698  505.8228   0.2633837  0.1631298  0.3636375 
1040.8     0.22478    -9999      -9999      228.0066   6.708375   6.61       8.1799     7.4996     6.9781     6.289      5.3568     7.34       21.66      2.62       4.19       3.936648   1.88       -9999      3.11       0.08727971 0.1111231  -9999      0.06343628 0.1296917  0.1158217  26.50609   2.484424   5.3568     0.1490972  0.2739005  506.1481   0.2705453  0.1701824  0.3709082 
1040.9     0.22475    -9999      -9999      234.617    6.958487   6.84       7.5198     6.3316     5.8301     5.2515     4.5502     5.25       23.13      2.82       4.44       3.700629   1.8        -9999      2.77       0.101322   0.126727   -9999      0.07591699 0.1445619  0.2108081  21.32269   2.458366   4.5502     0.1933047  0.3048905  506.4701   0.2758266  0.185996   0.3656572 
1041       0.22523    -9999      -9999      245.2427   7.341657   6.74       4.3483     4.271      4.040401   3.7141     3.5775     3.34       13.49      2.86       3.94       3.416739   1.67       -9999      2.43       0.1182503  0.1462999  -9999      0.09020063 0.1649116  0.4339499  15.27787   2.425679   3.5775     0.210622   0.3192346  506.787    0.2976519  0.2131188  0.3821851 
1041.1     0.23966    -9999      -9999      258.7954   7.838366   6.37       2.1582     2.3553     2.1539     2.3651     2.6446     2.15       3.96       2.99       2.03       3.120869   1.56       -9999      2.1        0.136232   0.1673824  -9999      0.1050816  0.1876672  0.9343395  9.917075   2.390471   2.6446     0.1958852  0.3077533  507.0868   0.3281046  0.254248   0.4019612 
1041.2     0.2496     -9999      -9999      273.7209   8.408592   5.73       1.5585     1.6592     1.6714     1.8455     1.9791     1.64       1.21       1.52       1.11       2.846815   1.44       -9999      1.87       0.1527004  0.1872309  -9999      0.1181698  0.2096435  1.88599    6.038457   2.357324   1.9791     0.1658784  0.2846711  507.3544   0.3632396  0.3113408  0.4151383 
1041.3     0.25383    -9999      -9999      288.3331   8.999577   4.73       1.4013     1.5267     1.5882     1.6098     1.7258     1.49       1.01       1.1        0.93       2.619623   1.37       -9999      1.7        0.1220056  0.115398   -9999      0.1286132  0.1843173  0.5093275  3.610979   2.330216   1.7258     0          0.09378272 507.5805   0.3974858  0.3840761  0.4108954 
1041.4     0.25412    -9999      -9999      301.174    9.556422   3.8        1.2949     1.4837     1.5836     1.575      1.6056     1.46       1.05       1.08       1.09       2.452214   1.34       -9999      1.58       0.123653   0.1162704  -9999      0.1310357  0.1932117  0.5464022  2.224452   2.311654   1.6056     0          0.09136785 507.7602   0.4437139  0.4680921  0.4193356 
1041.5     0.25411    -9999      -9999      311.2556   10.03213   3.3        1.2264     1.4402     1.5882     1.5886     1.59       1.47       1.07       1.04       1.12       2.345562   1.34       -9999      1.57       0.1960761  0.2201936  -9999      0.1719586  0.251325   11.99397   8.179606   2.302277   1.59       0.2565179  0.3530759  507.9001   0.3524321  0.2750522  0.429812  
1041.6     0.25194    -9999      -9999      318.1881   10.39569   2.78       1.2264     1.4024     1.5973     1.6229     1.6299     1.51       1.12       0.85       1.13       2.291546   1.34       -9999      1.58       0.1994232  0.2209707  -9999      0.1778757  0.2557175  13.83437   6.34411    2.300979   1.6299     0.2758692  0.3719134  508.0181   0.3591006  0.3051262  0.4130751 
1041.7     0.24453    -9999      -9999      322.1451   10.63644   2.67       1.2816     1.3948     1.5927     1.666      1.6754     1.56       1.08       0.82       1.22       2.276675   1.35       -9999      1.58       0.1991508  0.2183154  -9999      0.1799862  0.256598   13.67458   5.361511   2.305413   1.6754     0.2843135  0.3813826  508.1354   0.3664547  0.3268299  0.4060795 
