~Version
 VERS              .         2.0                           : CWLS LOG ASCII STANDARD - VERSION 2.0
 WRAP              .         NO                            : ONE LINE PER DEPTH STEP
 DLM               .         SPACE                         : DELIMITING CHARACTER(SPACE TAB OR COMMA)
~Well Information
#_______________________________________________________________________________
#
#PARAMETER_NAME    .UNIT     VALUE                         : DESCRIPTION
#_______________________________________________________________________________
STRT               .M        920                           : First reference value
STOP               .M        1182.8                        : Last reference value
STEP               .M        0.1                           : Step increment
NULL               .         -9999                         : Missing value
COMP               .                                       : Company
WELL               .         6316                          : Well name
FLD                .         Узень                         : Field
LOC                .                                       : Location
CNTY               .                                       : County
STAT               .                                       : State
CTRY               .                                       : Country
SRVC               .         AO "UPGF"                     : Service Company
DATE               .         23/09/2019                    : Date
API                .                                       : API number
Block              .         3а                            : 
Category           .                                       : 
Condition          .                                       : 
Date               .         23.09.2019г.                  : 
EREF               .         235.63                        : 
GRP                .                                       : Group name
Gorizont           .         13                            : 
ISS                .                                       : Well surveys
Interpretator      .         Алпанова Н.К.                 : 
Kupol              .                                       : 
Mud                .         полимерный                    : 
Mud_density        .         1.34                          : 
Mud_resistivity    .         0.38                          : 
NGDU               .         НГДУ-1                        : 
TIME               .                                       : LOG TIME
Viscosity          .         45                            : 
YEAR               .         2019                          : 
~Parameter Information Block
#_______________________________________________________________________________
#
#PARAMETER_NAME    .UNIT     VALUE                         : DESCRIPTION
#_______________________________________________________________________________
SET                .         LQC_KAZNIPI_Petrel            : 
TLFamily_CALI      .         Caliper                       : 
TLFamily_COLL      .         Net Reservoir Flag            : 
TLFamily_CSAT      .         Fluid Code                    : 
TLFamily_DEPT      .         Measured Depth                : 
TLFamily_DT        .         Compressional Slowness        : 
TLFamily_GR        .         Russian Gamma Ray             : 
TLFamily_GZ3       .         Gradient 225                  : 
TLFamily_IK1       .         Resistivity 05                : 
TLFamily_IK2       .         Resistivity 07                : 
TLFamily_IK3       .         Resistivity 10                : 
TLFamily_IK4       .         Resistivity 14                : 
TLFamily_IK5       .         Resistivity 20                : 
TLFamily_LLS       .         Lateral Log Resistivity       : 
TLFamily_MBK       .         Micro Lateral Log Resistivity : 
TLFamily_MINV      .         Micro Gradient Resistivity    : 
TLFamily_MNOR      .         Micro Resistivity             : 
TLFamily_NNKTb     .         Neutron Far                   : 
TLFamily_NNKTm     .         Neutron Near                  : 
TLFamily_NPHI      .         Neutron Porosity              : 
TLFamily_OGZ       .         Gradient Inverted 225         : 
TLFamily_PHIE      .         Effective Porosity            : 
TLFamily_PHIED     .         Effective Porosity            : 
TLFamily_PHIEN     .         Effective Porosity            : 
TLFamily_PHIES     .         Effective Porosity            : 
TLFamily_PHIT      .         Porosity                      : 
TLFamily_PRMB      .         Permeability                  : 
TLFamily_PRMB_DGR  .         Permeability                  : 
TLFamily_RHOB      .         Bulk Density                  : 
TLFamily_RT        .         Formation Resistivity         : 
TLFamily_SOIL_ARCHIE .         Oil Saturation                : 
TLFamily_SOIL_DW   .         Oil Saturation                : 
TLFamily_SP        .         Spontaneous Potential         : 
TLFamily_VSH_FIN   .         Shale Volume                  : 
TLFamily_VSH_GR    .         Shale Volume                  : 
TLFamily_VSH_SP    .         Shale Volume                  : 
~Curve Information
#_______________________________________________________________________________
#
#LOGNAME           .UNIT     LOG_ID                        : DESCRIPTION
#_______________________________________________________________________________
DEPT               .M                                      : Depth curve 
CALI               .м                                      : Кавернометрия 
COLL               .unitless                               : Описание 
CSAT               .unitless                               : Описание 
DT                 .мкс/м                                  : 1 ДельтаТ - Волна по породе 
GR                 .мкР/ч                                  : ГК 
GZ3                .Ом·м                                   : A2.0M0.5N 
IK1                .Ом·м                                   : È0.10È0.40 
IK2                .Ом·м                                   : È0.14È0.56 
IK3                .Ом·м                                   : È0.20È0.8 
IK4                .Ом·м                                   : È0.28È1.12 
IK5                .Ом·м                                   : È0.40È1.60 
LLS                .Ом·м                                   : БК 
MBK                .Ом·м                                   : БМК 
MINV               .Ом·м                                   : МГЗ 
MNOR               .Ом·м                                   : МПЗ 
NNKTb              .у.е.                                   : ННКб.з. 
NNKTm              .у.е.                                   : ННКм.з. 
NPHI               .V/V                                    : Neutron porosity index 
OGZ                .Ом·м                                   : N0.5M2.0A 
PHIE               .v/v                                    : Описание 
PHIED              .v/v                                    :  
PHIEN              .v/v                                    :  
PHIES              .v/v                                    :  
PHIT               .v/v                                    : Описание 
PRMB               .mD                                     :  
PRMB_DGR           .mD                                     :  
RHOB               .г/см3                                  : ГГКП 
RT                 .ohmm                                   : Description 
SOIL_ARCHIE        .v/v                                    :  
SOIL_DW            .v/v                                    :  
SP                 .mv                                     : ПС 
VSH_FIN            .v/v                                    : Описание 
VSH_GR             .v/v                                    : Shale volume 
VSH_SP             .v/v                                    : Shale Volume 
~Ascii
# ...
953.6      0.22668    -9999      -9999      291.5211   9.84442    4.09       3.1412     3.2404     3.4131     3.49       3.5323     4          3.61       3.73       3.77       2.50347    1.48       -9999      4.11       0.05595459 0.006811102 -9999      0.1050981  0.1321933  0.03044898 0.2761289  2.478685   3.5323     0          0          492.2946   0.4863258  0.8        0.1726517 
953.7000000000001 0.22783    -9999      -9999      291.7849   9.889012   4.03       2.9204     3.0593     3.1437     3.1808     3.3571     3.64       3.37       3.3        3.29       2.547697   1.46       -9999      4.23       0.05819887 0.01023237 -9999      0.1061654  0.1340814  0.03350753 0.2587479  2.473812   3.3571     0          0          491.7743   0.4840536  0.8        0.1681072 
953.8      0.22862    -9999      -9999      291.8457   9.933087   4.07       2.7443     2.9332     2.9567     3.1229     3.236      3.39       3.32       2.91       2.98       2.609725   1.43       -9999      4.55       0.06022211 0.01356776 -9999      0.1068765  0.1357899  0.03652731 0.2426439  2.468985   3.236      0          0          491.047    0.4820459  0.8        0.1640919 
953.9      0.23061    -9999      -9999      290.722    9.927698   4.16       2.5012     2.699      2.8433     3.0665     3.257      3.25       2.8        2.27       2.95       2.698113   1.41       -9999      5.03       0.06163863 0.0165206  -9999      0.1067567  0.1365088  0.03880208 0.2445577  2.4657     3.257      0          0          490.1193   0.4775958  0.8        0.1551916 
954        0.23342    -9999      -9999      287.5614   9.835102   4.34       2.3092     2.533      2.8218     3.1732     3.399      3.27       2.18       1.73       2.57       2.81877    1.41       -9999      5.51       0.06038154 0.01743747 -9999      0.1033256  0.1348047  0.03677652 0.2799062  2.465224   3.399      0          0          489.0076   0.4747443  0.8        0.1494886 
954.1      0.22813    -9999      -9999      281.8643   9.635487   4.97       2.53       2.7998     3.316      3.6475     3.728      3.5        3.74       1.96       2.98       2.97246    1.43       -9999      5.96       0.05600978 0.01605106 -9999      0.09596851 0.130091   0.03052074 0.3744609  2.468346   3.728      0          0          487.7355   0.4725632  0.8        0.1451263 
954.2000000000001 0.22855    -9999      -9999      273.6087   9.329713   5.71       2.9362     3.3812     4.0477     4.2395     4.3443     4.03       3.3        3.44       3.26       3.15425    1.46       -9999      6.47       0.04896593 0.01291809 -9999      0.08501376 0.1224013  0.0226009  0.5848156  2.475103   4.3443     0          0          486.3332   0.4684436  0.8        0.1368871 
954.3      0.23701    6          6          263.2719   8.936755   6.47       3.1971     3.894      4.6972     5.0832     5.043601   4.88       4.27       2.24       3.17       3.352456   1.51       -9999      7.030001   0.06000485 0.02551058 -9999      0.09449913 0.1204894  0.03619041 1.037135   2.48464    5.043601   0          0.09235964 484.8362   0.3858303  0.6392167  0.1324439 
954.4      0.22704    6          6          251.7419   8.487827   7.369999   4.3321     5.417      5.9064     6.3459     5.919301   6.23       8.83       4.73       5.44       3.550014   1.6        -9999      7.33       0.1017401  0.1046286  -9999      0.09885161 0.1500975  0.2146009  1.995681   2.49527    5.919301   0.2895339  0.404917   483.2841   0.3084712  0.4893019  0.1276405 
954.5      0.22615    6          6          240.1367   8.017518   8.33       6.2835     6.935299   8.3939     8.359299   7.0113     12.6       14.11      5.97       6.35       3.726968   1.65       -9999      7.36       0.0976445  0.09897779 -9999      0.09631121 0.1362913  0.1802068  3.961736   2.504707   7.0113     0.3198873  0.4113942  481.7189   0.2465272  0.369809   0.1232454 
954.6      0.22502    6          6          229.6143   7.556736   9.11       8.560101   10.1167    10.004     9.987501   8.2752     18.61      172.69     4.6        6          3.863844   1.72       -9999      7.02       0.09215923 0.09552386 -9999      0.0887946  0.1236485  0.1426167  7.756178   2.510475   8.2752     0.3382834  0.4125182  480.1812   0.2008696  0.2810873  0.1206519 
954.7000000000001 0.22177    6          6          221.1669   7.129114   9.859999   11.7633    12.8136    11.8366    11.0306    8.967799   22.15      120.55     3.6        5.82       3.945451   1.75       -9999      6.52       0.08775477 0.09559724 -9999      0.0799123  0.1141704  0.1181923  14.46814   2.510353   8.967799   0.3350105  0.3966064  478.7103   0.1685048  0.2179109  0.1190987 
954.8      0.21967    6          6          215.4837   6.748278   10.7       13.2657    14.0672    12.4299    11.3003    9.0774     18.87      54.15      3.6        5.87       3.964151   1.77       -9999      6.08       0.08679573 0.1001083  -9999      0.07348312 0.1096049  0.1134555  25.20889   2.502819   9.0774     0.3324318  0.383039   477.3399   0.1454991  0.1737053  0.117293  
954.9      0.22014    6          6          212.8662   6.419559   11.1       12.8792    13.8768    11.8366    10.4435    8.6852     14.03      44.65      3.78       5.79       3.921587   1.76       -9999      5.58       0.09068459 0.1093293  -9999      0.07203988 0.1109512  0.1339234  40.70938   2.48742    8.6852     0.3439783  0.3851606  476.0967   0.1292805  0.1428309  0.1157301 
955        0.22064    6          6          213.2143   6.144176   11.08      10.902     12.4869    10.6938    9.2372     7.5663     9.97       17.17      2.95       4.64       3.828239   1.74       -9999      5.1        0.09964442 0.1227954  -9999      0.07649348 0.118123   0.1962522  60.82249   2.464932   7.5663     0.3552574  0.3894788  475.0035   0.1178749  0.1212331  0.1145167 
955.1      0.22135    6          6          216.0741   5.922298   10.76      8.264499   10.7547    9.4972     7.7545     6.583      6.96       16.3       3.1        4.92       3.700911   1.71       -9999      4.72       0.1127292  0.1393538  -9999      0.08610456 0.1299528  0.3429063  84.05331   2.437279   6.583      0.3818563  0.4120767  474.0742   0.1098697  0.1062317  0.1135078 
955.2000000000001 0.22083    6          6          220.7321   5.754089   10.12      5.5448     5.7353     7.5014     6.1501     5.5565     5          8.06       3.22       4.29       3.558829   1.67       -9999      4.1        0.1281876  0.1573698  -9999      0.09900537 0.1445473  0.6629836  107.4144   2.407192   5.5565     0.4015468  0.4300762  473.3153   0.1043584  0.0961089  0.1126078 
955.3      0.22121    6          6          226.3509   5.637923   9.309999   3.9649     3.6226     4.8418     4.536      4.572      3.48       3.56       2.64       3.43       3.419543   1.63       -9999      3.28       0.1440319  0.1750267  -9999      0.1130371  0.1598084  1.303104   127.2382   2.377705   4.572      0.4074936  0.4356236  472.7251   0.1006377  0.08968682 0.1115887 
955.4      0.22152    6          6          232.1101   5.569282   8.47       3.6422     3.4407     3.4302     3.7465     3.6959     2.67       4.14       2.44       3.33       3.295996   1.57       -9999      2.71       0.1583873  0.1906623  -9999      0.1261123  0.1738964  2.403673   140.6309   2.351594   3.6959     0.3972884  0.4257368  472.2909   0.09893224 0.08609565 0.1117688 
955.5      0.22174    6          6          237.3327   5.540028   7.46       3.6927     3.3812     3.3626     3.359      3.3433     2.71       4.45       2.47       3.36       3.195299   1.56       -9999      2.37       0.1701884  0.203133   -9999      0.1372438  0.1855546  3.97613    146.7587   2.330768   3.3433     0.406581   0.4358403  471.9887   0.09802063 0.08460921 0.1114321 
955.6      0.22154    6          6          241.5956   5.538178   6.219999   3.7151     3.243      3.2074     3.1707     3.1337     2.78       4.76       2.31       3.23       3.119499   1.56       -9999      2.13       0.1789282  0.2120085  -9999      0.1458479  0.1942449  5.772206   147.1551   2.315946   3.1337     0.4143825  0.4443782  471.786    0.09770531 0.08451607 0.1108946 
