~Version
 VERS              .         2.0                           : CWLS LOG ASCII STANDARD - VERSION 2.0
 WRAP              .         NO                            : ONE LINE PER DEPTH STEP
 DLM               .         SPACE                         : DELIMITING CHARACTER(SPACE TAB OR COMMA)
~Well Information
#_______________________________________________________________________________
#
#PARAMETER_NAME    .UNIT     VALUE                         : DESCRIPTION
#_______________________________________________________________________________
STRT               .M        920                           : First reference value
STOP               .M        1182.8                        : Last reference value
STEP               .M        0.1                           : Step increment
NULL               .         -9999                         : Missing value
COMP               .                                       : Company
WELL               .         6316                          : Well name
FLD                .         Узень                         : Field
LOC                .                                       : Location
CNTY               .                                       : County
STAT               .                                       : State
CTRY               .                                       : Country
SRVC               .         AO "UPGF"                     : Service Company
DATE               .         23/09/2019                    : Date
API                .                                       : API number
Block              .         3а                            : 
Category           .                                       : 
Condition          .                                       : 
Date               .         23.09.2019г.                  : 
EREF               .         235.63                        : 
GRP                .                                       : Group name
Gorizont           .         13                            : 
ISS                .                                       : Well surveys
Interpretator      .         Алпанова Н.К.                 : 
Kupol              .                                       : 
Mud                .         полимерный                    : 
Mud_density        .         1.34                          : 
Mud_resistivity    .         0.38                          : 
NGDU               .         НГДУ-1                        : 
TIME               .                                       : LOG TIME
Viscosity          .         45                            : 
YEAR               .         2019                          : 
~Parameter Information Block
#_______________________________________________________________________________
#
#PARAMETER_NAME    .UNIT     VALUE                         : DESCRIPTION
#_______________________________________________________________________________
SET                .         LQC_KAZNIPI_Petrel            : 
TLFamily_CALI      .         Caliper                       : 
TLFamily_COLL      .         Net Reservoir Flag            : 
TLFamily_CSAT      .         Fluid Code                    : 
TLFamily_DEPT      .         Measured Depth                : 
TLFamily_DT        .         Compressional Slowness        : 
TLFamily_GR        .         Russian Gamma Ray             : 
TLFamily_GZ3       .         Gradient 225                  : 
TLFamily_IK1       .         Resistivity 05                : 
TLFamily_IK2       .         Resistivity 07                : 
TLFamily_IK3       .         Resistivity 10                : 
TLFamily_IK4       .         Resistivity 14                : 
TLFamily_IK5       .         Resistivity 20                : 
TLFamily_LLS       .         Lateral Log Resistivity       : 
TLFamily_MBK       .         Micro Lateral Log Resistivity : 
TLFamily_MINV      .         Micro Gradient Resistivity    : 
TLFamily_MNOR      .         Micro Resistivity             : 
TLFamily_NNKTb     .         Neutron Far                   : 
TLFamily_NNKTm     .         Neutron Near                  : 
TLFamily_NPHI      .         Neutron Porosity              : 
TLFamily_OGZ       .         Gradient Inverted 225         : 
TLFamily_PHIE      .         Effective Porosity            : 
TLFamily_PHIED     .         Effective Porosity            : 
TLFamily_PHIEN     .         Effective Porosity            : 
TLFamily_PHIES     .         Effective Porosity            : 
TLFamily_PHIT      .         Porosity                      : 
TLFamily_PRMB      .         Permeability                  : 
TLFamily_PRMB_DGR  .         Permeability                  : 
TLFamily_RHOB      .         Bulk Density                  : 
TLFamily_RT        .         Formation Resistivity         : 
TLFamily_SOIL_ARCHIE .         Oil Saturation                : 
TLFamily_SOIL_DW   .         Oil Saturation                : 
TLFamily_SP        .         Spontaneous Potential         : 
TLFamily_VSH_FIN   .         Shale Volume                  : 
TLFamily_VSH_GR    .         Shale Volume                  : 
TLFamily_VSH_SP    .         Shale Volume                  : 
~Curve Information
#_______________________________________________________________________________
#
#LOGNAME           .UNIT     LOG_ID                        : DESCRIPTION
#_______________________________________________________________________________
DEPT               .M                                      : Depth curve 
CALI               .м                                      : Кавернометрия 
COLL               .unitless                               : Описание 
CSAT               .unitless                               : Описание 
DT                 .мкс/м                                  : 1 ДельтаТ - Волна по породе 
GR                 .мкР/ч                                  : ГК 
GZ3                .Ом·м                                   : A2.0M0.5N 
IK1                .Ом·м                                   : È0.10È0.40 
IK2                .Ом·м                                   : È0.14È0.56 
IK3                .Ом·м                                   : È0.20È0.8 
IK4                .Ом·м                                   : È0.28È1.12 
IK5                .Ом·м                                   : È0.40È1.60 
LLS                .Ом·м                                   : БК 
MBK                .Ом·м                                   : БМК 
MINV               .Ом·м                                   : МГЗ 
MNOR               .Ом·м                                   : МПЗ 
NNKTb              .у.е.                                   : ННКб.з. 
NNKTm              .у.е.                                   : ННКм.з. 
NPHI               .V/V                                    : Neutron porosity index 
OGZ                .Ом·м                                   : N0.5M2.0A 
PHIE               .v/v                                    : Описание 
PHIED              .v/v                                    :  
PHIEN              .v/v                                    :  
PHIES              .v/v                                    :  
PHIT               .v/v                                    : Описание 
PRMB               .mD                                     :  
PRMB_DGR           .mD                                     :  
RHOB               .г/см3                                  : ГГКП 
RT                 .ohmm                                   : Description 
SOIL_ARCHIE        .v/v                                    :  
SOIL_DW            .v/v                                    :  
SP                 .mv                                     : ПС 
VSH_FIN            .v/v                                    : Описание 
VSH_GR             .v/v                                    : Shale volume 
VSH_SP             .v/v                                    : Shale Volume 
~Ascii
# ...
1090.1     0.22756    -9999      -9999      304.6776   11.60481   1.77       1.651      1.8489     1.8449     1.8297     1.8426     1.8        2.1        1.63       2.27       2.086132   1.42       -9999      1.89       0.1101034  0.08981806 -9999      0.1303887  0.1821696  0.3065773  2.724766   2.349911   1.8426     0          0.07943975 510.3084   0.4597092  0.4308783  0.48854   
1090.2     0.22675    -9999      -9999      306.5363   11.74311   1.77       1.7688     1.9073     1.8736     1.8638     1.8483     1.85       1.9        1.37       1.91       2.071965   1.42       -9999      1.83       0.1099964  0.0916945  -9999      0.1282984  0.1842462  0.3051819  2.473697   2.341624   1.8483     0          0.08673676 510.3633   0.4736383  0.4482266  0.4990499 
1090.3     0.23233    -9999      -9999      309.323    11.93724   1.72       1.5436     1.6553     1.6366     1.744      1.7958     1.78       1.74       1.21       1.48       2.056359   1.4        -9999      1.77       0.1103456  0.09409051 -9999      0.1266006  0.1871253  0.3097601  2.159826   2.331651   1.7958     0          0.08323862 510.3337   0.4897768  0.4737615  0.505792  
1090.4     0.23846    -9999      -9999      312.9178   12.16573   1.79       1.4336     1.4962     1.5288     1.6495     1.7124     1.64       1.56       1.17       1.48       2.041762   1.38       -9999      1.81       0.1151539  0.1001868  -9999      0.130121   0.1922978  0.380266   1.841009   2.320611   1.7124     0          0.09202315 510.2338   0.4921001  0.5056883  0.4785119 
1090.5     0.2427     -9999      -9999      317.0375   12.40138   1.85       1.415      1.4796     1.5109     1.5466     1.59       1.56       1.28       1.26       1.38       2.03051    1.37       -9999      1.76       0.1186196  0.1049867  -9999      0.1322524  0.1970731  0.4408392  1.561435   2.309504   1.59       0          0.08243597 510.0888   0.5004538  0.5408686  0.460039  
1090.6     0.24238    -9999      -9999      321.3075   12.61939   1.87       1.316      1.3918     1.3773     1.4301     1.4883     1.49       1.11       1.16       1.17       2.024126   1.36       -9999      1.71       0.1206746  0.1081766  -9999      0.1331727  0.2010657  0.4812216  1.340741   2.299604   1.4883     0          0.06936505 509.9237   0.5128133  0.5755923  0.4500343 
1090.7     0.24158    -9999      -9999      325.352    12.80165   1.89       1.166      1.2291     1.2671     1.3366     1.4173     1.42       1.01       1.07       1.02       2.022815   1.35       -9999      1.63       0.1218979  0.1099484  -9999      0.1338474  0.2041646  0.5069945  1.180369   2.292218   1.4173     0          0.05885817 509.7559   0.5247782  0.6063268  0.4432297 
1090.8     0.23583    -9999      -9999      328.8822   12.93698   1.83       1.0743     1.1767     1.2208     1.2825     1.354      1.38       0.96       1.05       0.95       2.025686   1.34       -9999      1.64       0.1221511  0.1099157  -9999      0.1343865  0.2060354  0.5124979  1.073832   2.288455   1.354      0          0.04316577 509.5943   0.5350969  0.6302049  0.4399889 
1090.9     0.23923    -9999      -9999      331.7602   13.0191    1.82       1.0713     1.1668     1.2171     1.2799     1.3355     1.38       1.04       1.03       1.04       2.031277   1.33       -9999      1.67       0.1183078  0.1053114  -9999      0.1313042  0.205242   0.4350157  1.013935   2.288946   1.3355     0          0.02196493 509.4352   0.5545523  0.6451491  0.4639556 
1091       0.23025    -9999      -9999      334.022    13.04563   1.83       1.1322     1.2354     1.2976     1.3408     1.3519     1.41       1.25       1.06       1.28       2.038491   1.33       -9999      1.71       0.1169896  0.1015609  -9999      0.1324183  0.2045343  0.4112347  0.9953048  2.293768   1.3519     0          0.02155202 509.267    0.5584462  0.6500529  0.4668394 
1091.1     0.23166    -9999      -9999      335.8395   13.01575   1.77       1.2074     1.2858     1.3548     1.3829     1.3892     1.44       1.47       1.2        1.44       2.047316   1.34       -9999      1.68       0.1203358  0.1005124  -9999      0.1401591  0.2049367  0.4743165  1.016313   2.302467   1.3892     0          0.04665259 509.0788   0.5396686  0.6445321  0.4348052 
1091.2     0.23091    -9999      -9999      337.4659   12.93      1.85       1.2258     1.3061     1.3678     1.3911     1.3975     1.46       1.4        1.26       1.43       2.05926    1.33       -9999      1.73       0.1169257  0.09287957 -9999      0.1409718  0.2019412  0.4101148  1.079083   2.314235   1.3975     0          0.02999709 508.8662   0.5423126  0.6289508  0.4556744 
1091.3     0.23407    -9999      -9999      339.1882   12.79203   1.87       1.1935     1.226      1.3078     1.3667     1.3664     1.45       1.45       1.12       1.31       2.076977   1.33       -9999      1.8        0.1190341  0.08903338 -9999      0.1490348  0.2008787  0.4487019  1.188334   2.328142   1.3664     0          0.02287103 508.6393   0.5220861  0.6046642  0.439508  
1091.4     0.23314    -9999      -9999      341.304    12.60914   1.89       1.1511     1.201      1.2535     1.3226     1.3476     1.43       1.35       1.04       1.29       2.103187   1.33       -9999      1.83       0.1227768  0.08596323 -9999      0.1595903  0.2003891  0.5263582  1.35038    2.343259   1.3476     0          0.02676683 508.4226   0.495088   0.573911   0.4162649 
1091.5     0.2367     -9999      -9999      344.1014   12.39354   1.86       1.1239     1.1796     1.2251     1.2872     1.3271     1.41       1.21       1.02       1.3        2.139371   1.34       -9999      1.9        0.1234725  0.07996717 -9999      0.1669779  0.1987535  0.5422112  1.570015   2.358775   1.3271     0          0.01669668 508.2521   0.4802167  0.5396599  0.4207734 
1091.6     0.23621    -9999      -9999      347.8551   12.16237   1.9        1.112      1.1914     1.2147     1.3006     1.3405     1.43       1.28       1.17       1.2        2.184759   1.36       -9999      1.91       0.1269769  0.07607151 -9999      0.1778823  0.1985995  0.6296203  1.845347   2.373915   1.3405     0          0.03216651 508.1691   0.4568794  0.5052027  0.4085562 
1091.7     0.24255    -9999      -9999      352.812    11.93514   1.84       1.1747     1.2423     1.2802     1.3465     1.3892     1.49       1.23       1.06       1.17       2.236023   1.39       -9999      2.05       0.1344504  0.07543483 -9999      0.1934659  0.2005914  0.8659753  2.162994   2.387916   1.3892     0          0.07661743 508.2107   0.4219128  0.4734781  0.3703475 
1091.8     0.23654    -9999      -9999      359.1578   11.73023   1.95       1.3085     1.358      1.3766     1.4371     1.4809     1.58       1.48       1.11       1.21       2.287699   1.42       -9999      2.21       0.1358549  0.07000415 -9999      0.2017056  0.2007406  0.9194331  2.496076   2.399948   1.4809     0          0.1098448  508.3981   0.4139053  0.4465813  0.3812293 
1091.9     0.22874    -9999      -9999      366.9475   11.56363   2.02       1.447      1.5723     1.5746     1.5914     1.5737     1.71       2.55       1.09       1.51       2.333433   1.44       -9999      2.22       0.1358124  0.06393792 -9999      0.2076869  0.2010883  0.9177687  2.804346   2.409158   1.5737     0          0.137262   508.7311   0.4163944  0.4258431  0.4069457 
1092       0.22495    -9999      -9999      376.0478   11.44761   2.02       1.6539     1.7683     1.7278     1.7201     1.7043     1.84       2.8        1.16       1.7        2.367575   1.44       -9999      2.2        0.1350064  0.05818378 -9999      0.2118291  0.2019836  0.8867576  3.041241   2.414752   1.7043     0.003956886 0.1711387  509.186    0.4272462  0.4119727  0.4425196 
1092.1     0.23112    -9999      -9999      386.0944   11.38886   2.16       1.7445     1.7964     1.7838     1.7513     1.7741     1.9        1.97       1.05       1.64       2.386525   1.42       -9999      2.22       0.1369643  0.05602684 -9999      0.2179018  0.2048631  0.9639828  3.16872    2.416179   1.7741     0.03472304 0.1991058  509.7214   0.4331256  0.4051226  0.4611286 
