~Version
 VERS              .         2.0                           : CWLS LOG ASCII STANDARD - VERSION 2.0
 WRAP              .         NO                            : ONE LINE PER DEPTH STEP
 DLM               .         SPACE                         : DELIMITING CHARACTER(SPACE TAB OR COMMA)
~Well Information
#_______________________________________________________________________________
#
#PARAMETER_NAME    .UNIT     VALUE                         : DESCRIPTION
#_______________________________________________________________________________
STRT               .M        920                           : First reference value
STOP               .M        1182.8                        : Last reference value
STEP               .M        0.1                           : Step increment
NULL               .         -9999                         : Missing value
COMP               .                                       : Company
WELL               .         6316                          : Well name
FLD                .         Узень                         : Field
LOC                .                                       : Location
CNTY               .                                       : County
STAT               .                                       : State
CTRY               .                                       : Country
SRVC               .         AO "UPGF"                     : Service Company
DATE               .         23/09/2019                    : Date
API                .                                       : API number
Block              .         3а                            : 
Category           .                                       : 
Condition          .                                       : 
Date               .         23.09.2019г.                  : 
EREF               .         235.63                        : 
GRP                .                                       : Group name
Gorizont           .         13                            : 
ISS                .                                       : Well surveys
Interpretator      .         Алпанова Н.К.                 : 
Kupol              .                                       : 
Mud                .         полимерный                    : 
Mud_density        .         1.34                          : 
Mud_resistivity    .         0.38                          : 
NGDU               .         НГДУ-1                        : 
TIME               .                                       : LOG TIME
Viscosity          .         45                            : 
YEAR               .         2019                          : 
~Parameter Information Block
#_______________________________________________________________________________
#
#PARAMETER_NAME    .UNIT     VALUE                         : DESCRIPTION
#_______________________________________________________________________________
SET                .         LQC_KAZNIPI_Petrel            : 
TLFamily_CALI      .         Caliper                       : 
TLFamily_COLL      .         Net Reservoir Flag            : 
TLFamily_CSAT      .         Fluid Code                    : 
TLFamily_DEPT      .         Measured Depth                : 
TLFamily_DT        .         Compressional Slowness        : 
TLFamily_GR        .         Russian Gamma Ray             : 
TLFamily_GZ3       .         Gradient 225                  : 
TLFamily_IK1       .         Resistivity 05                : 
TLFamily_IK2       .         Resistivity 07                : 
TLFamily_IK3       .         Resistivity 10                : 
TLFamily_IK4       .         Resistivity 14                : 
TLFamily_IK5       .         Resistivity 20                : 
TLFamily_LLS       .         Lateral Log Resistivity       : 
TLFamily_MBK       .         Micro Lateral Log Resistivity : 
TLFamily_MINV      .         Micro Gradient Resistivity    : 
TLFamily_MNOR      .         Micro Resistivity             : 
TLFamily_NNKTb     .         Neutron Far                   : 
TLFamily_NNKTm     .         Neutron Near                  : 
TLFamily_NPHI      .         Neutron Porosity              : 
TLFamily_OGZ       .         Gradient Inverted 225         : 
TLFamily_PHIE      .         Effective Porosity            : 
TLFamily_PHIED     .         Effective Porosity            : 
TLFamily_PHIEN     .         Effective Porosity            : 
TLFamily_PHIES     .         Effective Porosity            : 
TLFamily_PHIT      .         Porosity                      : 
TLFamily_PRMB      .         Permeability                  : 
TLFamily_PRMB_DGR  .         Permeability                  : 
TLFamily_RHOB      .         Bulk Density                  : 
TLFamily_RT        .         Formation Resistivity         : 
TLFamily_SOIL_ARCHIE .         Oil Saturation                : 
TLFamily_SOIL_DW   .         Oil Saturation                : 
TLFamily_SP        .         Spontaneous Potential         : 
TLFamily_VSH_FIN   .         Shale Volume                  : 
TLFamily_VSH_GR    .         Shale Volume                  : 
TLFamily_VSH_SP    .         Shale Volume                  : 
~Curve Information
#_______________________________________________________________________________
#
#LOGNAME           .UNIT     LOG_ID                        : DESCRIPTION
#_______________________________________________________________________________
DEPT               .M                                      : Depth curve 
CALI               .м                                      : Кавернометрия 
COLL               .unitless                               : Описание 
CSAT               .unitless                               : Описание 
DT                 .мкс/м                                  : 1 ДельтаТ - Волна по породе 
GR                 .мкР/ч                                  : ГК 
GZ3                .Ом·м                                   : A2.0M0.5N 
IK1                .Ом·м                                   : È0.10È0.40 
IK2                .Ом·м                                   : È0.14È0.56 
IK3                .Ом·м                                   : È0.20È0.8 
IK4                .Ом·м                                   : È0.28È1.12 
IK5                .Ом·м                                   : È0.40È1.60 
LLS                .Ом·м                                   : БК 
MBK                .Ом·м                                   : БМК 
MINV               .Ом·м                                   : МГЗ 
MNOR               .Ом·м                                   : МПЗ 
NNKTb              .у.е.                                   : ННКб.з. 
NNKTm              .у.е.                                   : ННКм.з. 
NPHI               .V/V                                    : Neutron porosity index 
OGZ                .Ом·м                                   : N0.5M2.0A 
PHIE               .v/v                                    : Описание 
PHIED              .v/v                                    :  
PHIEN              .v/v                                    :  
PHIES              .v/v                                    :  
PHIT               .v/v                                    : Описание 
PRMB               .mD                                     :  
PRMB_DGR           .mD                                     :  
RHOB               .г/см3                                  : ГГКП 
RT                 .ohmm                                   : Description 
SOIL_ARCHIE        .v/v                                    :  
SOIL_DW            .v/v                                    :  
SP                 .mv                                     : ПС 
VSH_FIN            .v/v                                    : Описание 
VSH_GR             .v/v                                    : Shale volume 
VSH_SP             .v/v                                    : Shale Volume 
~Ascii
# ...
1056.5     0.22918    -9999      -9999      333.2122   12.66886   1.6        1.2895     1.3565     1.3693     1.4269     1.459      1.43       1.35       1.35       1.44       2.09605    1.36       -9999      1.73       0.1177451  0.108117   -9999      0.1273732  0.2073961  0.424701   1.295169   2.277848   1.459      0          0.06840083 513.2225   0.5718826  0.5837777  0.5599875 
1056.6     0.23119    -9999      -9999      334.9885   12.71801   1.62       1.1608     1.2285     1.2763     1.3508     1.4196     1.38       1.06       1.27       1.21       2.082132   1.35       -9999      1.62       0.1141229  0.1036851  -9999      0.1245607  0.2060904  0.3639075  1.251433   2.279782   1.4196     0          0.04019075 513.3588   0.5866596  0.592024   0.5812952 
1056.7     0.23325    -9999      -9999      337.061    12.81804   1.65       1.1261     1.201      1.2339     1.2945     1.3548     1.33       1.08       1.34       1.22       2.062863   1.36       -9999      1.61       0.1083315  0.09670849 -9999      0.1199546  0.203652   0.2842635  1.166925   2.283519   1.3548     0          0          513.3934   0.6080481  0.6091696  0.6069265 
1056.8     0.23519    -9999      -9999      339.0551   12.94872   1.66       1.1694     1.2785     1.2736     1.302      1.3369     1.33       1.11       1.37       1.41       2.043188   1.36       -9999      1.66       0.1083671  0.09403011 -9999      0.1227041  0.2033109  0.2846952  1.065056   2.288881   1.3369     0          0          513.3206   0.605645   0.6323202  0.5789698 
1056.9     0.23998    -9999      -9999      340.626    13.08823   1.73       1.1858     1.2752     1.2936     1.3067     1.3334     1.34       1.08       1.33       1.41       2.028037   1.36       -9999      1.73       0.1056948  0.08873419 -9999      0.1226555  0.201441   0.2540287  0.9661052  2.295831   1.3334     0          0          513.1448   0.6107634  0.658005   0.5635219 
1057       0.2391     -9999      -9999      341.5466   13.21732   1.83       1.1394     1.2131     1.2606     1.2858     1.325      1.35       1.13       1.23       1.33       2.021091   1.35       -9999      1.72       0.09891775 0.07975866 -9999      0.1180768  0.1974058  0.1902631  0.8827487  2.304349   1.325      0          0          512.8798   0.6282543  0.6827011  0.5738074 
1057.1     0.23503    -9999      -9999      341.7486   13.32147   1.86       1.0908     1.1668     1.2177     1.2628     1.3533     1.35       1.27       1.29       1.12       2.023783   1.36       -9999      1.78       0.09761323 0.0751076  -9999      0.1201188  0.1951793  0.1799666  0.8207711  2.314292   1.3533     0          0          512.5476   0.6223726  0.7032992  0.5414461 
1057.2     0.23466    -9999      -9999      341.3221   13.39206   1.77       1.0883     1.1497     1.237      1.2932     1.3707     1.38       1.3        1.23       1.2        2.034902   1.37       -9999      1.75       0.09546112 0.0696326  -9999      0.1212896  0.1922327  0.1641835  0.781255   2.325311   1.3707     0          0          512.1769   0.6173044  0.7176132  0.5169955 
1057.3     0.24092    -9999      -9999      340.4706   13.42604   1.65       1.1723     1.2733     1.3334     1.3718     1.4173     1.44       1.43       1.39       1.45       2.050963   1.39       -9999      1.66       0.09089195 0.06215164 -9999      0.1196323  0.188073   0.1351131  0.7629171  2.336838   1.4173     0          0          511.7992   0.6199169  0.7246071  0.5152267 
1057.4     0.23333    -9999      -9999      339.4538   13.42678   1.63       1.3153     1.4962     1.5202     1.4731     1.4768     1.49       1.39       1.74       1.4        2.067265   1.4        -9999      1.6        0.08904852 0.05708997 -9999      0.1210071  0.185039   0.1248972  0.7625224  2.348101   1.4768     0          0          511.4455   0.6123219  0.7247601  0.4998837 
1057.5     0.23098    -9999      -9999      338.5222   13.40319   1.68       1.3803     1.5096     1.516      1.5147     1.5109     1.51       1.35       1.4        1.41       2.079226   1.39       -9999      1.56       0.09042786 0.0550701  -9999      0.1257856  0.1835654  0.1324651  0.7752001  2.358207   1.5109     0          0          511.1432   0.5941229  0.7198967  0.468349  
1057.6     0.24284    -9999      -9999      337.8701   13.36628   1.69       1.2989     1.3896     1.4273     1.4682     1.5134     1.48       1.15       0.96       1.29       2.083658   1.38       -9999      1.59       0.08797076 0.05049142 -9999      0.1254501  0.1809499  0.1192861  0.7954638  2.366228   1.5134     0          0          510.9131   0.5931127  0.7123511  0.4738743 
1057.7     0.25511    -9999      -9999      337.6066   13.32687   1.71       1.1911     1.2654     1.3153     1.4161     1.4686     1.43       1.14       0.81       1.15       2.079503   1.38       -9999      1.61       0.08679195 0.04785584 -9999      0.1257281  0.1794999  0.1134372  0.8176767  2.371269   1.4686     0          0          510.7676   0.5913832  0.7043849  0.4783815 
1057.8     0.24618    -9999      -9999      337.7482   13.29292   1.67       1.1817     1.2858     1.3405     1.3986     1.4606     1.41       1.2        0.95       1.35       2.068022   1.38       -9999      1.66       0.09052622 0.05040751 -9999      0.1306449  0.1808468  0.1330219  0.8373131  2.372643   1.4606     0          0          510.7081   0.5761539  0.6975921  0.4547156 
1057.9     0.23302    -9999      -9999      338.2213   13.26745   1.65       1.2658     1.3948     1.3975     1.4269     1.4375     1.41       1.39       1.54       1.55       2.052276   1.37       -9999      1.62       0.0909325  0.05145007 -9999      0.1304149  0.181605   0.135347   0.8523533  2.370071   1.4375     0          0          510.7302   0.5783985  0.6925392  0.4642578 
1058       0.23917    -9999      -9999      338.8745   13.24922   1.71       1.275      1.4215     1.4157     1.413      1.4028     1.4        1.28       1.69       1.42       2.036348   1.36       -9999      1.59       0.08953416 0.05219858 -9999      0.1268697  0.1823052  0.1275111  0.8632875  2.363868   1.4028     0          0          510.8238   0.5917854  0.688944   0.4946268 
1058.1     0.24549    -9999      -9999      339.4957   13.23339   1.65       1.1758     1.2622     1.3112     1.3366     1.3649     1.35       1.02       1.22       1.25       2.024381   1.34       -9999      1.57       0.09158199 0.05676007 -9999      0.1264039  0.1848948  0.1391485  0.8728915  2.354971   1.3649     0          0          510.978    0.5952413  0.6858388  0.5046439 
1058.2     0.25272    -9999      -9999      339.8336   13.21244   1.67       1.0512     1.1435     1.2049     1.2589     1.2909     1.29       1          1.08       1.09       2.019874   1.32       -9999      1.55       0.09751089 0.0651092  -9999      0.1299126  0.1892369  0.1791828  0.8857672  2.344774   1.2909     0          0          511.1851   0.5851192  0.6817502  0.4884882 
1058.3     0.24677    -9999      -9999      339.6238   13.17833   1.61       1.0086     1.0776     1.131      1.2016     1.2471     1.26       0.99       0.92       1.05       2.025134   1.31       -9999      1.56       0.1019977  0.07239477 -9999      0.1316006  0.1927757  0.2169715  0.9071403  2.334844   1.2471     0          0          511.4395   0.5790719  0.675145   0.4829988 
1058.4     0.24923    -9999      -9999      338.626    13.12232   1.61       1.0114     1.1074     1.1574     1.1831     1.2383     1.25       1.05       0.86       1.05       2.041005   1.32       -9999      1.58       0.1031056  0.07663819 -9999      0.1295731  0.1944012  0.2274702  0.9433572  2.326536   1.2383     0          0          511.7342   0.5823731  0.6644383  0.5003078 
1058.5     0.24198    -9999      -9999      336.6718   13.03494   1.65       1.0332     1.1616     1.1876     1.2155     1.2613     1.28       1.12       0.86       1.1        2.066942   1.33       -9999      1.65       0.1049197  0.08102526 -9999      0.1288142  0.1956142  0.2457682  1.002771   2.320628   1.2613     0          0          512.0577   0.578539   0.6480721  0.5090058 
