~Version
 VERS              .         2.0                           : CWLS LOG ASCII STANDARD - VERSION 2.0
 WRAP              .         NO                            : ONE LINE PER DEPTH STEP
 DLM               .         SPACE                         : DELIMITING CHARACTER(SPACE TAB OR COMMA)
~Well Information
#_______________________________________________________________________________
#
#PARAMETER_NAME    .UNIT     VALUE                         : DESCRIPTION
#_______________________________________________________________________________
STRT               .M        920                           : First reference value
STOP               .M        1182.8                        : Last reference value
STEP               .M        0.1                           : Step increment
NULL               .         -9999                         : Missing value
COMP               .                                       : Company
WELL               .         6316                          : Well name
FLD                .         Узень                         : Field
LOC                .                                       : Location
CNTY               .                                       : County
STAT               .                                       : State
CTRY               .                                       : Country
SRVC               .         AO "UPGF"                     : Service Company
DATE               .         23/09/2019                    : Date
API                .                                       : API number
Block              .         3а                            : 
Category           .                                       : 
Condition          .                                       : 
Date               .         23.09.2019г.                  : 
EREF               .         235.63                        : 
GRP                .                                       : Group name
Gorizont           .         13                            : 
ISS                .                                       : Well surveys
Interpretator      .         Алпанова Н.К.                 : 
Kupol              .                                       : 
Mud                .         полимерный                    : 
Mud_density        .         1.34                          : 
Mud_resistivity    .         0.38                          : 
NGDU               .         НГДУ-1                        : 
TIME               .                                       : LOG TIME
Viscosity          .         45                            : 
YEAR               .         2019                          : 
~Parameter Information Block
#_______________________________________________________________________________
#
#PARAMETER_NAME    .UNIT     VALUE                         : DESCRIPTION
#_______________________________________________________________________________
SET                .         LQC_KAZNIPI_Petrel            : 
TLFamily_CALI      .         Caliper                       : 
TLFamily_COLL      .         Net Reservoir Flag            : 
TLFamily_CSAT      .         Fluid Code                    : 
TLFamily_DEPT      .         Measured Depth                : 
TLFamily_DT        .         Compressional Slowness        : 
TLFamily_GR        .         Russian Gamma Ray             : 
TLFamily_GZ3       .         Gradient 225                  : 
TLFamily_IK1       .         Resistivity 05                : 
TLFamily_IK2       .         Resistivity 07                : 
TLFamily_IK3       .         Resistivity 10                : 
TLFamily_IK4       .         Resistivity 14                : 
TLFamily_IK5       .         Resistivity 20                : 
TLFamily_LLS       .         Lateral Log Resistivity       : 
TLFamily_MBK       .         Micro Lateral Log Resistivity : 
TLFamily_MINV      .         Micro Gradient Resistivity    : 
TLFamily_MNOR      .         Micro Resistivity             : 
TLFamily_NNKTb     .         Neutron Far                   : 
TLFamily_NNKTm     .         Neutron Near                  : 
TLFamily_NPHI      .         Neutron Porosity              : 
TLFamily_OGZ       .         Gradient Inverted 225         : 
TLFamily_PHIE      .         Effective Porosity            : 
TLFamily_PHIED     .         Effective Porosity            : 
TLFamily_PHIEN     .         Effective Porosity            : 
TLFamily_PHIES     .         Effective Porosity            : 
TLFamily_PHIT      .         Porosity                      : 
TLFamily_PRMB      .         Permeability                  : 
TLFamily_PRMB_DGR  .         Permeability                  : 
TLFamily_RHOB      .         Bulk Density                  : 
TLFamily_RT        .         Formation Resistivity         : 
TLFamily_SOIL_ARCHIE .         Oil Saturation                : 
TLFamily_SOIL_DW   .         Oil Saturation                : 
TLFamily_SP        .         Spontaneous Potential         : 
TLFamily_VSH_FIN   .         Shale Volume                  : 
TLFamily_VSH_GR    .         Shale Volume                  : 
TLFamily_VSH_SP    .         Shale Volume                  : 
~Curve Information
#_______________________________________________________________________________
#
#LOGNAME           .UNIT     LOG_ID                        : DESCRIPTION
#_______________________________________________________________________________
DEPT               .M                                      : Depth curve 
CALI               .м                                      : Кавернометрия 
COLL               .unitless                               : Описание 
CSAT               .unitless                               : Описание 
DT                 .мкс/м                                  : 1 ДельтаТ - Волна по породе 
GR                 .мкР/ч                                  : ГК 
GZ3                .Ом·м                                   : A2.0M0.5N 
IK1                .Ом·м                                   : È0.10È0.40 
IK2                .Ом·м                                   : È0.14È0.56 
IK3                .Ом·м                                   : È0.20È0.8 
IK4                .Ом·м                                   : È0.28È1.12 
IK5                .Ом·м                                   : È0.40È1.60 
LLS                .Ом·м                                   : БК 
MBK                .Ом·м                                   : БМК 
MINV               .Ом·м                                   : МГЗ 
MNOR               .Ом·м                                   : МПЗ 
NNKTb              .у.е.                                   : ННКб.з. 
NNKTm              .у.е.                                   : ННКм.з. 
NPHI               .V/V                                    : Neutron porosity index 
OGZ                .Ом·м                                   : N0.5M2.0A 
PHIE               .v/v                                    : Описание 
PHIED              .v/v                                    :  
PHIEN              .v/v                                    :  
PHIES              .v/v                                    :  
PHIT               .v/v                                    : Описание 
PRMB               .mD                                     :  
PRMB_DGR           .mD                                     :  
RHOB               .г/см3                                  : ГГКП 
RT                 .ohmm                                   : Description 
SOIL_ARCHIE        .v/v                                    :  
SOIL_DW            .v/v                                    :  
SP                 .mv                                     : ПС 
VSH_FIN            .v/v                                    : Описание 
VSH_GR             .v/v                                    : Shale volume 
VSH_SP             .v/v                                    : Shale Volume 
~Ascii
# ...
970.4      0.22482    1          3          275.9228   4.508849   1.86       2.907      1.9849     1.7709     1.6808     1.7145     1.92       2.3        2.4        2.56       3.057251   1.63       -9999      2.22       0.2367135  0.2627518  -9999      0.2106751  0.2490715  67.86812   659.9854   2.231205   1.7145     0.3909342  0.4220108  471.093    0.07883205 0.04579355 0.1118705 
970.5      0.22435    1          3          273.9604   4.539833   1.87       2.7587     1.8895     1.7114     1.67       1.7309     1.95       2.3        2.34       2.54       3.112956   1.62       -9999      2.33       0.2320136  0.2563536  -9999      0.2076735  0.2443875  55.54078   630.8348   2.241889   1.7309     0.3829652  0.4134593  470.6786   0.07893303 0.04664609 0.11122   
970.6      0.2233     1          3          271.22     4.574734   1.96       2.7546     1.8848     1.7124     1.711      1.7828     2.01       2.46       2.3        2.73       3.170797   1.61       -9999      2.46       0.22645    0.2493143  -9999      0.2035858  0.2387583  43.80886   599.538    2.253645   1.7828     0.3784595  0.4081866  470.2652   0.07851408 0.04762544 0.1094027 
970.7000000000001 0.22402    1          3          267.7421   4.608247   2.03       2.8454     2.0105     1.8101     1.8297     1.9019     2.13       2.63       2.47       2.89       3.229905   1.62       -9999      2.51       0.2200503  0.2419197  -9999      0.1981809  0.2323215  33.34447   570.948    2.265994   1.9019     0.3817931  0.4108008  469.8904   0.07827742 0.04858519 0.1079697 
970.8      0.22222    1          3          263.715    4.63547    2.12       2.9499     2.1292     1.943      2.0015     2.0451     2.29       2.73       2.55       3.03       3.288459   1.64       -9999      2.65       0.2130878  0.2345143  -9999      0.1916612  0.2253564  24.77767   548.7305   2.278361   2.0451     0.3855296  0.4138089  469.5844   0.07826121 0.04937902 0.1071434 
970.9      0.22273    1          3          259.4668   4.652527   2.3        3.281      2.3983     2.196      2.1999     2.2138     2.5        3.25       2.58       3.29       3.343092   1.67       -9999      2.73       0.2060359  0.2274821  -9999      0.1845897  0.218289   18.34182   535.2528   2.290105   2.2138     0.3903555  0.4178958  469.3651   0.07816213 0.049883   0.1064413 
971        0.22234    6          6          255.3952   4.657415   2.44       3.8403     2.7642     2.5556     2.4495     2.4108     2.8        3.85       2.76       3.51       3.389064   1.69       -9999      2.76       0.1993104  0.2212103  -9999      0.1774104  0.2116385  13.76796   531.4521   2.300579   2.4108     0.3970848  0.4240998  469.2427   0.0786412  0.05002836 0.107254  
971.1      0.22493    6          6          251.8901   4.649947   2.46       4.133      3.0982     2.6938     2.6439     2.5986     3.02       3.94       2.89       3.65       3.421228   1.69       -9999      2.76       0.1935328  0.2161028  -9999      0.1709627  0.2059683  10.76106   537.2704   2.309108   2.5986     0.4028339  0.4294742  469.2136   0.07932594 0.04980642 0.1088455 
971.2000000000001 0.22378    6          6          249.2591   4.632072   2.53       4.1068     3.0982     2.7341     2.6477     2.6582     2.96       3.78       2.86       3.52       3.435159   1.68       -9999      2.7        0.1894281  0.2125503  -9999      0.1663059  0.2017951  9.032861   551.4562   2.315041   2.6582     0.3980193  0.4240004  469.2719   0.07888906 0.04927922 0.1084989 
971.3      0.22561    6          6          247.7184   4.607782   2.66       3.8471     2.9766     2.6195     2.5979     2.67       2.85       3.7        2.71       3.28       3.428312   1.66       -9999      2.64       0.1873385  0.2109313  -9999      0.1637457  0.1995583  8.262703   571.3355   2.317745   2.67       0.3934377  0.4188462  469.408    0.07794952 0.04857173 0.1073273 
971.4      0.22656    6          6          247.3943   4.582658   2.76       3.661      2.9062     2.6233     2.6036     2.6582     2.83       4.21       2.48       3.2        3.400518   1.64       -9999      2.6        0.18736    0.2115476  -9999      0.1631723  0.1995639  8.270258   592.6517   2.316715   2.6582     0.3922362  0.4175959  469.608    0.07784888 0.04785063 0.1078471 
971.5      0.22735    6          6          248.3647   4.563062   2.79       3.8269     3.1229     2.7443     2.6831     2.6878     2.93       5.3        2.45       3.34       3.353956   1.64       -9999      2.59       0.1898079  0.214577   -9999      0.1650387  0.201982   9.180369   609.8282   2.311656   2.6878     0.4021832  0.4279765  469.8537   0.07765873 0.04729563 0.1080218 
971.6      0.22766    6          6          250.6743   4.555131   2.87       4.1255     3.3535     2.9821     2.7956     2.7361     3.05       6.21       2.66       3.55       3.292573   1.64       -9999      2.54       0.194576   0.2199963  -9999      0.1691556  0.2068136  11.25063   616.9201   2.302606   2.7361     0.4198319  0.4465726  470.1216   0.07806412 0.04707287 0.1090554 
971.7000000000001 0.22777    6          6          254.3138   4.5632     2.86       4.2406     3.4696     3.0625     2.8231     2.6838     3.02       5.54       2.53       3.52       3.221586   1.62       -9999      2.34       0.2014122  0.2275272  -9999      0.1752972  0.2138447  15.05917   609.7048   2.29003    2.6838     0.4318987  0.4598349  470.3824   0.07930639 0.04729954 0.1113132 
971.8      0.22762    6          6          259.1516   4.587857   2.83       4.0114     3.2801     2.887      2.7171     2.5986     2.76       4.22       2.68       3.31       3.147116   1.6        -9999      2.27       0.2100171  0.2366028  -9999      0.1834313  0.2225812  21.73622   588.176    2.274873   2.5986     0.44387    0.4730056  470.6044   0.08014636 0.04799898 0.1122937 
971.9      0.22674    6          6          264.8815   4.625548   2.76       3.7605     2.9999     2.6426     2.5077     2.4142     2.47       3.62       2.73       3.04       3.075947   1.58       -9999      2.11       0.2197036  0.2464186  -9999      0.1929886  0.2322636  32.85496   556.7267   2.258481   2.4142     0.4464951  0.4766089  470.7643   0.08012056 0.04908819 0.1111529 
972        0.22687    6          6          271        4.669469   2.66       3.5684     2.7518     2.4364     2.3358     2.2623     2.28       3.38       2.52       2.85       3.014973   1.57       -9999      2.05       0.2292331  0.2560489  -9999      0.2024174  0.2419544  49.33011   522.1934   2.242398   2.2623     0.4500732  0.4813328  470.8498   0.08114858 0.05038868 0.1119085 
972.1      0.22768    6          6          276.8733   4.711473   2.47       3.3571     2.5885     2.2515     2.1634     2.1144     2.16       3.23       2.37       2.72       2.97009    1.56       -9999      1.95       0.2379686  0.264619   -9999      0.2113182  0.2507168  71.60012   491.1735   2.228086   2.1144     0.450538   0.4826572  470.8602   0.08132069 0.05166462 0.1109768 
972.2000000000001 0.22694    1          3          281.8532   4.744491   2.27       3.1868     2.4582     2.0411     1.9951     1.9703     2.06       3.19       2.3        2.56       2.944873   1.56       -9999      1.82       0.24499    0.2714963  -9999      0.2184836  0.2578056  96.59764   468.0894   2.216601   1.9703     0.4462371  0.4790781  470.8062   0.081751   0.0526902  0.1108118 
972.3      0.22638    1          3          285.4353   4.765097   2.18       3.0722     2.2252     1.9357     1.9181     1.8644     2          3.11       2.2        2.49       2.939635   1.56       -9999      1.8        0.2499366  0.2764449  -9999      0.2234282  0.2628268  119.286    454.2354   2.208337   1.8644     0.4415017  0.4748775  470.7068   0.08222654 0.05334058 0.1111125 
972.4      0.22596    1          3          287.3786   4.774187   2.1        3.0148     2.1363     1.8506     1.8466     1.8381     1.96       3.15       2.11       2.47       2.951251   1.58       -9999      1.78       0.2529292  0.2796698  -9999      0.2261886  0.2657943  135.5254   448.2556   2.202951   1.8381     0.4435642  0.4771911  470.5811   0.08206662 0.05363    0.1105032 
