~Version
 VERS              .         2.0                           : CWLS LOG ASCII STANDARD - VERSION 2.0
 WRAP              .         NO                            : ONE LINE PER DEPTH STEP
 DLM               .         SPACE                         : DELIMITING CHARACTER(SPACE TAB OR COMMA)
~Well Information
#_______________________________________________________________________________
#
#PARAMETER_NAME    .UNIT     VALUE                         : DESCRIPTION
#_______________________________________________________________________________
STRT               .M        920                           : First reference value
STOP               .M        1182.8                        : Last reference value
STEP               .M        0.1                           : Step increment
NULL               .         -9999                         : Missing value
COMP               .                                       : Company
WELL               .         6316                          : Well name
FLD                .         Узень                         : Field
LOC                .                                       : Location
CNTY               .                                       : County
STAT               .                                       : State
CTRY               .                                       : Country
SRVC               .         AO "UPGF"                     : Service Company
DATE               .         23/09/2019                    : Date
API                .                                       : API number
Block              .         3а                            : 
Category           .                                       : 
Condition          .                                       : 
Date               .         23.09.2019г.                  : 
EREF               .         235.63                        : 
GRP                .                                       : Group name
Gorizont           .         13                            : 
ISS                .                                       : Well surveys
Interpretator      .         Алпанова Н.К.                 : 
Kupol              .                                       : 
Mud                .         полимерный                    : 
Mud_density        .         1.34                          : 
Mud_resistivity    .         0.38                          : 
NGDU               .         НГДУ-1                        : 
TIME               .                                       : LOG TIME
Viscosity          .         45                            : 
YEAR               .         2019                          : 
~Parameter Information Block
#_______________________________________________________________________________
#
#PARAMETER_NAME    .UNIT     VALUE                         : DESCRIPTION
#_______________________________________________________________________________
SET                .         LQC_KAZNIPI_Petrel            : 
TLFamily_CALI      .         Caliper                       : 
TLFamily_COLL      .         Net Reservoir Flag            : 
TLFamily_CSAT      .         Fluid Code                    : 
TLFamily_DEPT      .         Measured Depth                : 
TLFamily_DT        .         Compressional Slowness        : 
TLFamily_GR        .         Russian Gamma Ray             : 
TLFamily_GZ3       .         Gradient 225                  : 
TLFamily_IK1       .         Resistivity 05                : 
TLFamily_IK2       .         Resistivity 07                : 
TLFamily_IK3       .         Resistivity 10                : 
TLFamily_IK4       .         Resistivity 14                : 
TLFamily_IK5       .         Resistivity 20                : 
TLFamily_LLS       .         Lateral Log Resistivity       : 
TLFamily_MBK       .         Micro Lateral Log Resistivity : 
TLFamily_MINV      .         Micro Gradient Resistivity    : 
TLFamily_MNOR      .         Micro Resistivity             : 
TLFamily_NNKTb     .         Neutron Far                   : 
TLFamily_NNKTm     .         Neutron Near                  : 
TLFamily_NPHI      .         Neutron Porosity              : 
TLFamily_OGZ       .         Gradient Inverted 225         : 
TLFamily_PHIE      .         Effective Porosity            : 
TLFamily_PHIED     .         Effective Porosity            : 
TLFamily_PHIEN     .         Effective Porosity            : 
TLFamily_PHIES     .         Effective Porosity            : 
TLFamily_PHIT      .         Porosity                      : 
TLFamily_PRMB      .         Permeability                  : 
TLFamily_PRMB_DGR  .         Permeability                  : 
TLFamily_RHOB      .         Bulk Density                  : 
TLFamily_RT        .         Formation Resistivity         : 
TLFamily_SOIL_ARCHIE .         Oil Saturation                : 
TLFamily_SOIL_DW   .         Oil Saturation                : 
TLFamily_SP        .         Spontaneous Potential         : 
TLFamily_VSH_FIN   .         Shale Volume                  : 
TLFamily_VSH_GR    .         Shale Volume                  : 
TLFamily_VSH_SP    .         Shale Volume                  : 
~Curve Information
#_______________________________________________________________________________
#
#LOGNAME           .UNIT     LOG_ID                        : DESCRIPTION
#_______________________________________________________________________________
DEPT               .M                                      : Depth curve 
CALI               .м                                      : Кавернометрия 
COLL               .unitless                               : Описание 
CSAT               .unitless                               : Описание 
DT                 .мкс/м                                  : 1 ДельтаТ - Волна по породе 
GR                 .мкР/ч                                  : ГК 
GZ3                .Ом·м                                   : A2.0M0.5N 
IK1                .Ом·м                                   : È0.10È0.40 
IK2                .Ом·м                                   : È0.14È0.56 
IK3                .Ом·м                                   : È0.20È0.8 
IK4                .Ом·м                                   : È0.28È1.12 
IK5                .Ом·м                                   : È0.40È1.60 
LLS                .Ом·м                                   : БК 
MBK                .Ом·м                                   : БМК 
MINV               .Ом·м                                   : МГЗ 
MNOR               .Ом·м                                   : МПЗ 
NNKTb              .у.е.                                   : ННКб.з. 
NNKTm              .у.е.                                   : ННКм.з. 
NPHI               .V/V                                    : Neutron porosity index 
OGZ                .Ом·м                                   : N0.5M2.0A 
PHIE               .v/v                                    : Описание 
PHIED              .v/v                                    :  
PHIEN              .v/v                                    :  
PHIES              .v/v                                    :  
PHIT               .v/v                                    : Описание 
PRMB               .mD                                     :  
PRMB_DGR           .mD                                     :  
RHOB               .г/см3                                  : ГГКП 
RT                 .ohmm                                   : Description 
SOIL_ARCHIE        .v/v                                    :  
SOIL_DW            .v/v                                    :  
SP                 .mv                                     : ПС 
VSH_FIN            .v/v                                    : Описание 
VSH_GR             .v/v                                    : Shale volume 
VSH_SP             .v/v                                    : Shale Volume 
~Ascii
# ...
989.3      0.22756    1          3          282.4072   4.750858   1.35       2.7402     1.8308     1.5117     1.4016     1.396      1.75       2.77       2.2        2.59       3.051316   1.68       -9999      2.57       0.2438068  0.2679003  -9999      0.2197132  0.2564058  91.84407   463.7642   2.222606   1.396      0.3462995  0.3779182  469.0055   0.08036872 0.05289031 0.1078471 
989.4      0.23331    1          3          278.3276   4.757197   1.4        2.8325     1.8364     1.5647     1.4277     1.443      1.78       2.72       2.12       2.63       3.041784   1.66       -9999      2.63       0.2385731  0.2634672  -9999      0.2136791  0.2512203  73.47026   459.4973   2.23001    1.443      0.3440987  0.3751612  469.0959   0.08067641 0.0530903  0.1082625 
989.5      0.23475    1          3          274.2906   4.768998   1.41       2.809      1.8638     1.5603     1.4418     1.4549     1.79       2.82       2.12       2.52       3.044437   1.65       -9999      2.65       0.2333692  0.2591458  -9999      0.2075925  0.246035   58.84663   451.6596   2.237226   1.4549     0.3339502  0.3642784  469.2392   0.08079506 0.05346458 0.1081255 
989.6      0.23576    1          3          270.3246   4.785592   1.4        2.7546     1.8836     1.5514     1.4585     1.467      1.79       2.88       1.92       2.42       3.061085   1.64       -9999      2.76       0.2280967  0.254822   -9999      0.2013714  0.2408135  46.99617   440.8632   2.244447   1.467      0.3231966  0.3527873  469.4166   0.08112042 0.0539954  0.1082455 
989.7000000000001 0.23438    1          3          266.4486   4.805019   1.39       2.79       1.9327     1.5612     1.4739     1.4735     1.81       2.93       1.85       2.46       3.090551   1.65       -9999      2.88       0.2227433  0.2505316  -9999      0.1949551  0.2355903  37.40287   428.5515   2.251612   1.4735     0.3104832  0.33938    469.6098   0.0819505  0.05462351 0.1092775 
989.8      0.2321     1          3          262.6926   4.823719   1.41       2.7816     1.9266     1.5737     1.492      1.4817     1.85       2.99       1.8        2.39       3.128526   1.67       -9999      2.98       0.2175547  0.2464283  -9999      0.1886812  0.2304692  29.9778    417.0255   2.258465   1.4817     0.2980131  0.3261092  469.8048   0.08238081 0.05523501 0.1095266 
989.9      0.22665    1          3          259.1276   4.837168   1.43       2.8411     1.899      1.6366     1.5457     1.5297     1.91       3.12       1.56       2.2        3.168332   1.69       -9999      3.07       0.2126901  0.2427184  -9999      0.1826617  0.2256185  24.36093   408.9276   2.26466    1.5297     0.294681   0.3221149  469.9936   0.08247042 0.05567905 0.1092618 
990        0.22548    1          3          255.8448   4.840947   1.48       3.1163     2.0512     1.7124     1.6135     1.6037     1.99       3.03       1.43       2.25       3.202419   1.71       -9999      3.21       0.2081976  0.2395992  -9999      0.1767961  0.2212265  20.1133    406.6811   2.269869   1.6037     0.2971985  0.3243036  470.1683   0.08311106 0.05580444 0.1104177 
990.1      0.22444    1          3          252.943    4.831516   1.52       3.2491     2.1433     1.7947     1.6808     1.6616     2.06       3.22       1.82       2.62       3.22414    1.73       -9999      3.39       0.204468   0.2372093  -9999      0.1717267  0.2174668  17.15543   412.3113   2.27386    1.6616     0.2978307  0.3244317  470.3227   0.08291896 0.05549202 0.1103459 
990.2000000000001 0.22389    1          3          250.505    4.807738   1.55       3.2517     2.1954     1.8667     1.764      1.733      2.13       2.79       2.07       2.76       3.229436   1.73       -9999      3.48       0.2015935  0.2356066  -9999      0.1675804  0.2144645  15.17606   426.8558   2.276537   1.733      0.3030161  0.3291604  470.4498   0.08210389 0.05471201 0.1094958 
990.3      0.2237     1          3          248.5907   4.771941   1.56       3.2917     2.2803     1.9235     1.8285     1.7795     2.15       2.95       2.02       2.66       3.217978   1.73       -9999      3.69       0.1994088  0.2347597  -9999      0.1640579  0.2122827  13.8259    449.7254   2.277951   1.7795     0.3050589  0.3309858  470.5416   0.08212245 0.05355836 0.1106865 
990.4      0.22499    1          3          247.2455   4.730091   1.55       3.3187     2.2896     1.8748     1.8118     1.8123     2.1        3.19       1.99       2.5        3.193456   1.72       -9999      3.75       0.1980629  0.2345407  -9999      0.1615851  0.2109213  13.05461   478.0207   2.278317   1.8123     0.3069136  0.3326912  470.5913   0.08202375 0.05224043 0.1118071 
990.5      0.2236     1          3          246.5058   4.690516   1.55       3.257      2.2494     1.8212     1.8041     1.8134     2.05       3.15       1.97       2.35       3.162972   1.72       -9999      3.86       0.1976293  0.2347108  -9999      0.1605478  0.2103122  12.8154    506.4131   2.278033   1.8134     0.305787   0.3311634  470.5962   0.08090405 0.05102401 0.1107841 
990.6      0.22418    1          3          246.4001   4.661518   1.55       3.3079     2.2494     1.8506     1.814      1.8046     2.05       3.49       1.98       2.41       3.135641   1.71       -9999      3.88       0.19771    0.2349411  -9999      0.160479   0.2103277  12.8596    528.2823   2.277648   1.8046     0.3044479  0.3296808  470.5576   0.08048818 0.05015072 0.1108256 
990.7000000000001 0.22332    1          3          246.9322   4.648234   1.55       3.4502     2.3245     1.9357     1.8466     1.8313     2.12       4.65       1.95       2.53       3.120645   1.7        -9999      4.04       0.1981963  0.2348513  -9999      0.1615414  0.2107831  13.1291    538.6139   2.277798   1.8313     0.3107017  0.3361069  470.4823   0.08029065 0.04975566 0.1108256 
990.8      0.22295    1          3          248.0303   4.651812   1.51       3.4273     2.3635     1.9554     1.8872     1.8655     2.17       4.22       1.98       2.63       3.125345   1.68       -9999      4.14       0.1989111  0.234088   -9999      0.1637342  0.211427   13.53551   535.8117   2.279073   1.8655     0.3188     0.3443794  470.3841   0.07983886 0.04986175 0.109816  
990.9      0.22328    1          3          249.5264   4.669629   1.49       3.2783     2.3133     1.9804     1.8919     1.8517     2.17       3.73       2.05       2.65       3.154027   1.67       -9999      4.22       0.1994485  0.2323914  -9999      0.1665056  0.2119614  13.84931   522.0722   2.281906   1.8517     0.3180268  0.3436491  470.2782   0.07981974 0.05039345 0.109246  
991        0.2237     1          3          251.1336   4.697255   1.49       3.1188     2.2725     1.9691     1.8708     1.8494     2.13       3.57       2.01       2.4        3.207427   1.67       -9999      4.37       0.1994401  0.2296537  -9999      0.1692265  0.2120597  13.84435   501.4621   2.286478   1.8494     0.3176039  0.3434023  470.1801   0.08049993 0.05122912 0.1097707 
991.1      0.22406    1          3          252.4984   4.730193   1.48       3.2074     2.3883     1.9944     1.8581     1.8324     2.09       3.3        2.12       2.46       3.282817   1.69       -9999      4.55       0.1986935  0.225943   -9999      0.1714441  0.2114354  13.41048   477.9493   2.292675   1.8324     0.312398   0.3381872  470.1059   0.08128034 0.05224362 0.1103171 
991.2000000000001 0.22576    1          3          253.2706   4.765293   1.45       3.3106     2.4687     2.0008     1.8376     1.8079     2.04       3          2.09       2.56       3.374673   1.72       -9999      4.93       0.1971657  0.221456   -9999      0.1728754  0.2098826  12.56451   454.106    2.300169   1.8079     0.3033733  0.3286878  470.073    0.08112051 0.05334679 0.1088942 
991.3      0.22623    1          3          253.2073   4.800555   1.45       3.1362     2.3293     1.9067     1.7931     1.8179     1.99       2.41       2.21       2.43       3.475514   1.74       -9999      5.52       0.1945339  0.2164389  -9999      0.1726288  0.2073176  11.23045   431.3499   2.308547   1.8179     0.2969941  0.3219203  470.0962   0.08154698 0.05447853 0.1086154 
