~Version
 VERS              .         2.0                           : CWLS LOG ASCII STANDARD - VERSION 2.0
 WRAP              .         NO                            : ONE LINE PER DEPTH STEP
 DLM               .         SPACE                         : DELIMITING CHARACTER(SPACE TAB OR COMMA)
~Well Information
#_______________________________________________________________________________
#
#PARAMETER_NAME    .UNIT     VALUE                         : DESCRIPTION
#_______________________________________________________________________________
STRT               .м        900                           : First reference value
STOP               .м        1384                          : Last reference value
STEP               .м        0.1                           : Step increment
NULL               .         -9999                         : Missing value
COMP               .                                       : Company
WELL               .         9402                          : Well name
FLD                .         УЗЕНЬ                         : Field
LOC                .                                       : Location
PROV               .                                       : Province
SRVC               .         SCH                           : Service Company
DATE               .         03.06.2009                    : Date
UWI                .                                       : Unique Well ID
Block              .         3а                            : 
Cartographic_reference_system .         GCS_WGS_1984                  : ESRI,PE_10_3_1- <?xml version="1.0" encoding="utf-16"?><ILateBoundCoordinateReferenceSystem name="GCS_WGS_1984"><AuthorityCode>EPSG,4326</AuthorityCode></ILateBoundCoordinateReferenceSystem>
Category           .         Нефтяная                      : 
Condition          .         В работе                      : 
CTRY               .                                       : Название страны
Date               .         14.10.1996                    : 
EREF               .m        233.8                         : 100.8
FILE               .                                       : 
Gorizont           .         17                            : 14
HZCS               .GCS_WGS_1984 WGS_1984_EASE-Grid_2.0_Global : ESRI,PE_10_3_1- <?xml version="1.0" encoding="utf-16"?><ILateBoundCoordinateReferenceSystem name="WGS_1984_EASE-Grid_2.0_Global"><AuthorityCode>EPSG,6933</AuthorityCode></ILateBoundCoordinateReferenceSystem>
Interpretator      .         Чиндаулова Г.К.               : 
Kupol              .         основной                      : osnovnoi
LATI               .dega     0.6319825406                  : GCS_WGS_1984
LONG               .dega     0.5715589808                  : GCS_WGS_1984
Mud                .         0                             : 
Mud_density        .         0                             : 
Mud_resistivity    .         0                             : 
NGDU               .         НГДУ-1                        : 
ORIGINALWELLNAME   .         9402                          : 
Spud_date          .         1996                          : 1961
TAPE               .                                       : 
Viscosity          .         0                             : 
X                  .m        55147.6                       : 46154
Y                  .m        80622.5                       : 85761.93
YEAR               .         2018                          : 
Исправлено         .         17                            : 
~Parameter Information Block
#_______________________________________________________________________________
#
#PARAMETER_NAME    .UNIT     VALUE                         : DESCRIPTION
#_______________________________________________________________________________
SET                .         LQC_KAZNIPI_Petrel            : 
PBBOTTOM           .м        1384                          : Глубина подошвы планшета
PBSCALE            .         1 _ 500                       : Вертикальный масштаб планшета
PBTOP              .м        900                           : Глубина кровли планшета
TLFamily_CALI      .         Caliper                       : 
TLFamily_CILD      .         Conductivity                  : 
TLFamily_COLL      .         Net Reservoir Flag            : 
TLFamily_CSAT      .         Fluid Code                    : 
TLFamily_DEPT      .         Measured Depth                : 
TLFamily_GR        .         Russian Gamma Ray             : 
TLFamily_LLS       .         Lateral Log Resistivity       : 
TLFamily_MINV      .         Micro Gradient Resistivity    : 
TLFamily_MNOR      .         Micro Resistivity             : 
TLFamily_NGLD      .         Neutron Far                   : 
TLFamily_PHIE      .         Effective Porosity            : 
TLFamily_PHIEN     .         Effective Porosity            : 
TLFamily_PHIT      .         Porosity                      : 
TLFamily_PRMB      .         Permeability                  : 
TLFamily_PRMB_DGR  .         Permeability                  : 
TLFamily_RT        .         Formation Resistivity         : 
TLFamily_SOIL_ARCHIE .         Oil Saturation                : 
TLFamily_SOIL_DW   .         Oil Saturation                : 
TLFamily_SP        .         Spontaneous Potential         : 
TLFamily_VSH_FIN   .         Shale Volume                  : 
TLFamily_VSH_GR    .         Shale Volume                  : 
TLFamily_VSH_SP    .         Shale Volume                  : 
~Curve Information
#_______________________________________________________________________________
#
#LOGNAME           .UNIT     LOG_ID                        : DESCRIPTION
#_______________________________________________________________________________
DEPT               .м                                      : Колонка глубины 
CALI               .м                                      : Каверномер 
CILD               .MS/M                                   : 4  CILD 
COLL               .unitless                               : Описание 
CSAT               .unitless                               : Описание 
GR                 .uR/h                                   : Гамма каротаж 
LLS                .Ohmm                                   : Боковой каротаж 
MINV               .Ohmm                                   : Микро-градиент зонд 
MNOR               .Ohmm                                   : Микро-потенциал зонд 
NGLD               .у.е.                                   : Показания зонда НГК-60 аппаратуры ДРСТ-3-90 
PHIE               .v/v                                    : Описание 
PHIEN              .v/v                                    :  
PHIT               .v/v                                    : Описание 
PRMB               .mD                                     :  
PRMB_DGR           .mD                                     :  
RT                 .ohmm                                   : УЭС пласта 
SOIL_ARCHIE        .v/v                                    :  
SOIL_DW            .v/v                                    :  
SP                 .mv                                     : Потенциал самополяризации 
VSH_FIN            .v/v                                    : Описание 
VSH_GR             .v/v                                    : Shale volume 
VSH_SP             .v/v                                    : Shale Volume 
~Ascii
# ...
1269.8     0.218      320.0944799999998 -9999      -9999      5.994      2.201      3.523      2.673      1.35       0.1490022  0.1490022  0.28375    1.610795   5.778109   2.201      0.2408789  0.4277802  33.033     0.4083267  0.3169944  0.499659  
1269.9     0.22       327.7504300000001 -9999      -9999      5.94       2.205      3.651      2.67       1.349      0.1480454  0.1480454  0.284025   1.546388   6.305321   2.205      0.2309478  0.4226226  33.572     0.4120593  0.3058912  0.5182275 
1270       0.221      335.4032899999999 -9999      -9999      5.881      2.206      3.974      2.622      1.346      0.148461   0.148461   0.28485    1.574042   6.936495   2.206      0.2282293  0.4207315  33.976     0.4133     0.294204   0.532396  
1270.1     0.221      343.0171500000002 -9999      -9999      5.851      2.167      4.363      2.549      1.346      0.1479763  0.1479763  0.28485    1.541836   7.281277   2.167      0.2218461  0.4169555  34.226     0.4147688  0.2884337  0.541104  
1270.2     0.221      350.2399299999999 -9999      -9999      5.838      2.11       4.791      2.528      1.353      0.1452763  0.1452763  0.282925   1.374131   7.435957   2.11       0.2054862  0.4080791  34.432     0.4171171  0.2859685  0.5482657 
1270.3     0.22       358.36807  -9999      -9999      5.845      2.057      5.162      2.562      1.364      0.1413236  0.1413236  0.2799     1.160952   7.352266   2.057      0.182286   0.3957437  34.561     0.4199285  0.2872933  0.5525636 
1270.4     0.22       364.3161   -9999      -9999      5.882      2.02       5.453      2.637      1.371      0.1375504  0.1375504  0.277975   0.9883808  6.925288   2.02       0.1596868  0.3853509  34.684     0.4255292  0.2943983  0.5566601 
1270.5     0.221      369.1161500000001 -9999      -9999      5.946      2.007      5.494      2.72       1.371      0.134005   0.134005   0.277975   0.8496805  6.244444   2.007      0.1379003  0.3781367  34.927     0.4362727  0.3071055  0.5654399 
1270.6     0.221      373.33597  -9999      -9999      6.014      2.005      5.374      2.794      1.363      0.1320442  0.1320442  0.280175   0.7815158  5.594238   2.005      0.1256731  0.3772871  35.226     0.4488811  0.3212082  0.5765539 
1270.7     0.222      375.94281  -9999      -9999      6.084      2.016      5.093      2.809      1.358      0.1295514  0.1295514  0.28155    0.7026898  4.995548   2.016      0.1106509  0.3749175  35.449     0.4606019  0.3364026  0.5848011 
1270.8     0.222      376.7942199999999 -9999      -9999      6.145      2.045      4.743      2.78       1.351      0.1279917  0.1279917  0.283475   0.6574686  4.526329   2.045      0.1027259  0.3760835  35.646     0.4711615  0.3502282  0.5920948 
1270.9     0.222      381.06146  -9999      -9999      6.186      2.108      4.31       2.742      1.346      0.1268684  0.1268684  0.28485    0.6267132  4.235981   2.108      0.09791495 0.3775928  35.798     0.4787321  0.3598388  0.5976255 
1271       0.222      381.2229   -9999      -9999      6.191      2.192      3.869      2.736      1.344      0.1274042  0.1274042  0.2854     0.6411987  4.201869   2.192      0.1049753  0.381822   35.787     0.4787752  0.3610287  0.5965217 
1271.1     0.222      380.9160200000001 -9999      -9999      6.176      2.27       3.538      2.693      1.347      0.1280646  0.1280646  0.284575   0.6595166  4.305029   2.27       0.1127361  0.3843908  35.669     0.4742738  0.3574708  0.5910769 
1271.2     0.221      378.4919099999999 -9999      -9999      6.137      2.328      3.302      2.613      1.347      0.131241   0.131241   0.284575   0.755195   4.58526    2.328      0.135713   0.3923875  35.432     0.4646486  0.3483832  0.580914  
1271.3     0.221      374.12445  -9999      -9999      6.074      2.345      3.147      2.557      1.348      0.1351738  0.1351738  0.2843     0.8931096  5.076984   2.345      0.1615917  0.4008091  35.162     0.4518976  0.3341887  0.5696065 
1271.4     0.221      369.94708  -9999      -9999      5.982      2.31       3.088      2.508      1.354      0.1384552  0.1384552  0.28265    1.027271   5.891324   2.31       0.1827435  0.4062614  34.916     0.4369538  0.3144927  0.559415  
1271.5     0.22       367.1838399999999 -9999      -9999      5.891      2.247      3.185      2.474      1.367      0.1389394  0.1389394  0.279075   1.048703   6.825236   2.247      0.1879297  0.4043213  34.769     0.4246534  0.2961529  0.5531539 
1271.6     0.22       360.54825  -9999      -9999      5.814      2.215      3.423      2.815      1.385      0.1366827  0.1366827  0.274125   0.9524732  7.730198   2.215      0.1800711  0.3972654  34.742     0.4164919  0.2814727  0.551511  
1271.7     0.221      357.9838000000001 -9999      -9999      5.759      2.265      3.845      3.553      1.405      0.1321895  0.1321895  0.268625   0.7863739  8.449181   2.265      0.1607312  0.3864384  34.861     0.4134408  0.2714344  0.5554472 
1271.8     0.221      356.2732800000001 -9999      -9999      5.719      2.696      4.64       4.469      1.429      0.1256695  0.1256695  0.262025   0.595474   9.013733   2.696      0.1295787  0.3711601  35.048     0.4131984  0.2643594  0.5620373 
1271.9     0.222      354.60376  6          6          5.688      3.384      5.901      5.58       1.458      0.1175508  0.1175508  0.25405    0.4211959  9.47707    3.384      0.08626153 0.3508719  35.224     0.413634   0.2590034  0.5682645 
1272       0.222      350.35532  6          6          5.65       4.491      7.033      6.829      1.494      0.1084903  0.1084903  0.24415    0.2861951  10.07766   4.491      0          0.3242826  35.274     0.4110899  0.2525858  0.5695941 
1272.1     0.222      344.396    6          6          5.596      5.887      7.702      7.481      1.534      0.09935707 0.09935707 0.23315    0.1938617  10.99718   5.887      0          0.2922973  35.227     0.4054331  0.2437386  0.5671276 
1272.2     0.222      331.9042999999999 6          6          5.525      7.035      7.976      7.713      1.578      0.08969035 0.08969035 0.22105    0.1283633  12.33505   7.035      0          0.2524306  35.151     0.3980596  0.232576   0.5635431 
1272.3     0.223      320.6374799999999 6          6          5.44       7.519      8.312      8.03       1.626      0.07882824 0.07882824 0.20785    0.08076966 14.15247   7.519      0          0.197627   35.129     0.390975   0.2198827  0.5620673 
1272.4     0.223      306.1471300000001 6          6          5.348      7.361      8.129      8.138      1.663      0.07057421 0.07057421 0.197675   0.056802   16.42249   7.361      0          0.1495489  35.179     0.3851539  0.2069235  0.5633844 
1272.5     0.223      291.65781  6          6          5.244      6.679      7.785      7.892      1.679      0.06746212 0.06746212 0.193275   0.04974166 19.43002   6.679      0          0.1322742  35.347     0.3812511  0.1931913  0.5693109 
1272.6     0.223      278.02655  6          6          5.141      5.569      7.551      7.738      1.674      0.06942311 0.06942311 0.19465    0.05408072 22.95119   5.569      0          0.1496628  35.595     0.3794754  0.1804895  0.5784613 
1272.7     0.224      264.2064199999999 6          6          5.123      4.581      7.359      7.484      1.651      0.07444968 0.07444968 0.200975   0.0670111  23.629     4.581      0          0.1870076  35.861     0.38341    0.1783572  0.5884629 
1272.8     0.224      250.9623700000001 6          6          5.204      3.85       6.68       6.78       1.607      0.08350775 0.08350775 0.213075   0.09861071 20.72827   3.85       0          0.2445571  36.09      0.392628   0.1881557  0.5971003 
1272.9     0.225      242.4763299999999 6          6          5.336      3.387      6.056      5.915      1.559      0.09266914 0.09266914 0.226275   0.1457523  16.74427   3.387      0          0.293412   36.285     0.4048662  0.2052905  0.604442  
1273       0.226      237.54057  6          6          5.514      2.966      5.583      5.076      1.513      0.1002209  0.1002209  0.238925   0.2011369  12.55642   2.966      0          0.3288482  36.429     0.4203155  0.2308929  0.6097381 
