~Version
 VERS              .         2.0                           : CWLS LOG ASCII STANDARD - VERSION 2.0
 WRAP              .         NO                            : ONE LINE PER DEPTH STEP
 DLM               .         SPACE                         : DELIMITING CHARACTER(SPACE TAB OR COMMA)
~Well Information
#_______________________________________________________________________________
#
#PARAMETER_NAME    .UNIT     VALUE                         : DESCRIPTION
#_______________________________________________________________________________
STRT               .м        900                           : First reference value
STOP               .м        1384                          : Last reference value
STEP               .м        0.1                           : Step increment
NULL               .         -9999                         : Missing value
COMP               .                                       : Company
WELL               .         9402                          : Well name
FLD                .         УЗЕНЬ                         : Field
LOC                .                                       : Location
PROV               .                                       : Province
SRVC               .         SCH                           : Service Company
DATE               .         03.06.2009                    : Date
UWI                .                                       : Unique Well ID
Block              .         3а                            : 
Cartographic_reference_system .         GCS_WGS_1984                  : ESRI,PE_10_3_1- <?xml version="1.0" encoding="utf-16"?><ILateBoundCoordinateReferenceSystem name="GCS_WGS_1984"><AuthorityCode>EPSG,4326</AuthorityCode></ILateBoundCoordinateReferenceSystem>
Category           .         Нефтяная                      : 
Condition          .         В работе                      : 
CTRY               .                                       : Название страны
Date               .         14.10.1996                    : 
EREF               .m        233.8                         : 100.8
FILE               .                                       : 
Gorizont           .         17                            : 14
HZCS               .GCS_WGS_1984 WGS_1984_EASE-Grid_2.0_Global : ESRI,PE_10_3_1- <?xml version="1.0" encoding="utf-16"?><ILateBoundCoordinateReferenceSystem name="WGS_1984_EASE-Grid_2.0_Global"><AuthorityCode>EPSG,6933</AuthorityCode></ILateBoundCoordinateReferenceSystem>
Interpretator      .         Чиндаулова Г.К.               : 
Kupol              .         основной                      : osnovnoi
LATI               .dega     0.6319825406                  : GCS_WGS_1984
LONG               .dega     0.5715589808                  : GCS_WGS_1984
Mud                .         0                             : 
Mud_density        .         0                             : 
Mud_resistivity    .         0                             : 
NGDU               .         НГДУ-1                        : 
ORIGINALWELLNAME   .         9402                          : 
Spud_date          .         1996                          : 1961
TAPE               .                                       : 
Viscosity          .         0                             : 
X                  .m        55147.6                       : 46154
Y                  .m        80622.5                       : 85761.93
YEAR               .         2018                          : 
Исправлено         .         17                            : 
~Parameter Information Block
#_______________________________________________________________________________
#
#PARAMETER_NAME    .UNIT     VALUE                         : DESCRIPTION
#_______________________________________________________________________________
SET                .         LQC_KAZNIPI_Petrel            : 
PBBOTTOM           .м        1384                          : Глубина подошвы планшета
PBSCALE            .         1 _ 500                       : Вертикальный масштаб планшета
PBTOP              .м        900                           : Глубина кровли планшета
TLFamily_CALI      .         Caliper                       : 
TLFamily_CILD      .         Conductivity                  : 
TLFamily_COLL      .         Net Reservoir Flag            : 
TLFamily_CSAT      .         Fluid Code                    : 
TLFamily_DEPT      .         Measured Depth                : 
TLFamily_GR        .         Russian Gamma Ray             : 
TLFamily_LLS       .         Lateral Log Resistivity       : 
TLFamily_MINV      .         Micro Gradient Resistivity    : 
TLFamily_MNOR      .         Micro Resistivity             : 
TLFamily_NGLD      .         Neutron Far                   : 
TLFamily_PHIE      .         Effective Porosity            : 
TLFamily_PHIEN     .         Effective Porosity            : 
TLFamily_PHIT      .         Porosity                      : 
TLFamily_PRMB      .         Permeability                  : 
TLFamily_PRMB_DGR  .         Permeability                  : 
TLFamily_RT        .         Formation Resistivity         : 
TLFamily_SOIL_ARCHIE .         Oil Saturation                : 
TLFamily_SOIL_DW   .         Oil Saturation                : 
TLFamily_SP        .         Spontaneous Potential         : 
TLFamily_VSH_FIN   .         Shale Volume                  : 
TLFamily_VSH_GR    .         Shale Volume                  : 
TLFamily_VSH_SP    .         Shale Volume                  : 
~Curve Information
#_______________________________________________________________________________
#
#LOGNAME           .UNIT     LOG_ID                        : DESCRIPTION
#_______________________________________________________________________________
DEPT               .м                                      : Колонка глубины 
CALI               .м                                      : Каверномер 
CILD               .MS/M                                   : 4  CILD 
COLL               .unitless                               : Описание 
CSAT               .unitless                               : Описание 
GR                 .uR/h                                   : Гамма каротаж 
LLS                .Ohmm                                   : Боковой каротаж 
MINV               .Ohmm                                   : Микро-градиент зонд 
MNOR               .Ohmm                                   : Микро-потенциал зонд 
NGLD               .у.е.                                   : Показания зонда НГК-60 аппаратуры ДРСТ-3-90 
PHIE               .v/v                                    : Описание 
PHIEN              .v/v                                    :  
PHIT               .v/v                                    : Описание 
PRMB               .mD                                     :  
PRMB_DGR           .mD                                     :  
RT                 .ohmm                                   : УЭС пласта 
SOIL_ARCHIE        .v/v                                    :  
SOIL_DW            .v/v                                    :  
SP                 .mv                                     : Потенциал самополяризации 
VSH_FIN            .v/v                                    : Описание 
VSH_GR             .v/v                                    : Shale volume 
VSH_SP             .v/v                                    : Shale Volume 
~Ascii
# ...
986.5      -9999      439.3948448744322 1          3          1.196      1.644      2.479      2.098      1.367      0.254862   0.254862   0.279075   147.1702   2494.05    1.747      0.382912   0.746632   9.748      0.07337286 0.02660998 0.1201357 
986.6      -9999      441.9509948796934 1          3          1.189      1.651      2.461      2.086      1.351      0.2593341  0.2593341  0.283475   178.0959   2532.486   1.743      0.386924   0.75049    9.578      0.07315443 0.02644432 0.1198645 
986.7000000000001 -9999      444.5069847062482 1          3          1.179      1.66       2.438      2.086      1.337      0.2632676  0.2632676  0.287325   210.6262   2588.425   1.741      0.390461   0.7538779  9.404      0.07290129 0.02620945 0.1195931 
986.8      -9999      445.3546838477331 1          3          1.172      1.645      2.425      2.076      1.326      0.2663503  0.2663503  0.29035    240.2218   2628.315   1.74       0.393206   0.7565097  9.282      0.07272631 0.02604629 0.1194063 
986.9      -9999      444.4939938595949 1          3          1.172      1.623      2.422      2.065      1.318      0.2685715  0.2685715  0.29255    264.0914   2628.315   1.741      0.395275   0.7584985  9.197      0.07266206 0.02604629 0.1192778 
987        -9999      443.6335093599954 1          3          1.183      1.605      2.42       2.062      1.313      0.2699091  0.2699091  0.293925   279.5952   2565.903   1.742      0.396535   0.7597296  9.177      0.07277546 0.02630315 0.1192478 
987.1      -9999      443.6270238624374 1          3          1.19       1.594      2.424      2.06       1.31       0.2706995  0.2706995  0.29475    289.1805   2526.959   1.743      0.397304   0.7604849  9.207      0.0728804  0.02646792 0.1192929 
987.2000000000001 -9999      442.7665693559956 1          3          1.186      1.59       2.429      2.058      1.307      0.2715228  0.2715228  0.295575   299.5152   2549.14    1.742      0.397951   0.7611128  9.276      0.07288543 0.02637364 0.1193972 
987.3      -9999      442.7602147029348 1          3          1.173      1.593      2.418      2.056      1.306      0.2718263  0.2718263  0.29585    303.4178   2622.579   1.74       0.398069   0.7612194  9.362      0.07279902 0.02606953 0.1195285 
987.4      -9999      443.6080653135417 1          3          1.156      1.61       2.399      2.059      1.306      0.2718574  0.2718574  0.29585    303.82     2721.817   1.737      0.397876   0.7610264  9.494      0.07270496 0.02567715 0.1197328 
987.5      -9999      444.5623743164944 1          3          1.135      1.624      2.408      2.063      1.304      0.2724475  0.2724475  0.2964     311.564    2849.605   1.731      0.397948   0.7610927  9.642      0.07258324 0.02520057 0.1199659 
987.6      -9999      447.012199643579 1          3          1.118      1.626      2.445      2.073      1.301      0.2732943  0.2732943  0.297225   323.0212   2957.433   1.726      0.398314   0.7614484  9.796      0.07251734 0.02482126 0.1202134 
987.7000000000001 -9999      448.8123151483291 1          3          1.112      1.621      2.51       2.086      1.296      0.2746494  0.2746494  0.2986     342.241    2996.457   1.719      0.398965   0.7621019  9.95       0.07257747 0.02468876 0.1204662 
987.8      -9999      451.2704298828639 1          3          1.112      1.6        2.567      2.099      1.297      0.2743413  0.2743413  0.298325   337.7725   2996.457   1.713      0.398255   0.7614428  10.07      0.07267784 0.02468876 0.1206669 
987.9      -9999      452.9725449025138 1          3          1.116      1.569      2.608      2.102      1.302      0.2729338  0.2729338  0.29695    318.0936   2970.384   1.706      0.396509   0.7597862  10.134     0.07277621 0.02477702 0.1207754 
988        -9999      455.5287549134916 1          3          1.12       1.541      2.611      2.088      1.311      0.2704425  0.2704425  0.294475   286.0291   2944.539   1.699      0.393784   0.7571748  10.14      0.0728256  0.02486559 0.1207856 
988.1      -9999      458.0850349075197 1          3          1.127      1.522      2.575      2.06       1.321      0.2676812  0.2676812  0.291725   254.2509   2899.849   1.692      0.390763   0.7542748  10.089     0.07286019 0.02502136 0.120699  
988.2000000000001 -9999      460.6412231808205 1          3          1.13       1.51       2.5        2.025      1.332      0.2646731  0.2646731  0.2887     223.6378   2880.904   1.684      0.387374   0.7510054  9.988      0.07280889 0.02508841 0.1205294 
988.3      -9999      463.2805466602629 1          3          1.133      1.505      2.423      1.983      1.334      0.264152   0.264152   0.28815    218.7229   2862.083   1.678      0.386413   0.7500768  9.841      0.07272119 0.02515565 0.1202867 
988.4      -9999      465.7537349311095 1          3          1.13       1.501      2.357      1.935      1.329      0.265585   0.265585   0.289525   232.5071   2880.904   1.671      0.387192   0.7508215  9.665      0.07254549 0.02508841 0.1200026 
988.5      -9999      468.3099498944836 1          3          1.12       1.495      2.309      1.903      1.322      0.2675936  0.2675936  0.29145    253.3032   2944.539   1.664      0.388488   0.752056   9.485      0.07229216 0.02486559 0.1197187 
988.6      -9999      470.0120649314513 1          3          1.106      1.488      2.278      1.889      1.314      0.2698835  0.2698835  0.29365    279.2897   3035.995   1.658      0.390095   0.7535879  9.332      0.07201976 0.02455696 0.1194825 
988.7000000000001 -9999      472.5683049391652 1          3          1.093      1.485      2.262      1.886      1.308      0.2716143  0.2716143  0.2953     300.6859   3123.46    1.651      0.391096   0.7545395  9.196      0.07177506 0.0242738  0.1192763 
988.8      -9999      475.1245849478281 1          3          1.08       1.487      2.259      1.892      1.309      0.2714079  0.2714079  0.295025   298.0508   3213.445   1.645      0.390434   0.7538835  9.105      0.07156704 0.02399391 0.1191402 
988.9      -9999      477.6809149435244 1          3          1.066      1.491      2.256      1.906      1.317      0.2692651  0.2692651  0.292825   272.0199   3313.254   1.639      0.388015   0.7515279  9.072      0.07139363 0.02369609 0.1190912 
989        -9999      480.2370799110963 1          3          1.062      1.495      2.248      1.912      1.331      0.2654281  0.2654281  0.288975   230.9563   3342.336   1.633      0.383976   0.7476192  9.076      0.07135439 0.02361169 0.1190971 
989.1      -9999      481.9392060779864 1          3          1.072      1.498      2.237      1.909      1.346      0.2612596  0.2612596  0.28485    193.3387   3270.104   1.629      0.379671   0.7434702  9.111      0.07148619 0.02382327 0.1191491 
989.2000000000001 -9999      483.7031937425666 1          3          1.093      1.499      2.23       1.905      1.362      0.2567682  0.2567682  0.28045    159.635    3123.46    1.626      0.374998   0.7389817  9.18       0.07176304 0.0242738  0.1192523 
989.3      -9999      485.3433147100391 1          3          1.117      1.497      2.23       1.903      1.375      0.2530851  0.2530851  0.276875   136.4295   2963.902   1.623      0.371003   0.7351601  9.266      0.07209059 0.02479913 0.119382  
989.4      -9999      486.1910693649959 1          3          1.148      1.492      2.237      1.903      1.384      0.2504672  0.2504672  0.2744     122.0162   2769.808   1.62       0.368021   0.7323406  9.378      0.07252381 0.02549454 0.1195531 
989.5      -9999      486.1848047161567 1          3          1.175      1.487      2.248      1.9        1.391      0.2484027  0.2484027  0.272475   111.7324   2611.145   1.618      0.36566    0.7301219  9.522      0.07294631 0.02611609 0.1197765 
989.6      -9999      487.0327899122955 1          3          1.189      1.481      2.262      1.894      1.401      0.2455563  0.2455563  0.269725   98.95906   2532.486   1.614      0.362233   0.7268505  9.684      0.07323862 0.02644432 0.1200329 
