~Version
 VERS              .         2.0                           : CWLS LOG ASCII STANDARD - VERSION 2.0
 WRAP              .         NO                            : ONE LINE PER DEPTH STEP
 DLM               .         SPACE                         : DELIMITING CHARACTER(SPACE TAB OR COMMA)
~Well Information
#_______________________________________________________________________________
#
#PARAMETER_NAME    .UNIT     VALUE                         : DESCRIPTION
#_______________________________________________________________________________
STRT               .м        900                           : First reference value
STOP               .м        1384                          : Last reference value
STEP               .м        0.1                           : Step increment
NULL               .         -9999                         : Missing value
COMP               .                                       : Company
WELL               .         9402                          : Well name
FLD                .         УЗЕНЬ                         : Field
LOC                .                                       : Location
PROV               .                                       : Province
SRVC               .         SCH                           : Service Company
DATE               .         03.06.2009                    : Date
UWI                .                                       : Unique Well ID
Block              .         3а                            : 
Cartographic_reference_system .         GCS_WGS_1984                  : ESRI,PE_10_3_1- <?xml version="1.0" encoding="utf-16"?><ILateBoundCoordinateReferenceSystem name="GCS_WGS_1984"><AuthorityCode>EPSG,4326</AuthorityCode></ILateBoundCoordinateReferenceSystem>
Category           .         Нефтяная                      : 
Condition          .         В работе                      : 
CTRY               .                                       : Название страны
Date               .         14.10.1996                    : 
EREF               .m        233.8                         : 100.8
FILE               .                                       : 
Gorizont           .         17                            : 14
HZCS               .GCS_WGS_1984 WGS_1984_EASE-Grid_2.0_Global : ESRI,PE_10_3_1- <?xml version="1.0" encoding="utf-16"?><ILateBoundCoordinateReferenceSystem name="WGS_1984_EASE-Grid_2.0_Global"><AuthorityCode>EPSG,6933</AuthorityCode></ILateBoundCoordinateReferenceSystem>
Interpretator      .         Чиндаулова Г.К.               : 
Kupol              .         основной                      : osnovnoi
LATI               .dega     0.6319825406                  : GCS_WGS_1984
LONG               .dega     0.5715589808                  : GCS_WGS_1984
Mud                .         0                             : 
Mud_density        .         0                             : 
Mud_resistivity    .         0                             : 
NGDU               .         НГДУ-1                        : 
ORIGINALWELLNAME   .         9402                          : 
Spud_date          .         1996                          : 1961
TAPE               .                                       : 
Viscosity          .         0                             : 
X                  .m        55147.6                       : 46154
Y                  .m        80622.5                       : 85761.93
YEAR               .         2018                          : 
Исправлено         .         17                            : 
~Parameter Information Block
#_______________________________________________________________________________
#
#PARAMETER_NAME    .UNIT     VALUE                         : DESCRIPTION
#_______________________________________________________________________________
SET                .         LQC_KAZNIPI_Petrel            : 
PBBOTTOM           .м        1384                          : Глубина подошвы планшета
PBSCALE            .         1 _ 500                       : Вертикальный масштаб планшета
PBTOP              .м        900                           : Глубина кровли планшета
TLFamily_CALI      .         Caliper                       : 
TLFamily_CILD      .         Conductivity                  : 
TLFamily_COLL      .         Net Reservoir Flag            : 
TLFamily_CSAT      .         Fluid Code                    : 
TLFamily_DEPT      .         Measured Depth                : 
TLFamily_GR        .         Russian Gamma Ray             : 
TLFamily_LLS       .         Lateral Log Resistivity       : 
TLFamily_MINV      .         Micro Gradient Resistivity    : 
TLFamily_MNOR      .         Micro Resistivity             : 
TLFamily_NGLD      .         Neutron Far                   : 
TLFamily_PHIE      .         Effective Porosity            : 
TLFamily_PHIEN     .         Effective Porosity            : 
TLFamily_PHIT      .         Porosity                      : 
TLFamily_PRMB      .         Permeability                  : 
TLFamily_PRMB_DGR  .         Permeability                  : 
TLFamily_RT        .         Formation Resistivity         : 
TLFamily_SOIL_ARCHIE .         Oil Saturation                : 
TLFamily_SOIL_DW   .         Oil Saturation                : 
TLFamily_SP        .         Spontaneous Potential         : 
TLFamily_VSH_FIN   .         Shale Volume                  : 
TLFamily_VSH_GR    .         Shale Volume                  : 
TLFamily_VSH_SP    .         Shale Volume                  : 
~Curve Information
#_______________________________________________________________________________
#
#LOGNAME           .UNIT     LOG_ID                        : DESCRIPTION
#_______________________________________________________________________________
DEPT               .м                                      : Колонка глубины 
CALI               .м                                      : Каверномер 
CILD               .MS/M                                   : 4  CILD 
COLL               .unitless                               : Описание 
CSAT               .unitless                               : Описание 
GR                 .uR/h                                   : Гамма каротаж 
LLS                .Ohmm                                   : Боковой каротаж 
MINV               .Ohmm                                   : Микро-градиент зонд 
MNOR               .Ohmm                                   : Микро-потенциал зонд 
NGLD               .у.е.                                   : Показания зонда НГК-60 аппаратуры ДРСТ-3-90 
PHIE               .v/v                                    : Описание 
PHIEN              .v/v                                    :  
PHIT               .v/v                                    : Описание 
PRMB               .mD                                     :  
PRMB_DGR           .mD                                     :  
RT                 .ohmm                                   : УЭС пласта 
SOIL_ARCHIE        .v/v                                    :  
SOIL_DW            .v/v                                    :  
SP                 .mv                                     : Потенциал самополяризации 
VSH_FIN            .v/v                                    : Описание 
VSH_GR             .v/v                                    : Shale volume 
VSH_SP             .v/v                                    : Shale Volume 
~Ascii
# ...
1012.5     -9999      338.1510963564771 -9999      -9999      4.52       1.96       1.956      1.711      1.263      0.1008129  0.1008129  0.307675   0.2062804  1.296065   2.141      0          0.3646534  39.969     0.6268548  0.5836128  0.6268548 
1012.6     -9999      337.6150590680837 -9999      -9999      4.494      2.009      2.157      1.786      1.256      0.09975298 0.09975298 0.3096     0.197163   1.374555   2.146      0          0.365707   40.171     0.6359     0.5697678  0.6359    
1012.7     -9999      336.8066772936521 -9999      -9999      4.465      2.082      2.465      1.901      1.253      0.09790181 0.09790181 0.310425   0.1821952  1.467722   2.151      0          0.3635198  40.349     0.6440096  0.5547125  0.6440096 
1012.8     -9999      335.6814758091659 -9999      -9999      4.418      2.171      2.704      2.005      1.255      0.09560288 0.09560288 0.309875   0.1651792  1.632314   2.155      0          0.3582398  40.461     0.6493095  0.5311525  0.6493095 
1012.9     -9999      334.3422636939607 -9999      -9999      4.355      2.253      2.86       2.047      1.261      0.09316514 0.09316514 0.308225   0.1488684  1.882252   2.158      0          0.3508123  40.506     0.6516965  0.5011341  0.6516965 
1013       -9999      333.1812575861674 -9999      -9999      4.29       2.287      2.93       2.035      1.272      0.09059762 0.09059762 0.3052     0.1334276  2.1803     2.159      0          0.3405728  40.465     0.6503103  0.4719398  0.6503103 
1013.1     -9999      332.3582230728579 -9999      -9999      4.255      2.274      2.803      1.973      1.282      0.08973049 0.08973049 0.30245    0.1285832  2.359885   2.157      0          0.3341435  40.325     0.6446046  0.4569308  0.6446046 
1013.2     -9999      332.3889530848567 -9999      -9999      4.261      2.231      2.637      1.882      1.291      0.08989343 0.08989343 0.299975   0.1294799  2.328079   2.151      0          0.3299515  40.131     0.6366108  0.4594695  0.6366108 
1013.3     -9999      332.4198883554856 -9999      -9999      4.303      2.167      2.574      1.799      1.298      0.0907758  0.0907758  0.29805    0.1344454  2.117136   2.144      0          0.3281678  39.923     0.6281037  0.4776394  0.6281037 
1013.4     -9999      333.3047500401439 -9999      -9999      4.362      2.098      2.543      1.762      1.301      0.09208634 0.09208634 0.297225   0.1421741  1.852692   2.138      0          0.3292205  39.761     0.6216323  0.5043839  0.6216323 
1013.5     -9999      335.512506443644 -9999      -9999      4.427      2.062      2.542      1.767      1.299      0.09302043 0.09302043 0.297775   0.1479524  1.599428   2.133      0          0.331535   39.724     0.6204684  0.5355852  0.6204684 
1013.6     -9999      338.4898683545968 -9999      -9999      4.478      2.052      2.572      1.779      1.298      0.09179629 0.09179629 0.29805    0.1404261  1.425201   2.131      0          0.3286429  39.822     0.6250113  0.5614116  0.6250113 
1013.7     -9999      339.3744830788604 -9999      -9999      4.5        2.049      2.533      1.803      1.298      0.08877619 0.08877619 0.29805    0.1234549  1.35603    2.133      0          0.3214163  40.027     0.6341631  0.5729334  0.6341631 
1013.8     -9999      339.4051875820234 -9999      -9999      4.521      2.053      2.411      1.836      1.298      0.08478507 0.08478507 0.29805    0.1041318  1.293138   2.138      0          0.3118549  40.297     0.6462574  0.5841519  0.6462574 
1013.9     -9999      338.5820075847868 -9999      -9999      4.551      2.071      2.458      1.881      1.299      0.0803385  0.0803385  0.297775   0.0861434  1.208317   2.145      0          0.3004446  40.575     0.6588985  0.6005608  0.6588985 
1014       -9999      337.7587718763073 -9999      -9999      4.57       2.105      2.623      1.938      1.305      0.07508793 0.07508793 0.296125   0.06886028 1.157498   2.153      0          0.2838924  40.81      0.6698093  0.6111906  0.6698093 
1014.1     -9999      336.0817118712009 -9999      -9999      4.581      2.156      2.83       1.996      1.307      0.07163878 0.07163878 0.295575   0.05944044 1.129061   2.164      0          0.2742577  40.995     0.6785946  0.6174303  0.6785946 
1014.2     -9999      334.4045359485023 -9999      -9999      4.584      2.226      3.077      2.044      1.308      0.06922021 0.06922021 0.2953     0.05361474 1.121426   2.175      0          0.2679618  41.128     0.6850903  0.6191432  0.6850903 
1014.3     -9999      331.8736459330658 -9999      -9999      4.558      2.312      3.366      2.087      1.31       0.06730051 0.06730051 0.29475    0.04939997 1.18934    2.187      0          0.2627683  41.209     0.6892409  0.6044553  0.6892409 
1014.4     -9999      329.3426759336358 -9999      -9999      4.516      2.389      3.509      2.114      1.309      0.06747799 0.06747799 0.295025   0.04977532 1.307843   2.197      0          0.2655104  41.206     0.6895364  0.581461   0.6895364 
1014.5     -9999      326.8117859209884 -9999      -9999      4.478      2.434      3.549      2.129      1.307      0.06899716 0.06899716 0.295575   0.05310713 1.425201   2.206      0          0.2728803  41.135     0.6865995  0.5614116  0.6865995 
1014.6     -9999      324.2808459152763 -9999      -9999      4.45       2.448      3.566      2.136      1.305      0.07179213 0.07179213 0.296125   0.05983046 1.518365   2.214      0          0.2838938  40.979     0.6797966  0.5470818  0.6797966 
1014.7     -9999      321.7500731086569 -9999      -9999      4.426      2.438      3.557      2.142      1.301      0.07612928 0.07612928 0.297225   0.07198749 1.603049   2.219      0          0.2994533  40.755     0.669987   0.5350909  0.669987  
1014.8     -9999      320.6829820436652 -9999      -9999      4.408      2.409      3.524      2.151      1.296      0.08172678 0.08172678 0.2986     0.09139793 1.669649   2.222      0          0.3177331  40.461     0.6571916  0.5262703  0.6571916 
1014.9     -9999      320.1039175880154 -9999      -9999      4.395      2.39       3.505      2.168      1.293      0.0869367  0.0869367  0.299425   0.1141397  1.719463   2.225      0          0.3330336  40.151     0.643904   0.5199904  0.643904  
1015       -9999      319.2809430888508 -9999      -9999      4.395      2.395      3.519      2.198      1.293      0.09148704 0.09148704 0.299425   0.1385862  1.719463   2.229      0          0.3448307  39.824     0.630115   0.5199904  0.630115  
1015.1     -9999      319.3117475847445 -9999      -9999      4.401      2.423      3.564      2.244      1.295      0.09493425 0.09493425 0.298875   0.1605354  1.69629    2.233      0          0.3527421  39.531     0.6180023  0.5228795  0.6180023 
1015.2     -9999      318.4886575904836 -9999      -9999      4.414      2.454      3.599      2.285      1.3        0.09679472 0.09679472 0.2975     0.1737925  1.647147   2.239      0          0.3559133  39.289     0.6081979  0.5291942  0.6081979 
1015.3     -9999      317.6655418709051 -9999      -9999      4.424      2.466      3.618      2.301      1.311      0.09579811 0.09579811 0.294475   0.1665602  1.610317   2.244      0          0.3499934  39.133     0.6020512  0.5341034  0.6020512 
1015.4     -9999      315.9887634968042 -9999      -9999      4.427      2.443      3.598      2.261      1.319      0.09515133 0.09515133 0.292275   0.1620285  1.599428   2.248      0          0.3458458  39.011     0.5973445  0.5355852  0.5973445 
1015.5     -9999      315.0251459861688 -9999      -9999      4.419      2.393      3.527      2.194      1.324      0.09462234 0.09462234 0.2909     0.1584139  1.628627   2.249      0          0.3427068  38.941     0.5947808  0.5316432  0.5947808 
1015.6     -9999      313.4889230788489 -9999      -9999      4.404      2.318      3.416      2.107      1.327      0.09374243 0.09374243 0.290075   0.1525792  1.684821   2.248      0          0.3392249  38.938     0.5949472  0.5243299  0.5949472 
1015.7     0.256      313.5197130888479 -9999      -9999      4.39       2.237      3.335      2.037      1.328      0.09272656 0.09272656 0.2898     0.1461096  1.739017   2.245      0          0.3359097  38.986     0.5971923  0.5175951  0.5971923 
