~Version
 VERS              .         2.0                           : CWLS LOG ASCII STANDARD - VERSION 2.0
 WRAP              .         NO                            : ONE LINE PER DEPTH STEP
 DLM               .         SPACE                         : DELIMITING CHARACTER(SPACE TAB OR COMMA)
~Well Information
#_______________________________________________________________________________
#
#PARAMETER_NAME    .UNIT     VALUE                         : DESCRIPTION
#_______________________________________________________________________________
STRT               .м        900                           : First reference value
STOP               .м        1384                          : Last reference value
STEP               .м        0.1                           : Step increment
NULL               .         -9999                         : Missing value
COMP               .                                       : Company
WELL               .         9402                          : Well name
FLD                .         УЗЕНЬ                         : Field
LOC                .                                       : Location
PROV               .                                       : Province
SRVC               .         SCH                           : Service Company
DATE               .         03.06.2009                    : Date
UWI                .                                       : Unique Well ID
Block              .         3а                            : 
Cartographic_reference_system .         GCS_WGS_1984                  : ESRI,PE_10_3_1- <?xml version="1.0" encoding="utf-16"?><ILateBoundCoordinateReferenceSystem name="GCS_WGS_1984"><AuthorityCode>EPSG,4326</AuthorityCode></ILateBoundCoordinateReferenceSystem>
Category           .         Нефтяная                      : 
Condition          .         В работе                      : 
CTRY               .                                       : Название страны
Date               .         14.10.1996                    : 
EREF               .m        233.8                         : 100.8
FILE               .                                       : 
Gorizont           .         17                            : 14
HZCS               .GCS_WGS_1984 WGS_1984_EASE-Grid_2.0_Global : ESRI,PE_10_3_1- <?xml version="1.0" encoding="utf-16"?><ILateBoundCoordinateReferenceSystem name="WGS_1984_EASE-Grid_2.0_Global"><AuthorityCode>EPSG,6933</AuthorityCode></ILateBoundCoordinateReferenceSystem>
Interpretator      .         Чиндаулова Г.К.               : 
Kupol              .         основной                      : osnovnoi
LATI               .dega     0.6319825406                  : GCS_WGS_1984
LONG               .dega     0.5715589808                  : GCS_WGS_1984
Mud                .         0                             : 
Mud_density        .         0                             : 
Mud_resistivity    .         0                             : 
NGDU               .         НГДУ-1                        : 
ORIGINALWELLNAME   .         9402                          : 
Spud_date          .         1996                          : 1961
TAPE               .                                       : 
Viscosity          .         0                             : 
X                  .m        55147.6                       : 46154
Y                  .m        80622.5                       : 85761.93
YEAR               .         2018                          : 
Исправлено         .         17                            : 
~Parameter Information Block
#_______________________________________________________________________________
#
#PARAMETER_NAME    .UNIT     VALUE                         : DESCRIPTION
#_______________________________________________________________________________
SET                .         LQC_KAZNIPI_Petrel            : 
PBBOTTOM           .м        1384                          : Глубина подошвы планшета
PBSCALE            .         1 _ 500                       : Вертикальный масштаб планшета
PBTOP              .м        900                           : Глубина кровли планшета
TLFamily_CALI      .         Caliper                       : 
TLFamily_CILD      .         Conductivity                  : 
TLFamily_COLL      .         Net Reservoir Flag            : 
TLFamily_CSAT      .         Fluid Code                    : 
TLFamily_DEPT      .         Measured Depth                : 
TLFamily_GR        .         Russian Gamma Ray             : 
TLFamily_LLS       .         Lateral Log Resistivity       : 
TLFamily_MINV      .         Micro Gradient Resistivity    : 
TLFamily_MNOR      .         Micro Resistivity             : 
TLFamily_NGLD      .         Neutron Far                   : 
TLFamily_PHIE      .         Effective Porosity            : 
TLFamily_PHIEN     .         Effective Porosity            : 
TLFamily_PHIT      .         Porosity                      : 
TLFamily_PRMB      .         Permeability                  : 
TLFamily_PRMB_DGR  .         Permeability                  : 
TLFamily_RT        .         Formation Resistivity         : 
TLFamily_SOIL_ARCHIE .         Oil Saturation                : 
TLFamily_SOIL_DW   .         Oil Saturation                : 
TLFamily_SP        .         Spontaneous Potential         : 
TLFamily_VSH_FIN   .         Shale Volume                  : 
TLFamily_VSH_GR    .         Shale Volume                  : 
TLFamily_VSH_SP    .         Shale Volume                  : 
~Curve Information
#_______________________________________________________________________________
#
#LOGNAME           .UNIT     LOG_ID                        : DESCRIPTION
#_______________________________________________________________________________
DEPT               .м                                      : Колонка глубины 
CALI               .м                                      : Каверномер 
CILD               .MS/M                                   : 4  CILD 
COLL               .unitless                               : Описание 
CSAT               .unitless                               : Описание 
GR                 .uR/h                                   : Гамма каротаж 
LLS                .Ohmm                                   : Боковой каротаж 
MINV               .Ohmm                                   : Микро-градиент зонд 
MNOR               .Ohmm                                   : Микро-потенциал зонд 
NGLD               .у.е.                                   : Показания зонда НГК-60 аппаратуры ДРСТ-3-90 
PHIE               .v/v                                    : Описание 
PHIEN              .v/v                                    :  
PHIT               .v/v                                    : Описание 
PRMB               .mD                                     :  
PRMB_DGR           .mD                                     :  
RT                 .ohmm                                   : УЭС пласта 
SOIL_ARCHIE        .v/v                                    :  
SOIL_DW            .v/v                                    :  
SP                 .mv                                     : Потенциал самополяризации 
VSH_FIN            .v/v                                    : Описание 
VSH_GR             .v/v                                    : Shale volume 
VSH_SP             .v/v                                    : Shale Volume 
~Ascii
# ...
1042.1     0.227      302.038811403076 -9999      -9999      3.3        2.178      1.744      3.769      1.406      0.09535077 0.09535077 0.26835    0.1634126  33.44004   2.405      0          0.3317508  31.368     0.5242401  0.1547766  0.5242401 
1042.2     0.227      297.3884594550748 -9999      -9999      3.152      2.129      1.861      3.769      1.437      0.08765551 0.08765551 0.259825   0.117693   45.48853   2.455      0          0.3044288  31.294     0.5217257  0.1365015  0.5217257 
1042.3     0.228      287.45246595693 -9999      -9999      3.001      2.342      1.91       3.749      1.468      0.07972997 0.07972997 0.2513     0.08393642 62.26528   2.503      0          0.2726231  31.239     0.5199091  0.1200781  0.5199091 
1042.4     0.228      274.7036693391733 -9999      -9999      2.89       2.731      1.847      3.586      1.504      0.07004628 0.07004628 0.2414     0.05553735 78.42819   2.537      0          0.2250966  31.216     0.5192537  0.1092793  0.5192537 
1042.5     0.228      264.7811804696696 -9999      -9999      2.836      3.322      1.672      3.427      1.524      0.06530957 0.06530957 0.2359     0.04537845 87.74675   2.553      0          0.1972976  31.147     0.5169407  0.1043826  0.5169407 
1042.6     0.228      259.5389176645519 -9999      -9999      2.84       3.737      1.45       3.309      1.529      0.0656747  0.0656747  0.234525   0.04609065 87.02004   2.56       0          0.1966798  30.995     0.5116675  0.1047377  0.5116675 
1042.7     0.227      258.717123140412 -9999      -9999      2.898      3.953      1.287      3.235      1.527      0.06894976 0.06894976 0.235075   0.05299988 77.1345    2.571      0          0.2123302  30.757     0.5034099  0.110024   0.5034099 
1042.8     0.227      260.454333148241 -9999      -9999      2.98       3.798      1.22       3.22       1.521      0.0735253  0.0735253  0.236725   0.06442064 65.04406   2.595      0          0.236179   30.498     0.4945445  0.1179563  0.4945445 
1042.9     0.227      262.1911631194307 -9999      -9999      3.036      3.463      1.258      3.386      1.512      0.07832785 0.07832785 0.2392     0.07906419 57.89524   2.639      0          0.2637548  30.288     0.4874914  0.1236996  0.4874914 
1043       0.228      259.7333314952459 -9999      -9999      3.051      2.969      1.402      3.547      1.518      0.07748906 0.07748906 0.23755    0.07628573 56.11755   2.697      0          0.2656898  30.211     0.4850332  0.1252849  0.4850332 
1043.1     0.228      251.2883561686134 -9999      -9999      3.019      2.697      1.581      3.665      1.539      0.07080397 0.07080397 0.231775   0.05736135 59.97814   2.762      0          0.2395945  30.287     0.487791   0.1219271  0.487791  
1043.2     0.23       240.4888437172401 -9999      -9999      2.95       3.001      1.76       3.741      1.56       0.06218787 0.06218787 0.226      0.03972174 69.23022   2.815      0          0.2005003  30.532     0.4964004  0.11499    0.4964004 
1043.3     0.233      228.7239302086029 -9999      -9999      2.874      3.625      1.879      3.776      1.575      0.05377465 0.05377465 0.221875   0.02774566 81.08102   2.845      0          0.1567958  30.897     0.5093949  0.107805   0.5093949 
1043.4     0.237      220.8645956895895 -9999      -9999      2.84       4.337      1.865      3.707      1.581      0.04670195 0.04670195 0.220225   0.02052066 87.02004   2.839      0          0.1147533  31.348     0.5258275  0.1047377  0.5258275 
1043.5     0.241      216.6624274939361 -9999      -9999      2.857      5.02       1.718      3.506      1.577      0.04159173 0.04159173 0.221325   0.01650204 83.99805   2.799      0          0.08177749 31.85      0.5446463  0.1062603  0.5446463 
1043.6     0.245      216.8379310077289 -9999      -9999      2.935      5.626      1.524      3.167      1.556      0.04075797 0.04075797 0.2271     0.01592555 71.42332   2.732      0          0.08269431 32.368     0.5646728  0.1135349  0.5646728 
1043.7     0.248      222.0092140115446 -9999      -9999      3.091      5.561      1.324      2.736      1.529      0.04174317 0.04174317 0.234525   0.01660897 51.6394    2.656      0          0.09708782 32.853     0.5841873  0.1296125  0.5841873 
1043.8     0.248      232.5941171712693 -9999      -9999      3.318      4.974      1.136      2.341      1.478      0.04992658 0.04992658 0.24855    0.02354612 32.2117    2.586      0          0.1651734  33.28      0.6018891  0.1571599  0.6018891 
1043.9     0.247      245.6175072219612 -9999      -9999      3.549      4.227      1.025      2.075      1.416      0.06228874 0.06228874 0.2656     0.039893   19.92666   2.532      0          0.2457726  33.613     0.6160947  0.1912105  0.6160947 
1044       0.244      260.5239387786734 -9999      -9999      3.756      3.454      0.993      2.007      1.356      0.07528798 0.07528798 0.2821     0.06945028 12.95764   2.5        0          0.313626   33.855     0.6267031  0.2279464  0.6267031 
1044.1     0.241      269.0478100187187 -9999      -9999      3.917      2.686      1.001      2.103      1.307      0.08647517 0.08647517 0.295575   0.1119149  9.271557   2.492      0          0.363169   34.008     0.6336358  0.2613325  0.6336358 
1044.2     0.239      273.5854029699254 -9999      -9999      3.999      2.208      1.012      2.297      1.272      0.09491768 0.09491768 0.3052     0.1604219  7.818284   2.499      0          0.3965452  34.082     0.6372192  0.2801735  0.6372192 
1044.3     0.237      273.7147932931384 -9999      -9999      3.997      2.042      1.037      2.464      1.267      0.09597518 0.09597518 0.306575   0.1678229  7.850862   2.511      0          0.4020187  34.095     0.6381813  0.2796981  0.6381813 
1044.4     0.236      270.4671325052689 -9999      -9999      3.933      2.04       1.076      2.653      1.282      0.09193131 0.09193131 0.30245    0.1412372  8.968203   2.524      0          0.3894018  34.08      0.6379355  0.2649066  0.6379355 
1044.5     0.236      267.1131522326356 -9999      -9999      3.831      2.1        1.13       2.874      1.299      0.08766471 0.08766471 0.297775   0.1177392  11.08678   2.533      0          0.374304   34.042     0.6366978  0.2429323  0.6366978 
1044.6     0.236      263.7570645474746 -9999      -9999      3.718      2.211      1.198      3.084      1.315      0.08358728 0.08358728 0.293375   0.09894578 14.0229    2.536      0          0.3584203  34.01      0.6357203  0.22071    0.6357203 
1044.7     0.237      263.6026031008175 -9999      -9999      3.617      2.356      1.279      3.216      1.329      0.07964774 0.07964774 0.289525   0.08364259 17.29954   2.534      0          0.3421724  34.007     0.6359917  0.2025738  0.6359917 
1044.8     0.239      263.6336130998176 -9999      -9999      3.531      2.547      1.34       3.261      1.34       0.07678886 0.07678886 0.2865     0.07404129 20.68653   2.53       0          0.3291016  33.986     0.6354883  0.1883107  0.6354883 
1044.9     0.24       263.6646982521556 -9999      -9999      3.469      2.756      1.344      3.188      1.349      0.07439472 0.07439472 0.284025   0.0668542  23.5326    2.522      0          0.3171932  33.971     0.6352433  0.1786552  0.6352433 
1045       0.242      264.5486761163198 -9999      -9999      3.43       2.953      1.291      2.985      1.359      0.07156952 0.07156952 0.281275   0.05926513 25.52023   2.51       0          0.3025135  33.967     0.6354712  0.1728368  0.6354712 
1045.1     0.245      265.2107732062276 -9999      -9999      3.408      3.131      1.409      2.735      1.366      0.06956921 0.06956921 0.27935    0.05441875 26.71463   2.493      0          0.2905636  33.963     0.6356993  0.1696387  0.6356993 
1045.2     0.248      266.948588205346 -9999      -9999      3.423      3.242      1.755      2.512      1.364      0.07027108 0.07027108 0.2799     0.05607238 25.89435   2.473      0          0.2908894  33.943     0.6352392  0.1718128  0.6352392 
1045.3     0.252      269.543253107181 -9999      -9999      3.481      3.234      2.152      2.322      1.358      0.07184586 0.07184586 0.28155    0.05996774 22.95275   2.451      0          0.2954954  33.939     0.6354671  0.1804845  0.6354671 
