~Version
 VERS              .         2.0                           : CWLS LOG ASCII STANDARD - VERSION 2.0
 WRAP              .         NO                            : ONE LINE PER DEPTH STEP
 DLM               .         SPACE                         : DELIMITING CHARACTER(SPACE TAB OR COMMA)
~Well Information
#_______________________________________________________________________________
#
#PARAMETER_NAME    .UNIT     VALUE                         : DESCRIPTION
#_______________________________________________________________________________
STRT               .м        900                           : First reference value
STOP               .м        1384                          : Last reference value
STEP               .м        0.1                           : Step increment
NULL               .         -9999                         : Missing value
COMP               .                                       : Company
WELL               .         9402                          : Well name
FLD                .         УЗЕНЬ                         : Field
LOC                .                                       : Location
PROV               .                                       : Province
SRVC               .         SCH                           : Service Company
DATE               .         03.06.2009                    : Date
UWI                .                                       : Unique Well ID
Block              .         3а                            : 
Cartographic_reference_system .         GCS_WGS_1984                  : ESRI,PE_10_3_1- <?xml version="1.0" encoding="utf-16"?><ILateBoundCoordinateReferenceSystem name="GCS_WGS_1984"><AuthorityCode>EPSG,4326</AuthorityCode></ILateBoundCoordinateReferenceSystem>
Category           .         Нефтяная                      : 
Condition          .         В работе                      : 
CTRY               .                                       : Название страны
Date               .         14.10.1996                    : 
EREF               .m        233.8                         : 100.8
FILE               .                                       : 
Gorizont           .         17                            : 14
HZCS               .GCS_WGS_1984 WGS_1984_EASE-Grid_2.0_Global : ESRI,PE_10_3_1- <?xml version="1.0" encoding="utf-16"?><ILateBoundCoordinateReferenceSystem name="WGS_1984_EASE-Grid_2.0_Global"><AuthorityCode>EPSG,6933</AuthorityCode></ILateBoundCoordinateReferenceSystem>
Interpretator      .         Чиндаулова Г.К.               : 
Kupol              .         основной                      : osnovnoi
LATI               .dega     0.6319825406                  : GCS_WGS_1984
LONG               .dega     0.5715589808                  : GCS_WGS_1984
Mud                .         0                             : 
Mud_density        .         0                             : 
Mud_resistivity    .         0                             : 
NGDU               .         НГДУ-1                        : 
ORIGINALWELLNAME   .         9402                          : 
Spud_date          .         1996                          : 1961
TAPE               .                                       : 
Viscosity          .         0                             : 
X                  .m        55147.6                       : 46154
Y                  .m        80622.5                       : 85761.93
YEAR               .         2018                          : 
Исправлено         .         17                            : 
~Parameter Information Block
#_______________________________________________________________________________
#
#PARAMETER_NAME    .UNIT     VALUE                         : DESCRIPTION
#_______________________________________________________________________________
SET                .         LQC_KAZNIPI_Petrel            : 
PBBOTTOM           .м        1384                          : Глубина подошвы планшета
PBSCALE            .         1 _ 500                       : Вертикальный масштаб планшета
PBTOP              .м        900                           : Глубина кровли планшета
TLFamily_CALI      .         Caliper                       : 
TLFamily_CILD      .         Conductivity                  : 
TLFamily_COLL      .         Net Reservoir Flag            : 
TLFamily_CSAT      .         Fluid Code                    : 
TLFamily_DEPT      .         Measured Depth                : 
TLFamily_GR        .         Russian Gamma Ray             : 
TLFamily_LLS       .         Lateral Log Resistivity       : 
TLFamily_MINV      .         Micro Gradient Resistivity    : 
TLFamily_MNOR      .         Micro Resistivity             : 
TLFamily_NGLD      .         Neutron Far                   : 
TLFamily_PHIE      .         Effective Porosity            : 
TLFamily_PHIEN     .         Effective Porosity            : 
TLFamily_PHIT      .         Porosity                      : 
TLFamily_PRMB      .         Permeability                  : 
TLFamily_PRMB_DGR  .         Permeability                  : 
TLFamily_RT        .         Formation Resistivity         : 
TLFamily_SOIL_ARCHIE .         Oil Saturation                : 
TLFamily_SOIL_DW   .         Oil Saturation                : 
TLFamily_SP        .         Spontaneous Potential         : 
TLFamily_VSH_FIN   .         Shale Volume                  : 
TLFamily_VSH_GR    .         Shale Volume                  : 
TLFamily_VSH_SP    .         Shale Volume                  : 
~Curve Information
#_______________________________________________________________________________
#
#LOGNAME           .UNIT     LOG_ID                        : DESCRIPTION
#_______________________________________________________________________________
DEPT               .м                                      : Колонка глубины 
CALI               .м                                      : Каверномер 
CILD               .MS/M                                   : 4  CILD 
COLL               .unitless                               : Описание 
CSAT               .unitless                               : Описание 
GR                 .uR/h                                   : Гамма каротаж 
LLS                .Ohmm                                   : Боковой каротаж 
MINV               .Ohmm                                   : Микро-градиент зонд 
MNOR               .Ohmm                                   : Микро-потенциал зонд 
NGLD               .у.е.                                   : Показания зонда НГК-60 аппаратуры ДРСТ-3-90 
PHIE               .v/v                                    : Описание 
PHIEN              .v/v                                    :  
PHIT               .v/v                                    : Описание 
PRMB               .mD                                     :  
PRMB_DGR           .mD                                     :  
RT                 .ohmm                                   : УЭС пласта 
SOIL_ARCHIE        .v/v                                    :  
SOIL_DW            .v/v                                    :  
SP                 .mv                                     : Потенциал самополяризации 
VSH_FIN            .v/v                                    : Описание 
VSH_GR             .v/v                                    : Shale volume 
VSH_SP             .v/v                                    : Shale Volume 
~Ascii
# ...
1098.2     0.256      348.94165  -9999      -9999      5.421      2.143      1.06       1.194      1.185      0.1839678  0.1839678  0.329125   7.156305   3.821066   2.054      0.3530571  0.5021892  29.122     0.4398702  0.3753088  0.5044315 
1098.3     0.257      348.9648399999998 -9999      -9999      5.447      2.129      1.055      1.164      1.177      0.1851885  0.1851885  0.331325   7.538734   3.631805   2.03       0.3532274  0.5025705  29.085     0.4428378  0.3831752  0.5025005 
1098.4     0.257      351.00021  -9999      -9999      5.483      2.075      1.009      1.143      1.17       0.1850968  0.1850968  0.33325    7.509321   3.385132   2.002      0.3483688  0.500763   29.133     0.448949   0.3943399  0.503558  
1098.5     0.257      354.43594  -9999      -9999      5.54       2.007      0.936      1.143      1.163      0.1834703  0.1834703  0.335175   7.006038   3.028371   1.973      0.3380963  0.4971224  29.241     0.4597113  0.4126867  0.5067359 
1098.6     0.257      359.3700599999999 -9999      -9999      5.606      1.932      0.919      1.178      1.158      0.180513   0.180513   0.33655    6.175853   2.661986   1.944      0.3229145  0.4914224  29.37      0.4728394  0.4349992  0.5106795 
1098.7     0.256      368.0318   -9999      -9999      5.671      1.855      0.938      1.213      1.152      0.1777586  0.1777586  0.3382     5.491341   2.344504   1.92       0.3088036  0.4867132  29.487     0.4861861  0.4581524  0.5142199 
1098.8     0.254      378.0383   -9999      -9999      5.738      1.783      0.995      1.242      1.147      0.1744843  0.1744843  0.339575   4.77562    2.056834   1.902      0.2933669  0.4818477  29.589     0.500275   0.4833085  0.5172416 
1098.9     0.252      384.9325900000001 -9999      -9999      5.797      1.739      1.044      1.267      1.15       0.1691292  0.1691292  0.33875    3.800508   1.832888   1.889      0.2700377  0.4729953  29.722     0.5140024  0.5066021  0.5214027 
1099       0.251      391.8332199999999 -9999      -9999      5.837      1.721      1.072      1.287      1.152      0.1651772  0.1651772  0.3382     3.211003   1.695097   1.881      0.2522222  0.4665341  29.855     0.5243115  0.5230297  0.5255933 
1099.1     0.25       396.9994200000001 -9999      -9999      5.853      1.71       1.103      1.32       1.153      0.1629148  0.1629148  0.337925   2.915653   1.642925   1.876      0.2415726  0.4627343  30.018     0.5303339  0.5297491  0.5309187 
1099.2     0.249      400.3682600000001 -9999      -9999      5.863      1.707      1.142      1.374      1.154      0.1611329  0.1611329  0.33765    2.70228    1.611138   1.872      0.2329737  0.459632   30.168     0.5349002  0.5339923  0.5358083 
1099.3     0.249      401.68884  -9999      -9999      5.869      1.711      1.174      1.45       1.161      0.1578853  0.1578853  0.335725   2.352751   1.59236    1.87       0.2179386  0.453213   30.332     0.5389083  0.5365546  0.541262  
1099.4     0.25       402.9745800000002 -9999      -9999      5.872      1.713      1.209      1.565      1.168      0.1550335  0.1550335  0.3338     2.083316   1.583053   1.873      0.2052599  0.447901   30.465     0.5417166  0.5378404  0.5455927 
1099.5     0.25       403.4041699999999 -9999      -9999      5.858      1.723      1.275      1.69       1.18       0.1518868  0.1518868  0.3305     1.82167    1.626954   1.882      0.1919697  0.4415009  30.616     0.5412523  0.5318664  0.5506382 
1099.6     0.249      404.7275699999999 -9999      -9999      5.815      1.755      1.345      1.77       1.198      0.1491836  0.1491836  0.32555    1.623305   1.769547   1.897      0.1816852  0.434645   30.747     0.5344437  0.5139298  0.5549577 
1099.7     0.249      405.60416  -9999      -9999      5.747      1.815      1.399      1.797      1.221      0.146816   0.146816   0.319225   1.467395   2.020981   1.918      0.1740395  0.42739    30.847     0.5224515  0.4867914  0.5581115 
1099.8     0.248      405.1106599999998 -9999      -9999      5.658      1.901      1.398      1.772      1.24       0.146784   0.146784   0.314      1.465394   2.404816   1.943      0.1791812  0.4251638  30.914     0.5067151  0.4534252  0.5600049 
1099.9     0.249      398.8247999999998 -9999      -9999      5.548      1.999      1.38       1.692      1.254      0.1490279  0.1490279  0.31015    1.612564   2.981404   1.964      0.1949366  0.4271597  30.962     0.4882487  0.415329   0.5611684 
1100       0.251      389.9498   -9999      -9999      5.432      2.083      1.329      1.584      1.26       0.1534539  0.1534539  0.3085     1.94759    3.739818   1.978      0.2192304  0.4336794  30.977     0.4698365  0.3786171  0.561056  
1100.1     0.253      383.4005099999998 -9999      -9999      5.328      2.138      1.227      1.473      1.26       0.1586444  0.1586444  0.3085     2.430171   4.582453   1.984      0.2441003  0.4417389  30.961     0.4541079  0.3484703  0.5597456 
1100.2     0.255      376.6694299999998 -9999      -9999      5.245      2.153      1.127      1.394      1.253      0.16417    0.16417    0.310425   3.07599    5.389229   1.983      0.2675917  0.4510615  30.992     0.4431969  0.3261425  0.5602513 
1100.3     0.257      372.48248  -9999      -9999      5.196      2.126      1.086      1.349      1.245      0.1680173  0.1680173  0.312625   3.624485   5.93068    1.977      0.2821276  0.4575152  31.075     0.4382051  0.3136388  0.5627713 
1100.4     0.257      370.7657199999998 -9999      -9999      5.21       2.078      1.084      1.321      1.239      0.1683405  0.1683405  0.314275   3.674786   5.770655   1.97       0.2821346  0.4586993  31.209     0.4422259  0.3171616  0.5672902 
1100.5     0.257      372.4067699999998 -9999      -9999      5.275      2.033      1.09       1.314      1.236      0.1655254  0.1655254  0.3151     3.259048   5.082417   1.965      0.2698436  0.4553116  31.359     0.4532563  0.3340428  0.5724698 
1100.6     0.255      374.9733299999999 -9999      -9999      5.388      1.997      1.105      1.35       1.237      0.1589599  0.1589599  0.314825   2.463091   4.07555    1.962      0.2412728  0.4459945  31.544     0.4723186  0.3655567  0.5790805 
1100.7     0.253      378.40244  -9999      -9999      5.514      1.966      1.088      1.399      1.239      0.1510424  0.1510424  0.314275   1.757235   3.186184   1.962      0.2044734  0.4344366  31.712     0.4946443  0.4042145  0.5850741 
1100.8     0.253      380.22601  -9999      -9999      5.64       1.941      1.043      1.458      1.238      0.1434934  0.1434934  0.31455    1.273515   2.490897   1.964      0.1662833  0.4239635  31.846     0.5183533  0.4469602  0.5897464 
1100.9     0.253      379.39139  -9999      -9999      5.749      1.918      1.003      1.545      1.232      0.1378947  0.1378947  0.3162     1.003004   2.0131     1.965      0.1353327  0.4173883  31.946     0.5403191  0.4875687  0.5930695 
1101       0.253      379.4100000000001 -9999      -9999      5.855      1.899      1.001      1.622      1.221      0.1333904  0.1333904  0.319225   0.8276983  1.636518   1.965      0.1084901  0.41372    32.028     0.5631351  0.530595   0.5956753 
1101.1     0.254      378.5753799999998 -9999      -9999      5.926      1.889      1.035      1.659      1.216      0.129454   0.129454   0.3206     0.6997775  1.42454    1.963      0.08314174 0.4085697  32.077     0.5792304  0.5615179  0.5969428 
1101.2     0.254      377.98505  -9999      -9999      5.973      1.9        1.076      1.658      1.218      0.1253835  0.1253835  0.32005    0.5882525  1.299553   1.961      0.05538451 0.4007145  32.092     0.5898986  0.5829729  0.5968242 
1101.3     0.253      377.75934  -9999      -9999      5.982      1.924      1.094      1.635      1.225      0.1231477  0.1231477  0.318125   0.5347522  1.276901   1.959      0          0.3941731  32.053     0.5908402  0.5871738  0.5945066 
1101.4     0.251      378.6312600000001 -9999      -9999      5.944      1.943      1.102      1.6        1.235      0.1241125  0.1241125  0.315375   0.5572156  1.375313   1.957      0          0.3922052  31.948     0.5795832  0.5696396  0.5895269 
