~Version
 VERS              .         2.0                           : CWLS LOG ASCII STANDARD - VERSION 2.0
 WRAP              .         NO                            : ONE LINE PER DEPTH STEP
 DLM               .         SPACE                         : DELIMITING CHARACTER(SPACE TAB OR COMMA)
~Well Information
#_______________________________________________________________________________
#
#PARAMETER_NAME    .UNIT     VALUE                         : DESCRIPTION
#_______________________________________________________________________________
STRT               .м        900                           : First reference value
STOP               .м        1384                          : Last reference value
STEP               .м        0.1                           : Step increment
NULL               .         -9999                         : Missing value
COMP               .                                       : Company
WELL               .         9402                          : Well name
FLD                .         УЗЕНЬ                         : Field
LOC                .                                       : Location
PROV               .                                       : Province
SRVC               .         SCH                           : Service Company
DATE               .         03.06.2009                    : Date
UWI                .                                       : Unique Well ID
Block              .         3а                            : 
Cartographic_reference_system .         GCS_WGS_1984                  : ESRI,PE_10_3_1- <?xml version="1.0" encoding="utf-16"?><ILateBoundCoordinateReferenceSystem name="GCS_WGS_1984"><AuthorityCode>EPSG,4326</AuthorityCode></ILateBoundCoordinateReferenceSystem>
Category           .         Нефтяная                      : 
Condition          .         В работе                      : 
CTRY               .                                       : Название страны
Date               .         14.10.1996                    : 
EREF               .m        233.8                         : 100.8
FILE               .                                       : 
Gorizont           .         17                            : 14
HZCS               .GCS_WGS_1984 WGS_1984_EASE-Grid_2.0_Global : ESRI,PE_10_3_1- <?xml version="1.0" encoding="utf-16"?><ILateBoundCoordinateReferenceSystem name="WGS_1984_EASE-Grid_2.0_Global"><AuthorityCode>EPSG,6933</AuthorityCode></ILateBoundCoordinateReferenceSystem>
Interpretator      .         Чиндаулова Г.К.               : 
Kupol              .         основной                      : osnovnoi
LATI               .dega     0.6319825406                  : GCS_WGS_1984
LONG               .dega     0.5715589808                  : GCS_WGS_1984
Mud                .         0                             : 
Mud_density        .         0                             : 
Mud_resistivity    .         0                             : 
NGDU               .         НГДУ-1                        : 
ORIGINALWELLNAME   .         9402                          : 
Spud_date          .         1996                          : 1961
TAPE               .                                       : 
Viscosity          .         0                             : 
X                  .m        55147.6                       : 46154
Y                  .m        80622.5                       : 85761.93
YEAR               .         2018                          : 
Исправлено         .         17                            : 
~Parameter Information Block
#_______________________________________________________________________________
#
#PARAMETER_NAME    .UNIT     VALUE                         : DESCRIPTION
#_______________________________________________________________________________
SET                .         LQC_KAZNIPI_Petrel            : 
PBBOTTOM           .м        1384                          : Глубина подошвы планшета
PBSCALE            .         1 _ 500                       : Вертикальный масштаб планшета
PBTOP              .м        900                           : Глубина кровли планшета
TLFamily_CALI      .         Caliper                       : 
TLFamily_CILD      .         Conductivity                  : 
TLFamily_COLL      .         Net Reservoir Flag            : 
TLFamily_CSAT      .         Fluid Code                    : 
TLFamily_DEPT      .         Measured Depth                : 
TLFamily_GR        .         Russian Gamma Ray             : 
TLFamily_LLS       .         Lateral Log Resistivity       : 
TLFamily_MINV      .         Micro Gradient Resistivity    : 
TLFamily_MNOR      .         Micro Resistivity             : 
TLFamily_NGLD      .         Neutron Far                   : 
TLFamily_PHIE      .         Effective Porosity            : 
TLFamily_PHIEN     .         Effective Porosity            : 
TLFamily_PHIT      .         Porosity                      : 
TLFamily_PRMB      .         Permeability                  : 
TLFamily_PRMB_DGR  .         Permeability                  : 
TLFamily_RT        .         Formation Resistivity         : 
TLFamily_SOIL_ARCHIE .         Oil Saturation                : 
TLFamily_SOIL_DW   .         Oil Saturation                : 
TLFamily_SP        .         Spontaneous Potential         : 
TLFamily_VSH_FIN   .         Shale Volume                  : 
TLFamily_VSH_GR    .         Shale Volume                  : 
TLFamily_VSH_SP    .         Shale Volume                  : 
~Curve Information
#_______________________________________________________________________________
#
#LOGNAME           .UNIT     LOG_ID                        : DESCRIPTION
#_______________________________________________________________________________
DEPT               .м                                      : Колонка глубины 
CALI               .м                                      : Каверномер 
CILD               .MS/M                                   : 4  CILD 
COLL               .unitless                               : Описание 
CSAT               .unitless                               : Описание 
GR                 .uR/h                                   : Гамма каротаж 
LLS                .Ohmm                                   : Боковой каротаж 
MINV               .Ohmm                                   : Микро-градиент зонд 
MNOR               .Ohmm                                   : Микро-потенциал зонд 
NGLD               .у.е.                                   : Показания зонда НГК-60 аппаратуры ДРСТ-3-90 
PHIE               .v/v                                    : Описание 
PHIEN              .v/v                                    :  
PHIT               .v/v                                    : Описание 
PRMB               .mD                                     :  
PRMB_DGR           .mD                                     :  
RT                 .ohmm                                   : УЭС пласта 
SOIL_ARCHIE        .v/v                                    :  
SOIL_DW            .v/v                                    :  
SP                 .mv                                     : Потенциал самополяризации 
VSH_FIN            .v/v                                    : Описание 
VSH_GR             .v/v                                    : Shale volume 
VSH_SP             .v/v                                    : Shale Volume 
~Ascii
# ...
957.6      -9999      208.1145831397633 -9999      -9999      6.931      2.848      0.759      1.111      1.178      -9999      -9999      -9999      -9999      -9999      2.958      -9999      -9999      19.243     -9999      0.1113692  0.1625573 
957.7000000000001 -9999      208.1465326107227 -9999      -9999      6.94       2.881      0.769      1.127      1.191      -9999      -9999      -9999      -9999      -9999      2.921      -9999      -9999      19.133     -9999      0.1120412  0.1618748 
957.8      -9999      213.7461885146485 -9999      -9999      6.919      2.898      0.778      1.138      1.205      -9999      -9999      -9999      -9999      -9999      2.907      -9999      -9999      19.088     -9999      0.1104795  0.1615977 
957.9      -9999      214.7335093339897 -9999      -9999      6.866      2.888      0.798      1.138      1.215      -9999      -9999      -9999      -9999      -9999      2.887      -9999      -9999      19.107     -9999      0.106634   0.1617146 
958        -9999      214.7269984954021 -9999      -9999      6.769      2.861      0.834      1.131      1.217      -9999      -9999      -9999      -9999      -9999      2.875      -9999      -9999      19.159     -9999      0.09993941 0.1620354 
958.1      -9999      216.2173089865997 -9999      -9999      6.639      2.859      0.888      1.13       1.21       -9999      -9999      -9999      -9999      -9999      2.861      -9999      -9999      19.245     -9999      0.0916216  0.1625698 
958.2000000000001 -9999      219.8369360697474 -9999      -9999      6.505      2.898      0.95       1.139      1.194      -9999      -9999      -9999      -9999      -9999      2.844      -9999      -9999      19.339     -9999      0.08377181 0.163159  
958.3      -9999      221.4031835056696 -9999      -9999      6.391      2.934      1.015      1.165      1.171      -9999      -9999      -9999      -9999      -9999      2.828      -9999      -9999      19.442     -9999      0.07762539 0.163811  
958.4      -9999      222.9436239047844 -9999      -9999      6.313      2.953      1.075      1.226      1.152      -9999      -9999      -9999      -9999      -9999      2.817      -9999      -9999      19.571     -9999      0.07368186 0.1646369 
958.5      -9999      224.9919528878252 -9999      -9999      6.308      2.953      1.114      1.308      1.14       -9999      -9999      -9999      -9999      -9999      2.805      -9999      -9999      19.708     -9999      0.07343601 0.1655255 
958.6      -9999      226.3246722944602 -9999      -9999      6.347      2.92       1.115      1.359      1.132      -9999      -9999      -9999      -9999      -9999      2.792      -9999      -9999      19.827     -9999      0.07537559 0.1663069 
958.7000000000001 -9999      226.7482128391181 -9999      -9999      6.39       2.861      1.088      1.379      1.133      -9999      -9999      -9999      -9999      -9999      2.781      -9999      -9999      19.947     -9999      0.07757352 0.1671042 
958.8      -9999      229.1895794798843 -9999      -9999      6.42       2.848      1.049      1.364      1.145      -9999      -9999      -9999      -9999      -9999      2.769      -9999      -9999      20.067     -9999      0.07914482 0.1679106 
958.9      -9999      230.8906594934237 -9999      -9999      6.425      2.887      1.004      1.342      1.159      -9999      -9999      -9999      -9999      -9999      2.757      -9999      -9999      20.17      -9999      0.07940979 0.1686103 
959        -9999      232.5917870643268 -9999      -9999      6.381      2.945      1.008      1.33       1.177      -9999      -9999      -9999      -9999      -9999      2.752      -9999      -9999      20.273     -9999      0.07710825 0.1693169 
959.1      -9999      233.8658219932793 -9999      -9999      6.319      2.986      1.098      1.367      1.199      -9999      -9999      -9999      -9999      -9999      2.753      -9999      -9999      20.376     -9999      0.07397795 0.1700304 
959.2000000000001 -9999      234.2859263447959 -9999      -9999      6.248      3.051      1.25       1.455      1.222      -9999      -9999      -9999      -9999      -9999      2.762      -9999      -9999      20.445     -9999      0.07054905 0.1705122 
959.3      -9999      232.6550262592779 -9999      -9999      6.17       3.111      1.436      1.564      1.245      -9999      -9999      -9999      -9999      -9999      2.779      -9999      -9999      20.479     -9999      0.06696499 0.1707509 
959.4      -9999      230.527243509611 -9999      -9999      6.079      3.16       1.599      1.632      1.266      -9999      -9999      -9999      -9999      -9999      2.803      -9999      -9999      20.446     -9999      0.06301307 0.1705192 
959.5      -9999      226.7928598977222 -9999      -9999      5.982      3.303      1.7        1.693      1.286      -9999      -9999      -9999      -9999      -9999      2.832      -9999      -9999      20.345     -9999      0.05905703 0.1698149 
959.6      -9999      222.5324034972206 -9999      -9999      5.853      3.607      1.762      1.775      1.305      -9999      -9999      -9999      -9999      -9999      2.86       -9999      -9999      20.169     -9999      0.05417803 0.1686035 
959.7000000000001 -9999      218.7007299741263 -9999      -9999      5.69       4.001      2.057      1.947      1.325      -9999      -9999      -9999      -9999      -9999      2.887      -9999      -9999      19.968     -9999      0.04858525 0.1672446 
959.8      -9999      214.7370446887874 -9999      -9999      5.514      4.413      2.364      2.294      1.344      -9999      -9999      -9999      -9999      -9999      2.911      -9999      -9999      19.753     -9999      0.04319285 0.1658199 
959.9      -9999      212.891847794572 -9999      -9999      5.339      4.816      2.732      2.705      1.359      -9999      -9999      -9999      -9999      -9999      2.936      -9999      -9999      19.561     -9999      0.03842463 0.1645725 
960        -9999      210.4835461938708 -9999      -9999      5.155      5.087      3.148      3.105      1.368      -9999      -9999      -9999      -9999      -9999      2.965      -9999      -9999      19.407     -9999      0.03397776 0.1635887 
960.1      -9999      208.3561074917582 -9999      -9999      5.013      5.101      3.538      3.46       1.371      -9999      -9999      -9999      -9999      -9999      3.004      -9999      -9999      19.312     -9999      0.03090098 0.1629892 
960.2000000000001 -9999      204.2713299280892 -9999      -9999      4.914      4.879      3.657      3.701      1.366      -9999      -9999      -9999      -9999      -9999      3.048      -9999      -9999      19.281     -9999      0.02892229 0.1627948 
960.3      -9999      197.6793035874006 -9999      -9999      4.811      4.56       3.735      3.767      1.356      -9999      -9999      -9999      -9999      -9999      3.099      -9999      -9999      19.293     -9999      0.02699802 0.16287   
960.4      -9999      191.0297893183084 -9999      -9999      4.706      4.22       3.77       3.654      1.354      0.156315   0.156315   0.28265    2.200345   1.165382   3.141      0.336293   0.7628341  19.346     0.3828334  0.6094989  0.1561679 
960.5      -9999      186.3804484545669 -9999      -9999      4.603      3.929      3.772      3.412      1.361      0.1631391  0.1631391  0.280725   2.943682   1.459482   3.171      0.349915   0.7678525  19.415     0.3563208  0.5559891  0.1566524 
960.6      -9999      181.4325114611394 -9999      -9999      4.463      3.8        3.775      3.017      1.384      0.1674941  0.1674941  0.2744     3.544509   1.981695   3.189      0.358005   0.7686324  19.493     0.3239572  0.490709   0.1572053 
960.7000000000001 -9999      182.852476535399 6          6          4.3        3.87       3.719      2.522      1.427      0.1665514  0.1665514  0.262575   3.404823   2.829423   3.2        0.356974   0.7629987  19.557     0.2909805  0.4242978  0.1576632 
