~Version
 VERS              .         2.0                           : CWLS LOG ASCII STANDARD - VERSION 2.0
 WRAP              .         NO                            : ONE LINE PER DEPTH STEP
 DLM               .         SPACE                         : DELIMITING CHARACTER(SPACE TAB OR COMMA)
~Well Information
#_______________________________________________________________________________
#
#PARAMETER_NAME    .UNIT     VALUE                         : DESCRIPTION
#_______________________________________________________________________________
STRT               .м        900                           : First reference value
STOP               .м        1384                          : Last reference value
STEP               .м        0.1                           : Step increment
NULL               .         -9999                         : Missing value
COMP               .                                       : Company
WELL               .         9402                          : Well name
FLD                .         УЗЕНЬ                         : Field
LOC                .                                       : Location
PROV               .                                       : Province
SRVC               .         SCH                           : Service Company
DATE               .         03.06.2009                    : Date
UWI                .                                       : Unique Well ID
Block              .         3а                            : 
Cartographic_reference_system .         GCS_WGS_1984                  : ESRI,PE_10_3_1- <?xml version="1.0" encoding="utf-16"?><ILateBoundCoordinateReferenceSystem name="GCS_WGS_1984"><AuthorityCode>EPSG,4326</AuthorityCode></ILateBoundCoordinateReferenceSystem>
Category           .         Нефтяная                      : 
Condition          .         В работе                      : 
CTRY               .                                       : Название страны
Date               .         14.10.1996                    : 
EREF               .m        233.8                         : 100.8
FILE               .                                       : 
Gorizont           .         17                            : 14
HZCS               .GCS_WGS_1984 WGS_1984_EASE-Grid_2.0_Global : ESRI,PE_10_3_1- <?xml version="1.0" encoding="utf-16"?><ILateBoundCoordinateReferenceSystem name="WGS_1984_EASE-Grid_2.0_Global"><AuthorityCode>EPSG,6933</AuthorityCode></ILateBoundCoordinateReferenceSystem>
Interpretator      .         Чиндаулова Г.К.               : 
Kupol              .         основной                      : osnovnoi
LATI               .dega     0.6319825406                  : GCS_WGS_1984
LONG               .dega     0.5715589808                  : GCS_WGS_1984
Mud                .         0                             : 
Mud_density        .         0                             : 
Mud_resistivity    .         0                             : 
NGDU               .         НГДУ-1                        : 
ORIGINALWELLNAME   .         9402                          : 
Spud_date          .         1996                          : 1961
TAPE               .                                       : 
Viscosity          .         0                             : 
X                  .m        55147.6                       : 46154
Y                  .m        80622.5                       : 85761.93
YEAR               .         2018                          : 
Исправлено         .         17                            : 
~Parameter Information Block
#_______________________________________________________________________________
#
#PARAMETER_NAME    .UNIT     VALUE                         : DESCRIPTION
#_______________________________________________________________________________
SET                .         LQC_KAZNIPI_Petrel            : 
PBBOTTOM           .м        1384                          : Глубина подошвы планшета
PBSCALE            .         1 _ 500                       : Вертикальный масштаб планшета
PBTOP              .м        900                           : Глубина кровли планшета
TLFamily_CALI      .         Caliper                       : 
TLFamily_CILD      .         Conductivity                  : 
TLFamily_COLL      .         Net Reservoir Flag            : 
TLFamily_CSAT      .         Fluid Code                    : 
TLFamily_DEPT      .         Measured Depth                : 
TLFamily_GR        .         Russian Gamma Ray             : 
TLFamily_LLS       .         Lateral Log Resistivity       : 
TLFamily_MINV      .         Micro Gradient Resistivity    : 
TLFamily_MNOR      .         Micro Resistivity             : 
TLFamily_NGLD      .         Neutron Far                   : 
TLFamily_PHIE      .         Effective Porosity            : 
TLFamily_PHIEN     .         Effective Porosity            : 
TLFamily_PHIT      .         Porosity                      : 
TLFamily_PRMB      .         Permeability                  : 
TLFamily_PRMB_DGR  .         Permeability                  : 
TLFamily_RT        .         Formation Resistivity         : 
TLFamily_SOIL_ARCHIE .         Oil Saturation                : 
TLFamily_SOIL_DW   .         Oil Saturation                : 
TLFamily_SP        .         Spontaneous Potential         : 
TLFamily_VSH_FIN   .         Shale Volume                  : 
TLFamily_VSH_GR    .         Shale Volume                  : 
TLFamily_VSH_SP    .         Shale Volume                  : 
~Curve Information
#_______________________________________________________________________________
#
#LOGNAME           .UNIT     LOG_ID                        : DESCRIPTION
#_______________________________________________________________________________
DEPT               .м                                      : Колонка глубины 
CALI               .м                                      : Каверномер 
CILD               .MS/M                                   : 4  CILD 
COLL               .unitless                               : Описание 
CSAT               .unitless                               : Описание 
GR                 .uR/h                                   : Гамма каротаж 
LLS                .Ohmm                                   : Боковой каротаж 
MINV               .Ohmm                                   : Микро-градиент зонд 
MNOR               .Ohmm                                   : Микро-потенциал зонд 
NGLD               .у.е.                                   : Показания зонда НГК-60 аппаратуры ДРСТ-3-90 
PHIE               .v/v                                    : Описание 
PHIEN              .v/v                                    :  
PHIT               .v/v                                    : Описание 
PRMB               .mD                                     :  
PRMB_DGR           .mD                                     :  
RT                 .ohmm                                   : УЭС пласта 
SOIL_ARCHIE        .v/v                                    :  
SOIL_DW            .v/v                                    :  
SP                 .mv                                     : Потенциал самополяризации 
VSH_FIN            .v/v                                    : Описание 
VSH_GR             .v/v                                    : Shale volume 
VSH_SP             .v/v                                    : Shale Volume 
~Ascii
# ...
1210.4     0.218      307.9645100000001 8          2          5.894      2.983      2.914      3.012      1.281      0.2010904  0.2010904  0.302725   14.85386   7.463163   2.983      0.4507861  0.5326183  26.566     0.3079838  0.2855424  0.3304251 
1210.5     0.217      306.5882899999998 8          2          5.901      2.937      2.959      3.064      1.289      0.1995524  0.1995524  0.300525   13.91079   7.380258   2.937      0.4489384  0.5309295  26.327     0.3059777  0.2868479  0.3251075 
1210.6     0.217      304.0623800000001 8          2          5.942      2.889      3.007      3.123      1.3        0.1960967  0.1960967  0.2975     12.00454   6.912837   2.889      0.4420256  0.5266396  26.091     0.3072826  0.2946148  0.3199505 
1210.7     0.216      301.99173  8          2          5.978      2.866      3.047      3.162      1.315      0.1915919  0.1915919  0.293375   9.906132   6.526885   2.866      0.4319151  0.5200782  25.872     0.3084337  0.3016078  0.3152596 
1210.8     0.215      298.15637  8          2          5.988      2.894      3.078      3.179      1.33       0.1878382  0.1878382  0.28925    8.440664   6.423553   2.894      0.4237495  0.5142444  25.671     0.3073086  0.3035795  0.3110376 
1210.9     0.215      295.62881  8          2          5.983      2.955      3.097      3.175      1.342      0.185263   0.185263   0.28595    7.562722   6.475015   2.955      0.4185071  0.5100989  25.505     0.3051122  0.302592   0.3076323 
1211       0.215      291.39896  8          2          5.95       3.051      3.115      3.16       1.349      0.1847296  0.1847296  0.284025   7.392627   6.825144   3.051      0.4191099  0.5093734  25.403     0.3008951  0.2961546  0.3056356 
1211.1     0.215      288.02023  8          2          5.885      3.165      3.138      3.151      1.353      0.1858181  0.1858181  0.282925   7.743894   7.571126   3.165      0.4246046  0.5113214  25.348     0.2942634  0.2838727  0.3046541 
1211.2     0.215      284.64148  8          2          5.814      3.275      3.166      3.159      1.352      0.1882035  0.1882035  0.2832     8.573194   8.479447   3.275      0.433622   0.5159122  25.341     0.2878683  0.2710383  0.3046983 
1211.3     0.215      281.26273  8          2          5.763      3.36       3.199      3.184      1.349      0.1903137  0.1903137  0.284025   9.380569   9.198429   3.36       0.4415302  0.5205871  25.382     0.2839737  0.2621789  0.3057685 
1211.4     0.215      277.8838799999999 8          2          5.726      3.437      3.24       3.225      1.345      0.1919715  0.1919715  0.285125   10.06782   9.757917   3.437      0.4480266  0.5249917  25.506     0.2822834  0.2559332  0.3086336 
1211.5     0.216      275.3569900000001 8          2          5.695      3.49       3.267      3.273      1.343      0.1925004  0.1925004  0.285675   10.29753   10.25278   3.49       0.4512506  0.5275662  25.737     0.2823471  0.2508152  0.313879  
1211.6     0.216      272.8283400000001 8          2          5.675      3.52       3.236      3.26       1.34       0.1925399  0.1925399  0.2865     10.31489   10.58529   3.52       0.4526838  0.5295206  26.086     0.2847275  0.2475676  0.3218873 
1211.7     0.217      268.5994300000001 8          2          5.668      3.519      3.171      3.239      1.339      0.1911051  0.1911051  0.286775   9.702612   10.7042    3.519      0.4498852  0.5292635  26.574     0.2899087  0.2464409  0.3333765 
1211.8     0.217      266.1646999999999 8          2          5.658      3.487      3.125      3.364      1.338      0.1892506  0.1892506  0.28705    8.964743   10.8764    3.487      0.4457644  0.5284742  27.167     0.2963618  0.2448402  0.3478834 
1211.9     0.218      264.39645  8          2          5.638      3.438      3.097      3.483      1.338      0.1870793  0.1870793  0.28705    8.171842   11.22913   3.438      0.4404414  0.5268876  27.805     0.3029416  0.24167    0.3642131 
1212       0.218      261.8980400000001 -9999      -9999      5.604      3.414      3.107      3.595      1.339      0.1848811  0.1848811  0.286775   7.440539   11.85523   3.414      0.4350312  0.525067   28.437     0.3087694  0.2363746  0.3811643 
1212.1     0.219      260.1909499999999 -9999      -9999      5.567      3.523      3.192      3.76       1.345      0.1814383  0.1814383  0.285125   6.424439   12.57631   3.523      0.4259014  0.5206117  29.025     0.3142022  0.2307437  0.3976606 
1212.2     0.218      259.33655  -9999      -9999      5.54       3.733      3.331      3.917      1.354      0.1774418  0.1774418  0.28265    5.417648   13.13003   3.733      0.415171   0.5149588  29.478     0.3188127  0.2267195  0.4109059 
1212.3     0.218      258.4819899999999 -9999      -9999      5.547      4.063      3.445      3.873      1.371      0.1709278  0.1709278  0.277975   4.103505   12.98418   4.063      0.39627    0.5043546  29.812     0.3243855  0.227756   0.421015  
1212.4     0.217      257.6275900000001 -9999      -9999      5.571      4.371      3.51       3.764      1.389      0.1642549  0.1642549  0.273025   3.087147   12.49629   4.371      0.375491   0.4927351  30.031     0.3296063  0.2313459  0.4278667 
1212.5     0.217      256.7730700000001 -9999      -9999      5.595      4.55       3.545      3.672      1.405      0.1588472  0.1588472  0.268625   2.451283   12.02674   4.55       0.356767   0.481824   30.103     0.33266    0.2349924  0.4303277 
1212.6     0.217      254.21336  -9999      -9999      5.615      4.488      3.575      3.582      1.415      0.1557137  0.1557137  0.265875   2.144632   11.64895   4.488      0.3446325  0.4744382  30.069     0.3338223  0.238075   0.4295695 
1212.7     0.217      252.50624  -9999      -9999      5.623      4.201      3.601      3.493      1.417      0.1552532  0.1552532  0.265325   2.102929   11.50117   4.201      0.3407968  0.4715619  30.001     0.3335508  0.2393194  0.4277822 
1212.8     0.218      249.0938099999999 -9999      -9999      5.619      3.775      3.645      3.446      1.405      0.1590392  0.1590392  0.268625   2.471444   11.57482   3.775      0.3512736  0.4771151  29.915     0.3320781  0.2386964  0.4254598 
1212.9     0.219      244.2261499999999 -9999      -9999      5.629      3.374      3.714      3.454      1.39       0.1633572  0.1633572  0.27275    2.971181   11.39157   3.374      0.3618934  0.483011   29.815     0.3314934  0.2402569  0.42273   
1213       0.22       243.1216699999999 -9999      -9999      5.663      3.101      3.755      3.439      1.361      0.170641   0.170641   0.280725   4.053619   10.78995   3.101      0.382247   0.4964278  29.766     0.333588   0.2456393  0.4215367 
1213.1     0.22       247.07872  -9999      -9999      5.717      2.958      3.741      3.401      1.329      0.177777   0.177777   0.289525   5.495653   9.89907    2.958      0.4007794  0.5098017  29.8       0.3386303  0.2544367  0.4228239 
1213.2     0.221      252.1704899999999 -9999      -9999      5.777      2.937      3.672      3.322      1.31       0.1807028  0.1807028  0.29475    6.226039   8.995203   2.937      0.4060171  0.5150369  29.917     0.3455977  0.2645816  0.4266137 
1213.3     0.222      260.3328599999999 -9999      -9999      5.83       2.921      3.55       3.237      1.3        0.1807689  0.1807689  0.2975     6.243613   8.265686   2.921      0.4027245  0.5149937  30.137     0.3537308  0.2738789  0.4335826 
1213.4     0.223      269.1835300000001 -9999      -9999      5.865      2.884      3.348      3.167      1.296      0.179071   0.179071   0.2986     5.807482   7.816672   2.884      0.3937954  0.5113719  30.471     0.362209   0.2801971  0.444221  
1213.5     0.224      276.8375199999999 -9999      -9999      5.893      2.783      3.231      3.113      1.31       0.1721975  0.1721975  0.29475    4.331855   7.475082   2.783      0.3665826  0.4962634  30.876     0.3713712  0.2853564  0.457386  
1213.6     0.225      280.62631  -9999      -9999      5.925      2.638      3.197      3.09       1.333      0.1624683  0.1624683  0.288425   2.860651   7.102938   2.638      0.3254049  0.4732846  31.314     0.3816871  0.2913692  0.472005  
