~Version
 VERS              .         2.0                           : CWLS LOG ASCII STANDARD - VERSION 2.0
 WRAP              .         NO                            : ONE LINE PER DEPTH STEP
 DLM               .         SPACE                         : DELIMITING CHARACTER(SPACE TAB OR COMMA)
~Well Information
#_______________________________________________________________________________
#
#PARAMETER_NAME    .UNIT     VALUE                         : DESCRIPTION
#_______________________________________________________________________________
STRT               .м        900                           : First reference value
STOP               .м        1384                          : Last reference value
STEP               .м        0.1                           : Step increment
NULL               .         -9999                         : Missing value
COMP               .                                       : Company
WELL               .         9402                          : Well name
FLD                .         УЗЕНЬ                         : Field
LOC                .                                       : Location
PROV               .                                       : Province
SRVC               .         SCH                           : Service Company
DATE               .         03.06.2009                    : Date
UWI                .                                       : Unique Well ID
Block              .         3а                            : 
Cartographic_reference_system .         GCS_WGS_1984                  : ESRI,PE_10_3_1- <?xml version="1.0" encoding="utf-16"?><ILateBoundCoordinateReferenceSystem name="GCS_WGS_1984"><AuthorityCode>EPSG,4326</AuthorityCode></ILateBoundCoordinateReferenceSystem>
Category           .         Нефтяная                      : 
Condition          .         В работе                      : 
CTRY               .                                       : Название страны
Date               .         14.10.1996                    : 
EREF               .m        233.8                         : 100.8
FILE               .                                       : 
Gorizont           .         17                            : 14
HZCS               .GCS_WGS_1984 WGS_1984_EASE-Grid_2.0_Global : ESRI,PE_10_3_1- <?xml version="1.0" encoding="utf-16"?><ILateBoundCoordinateReferenceSystem name="WGS_1984_EASE-Grid_2.0_Global"><AuthorityCode>EPSG,6933</AuthorityCode></ILateBoundCoordinateReferenceSystem>
Interpretator      .         Чиндаулова Г.К.               : 
Kupol              .         основной                      : osnovnoi
LATI               .dega     0.6319825406                  : GCS_WGS_1984
LONG               .dega     0.5715589808                  : GCS_WGS_1984
Mud                .         0                             : 
Mud_density        .         0                             : 
Mud_resistivity    .         0                             : 
NGDU               .         НГДУ-1                        : 
ORIGINALWELLNAME   .         9402                          : 
Spud_date          .         1996                          : 1961
TAPE               .                                       : 
Viscosity          .         0                             : 
X                  .m        55147.6                       : 46154
Y                  .m        80622.5                       : 85761.93
YEAR               .         2018                          : 
Исправлено         .         17                            : 
~Parameter Information Block
#_______________________________________________________________________________
#
#PARAMETER_NAME    .UNIT     VALUE                         : DESCRIPTION
#_______________________________________________________________________________
SET                .         LQC_KAZNIPI_Petrel            : 
PBBOTTOM           .м        1384                          : Глубина подошвы планшета
PBSCALE            .         1 _ 500                       : Вертикальный масштаб планшета
PBTOP              .м        900                           : Глубина кровли планшета
TLFamily_CALI      .         Caliper                       : 
TLFamily_CILD      .         Conductivity                  : 
TLFamily_COLL      .         Net Reservoir Flag            : 
TLFamily_CSAT      .         Fluid Code                    : 
TLFamily_DEPT      .         Measured Depth                : 
TLFamily_GR        .         Russian Gamma Ray             : 
TLFamily_LLS       .         Lateral Log Resistivity       : 
TLFamily_MINV      .         Micro Gradient Resistivity    : 
TLFamily_MNOR      .         Micro Resistivity             : 
TLFamily_NGLD      .         Neutron Far                   : 
TLFamily_PHIE      .         Effective Porosity            : 
TLFamily_PHIEN     .         Effective Porosity            : 
TLFamily_PHIT      .         Porosity                      : 
TLFamily_PRMB      .         Permeability                  : 
TLFamily_PRMB_DGR  .         Permeability                  : 
TLFamily_RT        .         Formation Resistivity         : 
TLFamily_SOIL_ARCHIE .         Oil Saturation                : 
TLFamily_SOIL_DW   .         Oil Saturation                : 
TLFamily_SP        .         Spontaneous Potential         : 
TLFamily_VSH_FIN   .         Shale Volume                  : 
TLFamily_VSH_GR    .         Shale Volume                  : 
TLFamily_VSH_SP    .         Shale Volume                  : 
~Curve Information
#_______________________________________________________________________________
#
#LOGNAME           .UNIT     LOG_ID                        : DESCRIPTION
#_______________________________________________________________________________
DEPT               .м                                      : Колонка глубины 
CALI               .м                                      : Каверномер 
CILD               .MS/M                                   : 4  CILD 
COLL               .unitless                               : Описание 
CSAT               .unitless                               : Описание 
GR                 .uR/h                                   : Гамма каротаж 
LLS                .Ohmm                                   : Боковой каротаж 
MINV               .Ohmm                                   : Микро-градиент зонд 
MNOR               .Ohmm                                   : Микро-потенциал зонд 
NGLD               .у.е.                                   : Показания зонда НГК-60 аппаратуры ДРСТ-3-90 
PHIE               .v/v                                    : Описание 
PHIEN              .v/v                                    :  
PHIT               .v/v                                    : Описание 
PRMB               .mD                                     :  
PRMB_DGR           .mD                                     :  
RT                 .ohmm                                   : УЭС пласта 
SOIL_ARCHIE        .v/v                                    :  
SOIL_DW            .v/v                                    :  
SP                 .mv                                     : Потенциал самополяризации 
VSH_FIN            .v/v                                    : Описание 
VSH_GR             .v/v                                    : Shale volume 
VSH_SP             .v/v                                    : Shale Volume 
~Ascii
# ...
1127.9     0.243      381.7826200000001 -9999      -9999      6.597      1.764      2.572      2.152      1.308      0.1258781  0.1258781  0.2953     0.6007954  3.689337   1.764      0.05110726 0.3650173  42.459     0.5133996  0.380724   0.6460752 
1128       0.241      384.3482099999999 -9999      -9999      6.549      1.813      2.642      2.231      1.319      0.1282498  0.1282498  0.292275   0.6647455  3.985765   1.813      0.06625701 0.3646421  41.981     0.4970461  0.3688971  0.6251951 
1128.1     0.239      387.0247200000002 -9999      -9999      6.527      1.863      2.749      2.277      1.328      0.1301291  0.1301291  0.2898     0.7202201  4.129473   1.863      0.07840562 0.3645432  41.484     0.4838512  0.3636     0.6041024 
1128.2     0.238      388.6249700000001 -9999      -9999      6.524      1.92       2.871      2.312      1.332      0.1322762  0.1322762  0.2887     0.7892854  4.149466   1.92       0.09238905 0.3670983  41.025     0.4740115  0.3628836  0.5851395 
1128.3     0.237      388.7697100000001 -9999      -9999      6.53       1.98       3.001      2.352      1.329      0.1353582  0.1353582  0.289525   0.9001612  4.109574   1.98       0.1118648  0.3740141  40.634     0.4671721  0.3643179  0.5700264 
1128.4     0.236      390.4961499999999 -9999      -9999      6.536      2.042      3.1        2.38       1.32       0.1394817  0.1394817  0.292      1.073241   4.070068   2.042      0.1367333  0.3848383  40.33      0.4621767  0.3657577  0.5585957 
1128.5     0.236      389.8636499999998 -9999      -9999      6.546      2.1        3.168      2.369      1.306      0.1443862  0.1443862  0.29585    1.322942   4.005062   2.1        0.1644576  0.3982579  40.09      0.4589812  0.3681703  0.5497921 
1128.6     0.235      388.8257399999998 -9999      -9999      6.536      2.139      3.206      2.324      1.294      0.1490767  0.1490767  0.29915    1.615922   4.070068   2.139      0.1891922  0.4099419  39.921     0.4547675  0.3657577  0.5437773 
1128.7     0.234      387.13672  -9999      -9999      6.512      2.16       3.131      2.236      1.286      0.152779   0.152779   0.30135    1.892329   4.230414   2.16       0.2071846  0.4179644  39.821     0.450215   0.360032   0.540398  
1128.8     0.234      386.3014800000001 -9999      -9999      6.495      2.173      2.949      2.091      1.282      0.1548046  0.1548046  0.30245    2.063076   4.347804   2.173      0.2155818  0.4213117  39.768     0.4474103  0.3560305  0.53879   
1128.9     0.233      386.3201300000002 -9999      -9999      6.514      2.175      2.676      1.904      1.28       0.1547701  0.1547701  0.303      2.060044   4.216815   2.175      0.2127661  0.4199479  39.733     0.4491814  0.3605057  0.5378572 
1129       0.233      385.4849499999999 -9999      -9999      6.562      2.17       2.403      1.729      1.276      0.154123   0.154123   0.3041     2.003961   3.903208   2.17       0.2047172  0.4166336  39.697     0.4544758  0.3720634  0.5368882 
1129.1     0.233      386.35745  -9999      -9999      6.648      2.137      2.135      1.586      1.265      0.1536261  0.1536261  0.307125   1.961946   3.398503   2.137      0.1944401  0.4136887  39.679     0.4651481  0.3937056  0.5365905 
1129.2     0.234      388.5291700000002 -9999      -9999      6.784      2.061      1.968      1.479      1.248      0.1523848  0.1523848  0.3118     1.860778   2.730187   2.061      0.1788327  0.4104389  39.643     0.4830763  0.4305288  0.5356237 
1129.3     0.234      394.13043  -9999      -9999      6.96       1.946      1.902      1.413      1.227      0.1499045  0.1499045  0.317575   1.673994   2.056495   1.946      0.155558   0.4058535  39.558     0.5080923  0.483341   0.5328435 
1129.4     0.235      403.60291  -9999      -9999      7.117      1.807      1.939      1.385      1.21       0.14668    0.14668    0.32225    1.458909   1.59716    1.807      0.1270904  0.3984912  39.421     0.5320302  0.5358956  0.5281648 
1129.5     0.236      419.6896100000001 -9999      -9999      7.249      1.65       1.988      1.393      1.202      0.141738   0.141738   0.32445    1.18165    1.291369   1.65       0.08856153 0.38614    39.266     0.5536729  0.5844787  0.522867  
1129.6     0.237      438.3267799999998 -9999      -9999      7.343      1.513      2.044      1.421      1.204      0.1360075  0.1360075  0.3239     0.9254384  1.109999   1.513      0          0.3698036  39.094     0.5693711  0.621738   0.5170042 
1129.7     0.237      452.7752099999998 -9999      -9999      7.396      1.413      2.096      1.463      1.212      0.1311278  0.1311278  0.3217     0.7515581  1.019209   1.413      0          0.3534141  38.922     0.5774916  0.6437836  0.5111995 
1129.8     0.238      466.6628699999999 -9999      -9999      7.418      1.346      2.142      1.514      1.224      0.127036   0.127036   0.3184     0.6312093  0.9837392  1.346      0          0.3375019  38.783     0.5798908  0.6531628  0.5066189 
1129.9     0.238      478.6387899999999 -9999      -9999      7.435      1.303      2.183      1.566      1.238      0.1223301  0.1223301  0.31455    0.5164255  0.9571792  1.303      0          0.3197472  38.712     0.5824846  0.6605036  0.5044656 
1130       0.238      489.8440899999999 -9999      -9999      7.455      1.287      2.22       1.619      1.252      0.1169155  0.1169155  0.3107     0.4099365  0.9268485  1.287      0          0.3009144  38.723     0.5872258  0.6692457  0.5052059 
1130.1     0.237      497.5673200000001 -9999      -9999      7.489      1.285      2.251      1.675      1.265      0.1102956  0.1102956  0.307125   0.3091014  0.8774756  1.285      0          0.2791235  38.807     0.5964526  0.6843735  0.5085317 
1130.2     0.236      501.8533899999998 -9999      -9999      7.523      1.298      2.283      1.734      1.28       0.1026707  0.1026707  0.303      0.22329    0.8307323  1.298      0          0.2533696  38.958     0.6070584  0.6998433  0.5142735 
1130.3     0.235      505.2791699999999 -9999      -9999      7.546      1.334      2.329      1.796      1.297      0.09517188 0.09517188 0.298325   0.1621706  0.8005322  1.334      0          0.2255738  39.127     0.6156155  0.7105061  0.5207249 
1130.4     0.235      508.7081599999999 -9999      -9999      7.553      1.382      2.393      1.859      1.309      0.09046622 0.09046622 0.295025   0.132682   0.7915606  1.382      0          0.2084019  39.261     0.6198751  0.7137834  0.5259668 
1130.5     0.235      511.2895500000003 -9999      -9999      7.542      1.444      2.473      1.917      1.315      0.08938092 0.08938092 0.293375   0.1266804  0.8057045  1.444      0          0.2057602  39.298     0.6181638  0.70864    0.5276876 
1130.6     0.235      513.0162999999998 -9999      -9999      7.494      1.519      2.571      1.975      1.32       0.09232543 0.09232543 0.292      0.1436313  0.8704395  1.519      0          0.2178376  39.174     0.6050744  0.6866269  0.5235219 
1130.7     0.235      510.5491599999999 -9999      -9999      7.381      1.592      2.686      2.047      1.325      0.100653   0.100653   0.290625   0.2048779  1.044123   1.592      0          0.2449076  38.897     0.5756728  0.6374663  0.5138793 
1130.8     0.234      506.3532399999999 -9999      -9999      7.258      1.655      2.804      2.134      1.332      0.1088638  0.1088638  0.2887     0.2907896  1.272792   1.655      0          0.2699117  38.551     0.5449583  0.5879472  0.5019695 
1130.9     0.234      493.67035  -9999      -9999      7.135      1.716      2.917      2.229      1.342      0.1158624  0.1158624  0.28595    0.3919319  1.551538   1.716      0          0.2889781  38.154     0.515417   0.542275   0.488559  
1131       0.233      482.3271799999998 -9999      -9999      7.012      1.772      3.011      2.332      1.353      0.1222661  0.1222661  0.282925   0.5150175  1.891332   1.772      0          0.3055062  37.699     0.4868453  0.5001504  0.4735401 
1131.1     0.232      466.67554  -9999      -9999      6.912      1.819      3.084      2.434      1.36       0.1280803  0.1280803  0.281      0.6599577  2.221727   1.819      0          0.3207456  37.229     0.463393   0.4683265  0.4584594 
