~Version
 VERS              .         2.0                           : CWLS LOG ASCII STANDARD - VERSION 2.0
 WRAP              .         NO                            : ONE LINE PER DEPTH STEP
 DLM               .         SPACE                         : DELIMITING CHARACTER(SPACE TAB OR COMMA)
~Well Information
#_______________________________________________________________________________
#
#PARAMETER_NAME    .UNIT     VALUE                         : DESCRIPTION
#_______________________________________________________________________________
STRT               .м        900                           : First reference value
STOP               .м        1384                          : Last reference value
STEP               .м        0.1                           : Step increment
NULL               .         -9999                         : Missing value
COMP               .                                       : Company
WELL               .         9402                          : Well name
FLD                .         УЗЕНЬ                         : Field
LOC                .                                       : Location
PROV               .                                       : Province
SRVC               .         SCH                           : Service Company
DATE               .         03.06.2009                    : Date
UWI                .                                       : Unique Well ID
Block              .         3а                            : 
Cartographic_reference_system .         GCS_WGS_1984                  : ESRI,PE_10_3_1- <?xml version="1.0" encoding="utf-16"?><ILateBoundCoordinateReferenceSystem name="GCS_WGS_1984"><AuthorityCode>EPSG,4326</AuthorityCode></ILateBoundCoordinateReferenceSystem>
Category           .         Нефтяная                      : 
Condition          .         В работе                      : 
CTRY               .                                       : Название страны
Date               .         14.10.1996                    : 
EREF               .m        233.8                         : 100.8
FILE               .                                       : 
Gorizont           .         17                            : 14
HZCS               .GCS_WGS_1984 WGS_1984_EASE-Grid_2.0_Global : ESRI,PE_10_3_1- <?xml version="1.0" encoding="utf-16"?><ILateBoundCoordinateReferenceSystem name="WGS_1984_EASE-Grid_2.0_Global"><AuthorityCode>EPSG,6933</AuthorityCode></ILateBoundCoordinateReferenceSystem>
Interpretator      .         Чиндаулова Г.К.               : 
Kupol              .         основной                      : osnovnoi
LATI               .dega     0.6319825406                  : GCS_WGS_1984
LONG               .dega     0.5715589808                  : GCS_WGS_1984
Mud                .         0                             : 
Mud_density        .         0                             : 
Mud_resistivity    .         0                             : 
NGDU               .         НГДУ-1                        : 
ORIGINALWELLNAME   .         9402                          : 
Spud_date          .         1996                          : 1961
TAPE               .                                       : 
Viscosity          .         0                             : 
X                  .m        55147.6                       : 46154
Y                  .m        80622.5                       : 85761.93
YEAR               .         2018                          : 
Исправлено         .         17                            : 
~Parameter Information Block
#_______________________________________________________________________________
#
#PARAMETER_NAME    .UNIT     VALUE                         : DESCRIPTION
#_______________________________________________________________________________
SET                .         LQC_KAZNIPI_Petrel            : 
PBBOTTOM           .м        1384                          : Глубина подошвы планшета
PBSCALE            .         1 _ 500                       : Вертикальный масштаб планшета
PBTOP              .м        900                           : Глубина кровли планшета
TLFamily_CALI      .         Caliper                       : 
TLFamily_CILD      .         Conductivity                  : 
TLFamily_COLL      .         Net Reservoir Flag            : 
TLFamily_CSAT      .         Fluid Code                    : 
TLFamily_DEPT      .         Measured Depth                : 
TLFamily_GR        .         Russian Gamma Ray             : 
TLFamily_LLS       .         Lateral Log Resistivity       : 
TLFamily_MINV      .         Micro Gradient Resistivity    : 
TLFamily_MNOR      .         Micro Resistivity             : 
TLFamily_NGLD      .         Neutron Far                   : 
TLFamily_PHIE      .         Effective Porosity            : 
TLFamily_PHIEN     .         Effective Porosity            : 
TLFamily_PHIT      .         Porosity                      : 
TLFamily_PRMB      .         Permeability                  : 
TLFamily_PRMB_DGR  .         Permeability                  : 
TLFamily_RT        .         Formation Resistivity         : 
TLFamily_SOIL_ARCHIE .         Oil Saturation                : 
TLFamily_SOIL_DW   .         Oil Saturation                : 
TLFamily_SP        .         Spontaneous Potential         : 
TLFamily_VSH_FIN   .         Shale Volume                  : 
TLFamily_VSH_GR    .         Shale Volume                  : 
TLFamily_VSH_SP    .         Shale Volume                  : 
~Curve Information
#_______________________________________________________________________________
#
#LOGNAME           .UNIT     LOG_ID                        : DESCRIPTION
#_______________________________________________________________________________
DEPT               .м                                      : Колонка глубины 
CALI               .м                                      : Каверномер 
CILD               .MS/M                                   : 4  CILD 
COLL               .unitless                               : Описание 
CSAT               .unitless                               : Описание 
GR                 .uR/h                                   : Гамма каротаж 
LLS                .Ohmm                                   : Боковой каротаж 
MINV               .Ohmm                                   : Микро-градиент зонд 
MNOR               .Ohmm                                   : Микро-потенциал зонд 
NGLD               .у.е.                                   : Показания зонда НГК-60 аппаратуры ДРСТ-3-90 
PHIE               .v/v                                    : Описание 
PHIEN              .v/v                                    :  
PHIT               .v/v                                    : Описание 
PRMB               .mD                                     :  
PRMB_DGR           .mD                                     :  
RT                 .ohmm                                   : УЭС пласта 
SOIL_ARCHIE        .v/v                                    :  
SOIL_DW            .v/v                                    :  
SP                 .mv                                     : Потенциал самополяризации 
VSH_FIN            .v/v                                    : Описание 
VSH_GR             .v/v                                    : Shale volume 
VSH_SP             .v/v                                    : Shale Volume 
~Ascii
# ...
1240.1     0.237      449.1667500000002 -9999      -9999      6.955      1.741      2.819      1.499      1.24       0.1048417  0.1048417  0.314      0.244952   1.372736   1.741      0          0.3166639  40.449     0.633813   0.5700759  0.6975499 
1240.2     0.237      450.01929  -9999      -9999      6.952      1.744      2.832      1.507      1.245      0.1046191  0.1046191  0.312625   0.2426375  1.379323   1.744      0          0.3139991  40.287     0.6303208  0.5689627  0.6916789 
1240.3     0.237      450.8718299999999 -9999      -9999      6.942      1.744      2.859      1.512      1.252      0.104281   0.104281   0.3107     0.2391639  1.401513   1.744      0          0.3102547  40.123     0.6255121  0.5652671  0.685757  
1240.4     0.237      451.7244000000001 -9999      -9999      6.932      1.741      2.89       1.514      1.258      0.1043421  0.1043421  0.30905    0.2397873  1.424057   1.741      0          0.3080017  39.941     0.6203271  0.5615957  0.6790584 
1240.5     0.238      452.5769700000002 -9999      -9999      6.912      1.741      2.926      1.514      1.263      0.1053897  0.1053897  0.307675   0.2507441  1.470241   1.741      0          0.3088221  39.742     0.6129858  0.5543242  0.6716474 
1240.6     0.24       453.4295299999999 -9999      -9999      6.897      1.742      2.954      1.515      1.267      0.1063837  0.1063837  0.306575   0.2616032  1.50586    1.742      0          0.3099017  39.544     0.6066402  0.5489323  0.6643482 
1240.7     0.242      454.2821000000001 -9999      -9999      6.903      1.746      2.98       1.513      1.272      0.1057379  0.1057379  0.3052     0.2544954  1.491511   1.746      0          0.307009   39.361     0.6044307  0.5510827  0.6577788 
1240.8     0.244      454.2810699999999 -9999      -9999      6.953      1.751      3.003      1.511      1.279      0.101862   0.101862   0.303275   0.2157195  1.377125   1.751      0          0.2958046  39.18      0.6103424  0.5693336  0.6513512 
1240.9     0.246      454.2800000000001 -9999      -9999      7.056      1.753      3.029      1.509      1.287      0.09403424 0.09403424 0.301075   0.15449    1.16839    1.753      0          0.2734862  39.021     0.6273963  0.6088576  0.645935  
1241       0.247      453.4253499999999 -9999      -9999      7.158      1.757      3.055      1.507      1.293      0.0860384  0.0860384  0.299425   0.1098495  0.9928786  1.757      0          0.2497764  38.908     0.6466261  0.6507012  0.642551  
1241.1     0.249      453.1576499999999 -9999      -9999      7.181      1.762      3.076      1.504      1.295      0.08393709 0.08393709 0.298875   0.1004331  0.9570963  1.762      0          0.2435582  38.863     0.651327   0.6605271  0.6421269 
1241.2     0.251      451.71594  -9999      -9999      7.152      1.765      3.083      1.505      1.293      0.08628201 0.08628201 0.299425   0.1109968  1.002431   1.765      0          0.2522067  38.862     0.6458879  0.648162   0.6436137 
1241.3     0.252      450.00757  -9999      -9999      7.096      1.764      3.075      1.506      1.289      0.09079582 0.09079582 0.300525   0.1345603  1.096139   1.764      0          0.2675033  38.885     0.6355429  0.6249362  0.6461496 
1241.4     0.252      448.9747300000001 -9999      -9999      7.001      1.762      3.063      1.51       1.287      0.09690621 0.09690621 0.301075   0.1746209  1.275576   1.762      0          0.2848659  38.937     0.6186934  0.5874227  0.6499641 
1241.5     0.25       447.4444599999999 -9999      -9999      6.909      1.757      3.045      1.518      1.289      0.1012036  0.1012036  0.300525   0.2097459  1.477297   1.757      0          0.2951098  39.011     0.6040043  0.5532415  0.6547672 
1241.6     0.246      445.7360199999999 -9999      -9999      6.88       1.754      3.025      1.53       1.294      0.1007328  0.1007328  0.29915    0.2055763  1.547272   1.754      0          0.2918508  39.086     0.6012644  0.542885   0.6596437 
1241.7     0.243      444.0276800000002 -9999      -9999      6.884      1.755      3.002      1.542      1.301      0.09771276 0.09771276 0.297225   0.1807322  1.537427   1.755      0          0.2812917  39.168     0.6045825  0.5443018  0.6648633 
1241.8     0.24       443.1728199999999 -9999      -9999      6.878      1.759      2.98       1.55       1.304      0.09643067 0.09643067 0.2964     0.171115   1.552218   1.759      0          0.2762706  39.242     0.6059676  0.5421778  0.6697575 
1241.9     0.239      442.31805  -9999      -9999      6.866      1.765      2.963      1.554      1.304      0.09656096 0.09656096 0.2964     0.1720685  1.582229   1.765      0          0.2761934  39.283     0.6055728  0.5379549  0.6731908 
1242       0.24       441.46332  -9999      -9999      6.859      1.769      2.947      1.551      1.301      0.09748255 0.09748255 0.297225   0.1789663  1.600002   1.769      0          0.2792585  39.289     0.6052802  0.5355067  0.6750537 
1242.1     0.241      441.4621900000003 -9999      -9999      6.856      1.766      2.939      1.543      1.296      0.09475285 0.09475285 0.2986     0.1592981  1.433661   1.766      0          0.282493   39.261     0.6177186  0.5600565  0.6753808 
1242.2     0.242      441.46115  -9999      -9999      6.859      1.759      2.933      1.533      1.292      0.09599603 0.09599603 0.2997     0.1679722  1.426722   1.759      0          0.2864174  39.182     0.6172847  0.5611671  0.6734024 
1242.3     0.242      442.2258600000001 -9999      -9999      6.863      1.753      2.922      1.52       1.289      0.0970281  0.0970281  0.300525   0.175531   1.417525   1.753      0          0.2895206  39.086     0.6166573  0.562651   0.6706635 
1242.4     0.241      443.0481300000001 -9999      -9999      6.866      1.746      2.907      1.506      1.285      0.09854226 0.09854226 0.301625   0.1872405  1.410664   1.746      0          0.2942123  38.97      0.6154023  0.5637667  0.6670379 
1242.5     0.239      444.0188899999998 -9999      -9999      6.87       1.737      2.883      1.49       1.281      0.1000948  0.1000948  0.302725   0.2000585  1.401571   1.737      0          0.2989117  38.84      0.6140308  0.5652575  0.6628042 
1242.6     0.238      444.8715199999999 -9999      -9999      6.883      1.727      2.859      1.473      1.275      0.1016357  0.1016357  0.304375   0.2136472  1.372416   1.727      0          0.3043108  38.71      0.6143616  0.5701303  0.6585929 
1242.7     0.237      446.5778500000002 -9999      -9999      6.907      1.72       2.839      1.457      1.269      0.1023505  0.1023505  0.306025   0.2202613  1.320175   1.72       0          0.3076448  38.597     0.6171953  0.5792369  0.6551537 
1242.8     0.236      448.28412  -9999      -9999      6.941      1.71       2.823      1.448      1.262      0.1025474  0.1025474  0.30795    0.2221188  1.249555   1.71       0          0.3103142  38.501     0.6224321  0.5923874  0.6524767 
1242.9     0.236      449.9904799999998 -9999      -9999      6.962      1.698      2.808      1.444      1.26       0.1020282  0.1020282  0.3085     0.2172541  1.207836   1.698      0          0.3090731  38.425     0.6256721  0.6006584  0.6506858 
1243       0.236      450.8431699999998 -9999      -9999      6.955      1.685      2.799      1.447      1.265      0.1011809  0.1011809  0.307125   0.2095433  1.221585   1.685      0          0.3044241  38.38      0.624073   0.5978886  0.6502575 
1243.1     0.236      452.54953  -9999      -9999      6.908      1.674      2.792      1.456      1.274      0.1015521  0.1015521  0.30465    0.2128873  1.318043   1.674      0          0.3012514  38.368     0.6154481  0.5796195  0.6512767 
1243.2     0.237      453.4021900000002 -9999      -9999      6.829      1.665      2.793      1.471      1.283      0.1035153  0.1035153  0.302175   0.2314793  1.497639   1.665      0          0.3016744  38.391     0.6019992  0.5501607  0.6538376 
1243.3     0.237      454.7299799999999 -9999      -9999      6.737      1.662      2.798      1.487      1.291      0.1061173  0.1061173  0.299975   0.2586477  1.737857   1.662      0          0.303946   38.431     0.5874475  0.517736   0.6571589 
