~Version
 VERS              .         2.0                           : CWLS LOG ASCII STANDARD - VERSION 2.0
 WRAP              .         NO                            : ONE LINE PER DEPTH STEP
 DLM               .         SPACE                         : DELIMITING CHARACTER(SPACE TAB OR COMMA)
~Well Information
#_______________________________________________________________________________
#
#PARAMETER_NAME    .UNIT     VALUE                         : DESCRIPTION
#_______________________________________________________________________________
STRT               .м        900                           : First reference value
STOP               .м        1384                          : Last reference value
STEP               .м        0.1                           : Step increment
NULL               .         -9999                         : Missing value
COMP               .                                       : Company
WELL               .         9402                          : Well name
FLD                .         УЗЕНЬ                         : Field
LOC                .                                       : Location
PROV               .                                       : Province
SRVC               .         SCH                           : Service Company
DATE               .         03.06.2009                    : Date
UWI                .                                       : Unique Well ID
Block              .         3а                            : 
Cartographic_reference_system .         GCS_WGS_1984                  : ESRI,PE_10_3_1- <?xml version="1.0" encoding="utf-16"?><ILateBoundCoordinateReferenceSystem name="GCS_WGS_1984"><AuthorityCode>EPSG,4326</AuthorityCode></ILateBoundCoordinateReferenceSystem>
Category           .         Нефтяная                      : 
Condition          .         В работе                      : 
CTRY               .                                       : Название страны
Date               .         14.10.1996                    : 
EREF               .m        233.8                         : 100.8
FILE               .                                       : 
Gorizont           .         17                            : 14
HZCS               .GCS_WGS_1984 WGS_1984_EASE-Grid_2.0_Global : ESRI,PE_10_3_1- <?xml version="1.0" encoding="utf-16"?><ILateBoundCoordinateReferenceSystem name="WGS_1984_EASE-Grid_2.0_Global"><AuthorityCode>EPSG,6933</AuthorityCode></ILateBoundCoordinateReferenceSystem>
Interpretator      .         Чиндаулова Г.К.               : 
Kupol              .         основной                      : osnovnoi
LATI               .dega     0.6319825406                  : GCS_WGS_1984
LONG               .dega     0.5715589808                  : GCS_WGS_1984
Mud                .         0                             : 
Mud_density        .         0                             : 
Mud_resistivity    .         0                             : 
NGDU               .         НГДУ-1                        : 
ORIGINALWELLNAME   .         9402                          : 
Spud_date          .         1996                          : 1961
TAPE               .                                       : 
Viscosity          .         0                             : 
X                  .m        55147.6                       : 46154
Y                  .m        80622.5                       : 85761.93
YEAR               .         2018                          : 
Исправлено         .         17                            : 
~Parameter Information Block
#_______________________________________________________________________________
#
#PARAMETER_NAME    .UNIT     VALUE                         : DESCRIPTION
#_______________________________________________________________________________
SET                .         LQC_KAZNIPI_Petrel            : 
PBBOTTOM           .м        1384                          : Глубина подошвы планшета
PBSCALE            .         1 _ 500                       : Вертикальный масштаб планшета
PBTOP              .м        900                           : Глубина кровли планшета
TLFamily_CALI      .         Caliper                       : 
TLFamily_CILD      .         Conductivity                  : 
TLFamily_COLL      .         Net Reservoir Flag            : 
TLFamily_CSAT      .         Fluid Code                    : 
TLFamily_DEPT      .         Measured Depth                : 
TLFamily_GR        .         Russian Gamma Ray             : 
TLFamily_LLS       .         Lateral Log Resistivity       : 
TLFamily_MINV      .         Micro Gradient Resistivity    : 
TLFamily_MNOR      .         Micro Resistivity             : 
TLFamily_NGLD      .         Neutron Far                   : 
TLFamily_PHIE      .         Effective Porosity            : 
TLFamily_PHIEN     .         Effective Porosity            : 
TLFamily_PHIT      .         Porosity                      : 
TLFamily_PRMB      .         Permeability                  : 
TLFamily_PRMB_DGR  .         Permeability                  : 
TLFamily_RT        .         Formation Resistivity         : 
TLFamily_SOIL_ARCHIE .         Oil Saturation                : 
TLFamily_SOIL_DW   .         Oil Saturation                : 
TLFamily_SP        .         Spontaneous Potential         : 
TLFamily_VSH_FIN   .         Shale Volume                  : 
TLFamily_VSH_GR    .         Shale Volume                  : 
TLFamily_VSH_SP    .         Shale Volume                  : 
~Curve Information
#_______________________________________________________________________________
#
#LOGNAME           .UNIT     LOG_ID                        : DESCRIPTION
#_______________________________________________________________________________
DEPT               .м                                      : Колонка глубины 
CALI               .м                                      : Каверномер 
CILD               .MS/M                                   : 4  CILD 
COLL               .unitless                               : Описание 
CSAT               .unitless                               : Описание 
GR                 .uR/h                                   : Гамма каротаж 
LLS                .Ohmm                                   : Боковой каротаж 
MINV               .Ohmm                                   : Микро-градиент зонд 
MNOR               .Ohmm                                   : Микро-потенциал зонд 
NGLD               .у.е.                                   : Показания зонда НГК-60 аппаратуры ДРСТ-3-90 
PHIE               .v/v                                    : Описание 
PHIEN              .v/v                                    :  
PHIT               .v/v                                    : Описание 
PRMB               .mD                                     :  
PRMB_DGR           .mD                                     :  
RT                 .ohmm                                   : УЭС пласта 
SOIL_ARCHIE        .v/v                                    :  
SOIL_DW            .v/v                                    :  
SP                 .mv                                     : Потенциал самополяризации 
VSH_FIN            .v/v                                    : Описание 
VSH_GR             .v/v                                    : Shale volume 
VSH_SP             .v/v                                    : Shale Volume 
~Ascii
# ...
1184       0.237      322.7387699999999 -9999      -9999      6.956      1.848      3.604      2.117      1.269      0.1412615  0.1412615  0.306025   1.157879   1.370547   1.848      0.1984745  0.440486   32.615     0.4992834  0.5704475  0.4281194 
1184.1     0.236      328.1641200000002 -9999      -9999      6.894      1.857      3.634      2.176      1.267      0.1460362  0.1460362  0.306575   1.419391   1.513086   1.857      0.219464   0.4457997  32.506     0.4864814  0.5478603  0.4251024 
1184.2     0.236      331.5735800000002 -9999      -9999      6.808      1.874      3.665      2.226      1.26       0.1539421  0.1539421  0.3085     1.988562   1.735668   1.874      0.254252   0.4572186  32.283     0.4683573  0.5180025  0.418712  
1184.3     0.235      337.5477899999999 -9999      -9999      6.702      1.898      3.718      2.268      1.257      0.161448   0.161448   0.309325   2.738837   2.055563   1.898      0.2845077  0.4665178  32.073     0.4481122  0.4834304  0.412794  
1184.4     0.234      341.5408299999999 -9999      -9999      6.6        1.932      3.786      2.321      1.261      0.1668677  0.1668677  0.308225   3.451062   2.418929   1.932      0.3043547  0.4708473  31.773     0.4283554  0.4523431  0.4043677 
1184.5     0.233      344.3666099999999 -9999      -9999      6.506      1.963      3.855      2.38       1.27       0.1707762  0.1707762  0.30575    4.077065   2.810417   1.963      0.3177435  0.4719585  31.346     0.4090115  0.4254672  0.3925558 
1184.6     0.232      346.9177899999999 -9999      -9999      6.419      1.981      3.905      2.445      1.281      0.173918   0.173918   0.302725   4.661673   3.22899    1.981      0.328291   0.4718572  30.828     0.3903242  0.4020177  0.3786306 
1184.7     0.232      351.1821300000001 -9999      -9999      6.325      1.987      3.935      2.549      1.294      0.1767646  0.1767646  0.29915    5.26341    3.751583   1.987      0.3384239  0.4715247  30.248     0.3708648  0.3781318  0.3635979 
1184.8     0.231      353.5196499999999 -9999      -9999      6.235      1.99       3.942      2.673      1.301      0.1817922  0.1817922  0.297225   6.522152   4.331014   1.99       0.3557532  0.4755673  29.416     0.3497963  0.3565935  0.3429992 
1184.9     0.229      355.4336500000002 -9999      -9999      6.144      1.995      3.878      2.739      1.3        0.1890447  0.1890447  0.2975     8.886378   5.007929   1.995      0.380383   0.4852294  28.479     0.3286524  0.3360628  0.3212421 
1185       0.227      356.9504700000001 -9999      -9999      6.06       2.017      3.702      2.801      1.293      0.1974765  0.1974765  0.299425   12.73214   5.726314   2.017      0.4075409  0.4980665  27.481     0.3089349  0.3181621  0.2997078 
1185.1     0.225      357.81305  -9999      -9999      5.981      2.061      3.535      2.857      1.284      0.2057248  0.2057248  0.3019     18.10005   6.495715   2.061      0.4335022  0.5117498  26.528     0.2914401  0.3021979  0.2806822 
1185.2     0.222      357.6856700000002 1          2          5.904      2.155      3.378      2.895      1.277      0.2125469  0.2125469  0.303825   24.21263   7.345013   2.155      0.4547405  0.5234638  25.725     0.2766004  0.2874091  0.2657917 
1185.3     0.22       354.4214200000001 1          2          5.826      2.3        3.232      2.936      1.27       0.2184888  0.2184888  0.30575    31.19611   8.31861    2.3        0.4737827  0.5348514  25.145     0.2644279  0.273166   0.2556898 
1185.4     0.219      353.4958799999999 1          2          5.762      2.475      3.152      3.034      1.264      0.2230218  0.2230218  0.3074     37.84977   9.21312    2.475      0.4890585  0.5446349  24.764     0.2556914  0.2620081  0.2493747 
1185.5     0.218      346.6861600000001 1          2          5.728      2.699      3.167      3.109      1.26       0.2255393  0.2255393  0.3085     42.13991   9.726816   2.699      0.4993907  0.5519317  24.583     0.251396   0.256267   0.246525  
1185.6     0.218      339.9584400000001 1          2          5.722      2.925      3.156      3.132      1.258      0.2265512  0.2265512  0.30905    43.99826   9.820395   2.925      0.506036   0.5571388  24.464     0.2499964  0.2552671  0.2447258 
1185.7     0.218      329.78433  1          2          5.737      3.087      3.145      3.151      1.257      0.2268127  0.2268127  0.309325   44.49174   9.588114   3.087      0.5107504  0.5611961  24.305     0.2500373  0.2577744  0.2423003 
1185.8     0.218      320.45963  1          2          5.768      3.151      3.145      3.166      1.258      0.2262002  0.2262002  0.30905    43.34463   9.125323   3.151      0.5130268  0.5635464  24.094     0.2510599  0.2630345  0.2390853 
1185.9     0.218      311.1380600000001 1          2          5.797      3.151      3.164      3.179      1.258      0.2260206  0.2260206  0.30905    43.01376   8.71264    3.151      0.5159248  0.5662317  23.833     0.2516043  0.2680524  0.2351562 
1186       0.218      303.7059899999999 1          2          5.806      3.095      3.199      3.21       1.258      0.2265079  0.2265079  0.30905    43.9171    8.588394   3.095      0.5202301  0.569483   23.526     0.2501276  0.2696291  0.2306261 
1186.1     0.218      297.5961300000001 1          2          5.802      3.04       3.239      3.272      1.259      0.2271598  0.2271598  0.308775   45.15523   8.643394   3.04       0.5248874  0.5726667  23.184     0.2473189  0.2689272  0.2257107 
1186.2     0.218      291.0924400000001 1          2          5.799      3.047      3.26       3.32       1.263      0.2269207  0.2269207  0.307675   44.69718   8.68488    3.047      0.5283625  0.5750248  22.847     0.24471    0.2684019  0.221018  
1186.3     0.218      285.4466600000001 1          2          5.799      3.141      3.269      3.359      1.264      0.2274072  0.2274072  0.3074     45.63433   8.68488    3.141      0.5342377  0.579445   22.505     0.2424023  0.2684019  0.2164026 
1186.4     0.217      281.5335699999999 1          2          5.796      3.286      3.265      3.392      1.263      0.2285038  0.2285038  0.307675   47.81927   8.726555   3.286      0.541867   0.5852694  22.164     0.2399127  0.2678778  0.2119476 
1186.5     0.217      275.99139  1          2          5.789      3.452      3.272      3.422      1.26       0.2302434  0.2302434  0.3085     51.50207   8.824583   3.452      0.5516949  0.5928722  21.822     0.2371412  0.2666587  0.2076237 
1186.6     0.217      270.1051000000001 1          2          5.765      3.617      3.301      3.464      1.255      0.2329545  0.2329545  0.309875   57.81501   9.169123   3.617      0.5634112  0.6017213  21.498     0.2330924  0.2625208  0.2036641 
1186.7     0.216      263.3755800000001 1          2          5.717      3.758      3.35       3.517      1.248      0.2368144  0.2368144  0.3118     68.16101   9.89907    3.758      0.5768574  0.6115916  21.19      0.227229   0.2544367  0.2000212 
1186.8     0.216      253.25325  1          2          5.655      3.871      3.392      3.575      1.241      0.2408806  0.2408806  0.313725   81.06841   10.92859   3.871      0.5899896  0.6211485  20.936     0.2207405  0.2443621  0.1971188 
1186.9     0.216      241.9867199999999 1          2          5.59       3.986      3.423      3.633      1.237      0.2440215  0.2440215  0.314825   92.68898   12.12308   3.986      0.6009343  0.6290633  20.734     0.2145561  0.234228   0.1948842 
1187       0.216      231.3083800000001 1          2          5.526      4.121      3.441      3.69       1.233      0.2469368  0.2469368  0.315925   104.9605   13.42669   4.121      0.6105233  0.6360444  20.599     0.2090552  0.2246606  0.1934499 
1187.1     0.216      218.63814  1          2          5.478      4.294      3.463      3.73       1.229      0.2492545  0.2492545  0.317025   115.8662   14.49558   4.294      0.6189083  0.6424676  20.549     0.2053651  0.2177424  0.1929878 
1187.2     0.216      210.20792  1          2          5.446      4.501      3.489      3.769      1.227      0.2504993  0.2504993  0.317575   122.1835   15.25504   4.501      0.6253529  0.6476253  20.565     0.2032598  0.213249   0.1932706 
