~Version
 VERS              .         2.0                           : CWLS LOG ASCII STANDARD - VERSION 2.0
 WRAP              .         NO                            : ONE LINE PER DEPTH STEP
 DLM               .         SPACE                         : DELIMITING CHARACTER(SPACE TAB OR COMMA)
~Well Information
#_______________________________________________________________________________
#
#PARAMETER_NAME    .UNIT     VALUE                         : DESCRIPTION
#_______________________________________________________________________________
STRT               .м        900                           : First reference value
STOP               .м        1384                          : Last reference value
STEP               .м        0.1                           : Step increment
NULL               .         -9999                         : Missing value
COMP               .                                       : Company
WELL               .         9402                          : Well name
FLD                .         УЗЕНЬ                         : Field
LOC                .                                       : Location
PROV               .                                       : Province
SRVC               .         SCH                           : Service Company
DATE               .         03.06.2009                    : Date
UWI                .                                       : Unique Well ID
Block              .         3а                            : 
Cartographic_reference_system .         GCS_WGS_1984                  : ESRI,PE_10_3_1- <?xml version="1.0" encoding="utf-16"?><ILateBoundCoordinateReferenceSystem name="GCS_WGS_1984"><AuthorityCode>EPSG,4326</AuthorityCode></ILateBoundCoordinateReferenceSystem>
Category           .         Нефтяная                      : 
Condition          .         В работе                      : 
CTRY               .                                       : Название страны
Date               .         14.10.1996                    : 
EREF               .m        233.8                         : 100.8
FILE               .                                       : 
Gorizont           .         17                            : 14
HZCS               .GCS_WGS_1984 WGS_1984_EASE-Grid_2.0_Global : ESRI,PE_10_3_1- <?xml version="1.0" encoding="utf-16"?><ILateBoundCoordinateReferenceSystem name="WGS_1984_EASE-Grid_2.0_Global"><AuthorityCode>EPSG,6933</AuthorityCode></ILateBoundCoordinateReferenceSystem>
Interpretator      .         Чиндаулова Г.К.               : 
Kupol              .         основной                      : osnovnoi
LATI               .dega     0.6319825406                  : GCS_WGS_1984
LONG               .dega     0.5715589808                  : GCS_WGS_1984
Mud                .         0                             : 
Mud_density        .         0                             : 
Mud_resistivity    .         0                             : 
NGDU               .         НГДУ-1                        : 
ORIGINALWELLNAME   .         9402                          : 
Spud_date          .         1996                          : 1961
TAPE               .                                       : 
Viscosity          .         0                             : 
X                  .m        55147.6                       : 46154
Y                  .m        80622.5                       : 85761.93
YEAR               .         2018                          : 
Исправлено         .         17                            : 
~Parameter Information Block
#_______________________________________________________________________________
#
#PARAMETER_NAME    .UNIT     VALUE                         : DESCRIPTION
#_______________________________________________________________________________
SET                .         LQC_KAZNIPI_Petrel            : 
PBBOTTOM           .м        1384                          : Глубина подошвы планшета
PBSCALE            .         1 _ 500                       : Вертикальный масштаб планшета
PBTOP              .м        900                           : Глубина кровли планшета
TLFamily_CALI      .         Caliper                       : 
TLFamily_CILD      .         Conductivity                  : 
TLFamily_COLL      .         Net Reservoir Flag            : 
TLFamily_CSAT      .         Fluid Code                    : 
TLFamily_DEPT      .         Measured Depth                : 
TLFamily_GR        .         Russian Gamma Ray             : 
TLFamily_LLS       .         Lateral Log Resistivity       : 
TLFamily_MINV      .         Micro Gradient Resistivity    : 
TLFamily_MNOR      .         Micro Resistivity             : 
TLFamily_NGLD      .         Neutron Far                   : 
TLFamily_PHIE      .         Effective Porosity            : 
TLFamily_PHIEN     .         Effective Porosity            : 
TLFamily_PHIT      .         Porosity                      : 
TLFamily_PRMB      .         Permeability                  : 
TLFamily_PRMB_DGR  .         Permeability                  : 
TLFamily_RT        .         Formation Resistivity         : 
TLFamily_SOIL_ARCHIE .         Oil Saturation                : 
TLFamily_SOIL_DW   .         Oil Saturation                : 
TLFamily_SP        .         Spontaneous Potential         : 
TLFamily_VSH_FIN   .         Shale Volume                  : 
TLFamily_VSH_GR    .         Shale Volume                  : 
TLFamily_VSH_SP    .         Shale Volume                  : 
~Curve Information
#_______________________________________________________________________________
#
#LOGNAME           .UNIT     LOG_ID                        : DESCRIPTION
#_______________________________________________________________________________
DEPT               .м                                      : Колонка глубины 
CALI               .м                                      : Каверномер 
CILD               .MS/M                                   : 4  CILD 
COLL               .unitless                               : Описание 
CSAT               .unitless                               : Описание 
GR                 .uR/h                                   : Гамма каротаж 
LLS                .Ohmm                                   : Боковой каротаж 
MINV               .Ohmm                                   : Микро-градиент зонд 
MNOR               .Ohmm                                   : Микро-потенциал зонд 
NGLD               .у.е.                                   : Показания зонда НГК-60 аппаратуры ДРСТ-3-90 
PHIE               .v/v                                    : Описание 
PHIEN              .v/v                                    :  
PHIT               .v/v                                    : Описание 
PRMB               .mD                                     :  
PRMB_DGR           .mD                                     :  
RT                 .ohmm                                   : УЭС пласта 
SOIL_ARCHIE        .v/v                                    :  
SOIL_DW            .v/v                                    :  
SP                 .mv                                     : Потенциал самополяризации 
VSH_FIN            .v/v                                    : Описание 
VSH_GR             .v/v                                    : Shale volume 
VSH_SP             .v/v                                    : Shale Volume 
~Ascii
# ...
1296.2     0.232      348.8164100000001 -9999      -9999      6.605      2.061      3.753      2.168      1.302      0.114066   0.114066   0.29695    0.3630254  2.112737   2.061      0.06090445 0.4015597  38.95      0.5541939  0.4780451  0.6303427 
1296.3     0.231      349.66782  -9999      -9999      6.66       2.06       3.732      2.098      1.298      0.1116277  0.1116277  0.29805    0.3271701  1.932583   2.06       0          0.3978398  39.037     0.5649161  0.4957633  0.634069  
1296.4     0.23       350.5192   -9999      -9999      6.714      2.06       3.701      2.001      1.299      0.1072382  0.1072382  0.297775   0.2713121  1.770656   2.06       0          0.388211   39.197     0.5773843  0.5137984  0.6409702 
1296.5     0.229      350.5166300000001 -9999      -9999      6.769      2.059      3.668      1.904      1.305      0.1009647  0.1009647  0.296125   0.20762    1.61967    2.059      0          0.3719597  39.403     0.5913949  0.5328417  0.6499481 
1296.6     0.228      351.36804  -9999      -9999      6.827      2.054      3.653      1.828      1.317      0.09236725 0.09236725 0.292825   0.1438877  1.474374   2.054      0          0.3466462  39.658     0.6074477  0.5536891  0.6612062 
1296.7     0.227      351.36545  -9999      -9999      6.878      2.048      3.654      1.784      1.333      0.08279848 0.08279848 0.288425   0.09567243 1.357424   2.048      0          0.3143525  39.933     0.6231107  0.5726931  0.6735283 
1296.8     0.227      351.36292  -9999      -9999      6.916      2.043      3.658      1.786      1.342      0.07611739 0.07611739 0.28595    0.07195099 1.276357   2.043      0          0.2904477  40.173     0.6358564  0.5872759  0.6844369 
1296.9     0.226      350.70575  -9999      -9999      6.937      2.047      3.669      1.817      1.343      0.07308272 0.07308272 0.285675   0.06321605 1.233653   2.047      0          0.2799502  40.358     0.644219   0.5954935  0.6929445 
1297       0.225      351.9858699999999 -9999      -9999      6.944      2.055      3.688      1.859      1.334      0.07404515 0.07404515 0.28815    0.06586488 1.219738   2.055      0          0.2871886  40.496     0.6488026  0.5982582  0.699347  
1297.1     0.225      352.2092   -9999      -9999      6.928      2.065      3.709      1.909      1.318      0.07896894 0.07896894 0.29255    0.08125582 1.251776   2.065      0          0.3092048  40.563     0.6472154  0.5919577  0.702473  
1297.2     0.224      352.2066000000001 -9999      -9999      6.883      2.076      3.719      1.944      1.297      0.08773274 0.08773274 0.298325   0.1180813  1.34647    2.076      0          0.3419704  40.547     0.6381583  0.574591   0.7017255 
1297.3     0.224      352.2040700000001 -9999      -9999      6.827      2.087      3.713      1.966      1.281      0.0962197  0.0962197  0.302725   0.1695822  1.474374   2.087      0          0.3688021  40.464     0.6257736  0.5536891  0.6978581 
1297.4     0.223      352.20151  -9999      -9999      6.771      2.095      3.692      1.976      1.274      0.1024998  0.1024998  0.30465    0.2216684  1.61443    2.095      0          0.385415   40.329     0.6125762  0.5335473  0.691605  
1297.5     0.222      352.1989400000001 -9999      -9999      6.722      2.106      3.68       1.974      1.276      0.1061675  0.1061675  0.3041     0.2592017  1.747849   2.106      0          0.3924909  40.143     0.5997954  0.5165254  0.6830654 
1297.6     0.222      351.3424399999998 -9999      -9999      6.669      2.116      3.682      1.962      1.284      0.1085527  0.1085527  0.3019     0.2869575  1.9046     2.116      0          0.3950587  39.923     0.5859008  0.4987247  0.673077  
1297.7     0.222      349.6319   -9999      -9999      6.609      2.125      3.713      1.956      1.292      0.1114337  0.1114337  0.2997     0.324475   2.099086   2.125      0          0.3985315  39.669     0.5705038  0.4793121  0.6616954 
1297.8     0.221      347.9213899999999 -9999      -9999      6.546      2.13       3.745      1.955      1.3        0.1141913  0.1141913  0.2975     0.3649709  2.324707   2.13       0.0611827  0.4020685  39.432     0.5554809  0.4597416  0.6512203 
1297.9     0.222      345.7969099999999 -9999      -9999      6.48       2.136      3.77       1.967      1.302      0.1185669  0.1185669  0.29695    0.4398508  2.587124   2.136      0.09454651 0.4107481  39.198     0.5405547  0.4400957  0.6410137 
1298       0.222      343.64645  -9999      -9999      6.407      2.139      3.764      1.995      1.308      0.1221443  0.1221443  0.2953     0.5123491  2.912008   2.139      0.121047   0.4167127  38.944     0.5247144  0.4193424  0.6300864 
1298.1     0.223      340.7100199999998 -9999      -9999      6.344      2.154      3.725      2.036      1.319      0.1230459  0.1230459  0.292275   0.5324343  3.225006   2.154      0.1290327  0.4160132  38.787     0.5128155  0.4022205  0.6234106 
1298.2     0.223      337.6635099999999 -9999      -9999      6.298      2.183      3.667      2.098      1.335      0.1208588  0.1208588  0.287875   0.4850158  3.474595   2.183      0.1172254  0.4082803  38.755     0.5061097  0.390162   0.6220574 
1298.3     0.224      333.3910799999999 -9999      -9999      6.266      2.21       3.648      2.192      1.356      0.1161045  0.1161045  0.2821     0.3960006  3.659527   2.21       0.08680774 0.3934375  38.802     0.5030166  0.3819873  0.6240458 
1298.4     0.224      331.3706700000002 -9999      -9999      6.24       2.225      3.671      2.317      1.375      0.1107745  0.1107745  0.276875   0.3154797  3.817008   2.225      0          0.3775188  38.97      0.5033347  0.3754717  0.6311978 
1298.5     0.223      328.2621500000001 -9999      -9999      6.223      2.218      3.695      2.456      1.384      0.1067925  0.1067925  0.2744     0.2662036  3.923621   2.218      0          0.3672571  39.279     0.5079016  0.3712718  0.6445314 
1298.6     0.223      326.2839400000001 -9999      -9999      6.205      2.18       3.72       2.503      1.383      0.1056125  0.1056125  0.274675   0.2531379  4.039756   2.18       0          0.3672094  39.58      0.5123107  0.3668759  0.6577455 
1298.7     0.222      322.2792399999999 -9999      -9999      6.185      2.116      3.733      2.482      1.375      0.10671    0.10671    0.276875   0.265269   4.172827   2.116      0          0.3746526  39.838     0.5156515  0.3620526  0.6692504 
1298.8     0.222      318.8608100000001 -9999      -9999      6.161      2.062      3.709      2.396      1.363      0.1092433  0.1092433  0.280175   0.2955354  4.338315   2.062      0          0.38693    40.067     0.5179747  0.3563483  0.6796011 
1298.9     0.221      315.23489  -9999      -9999      6.132      2.052      3.665      2.274      1.352      0.1123538  0.1123538  0.2832     0.33746    4.547058   2.052      0.07765921 0.399719   40.204     0.5177159  0.3495754  0.6858563 
1299       0.221      311.1699500000001 -9999      -9999      6.073      2.127      3.627      2.159      1.353      0.1144623  0.1144623  0.282925   0.3692129  5.003261   2.127      0.09768298 0.406479   40.172     0.5104931  0.3361908  0.6847954 
1299.1     0.221      303.9878500000002 -9999      -9999      5.996      2.269      3.585      2.173      1.365      0.1156526  0.1156526  0.279625   0.3884411  5.668182   2.269      0.1114984  0.4080245  39.932     0.496886   0.3194905  0.6742815 
1299.2     0.221      296.4908400000001 -9999      -9999      5.893      2.772      3.541      2.307      1.387      0.1167467  0.1167467  0.273575   0.4069968  6.697799   2.772      0.1252447  0.4062747  39.424     0.4752372  0.298441   0.6520333 
1299.3     0.22       287.6708399999999 -9999      -9999      5.765      3.523      3.49       2.544      1.418      0.1181296  0.1181296  0.26505    0.4317228  8.241672   3.523      0.1436635  0.4036374  38.581     0.4452133  0.2742045  0.6162222 
1299.4     0.219      280.0272799999999 -9999      -9999      5.622      4.511      3.414      2.804      1.453      0.1208973  0.1208973  0.255425   0.4858134  10.39094   4.511      0.1743899  0.4046442  37.327     0.4076597  0.249448   0.5658714 
