~Version
 VERS              .         2.0                           : CWLS LOG ASCII STANDARD - VERSION 2.0
 WRAP              .         NO                            : ONE LINE PER DEPTH STEP
 DLM               .         SPACE                         : DELIMITING CHARACTER(SPACE TAB OR COMMA)
~Well Information
#_______________________________________________________________________________
#
#PARAMETER_NAME    .UNIT     VALUE                         : DESCRIPTION
#_______________________________________________________________________________
STRT               .м        900                           : First reference value
STOP               .м        1384                          : Last reference value
STEP               .м        0.1                           : Step increment
NULL               .         -9999                         : Missing value
COMP               .                                       : Company
WELL               .         9402                          : Well name
FLD                .         УЗЕНЬ                         : Field
LOC                .                                       : Location
PROV               .                                       : Province
SRVC               .         SCH                           : Service Company
DATE               .         03.06.2009                    : Date
UWI                .                                       : Unique Well ID
Block              .         3а                            : 
Cartographic_reference_system .         GCS_WGS_1984                  : ESRI,PE_10_3_1- <?xml version="1.0" encoding="utf-16"?><ILateBoundCoordinateReferenceSystem name="GCS_WGS_1984"><AuthorityCode>EPSG,4326</AuthorityCode></ILateBoundCoordinateReferenceSystem>
Category           .         Нефтяная                      : 
Condition          .         В работе                      : 
CTRY               .                                       : Название страны
Date               .         14.10.1996                    : 
EREF               .m        233.8                         : 100.8
FILE               .                                       : 
Gorizont           .         17                            : 14
HZCS               .GCS_WGS_1984 WGS_1984_EASE-Grid_2.0_Global : ESRI,PE_10_3_1- <?xml version="1.0" encoding="utf-16"?><ILateBoundCoordinateReferenceSystem name="WGS_1984_EASE-Grid_2.0_Global"><AuthorityCode>EPSG,6933</AuthorityCode></ILateBoundCoordinateReferenceSystem>
Interpretator      .         Чиндаулова Г.К.               : 
Kupol              .         основной                      : osnovnoi
LATI               .dega     0.6319825406                  : GCS_WGS_1984
LONG               .dega     0.5715589808                  : GCS_WGS_1984
Mud                .         0                             : 
Mud_density        .         0                             : 
Mud_resistivity    .         0                             : 
NGDU               .         НГДУ-1                        : 
ORIGINALWELLNAME   .         9402                          : 
Spud_date          .         1996                          : 1961
TAPE               .                                       : 
Viscosity          .         0                             : 
X                  .m        55147.6                       : 46154
Y                  .m        80622.5                       : 85761.93
YEAR               .         2018                          : 
Исправлено         .         17                            : 
~Parameter Information Block
#_______________________________________________________________________________
#
#PARAMETER_NAME    .UNIT     VALUE                         : DESCRIPTION
#_______________________________________________________________________________
SET                .         LQC_KAZNIPI_Petrel            : 
PBBOTTOM           .м        1384                          : Глубина подошвы планшета
PBSCALE            .         1 _ 500                       : Вертикальный масштаб планшета
PBTOP              .м        900                           : Глубина кровли планшета
TLFamily_CALI      .         Caliper                       : 
TLFamily_CILD      .         Conductivity                  : 
TLFamily_COLL      .         Net Reservoir Flag            : 
TLFamily_CSAT      .         Fluid Code                    : 
TLFamily_DEPT      .         Measured Depth                : 
TLFamily_GR        .         Russian Gamma Ray             : 
TLFamily_LLS       .         Lateral Log Resistivity       : 
TLFamily_MINV      .         Micro Gradient Resistivity    : 
TLFamily_MNOR      .         Micro Resistivity             : 
TLFamily_NGLD      .         Neutron Far                   : 
TLFamily_PHIE      .         Effective Porosity            : 
TLFamily_PHIEN     .         Effective Porosity            : 
TLFamily_PHIT      .         Porosity                      : 
TLFamily_PRMB      .         Permeability                  : 
TLFamily_PRMB_DGR  .         Permeability                  : 
TLFamily_RT        .         Formation Resistivity         : 
TLFamily_SOIL_ARCHIE .         Oil Saturation                : 
TLFamily_SOIL_DW   .         Oil Saturation                : 
TLFamily_SP        .         Spontaneous Potential         : 
TLFamily_VSH_FIN   .         Shale Volume                  : 
TLFamily_VSH_GR    .         Shale Volume                  : 
TLFamily_VSH_SP    .         Shale Volume                  : 
~Curve Information
#_______________________________________________________________________________
#
#LOGNAME           .UNIT     LOG_ID                        : DESCRIPTION
#_______________________________________________________________________________
DEPT               .м                                      : Колонка глубины 
CALI               .м                                      : Каверномер 
CILD               .MS/M                                   : 4  CILD 
COLL               .unitless                               : Описание 
CSAT               .unitless                               : Описание 
GR                 .uR/h                                   : Гамма каротаж 
LLS                .Ohmm                                   : Боковой каротаж 
MINV               .Ohmm                                   : Микро-градиент зонд 
MNOR               .Ohmm                                   : Микро-потенциал зонд 
NGLD               .у.е.                                   : Показания зонда НГК-60 аппаратуры ДРСТ-3-90 
PHIE               .v/v                                    : Описание 
PHIEN              .v/v                                    :  
PHIT               .v/v                                    : Описание 
PRMB               .mD                                     :  
PRMB_DGR           .mD                                     :  
RT                 .ohmm                                   : УЭС пласта 
SOIL_ARCHIE        .v/v                                    :  
SOIL_DW            .v/v                                    :  
SP                 .mv                                     : Потенциал самополяризации 
VSH_FIN            .v/v                                    : Описание 
VSH_GR             .v/v                                    : Shale volume 
VSH_SP             .v/v                                    : Shale Volume 
~Ascii
# ...
1382       -9999      452.8121000000002 1          3          5.045      2.156      -9999      -9999      1.5        0.1846376  0.1846376  0.2425     7.363673   24.57385   1.714      0.3480847  0.3957495  18.515     0.1753406  0.1755244  0.1751567 
1382.1     -9999      453.6469400000001 1          3          5.04       2.156      -9999      -9999      1.502      0.1841876  0.1841876  0.24195    7.223681   24.77633   1.713      0.3463985  0.394155   18.513     0.1750377  0.1749373  0.1751381 
1382.2     -9999      453.6289400000001 1          3          5.037      2.157      -9999      -9999      1.503      0.183969   0.183969   0.241675   7.156651   24.89861   1.713      0.3456705  0.3934525  18.514     0.1748667  0.174586   0.1751474 
1382.3     -9999      453.4700299999999 1          3          5.038      2.158      -9999      -9999      1.503      0.1839512  0.1839512  0.241675   7.151227   24.85778   1.713      0.3456112  0.3934273  18.513     0.1749206  0.174703   0.1751381 
1382.4     -9999      452.8498499999999 1          3          5.034      2.157      -9999      -9999      1.504      0.1837794  0.1837794  0.2414     7.099035   25.02151   1.713      0.3450379  0.3927897  18.496     0.1746078  0.1742353  0.1749803 
1382.5     -9999      453.57495  1          3          5.026      2.156      -9999      -9999      1.504      0.1839561  0.1839561  0.2414     7.152722   25.35217   1.713      0.3456275  0.39304    18.481     0.1740725  0.1733037  0.1748412 
1382.6     -9999      453.5569500000001 1          3          5.013      2.156      -9999      -9999      1.503      0.184502   0.184502   0.241675   7.321214   25.89886   1.713      0.3474431  0.3942054  18.466     0.1732515  0.1718005  0.1747023 
1382.7     -9999      453.5389700000001 1          3          4.996      2.155      -9999      -9999      1.503      0.1848475  0.1848475  0.241675   7.429888   26.6316    1.713      0.3485869  0.3946919  18.45      0.1722045  0.1698545  0.1745545 
1382.8     -9999      453.52097  1          3          4.975      2.156      -9999      -9999      1.503      0.185262   0.185262   0.241675   7.562391   27.56541   1.712      0.3497619  0.3950974  18.435     0.1709486  0.1674809  0.1744162 
1382.9     -9999      453.5029599999998 1          3          4.955      2.157      -9999      -9999      1.502      0.1859018  0.1859018  0.24195    7.771611   28.48518   1.712      0.3518615  0.3963846  18.437     0.1698429  0.1652512  0.1744346 
1383       -9999      453.4849199999999 -9999      -9999      4.937      2.159      -9999      -9999      1.502      0.1862257  0.1862257  0.24195    7.879707   29.33918   1.712      0.3529191  0.3968361  18.439     0.1688615  0.1632699  0.1744531 
1383.1     -9999      453.46692  -9999      -9999      4.917      2.162      -9999      -9999      1.502      0.1866087  0.1866087  0.24195    8.009463   30.31814   1.712      0.3541652  0.3973686  18.423     0.167701   0.1610963  0.1743057 
1383.2     -9999      453.44885  -9999      -9999      4.902      2.163      -9999      -9999      1.501      0.1871465  0.1871465  0.242225   8.195297   31.07374   1.712      0.3559071  0.3985035  18.425     0.1669046  0.1594851  0.1743241 
1383.3     -9999      453.43097  -9999      -9999      4.886      2.165      -9999      -9999      1.501      0.1874499  0.1874499  0.242225   8.302028   31.90046   1.713      0.3570755  0.3990979  18.41      0.1659852  0.1577843  0.1741862 
1383.4     -9999      453.4129300000001 -9999      -9999      4.869      2.168      -9999      -9999      1.501      0.1877675  0.1877675  0.242225   8.41526    32.80299   1.713      0.3580966  0.3995355  18.395     0.1650227  0.1559969  0.1740485 
1383.5     -9999      453.3949600000001 -9999      -9999      4.852      2.172      -9999      -9999      1.5        0.1883582  0.1883582  0.2425     8.62998    33.73104   1.713      0.359987   0.4007342  18.379     0.1640659  0.1542299  0.1739019 
1383.6     -9999      453.3768899999998 -9999      -9999      4.838      2.174      -9999      -9999      1.5        0.1885929  0.1885929  0.2425     8.716768   34.51501   1.713      0.3607346  0.4010552  18.381     0.163355   0.1527897  0.1739202 
1383.7     -9999      453.3588900000001 -9999      -9999      4.82       2.174      -9999      -9999      1.5        0.1889178  0.1889178  0.2425     8.838397   35.54979   1.713      0.3617672  0.4014989  18.366     0.1623704  0.1509578  0.173783  
1383.8     -9999      453.3409099999998 -9999      -9999      4.803      2.174      -9999      -9999      1.5        0.1891984  0.1891984  0.2425     8.944818   36.55557   1.713      0.3626564  0.4018814  18.367     0.16152    0.1492479  0.1737921 
1383.9     -9999      453.3229099999999 -9999      -9999      4.803      2.174      -9999      -9999      1.5        0.1891984  0.1891984  0.2425     8.944818   36.55557   1.713      0.3626564  0.4018814  18.367     0.16152    0.1492479  0.1737921 
1384       -9999      453.3049   -9999      -9999      4.803      2.174      -9999      -9999      1.5        0.1891984  0.1891984  0.2425     8.944818   36.55557   1.713      0.3626564  0.4018814  18.367     0.16152    0.1492479  0.1737921 
