~Version
 VERS              .         2.0                           : CWLS LOG ASCII STANDARD - VERSION 2.0
 WRAP              .         NO                            : ONE LINE PER DEPTH STEP
 DLM               .         SPACE                         : DELIMITING CHARACTER(SPACE TAB OR COMMA)
~Well Information
#_______________________________________________________________________________
#
#PARAMETER_NAME    .UNIT     VALUE                         : DESCRIPTION
#_______________________________________________________________________________
STRT               .м        900                           : First reference value
STOP               .м        1384                          : Last reference value
STEP               .м        0.1                           : Step increment
NULL               .         -9999                         : Missing value
COMP               .                                       : Company
WELL               .         9402                          : Well name
FLD                .         УЗЕНЬ                         : Field
LOC                .                                       : Location
PROV               .                                       : Province
SRVC               .         SCH                           : Service Company
DATE               .         03.06.2009                    : Date
UWI                .                                       : Unique Well ID
Block              .         3а                            : 
Cartographic_reference_system .         GCS_WGS_1984                  : ESRI,PE_10_3_1- <?xml version="1.0" encoding="utf-16"?><ILateBoundCoordinateReferenceSystem name="GCS_WGS_1984"><AuthorityCode>EPSG,4326</AuthorityCode></ILateBoundCoordinateReferenceSystem>
Category           .         Нефтяная                      : 
Condition          .         В работе                      : 
CTRY               .                                       : Название страны
Date               .         14.10.1996                    : 
EREF               .m        233.8                         : 100.8
FILE               .                                       : 
Gorizont           .         17                            : 14
HZCS               .GCS_WGS_1984 WGS_1984_EASE-Grid_2.0_Global : ESRI,PE_10_3_1- <?xml version="1.0" encoding="utf-16"?><ILateBoundCoordinateReferenceSystem name="WGS_1984_EASE-Grid_2.0_Global"><AuthorityCode>EPSG,6933</AuthorityCode></ILateBoundCoordinateReferenceSystem>
Interpretator      .         Чиндаулова Г.К.               : 
Kupol              .         основной                      : osnovnoi
LATI               .dega     0.6319825406                  : GCS_WGS_1984
LONG               .dega     0.5715589808                  : GCS_WGS_1984
Mud                .         0                             : 
Mud_density        .         0                             : 
Mud_resistivity    .         0                             : 
NGDU               .         НГДУ-1                        : 
ORIGINALWELLNAME   .         9402                          : 
Spud_date          .         1996                          : 1961
TAPE               .                                       : 
Viscosity          .         0                             : 
X                  .m        55147.6                       : 46154
Y                  .m        80622.5                       : 85761.93
YEAR               .         2018                          : 
Исправлено         .         17                            : 
~Parameter Information Block
#_______________________________________________________________________________
#
#PARAMETER_NAME    .UNIT     VALUE                         : DESCRIPTION
#_______________________________________________________________________________
SET                .         LQC_KAZNIPI_Petrel            : 
PBBOTTOM           .м        1384                          : Глубина подошвы планшета
PBSCALE            .         1 _ 500                       : Вертикальный масштаб планшета
PBTOP              .м        900                           : Глубина кровли планшета
TLFamily_CALI      .         Caliper                       : 
TLFamily_CILD      .         Conductivity                  : 
TLFamily_COLL      .         Net Reservoir Flag            : 
TLFamily_CSAT      .         Fluid Code                    : 
TLFamily_DEPT      .         Measured Depth                : 
TLFamily_GR        .         Russian Gamma Ray             : 
TLFamily_LLS       .         Lateral Log Resistivity       : 
TLFamily_MINV      .         Micro Gradient Resistivity    : 
TLFamily_MNOR      .         Micro Resistivity             : 
TLFamily_NGLD      .         Neutron Far                   : 
TLFamily_PHIE      .         Effective Porosity            : 
TLFamily_PHIEN     .         Effective Porosity            : 
TLFamily_PHIT      .         Porosity                      : 
TLFamily_PRMB      .         Permeability                  : 
TLFamily_PRMB_DGR  .         Permeability                  : 
TLFamily_RT        .         Formation Resistivity         : 
TLFamily_SOIL_ARCHIE .         Oil Saturation                : 
TLFamily_SOIL_DW   .         Oil Saturation                : 
TLFamily_SP        .         Spontaneous Potential         : 
TLFamily_VSH_FIN   .         Shale Volume                  : 
TLFamily_VSH_GR    .         Shale Volume                  : 
TLFamily_VSH_SP    .         Shale Volume                  : 
~Curve Information
#_______________________________________________________________________________
#
#LOGNAME           .UNIT     LOG_ID                        : DESCRIPTION
#_______________________________________________________________________________
DEPT               .м                                      : Колонка глубины 
CALI               .м                                      : Каверномер 
CILD               .MS/M                                   : 4  CILD 
COLL               .unitless                               : Описание 
CSAT               .unitless                               : Описание 
GR                 .uR/h                                   : Гамма каротаж 
LLS                .Ohmm                                   : Боковой каротаж 
MINV               .Ohmm                                   : Микро-градиент зонд 
MNOR               .Ohmm                                   : Микро-потенциал зонд 
NGLD               .у.е.                                   : Показания зонда НГК-60 аппаратуры ДРСТ-3-90 
PHIE               .v/v                                    : Описание 
PHIEN              .v/v                                    :  
PHIT               .v/v                                    : Описание 
PRMB               .mD                                     :  
PRMB_DGR           .mD                                     :  
RT                 .ohmm                                   : УЭС пласта 
SOIL_ARCHIE        .v/v                                    :  
SOIL_DW            .v/v                                    :  
SP                 .mv                                     : Потенциал самополяризации 
VSH_FIN            .v/v                                    : Описание 
VSH_GR             .v/v                                    : Shale volume 
VSH_SP             .v/v                                    : Shale Volume 
~Ascii
# ...
1352.3     0.218      338.0630200000002 -9999      -9999      5.895      2.086      2.466      1.953      1.368      0.1666948  0.1666948  0.2788     3.425703   6.090522   2.086      0.3580155  0.4787039  31.592     0.3397128  0.3102513  0.3691743 
1352.4     0.217      332.9430500000001 -9999      -9999      5.745      2.231      2.414      1.958      1.395      0.1717156  0.1717156  0.271375   4.243731   7.790472   2.231      0.3802154  0.4806512  29.711     0.3019981  0.2805814  0.3234148 
1352.5     0.216      324.3924599999999 -9999      -9999      5.566      2.464      2.363      1.992      1.418      0.1750952  0.1750952  0.26505    4.901701   10.45062   2.464      0.3968391  0.4822811  28.452     0.2725902  0.2488654  0.296315  
1352.6     0.215      315.2121900000002 1          2          5.339      2.857      2.311      2.075      1.436      0.1796626  0.1796626  0.2601     5.955871   15.1681    2.857      0.417087   0.4872329  27.297     0.2437497  0.2137473  0.2737521 
1352.7     0.213      304.9422000000001 1          2          5.082      3.39       2.26       2.224      1.452      0.1849989  0.1849989  0.2557     7.478014   23.12611   3.39       0.4396029  0.4943841  25.863     0.2142458  0.1799308  0.2485608 
1352.8     0.211      294.46307  1          2          4.818      4.015      2.224      2.429      1.468      0.1897499  0.1897499  0.2513     9.157684   35.66668   4.015      0.4598728  0.5010897  24.145     0.1865156  0.1507556  0.2222755 
1352.9     0.21       282.2280000000001 1          2          4.576      4.681      2.201      2.649      1.48       0.1938796  0.1938796  0.248      10.92142   53.05701   4.681      0.4780686  0.5085694  22.416     0.1640011  0.1281871  0.1998152 
1353       0.209      270.7007100000001 1          2          4.422      5.091      2.174      2.826      1.489      0.1964541  0.1964541  0.245525   12.18891   68.31295   5.091      0.4917957  0.5152241  20.765     0.1486997  0.115618   0.1817814 
1353.1     0.208      259.39453  1          2          4.356      5.157      2.141      2.939      1.492      0.1986491  0.1986491  0.2447     13.38511   76.12776   5.157      0.5042201  0.5231904  19.319     0.1395481  0.1106159  0.1684803 
1353.2     0.208      249.4745900000001 1          2          4.368      4.949      2.109      2.973      1.492      0.1996518  0.1996518  0.2447     13.96991   74.64319   4.949      0.5134488  0.5306082  18.446     0.1365097  0.111509   0.1615105 
1353.3     0.208      240.58409  1          2          4.427      4.6        2.082      2.927      1.491      0.19966    0.19966    0.244975   13.97479   67.75467   4.6        0.5205981  0.5375544  18.05      0.1373182  0.116006   0.1586304 
1353.4     0.207      229.6284799999999 1          2          4.497      4.131      2.063      2.821      1.494      0.1981617  0.1981617  0.24415    13.10971   60.40158   4.131      0.5238224  0.5413882  17.832     0.1393586  0.1215774  0.1571399 
1353.5     0.206      217.7908200000001 1          2          4.513      3.87       2.055      2.715      1.503      0.1955694  0.1955694  0.241675   11.73754   58.8362    3.87       0.5247107  0.5425523  17.736     0.1397141  0.1228879  0.1565402 
1353.6     0.205      210.1095099999999 1          2          4.478      3.828      2.05       2.61       1.52       0.1913466  0.1913466  0.237      9.803065   62.31465   3.828      0.5217751  0.5397036  17.74      0.1383436  0.1200392  0.1566479 
1353.7     0.205      199.53534  6          6          4.441      3.956      2.059      2.539      1.545      0.1848992  0.1848992  0.230125   7.446277   66.21571   3.956      0.5129989  0.5316807  17.778     0.137048   0.1170995  0.1569965 
1353.8     0.206      190.98546  6          6          4.42       4.174      2.056      2.511      1.573      0.1774278  0.1774278  0.222425   5.414402   68.53751   4.174      0.5003827  0.5204889  17.802     0.1363553  0.1154631  0.1572475 
1353.9     0.208      181.87807  6          6          4.409      4.542      1.993      2.543      1.6        0.1701717  0.1701717  0.215      3.973294   69.78602   4.542      0.4871979  0.5089245  17.766     0.1358433  0.1146151  0.1570715 
1354       0.209      173.8880300000001 6          6          4.389      5.218      2.087      2.635      1.624      0.1639512  0.1639512  0.2084     3.047424   72.11456   5.218      0.4751098  0.4980623  17.645     0.1346932  0.1130893  0.1562972 
1354.1     0.211      167.0529000000001 6          6          4.383      6.079      2.312      2.787      1.639      0.1600498  0.1600498  0.204275   2.580294   72.82818   6.079      0.4684846  0.4921983  17.504     0.1340156  0.1126355  0.1553958 
1354.2     0.212      162.7871599999999 6          6          4.375      6.316      2.646      3.026      1.643      0.1592022  0.1592022  0.203175   2.488676   73.79062   6.316      0.4695301  0.4929514  17.357     0.133251   0.1120333  0.1544687 
1354.3     0.213      160.2340199999999 6          6          4.378      6.211      2.946      3.211      1.637      0.1609641  0.1609641  0.204825   2.6829     73.42825   6.211      0.4764189  0.4989258  17.211     0.1329117  0.1122587  0.1535647 
1354.4     0.213      161.7237499999999 6          6          4.405      5.835      3.23       3.289      1.624      0.1642836  0.1642836  0.2084     3.090935   70.24561   5.835      0.4855124  0.5072384  17.124     0.1336859  0.1143084  0.1530636 
1354.5     0.212      166.24423  6          6          4.467      5.013      3.297      3.258      1.601      0.1697984  0.1697984  0.214725   3.910542   63.4498    5.013      0.4986796  0.5197662  17.122     0.1361412  0.1191576  0.1531247 
1354.6     0.212      172.931    6          6          4.545      3.931      3.179      3.121      1.575      0.1758418  0.1758418  0.221875   5.060285   55.82611   3.931      0.5111256  0.5318981  17.158     0.1394945  0.1255516  0.1534374 
1354.7     0.211      178.77383  6          6          4.609      3.444      2.863      2.865      1.55       0.1817096  0.1817096  0.22875    6.499217   50.26001   3.444      0.5219323  0.5423749  17.237     0.1425466  0.1310534  0.1540399 
1354.8     0.211      184.6164900000001 1          2          4.645      3.297      2.554      2.643      1.527      0.1873532  0.1873532  0.235075   8.267861   47.37668   3.297      0.5319686  0.5517803  17.363     0.1446117  0.1342534  0.1549699 
1354.9     0.21       189.2745799999999 1          2          4.669      3.283      2.3        2.521      1.505      0.1929061  0.1929061  0.241125   10.47726   45.54691   3.283      0.5424324  0.561397   17.473     0.1461177  0.1364301  0.1558054 
1355       0.209      190.6263   1          2          4.69       3.389      2.103      2.496      1.493      0.1958074  0.1958074  0.244425   11.85729   44.00396   3.389      0.5473397  0.5660515  17.531     0.1473261  0.1383635  0.1562887 
1355.1     0.209      189.7554599999999 1          2          4.72       3.527      1.958      2.568      1.484      0.1977582  0.1977582  0.2469     12.88602   41.88997   3.527      0.5511374  0.5698905  17.572     0.1489147  0.1411733  0.1566562 
1355.2     0.209      188.0312999999999 1          2          4.763      3.626      1.941      2.664      1.479      0.1984169  0.1984169  0.248275   13.25317   39.03576   3.626      0.5526549  0.5719289  17.591     0.1510853  0.1453004  0.1568702 
1355.3     0.209      188.86685  1          2          4.811      3.596      1.997      2.751      1.471      0.1998118  0.1998118  0.250475   14.06556   36.07877   3.596      0.5551598  0.5748793  17.598     0.1535249  0.1500501  0.1569997 
1355.4     0.209      194.11554  1          2          4.861      3.42       2.08       2.78       1.459      0.2022268  0.2022268  0.253775   15.59151   33.2365    3.42       0.5586807  0.5787236  17.622     0.1562068  0.1551629  0.1572507 
1355.5     0.21       201.795    1          2          4.904      3.216      2.154      2.754      1.449      0.2041666  0.2041666  0.256525   16.9363    30.97193   3.216      0.5595405  0.5800918  17.663     0.1586618  0.159699   0.1576247 
