~Version
 VERS              .         2.0                           : CWLS LOG ASCII STANDARD - VERSION 2.0
 WRAP              .         NO                            : ONE LINE PER DEPTH STEP
 DLM               .         SPACE                         : DELIMITING CHARACTER(SPACE TAB OR COMMA)
~Well Information
#_______________________________________________________________________________
#
#PARAMETER_NAME    .UNIT     VALUE                         : DESCRIPTION
#_______________________________________________________________________________
STRT               .м        900                           : First reference value
STOP               .м        1384                          : Last reference value
STEP               .м        0.1                           : Step increment
NULL               .         -9999                         : Missing value
COMP               .                                       : Company
WELL               .         9402                          : Well name
FLD                .         УЗЕНЬ                         : Field
LOC                .                                       : Location
PROV               .                                       : Province
SRVC               .         SCH                           : Service Company
DATE               .         03.06.2009                    : Date
UWI                .                                       : Unique Well ID
Block              .         3а                            : 
Cartographic_reference_system .         GCS_WGS_1984                  : ESRI,PE_10_3_1- <?xml version="1.0" encoding="utf-16"?><ILateBoundCoordinateReferenceSystem name="GCS_WGS_1984"><AuthorityCode>EPSG,4326</AuthorityCode></ILateBoundCoordinateReferenceSystem>
Category           .         Нефтяная                      : 
Condition          .         В работе                      : 
CTRY               .                                       : Название страны
Date               .         14.10.1996                    : 
EREF               .m        233.8                         : 100.8
FILE               .                                       : 
Gorizont           .         17                            : 14
HZCS               .GCS_WGS_1984 WGS_1984_EASE-Grid_2.0_Global : ESRI,PE_10_3_1- <?xml version="1.0" encoding="utf-16"?><ILateBoundCoordinateReferenceSystem name="WGS_1984_EASE-Grid_2.0_Global"><AuthorityCode>EPSG,6933</AuthorityCode></ILateBoundCoordinateReferenceSystem>
Interpretator      .         Чиндаулова Г.К.               : 
Kupol              .         основной                      : osnovnoi
LATI               .dega     0.6319825406                  : GCS_WGS_1984
LONG               .dega     0.5715589808                  : GCS_WGS_1984
Mud                .         0                             : 
Mud_density        .         0                             : 
Mud_resistivity    .         0                             : 
NGDU               .         НГДУ-1                        : 
ORIGINALWELLNAME   .         9402                          : 
Spud_date          .         1996                          : 1961
TAPE               .                                       : 
Viscosity          .         0                             : 
X                  .m        55147.6                       : 46154
Y                  .m        80622.5                       : 85761.93
YEAR               .         2018                          : 
Исправлено         .         17                            : 
~Parameter Information Block
#_______________________________________________________________________________
#
#PARAMETER_NAME    .UNIT     VALUE                         : DESCRIPTION
#_______________________________________________________________________________
SET                .         LQC_KAZNIPI_Petrel            : 
PBBOTTOM           .м        1384                          : Глубина подошвы планшета
PBSCALE            .         1 _ 500                       : Вертикальный масштаб планшета
PBTOP              .м        900                           : Глубина кровли планшета
TLFamily_CALI      .         Caliper                       : 
TLFamily_CILD      .         Conductivity                  : 
TLFamily_COLL      .         Net Reservoir Flag            : 
TLFamily_CSAT      .         Fluid Code                    : 
TLFamily_DEPT      .         Measured Depth                : 
TLFamily_GR        .         Russian Gamma Ray             : 
TLFamily_LLS       .         Lateral Log Resistivity       : 
TLFamily_MINV      .         Micro Gradient Resistivity    : 
TLFamily_MNOR      .         Micro Resistivity             : 
TLFamily_NGLD      .         Neutron Far                   : 
TLFamily_PHIE      .         Effective Porosity            : 
TLFamily_PHIEN     .         Effective Porosity            : 
TLFamily_PHIT      .         Porosity                      : 
TLFamily_PRMB      .         Permeability                  : 
TLFamily_PRMB_DGR  .         Permeability                  : 
TLFamily_RT        .         Formation Resistivity         : 
TLFamily_SOIL_ARCHIE .         Oil Saturation                : 
TLFamily_SOIL_DW   .         Oil Saturation                : 
TLFamily_SP        .         Spontaneous Potential         : 
TLFamily_VSH_FIN   .         Shale Volume                  : 
TLFamily_VSH_GR    .         Shale Volume                  : 
TLFamily_VSH_SP    .         Shale Volume                  : 
~Curve Information
#_______________________________________________________________________________
#
#LOGNAME           .UNIT     LOG_ID                        : DESCRIPTION
#_______________________________________________________________________________
DEPT               .м                                      : Колонка глубины 
CALI               .м                                      : Каверномер 
CILD               .MS/M                                   : 4  CILD 
COLL               .unitless                               : Описание 
CSAT               .unitless                               : Описание 
GR                 .uR/h                                   : Гамма каротаж 
LLS                .Ohmm                                   : Боковой каротаж 
MINV               .Ohmm                                   : Микро-градиент зонд 
MNOR               .Ohmm                                   : Микро-потенциал зонд 
NGLD               .у.е.                                   : Показания зонда НГК-60 аппаратуры ДРСТ-3-90 
PHIE               .v/v                                    : Описание 
PHIEN              .v/v                                    :  
PHIT               .v/v                                    : Описание 
PRMB               .mD                                     :  
PRMB_DGR           .mD                                     :  
RT                 .ohmm                                   : УЭС пласта 
SOIL_ARCHIE        .v/v                                    :  
SOIL_DW            .v/v                                    :  
SP                 .mv                                     : Потенциал самополяризации 
VSH_FIN            .v/v                                    : Описание 
VSH_GR             .v/v                                    : Shale volume 
VSH_SP             .v/v                                    : Shale Volume 
~Ascii
# ...
1154.3     0.225      386.8981899999999 6          6          6.271      2.519      3.443      3.556      1.353      0.1429863  0.1429863  0.282925   1.246268   6.235877   2.519      0.2759     0.4227425  33.239     0.4240566  0.3072776  0.5408355 
1154.4     0.224      366.7909200000001 6          6          6.071      3.073      4.21       3.788      1.383      0.1436459  0.1436459  0.274675   1.281824   8.604856   3.073      0.291999   0.4228173  32.785     0.3970579  0.2694184  0.5246974 
1154.5     0.224      349.3690199999999 6          6          5.869      3.693      5.181      3.897      1.411      0.1423996  0.1423996  0.266975   1.215469   11.91209   3.693      0.297228   0.419437   32.613     0.3775012  0.2359132  0.5190892 
1154.6     0.224      330.7835999999998 6          6          5.679      4.321      5.903      3.898      1.438      0.1404857  0.1404857  0.25955    1.120195   16.17492   4.321      0.298389   0.4145432  32.437     0.360801   0.208211   0.5133911 
1154.7     0.224      317.4471100000001 6          6          5.524      4.919      6.507      3.898      1.462      0.1382443  0.1382443  0.25295    1.018073   20.75978   4.919      0.295626   0.4082666  32.244     0.3475929  0.1880391  0.5071466 
1154.8     0.224      299.4953300000001 6          6          5.423      5.42       6.823      3.895      1.479      0.1364777  0.1364777  0.248275   0.9441839  24.42559   5.42       0.293305   0.4038241  32.069     0.3387796  0.1759587  0.5016006 
1154.9     0.225      286.93033  6          6          5.362      5.731      6.776      3.883      1.484      0.1370585  0.1370585  0.2469     0.9678612  26.94623   5.731      0.301508   0.4068649  31.91      0.3328532  0.1690418  0.4966646 
1155       0.225      276.6165199999999 6          6          5.346      5.717      6.34       3.855      1.481      0.1388176  0.1388176  0.247725   1.043272   27.64939   5.717      0.314042   0.413856   31.78      0.3300224  0.167273   0.4927717 
1155.1     0.225      267.3001400000001 6          6          5.375      5.475      5.857      3.772      1.467      0.1422981  0.1422981  0.251575   1.21022    26.3881    5.475      0.332839   0.4263763  31.734     0.3311421  0.1704927  0.4917915 
1155.2     0.225      259.2279099999999 6          6          5.447      5.034      5.451      3.635      1.448      0.1456721  0.1456721  0.2568     1.397521   23.49976   5.034      0.348676   0.438793   31.802     0.3367513  0.1787571  0.4947456 
1155.3     0.225      253.76822  6          6          5.556      4.449      5.103      3.441      1.425      0.148514   0.148514   0.263125   1.577601   19.71728   4.449      0.360172   0.4502546  32.009     0.3473062  0.192037   0.5025753 
1155.4     0.225      251.2507599999999 6          6          5.696      3.913      4.813      3.192      1.403      0.149834   0.149834   0.269175   1.668963   15.7382    3.913      0.362973   0.4573742  32.278     0.3616395  0.2105511  0.5127279 
1155.5     0.226      249.8636900000001 6          6          5.836      3.523      4.582      2.891      1.382      0.1502478  0.1502478  0.27495    1.698678   12.56212   3.523      0.359722   0.4610439  32.598     0.3778856  0.2308501  0.5249211 
1155.6     0.227      249.01994  6          6          5.926      3.203      4.351      2.557      1.366      0.150112   0.150112   0.27935    1.688869   10.86756   3.203      0.352705   0.4611672  32.944     0.3916304  0.2449215  0.5383392 
1155.7     0.228      250.1256899999999 -9999      -9999      5.963      2.935      4.109      2.3        1.353      0.1506862  0.1506862  0.282925   1.73074    10.23907   2.935      0.348494   0.4610553  33.249     0.4007236  0.2509522  0.5504951 
1155.8     0.228      252.4569199999999 -9999      -9999      5.959      2.713      3.875      2.134      1.345      0.1516963  0.1516963  0.285125   1.806928   10.30522   2.713      0.347515   0.4609274  33.437     0.4043295  0.2502932  0.5583658 
1155.9     0.229      257.82803  -9999      -9999      5.929      2.486      3.648      2.163      1.343      0.1518088  0.1518088  0.285675   1.815623   10.8152    2.486      0.344594   0.4591466  33.614     0.4056551  0.245405   0.5659051 
1156       0.229      266.6621099999999 -9999      -9999      5.885      2.268      3.443      2.329      1.351      0.1496999  0.1496999  0.283475   1.659446   11.60915   2.268      0.334301   0.4529358  33.761     0.4053792  0.2384079  0.5723504 
1156.1     0.23       276.68921  -9999      -9999      5.857      2.103      3.36       2.651      1.367      0.1449894  0.1449894  0.279075   1.357417   12.14449   2.103      0.314729   0.4425164  33.901     0.4063201  0.2340594  0.5785808 
1156.2     0.23       286.1196899999999 -9999      -9999      5.831      1.991      3.408      3.039      1.393      0.1372709  0.1372709  0.271925   0.9766718  12.66365   1.991      0.280746   0.4250302  34.069     0.4080426  0.2300925  0.5859928 
1156.3     0.231      290.08725  -9999      -9999      5.79       1.957      3.509      3.402      1.427      0.1273722  0.1273722  0.262575   0.640324   13.5278    1.957      0.231447   0.4001582  34.285     0.4097055  0.2239733  0.5954376 
1156.4     0.231      289.24329  6          6          5.736      2.062      3.661      3.634      1.466      0.1165945  0.1165945  0.25185    0.4043631  14.75658   2.062      0.16857    0.3687501  34.466     0.4098651  0.2161615  0.6035687 
1156.5     0.23       285.8371900000001 6          6          5.657      2.486      3.822      3.799      1.506      0.1061661  0.1061661  0.24085    0.2591867  16.75811   2.486      0          0.3316286  34.629     0.4081329  0.2052212  0.6110445 
1156.6     0.229      282.0182800000001 6          6          5.563      3.074      3.837      3.83       1.544      0.09708735 0.09708735 0.2304     0.1759752  19.49631   3.074      0          0.2914939  34.707     0.4039777  0.1929228  0.6150326 
1156.7     0.228      273.6157799999999 6          6          5.44       3.849      3.603      3.637      1.573      0.09165034 0.09165034 0.222425   0.1395548  23.76611   3.849      0          0.2575629  34.68      0.3962869  0.1779363  0.6146374 
1156.8     0.228      264.3716700000001 6          6          5.353      4.62       3.349      3.222      1.597      0.08777782 0.08777782 0.215825   0.1183086  27.33953   4.62       0          0.2266368  34.503     0.3880218  0.1680446  0.607999  
1156.9     0.229      256.81116  6          6          5.316      5.286      3.16       2.852      1.602      0.08896468 0.08896468 0.21445    0.1244514  29.01768   5.286      0          0.2214111  34.206     0.3802586  0.1640062  0.5965109 
1157       0.23       252.5808000000001 6          6          5.342      5.185      3.049      2.526      1.588      0.09499144 0.09499144 0.2183     0.1609274  27.82804   5.185      0          0.2433103  33.791     0.3736623  0.1668337  0.5804909 
1157.1     0.231      258.5480700000001 6          6          5.429      4.829      3.074      2.31       1.547      0.1074335  0.1074335  0.229575   0.2735817  24.19077   4.829      0          0.295354   33.344     0.3701257  0.1766542  0.5635973 
1157.2     0.231      262.82913  6          6          5.617      4.229      3.264      2.267      1.484      0.1233218  0.1233218  0.2469     0.5387366  17.87287   4.229      0.192362   0.3587554  32.948     0.3744795  0.1998948  0.5490642 
1157.3     0.23       277.3781700000001 6          6          5.829      3.549      3.425      2.42       1.41       0.1402345  0.1402345  0.26725    1.108258   12.7045    3.549      0.286796   0.4166983  32.69      0.3848956  0.2297902  0.5400009 
1157.4     0.229      279.9716200000001 -9999      -9999      6.022      2.849      3.475      2.508      1.342      0.154036   0.154036   0.28595    1.996538   9.311211   2.849      0.347811   0.4576531  32.635     0.3997395  0.2608775  0.5386015 
1157.5     0.227      283.3922699999999 -9999      -9999      6.253      2.614      3.407      2.52       1.284      0.1621003  0.1621003  0.3019     2.816107   6.419245   2.614      0.376849   0.4825752  32.751     0.4236354  0.3036628  0.543608  
