~Version
 VERS              .         2.0                           : CWLS LOG ASCII STANDARD - VERSION 2.0
 WRAP              .         NO                            : ONE LINE PER DEPTH STEP
 DLM               .         SPACE                         : DELIMITING CHARACTER(SPACE TAB OR COMMA)
~Well Information
#_______________________________________________________________________________
#
#PARAMETER_NAME    .UNIT     VALUE                         : DESCRIPTION
#_______________________________________________________________________________
STRT               .м        900                           : First reference value
STOP               .м        1384                          : Last reference value
STEP               .м        0.1                           : Step increment
NULL               .         -9999                         : Missing value
COMP               .                                       : Company
WELL               .         9402                          : Well name
FLD                .         УЗЕНЬ                         : Field
LOC                .                                       : Location
PROV               .                                       : Province
SRVC               .         SCH                           : Service Company
DATE               .         03.06.2009                    : Date
UWI                .                                       : Unique Well ID
Block              .         3а                            : 
Cartographic_reference_system .         GCS_WGS_1984                  : ESRI,PE_10_3_1- <?xml version="1.0" encoding="utf-16"?><ILateBoundCoordinateReferenceSystem name="GCS_WGS_1984"><AuthorityCode>EPSG,4326</AuthorityCode></ILateBoundCoordinateReferenceSystem>
Category           .         Нефтяная                      : 
Condition          .         В работе                      : 
CTRY               .                                       : Название страны
Date               .         14.10.1996                    : 
EREF               .m        233.8                         : 100.8
FILE               .                                       : 
Gorizont           .         17                            : 14
HZCS               .GCS_WGS_1984 WGS_1984_EASE-Grid_2.0_Global : ESRI,PE_10_3_1- <?xml version="1.0" encoding="utf-16"?><ILateBoundCoordinateReferenceSystem name="WGS_1984_EASE-Grid_2.0_Global"><AuthorityCode>EPSG,6933</AuthorityCode></ILateBoundCoordinateReferenceSystem>
Interpretator      .         Чиндаулова Г.К.               : 
Kupol              .         основной                      : osnovnoi
LATI               .dega     0.6319825406                  : GCS_WGS_1984
LONG               .dega     0.5715589808                  : GCS_WGS_1984
Mud                .         0                             : 
Mud_density        .         0                             : 
Mud_resistivity    .         0                             : 
NGDU               .         НГДУ-1                        : 
ORIGINALWELLNAME   .         9402                          : 
Spud_date          .         1996                          : 1961
TAPE               .                                       : 
Viscosity          .         0                             : 
X                  .m        55147.6                       : 46154
Y                  .m        80622.5                       : 85761.93
YEAR               .         2018                          : 
Исправлено         .         17                            : 
~Parameter Information Block
#_______________________________________________________________________________
#
#PARAMETER_NAME    .UNIT     VALUE                         : DESCRIPTION
#_______________________________________________________________________________
SET                .         LQC_KAZNIPI_Petrel            : 
PBBOTTOM           .м        1384                          : Глубина подошвы планшета
PBSCALE            .         1 _ 500                       : Вертикальный масштаб планшета
PBTOP              .м        900                           : Глубина кровли планшета
TLFamily_CALI      .         Caliper                       : 
TLFamily_CILD      .         Conductivity                  : 
TLFamily_COLL      .         Net Reservoir Flag            : 
TLFamily_CSAT      .         Fluid Code                    : 
TLFamily_DEPT      .         Measured Depth                : 
TLFamily_GR        .         Russian Gamma Ray             : 
TLFamily_LLS       .         Lateral Log Resistivity       : 
TLFamily_MINV      .         Micro Gradient Resistivity    : 
TLFamily_MNOR      .         Micro Resistivity             : 
TLFamily_NGLD      .         Neutron Far                   : 
TLFamily_PHIE      .         Effective Porosity            : 
TLFamily_PHIEN     .         Effective Porosity            : 
TLFamily_PHIT      .         Porosity                      : 
TLFamily_PRMB      .         Permeability                  : 
TLFamily_PRMB_DGR  .         Permeability                  : 
TLFamily_RT        .         Formation Resistivity         : 
TLFamily_SOIL_ARCHIE .         Oil Saturation                : 
TLFamily_SOIL_DW   .         Oil Saturation                : 
TLFamily_SP        .         Spontaneous Potential         : 
TLFamily_VSH_FIN   .         Shale Volume                  : 
TLFamily_VSH_GR    .         Shale Volume                  : 
TLFamily_VSH_SP    .         Shale Volume                  : 
~Curve Information
#_______________________________________________________________________________
#
#LOGNAME           .UNIT     LOG_ID                        : DESCRIPTION
#_______________________________________________________________________________
DEPT               .м                                      : Колонка глубины 
CALI               .м                                      : Каверномер 
CILD               .MS/M                                   : 4  CILD 
COLL               .unitless                               : Описание 
CSAT               .unitless                               : Описание 
GR                 .uR/h                                   : Гамма каротаж 
LLS                .Ohmm                                   : Боковой каротаж 
MINV               .Ohmm                                   : Микро-градиент зонд 
MNOR               .Ohmm                                   : Микро-потенциал зонд 
NGLD               .у.е.                                   : Показания зонда НГК-60 аппаратуры ДРСТ-3-90 
PHIE               .v/v                                    : Описание 
PHIEN              .v/v                                    :  
PHIT               .v/v                                    : Описание 
PRMB               .mD                                     :  
PRMB_DGR           .mD                                     :  
RT                 .ohmm                                   : УЭС пласта 
SOIL_ARCHIE        .v/v                                    :  
SOIL_DW            .v/v                                    :  
SP                 .mv                                     : Потенциал самополяризации 
VSH_FIN            .v/v                                    : Описание 
VSH_GR             .v/v                                    : Shale volume 
VSH_SP             .v/v                                    : Shale Volume 
~Ascii
# ...
1325.9     0.206      278.6879899999999 1          2          5.657      3.471      2.107      2.698      1.485      0.1768181  0.1768181  0.246625   5.275429   9.817992   3.471      0.4230208  0.4811342  17.394     0.2115361  0.2552926  0.1677797 
1326       0.206      282.9090600000001 1          2          5.654      3.533      2.106      2.71       1.484      0.1748137  0.1748137  0.2469     4.843192   9.865844   3.533      0.4149323  0.4773572  18.946     0.2184434  0.2547862  0.1821005 
1326.1     0.206      284.4762600000001 1          2          5.676      3.59       2.11       2.715      1.481      0.1718224  0.1718224  0.247725   4.26311    9.520311   3.59       0.4034372  0.4729258  20.696     0.2300078  0.2585225  0.2014932 
1326.2     0.206      285.3192400000001 1          2          5.732      3.646      2.102      2.694      1.476      0.1675351  0.1675351  0.2491     3.550702   8.694404   3.646      0.387373   0.467577   22.54      0.2471665  0.2682818  0.2260512 
1326.3     0.206      287.0578600000001 -9999      -9999      5.799      3.664      2.091      2.647      1.473      0.1617181  0.1617181  0.249925   2.770578   7.799864   3.664      0.3649187  0.4592383  24.318     0.2672935  0.2804434  0.2541435 
1326.4     0.206      290.4253200000001 -9999      -9999      5.881      3.618      2.076      2.591      1.469      0.1563351  0.1563351  0.251025   2.202231   6.829321   3.618      0.3419089  0.450926   25.626     0.2869392  0.2960806  0.2777977 
1326.5     0.207      293.79578  -9999      -9999      6.028      3.501      2.057      2.535      1.458      0.151172   0.151172   0.25405    1.766978   5.381744   3.501      0.3175476  0.4444873  26.601     0.3117515  0.3263277  0.2971752 
1326.6     0.207      300.4954200000001 -9999      -9999      6.136      3.306      2.041      2.479      1.438      0.1496124  0.1496124  0.25955    1.653269   4.517677   3.306      0.3062761  0.4454702  27.471     0.3331441  0.3505019  0.3157863 
1326.7     0.207      306.4928899999999 -9999      -9999      6.212      3.073      2.021      2.424      1.41       0.1514423  0.1514423  0.26725    1.787462   3.994188   3.073      0.3092886  0.4539041  28.239     0.3509324  0.3685792  0.3332857 
1326.8     0.207      314.8082899999999 -9999      -9999      6.286      2.838      1.992      2.365      1.38       0.153827   0.153827   0.2755     1.978824   3.542822   2.838      0.3142922  0.4631778  28.947     0.3687061  0.3870762  0.350336  
1326.9     0.208      320.8917199999999 -9999      -9999      6.348      2.623      1.96       2.304      1.351      0.1566018  0.1566018  0.283475   2.227429   3.204167   2.623      0.3209301  0.4723781  29.553     0.3844642  0.4032865  0.3656419 
1327       0.209      325.9631000000001 -9999      -9999      6.345      2.43       1.932      2.237      1.325      0.1616244  0.1616244  0.290625   2.759525   3.219784   2.43       0.3364653  0.4834762  30.074     0.3909108  0.4024867  0.379335  
1327.1     0.211      331.8870500000002 -9999      -9999      6.369      2.272      1.869      2.112      1.304      0.1645748  0.1645748  0.2964     3.129555   3.096964   2.272      0.344134   0.4905348  30.468     0.3994703  0.4089296  0.390011  
1327.2     0.213      335.2542399999999 -9999      -9999      6.397      2.131      1.763      1.901      1.288      0.1663701  0.1663701  0.3008     3.378599   2.959583   2.131      0.3478799  0.4949801  30.762     0.4073632  0.4165767  0.3981497 
1327.3     0.216      338.97824  -9999      -9999      6.404      2.009      1.64       1.743      1.276      0.1687608  0.1687608  0.3041     3.741255   2.926201   2.009      0.3544214  0.4995063  30.891     0.4101188  0.4185107  0.4017268 
1327.4     0.218      341.1411399999998 -9999      -9999      6.391      1.922      1.559      1.638      1.27       0.1709877  0.1709877  0.30575    4.114015   2.9885     1.922      0.3614099  0.503059   30.897     0.4083705  0.4149261  0.4018149 
1327.5     0.219      340.6640599999998 -9999      -9999      6.361      1.868      1.521      1.588      1.273      0.1722701  0.1722701  0.304925   4.345283   3.137374   1.868      0.3658763  0.5037675  30.737     0.4019846  0.4067706  0.3971985 
1327.6     0.218      338.9463200000002 -9999      -9999      6.317      1.854      1.568      1.648      1.285      0.1726753  0.1726753  0.301625   4.421039   3.369244   1.854      0.3686244  0.5020815  30.352     0.3907565  0.3950982  0.3864149 
1327.7     0.218      335.1166400000001 -9999      -9999      6.269      1.872      1.693      1.829      1.3        0.1735443  0.1735443  0.2975     4.587965   3.641778   1.872      0.3748467  0.5015889  29.686     0.3756233  0.3827464  0.3685001 
1327.8     0.217      328.806    -9999      -9999      6.229      1.932      1.82       1.961      1.316      0.1747092  0.1747092  0.2931     4.821657   3.885655   1.932      0.3835258  0.5023444  28.75      0.35876    0.3727488  0.3447712 
1327.9     0.217      317.6840500000001 -9999      -9999      6.182      2.03       1.883      2.042      1.332      0.176765   0.176765   0.2887     5.263493   4.193163   2.03       0.3962632  0.505128   27.566     0.3391971  0.3613347  0.3170595 
1328       0.216      305.6551199999999 -9999      -9999      6.096      2.194      1.892      2.095      1.347      0.1805806  0.1805806  0.284575   6.19369    4.82021    2.194      0.4150628  0.5108651  26.24      0.3151345  0.3413465  0.2889224 
1328.1     0.215      295.0257   -9999      -9999      5.979      2.485      1.872      2.14       1.363      0.1846898  0.1846898  0.280175   7.38008    5.826501   2.485      0.4350245  0.5173849  24.864     0.2893491  0.3159167  0.2627814 
1328.2     0.213      285.5538300000001 1          2          5.851      2.837      1.842      2.192      1.38       0.1878583  0.1878583  0.2755     8.44793    7.169535   2.837      0.4517802  0.522657   23.572     0.2655808  0.290261   0.2409006 
1328.3     0.211      271.88522  1          2          5.714      3.255      1.847      2.288      1.385      0.1934328  0.1934328  0.274125   10.71525   8.951742   3.255      0.4749196  0.534119   22.455     0.2445219  0.2651054  0.2239385 
1328.4     0.21       260.7625100000001 1          2          5.585      3.695      1.887      2.427      1.38       0.2003734  0.2003734  0.2755     14.40651   11.03302   3.695      0.5001304  0.549174   21.584     0.2276565  0.2434149  0.2118981 
1328.5     0.209      244.8905900000001 1          2          5.484      4.093      1.928      2.552      1.366      0.2081596  0.2081596  0.27935    20.08072   12.99498   4.093      0.5252388  0.5662431  20.952     0.2157283  0.2276787  0.203778  
1328.6     0.209      235.5274499999999 1          2          5.406      4.367      1.93       2.635      1.341      0.217524   0.217524   0.286225   29.93855   14.74586   4.367      0.5507926  0.5853541  20.657     0.2081848  0.2162257  0.2001439 
1328.7     0.209      229.99536  1          2          5.354      4.566      1.909      2.677      1.312      0.2266956  0.2266956  0.2942     44.27016   16.04228   4.566      0.5733638  0.6033449  20.665     0.2045587  0.2089122  0.2002051 
1328.8     0.209      225.7289299999999 1          2          5.345      4.646      1.874      2.684      1.295      0.2309546  0.2309546  0.298875   53.08809   16.27798   4.646      0.5844132  0.613023   20.976     0.2058195  0.2076717  0.2039673 
1328.9     0.209      220.6088999999999 1          2          5.379      4.635      1.841      2.663      1.285      0.2315193  0.2315193  0.301625   54.38221   15.40535   4.635      0.5879437  0.617689   21.643     0.2124416  0.2123969  0.2124863 
1329       0.21       217.1991700000001 -9999      -9999      5.476      4.558      1.837      2.65       1.283      0.2274246  0.2274246  0.302175   45.66816   13.16455   4.558      0.5827856  0.616985   22.656     0.2265164  0.2264766  0.2265561 
1329.1     0.21       214.6474600000001 -9999      -9999      5.603      4.43       1.869      2.639      1.287      0.220052   0.220052   0.301075   33.34693   10.71585   4.43       0.5708252  0.6121827  23.835     0.2455241  0.2463315  0.2447168 
