~Version
 VERS              .         2.0                           : CWLS LOG ASCII STANDARD - VERSION 2.0
 WRAP              .         NO                            : ONE LINE PER DEPTH STEP
 DLM               .         SPACE                         : DELIMITING CHARACTER(SPACE TAB OR COMMA)
~Well Information
#_______________________________________________________________________________
#
#PARAMETER_NAME    .UNIT     VALUE                         : DESCRIPTION
#_______________________________________________________________________________
STRT               .м        900                           : First reference value
STOP               .м        1384                          : Last reference value
STEP               .м        0.1                           : Step increment
NULL               .         -9999                         : Missing value
COMP               .                                       : Company
WELL               .         9402                          : Well name
FLD                .         УЗЕНЬ                         : Field
LOC                .                                       : Location
PROV               .                                       : Province
SRVC               .         SCH                           : Service Company
DATE               .         03.06.2009                    : Date
UWI                .                                       : Unique Well ID
Block              .         3а                            : 
Cartographic_reference_system .         GCS_WGS_1984                  : ESRI,PE_10_3_1- <?xml version="1.0" encoding="utf-16"?><ILateBoundCoordinateReferenceSystem name="GCS_WGS_1984"><AuthorityCode>EPSG,4326</AuthorityCode></ILateBoundCoordinateReferenceSystem>
Category           .         Нефтяная                      : 
Condition          .         В работе                      : 
CTRY               .                                       : Название страны
Date               .         14.10.1996                    : 
EREF               .m        233.8                         : 100.8
FILE               .                                       : 
Gorizont           .         17                            : 14
HZCS               .GCS_WGS_1984 WGS_1984_EASE-Grid_2.0_Global : ESRI,PE_10_3_1- <?xml version="1.0" encoding="utf-16"?><ILateBoundCoordinateReferenceSystem name="WGS_1984_EASE-Grid_2.0_Global"><AuthorityCode>EPSG,6933</AuthorityCode></ILateBoundCoordinateReferenceSystem>
Interpretator      .         Чиндаулова Г.К.               : 
Kupol              .         основной                      : osnovnoi
LATI               .dega     0.6319825406                  : GCS_WGS_1984
LONG               .dega     0.5715589808                  : GCS_WGS_1984
Mud                .         0                             : 
Mud_density        .         0                             : 
Mud_resistivity    .         0                             : 
NGDU               .         НГДУ-1                        : 
ORIGINALWELLNAME   .         9402                          : 
Spud_date          .         1996                          : 1961
TAPE               .                                       : 
Viscosity          .         0                             : 
X                  .m        55147.6                       : 46154
Y                  .m        80622.5                       : 85761.93
YEAR               .         2018                          : 
Исправлено         .         17                            : 
~Parameter Information Block
#_______________________________________________________________________________
#
#PARAMETER_NAME    .UNIT     VALUE                         : DESCRIPTION
#_______________________________________________________________________________
SET                .         LQC_KAZNIPI_Petrel            : 
PBBOTTOM           .м        1384                          : Глубина подошвы планшета
PBSCALE            .         1 _ 500                       : Вертикальный масштаб планшета
PBTOP              .м        900                           : Глубина кровли планшета
TLFamily_CALI      .         Caliper                       : 
TLFamily_CILD      .         Conductivity                  : 
TLFamily_COLL      .         Net Reservoir Flag            : 
TLFamily_CSAT      .         Fluid Code                    : 
TLFamily_DEPT      .         Measured Depth                : 
TLFamily_GR        .         Russian Gamma Ray             : 
TLFamily_LLS       .         Lateral Log Resistivity       : 
TLFamily_MINV      .         Micro Gradient Resistivity    : 
TLFamily_MNOR      .         Micro Resistivity             : 
TLFamily_NGLD      .         Neutron Far                   : 
TLFamily_PHIE      .         Effective Porosity            : 
TLFamily_PHIEN     .         Effective Porosity            : 
TLFamily_PHIT      .         Porosity                      : 
TLFamily_PRMB      .         Permeability                  : 
TLFamily_PRMB_DGR  .         Permeability                  : 
TLFamily_RT        .         Formation Resistivity         : 
TLFamily_SOIL_ARCHIE .         Oil Saturation                : 
TLFamily_SOIL_DW   .         Oil Saturation                : 
TLFamily_SP        .         Spontaneous Potential         : 
TLFamily_VSH_FIN   .         Shale Volume                  : 
TLFamily_VSH_GR    .         Shale Volume                  : 
TLFamily_VSH_SP    .         Shale Volume                  : 
~Curve Information
#_______________________________________________________________________________
#
#LOGNAME           .UNIT     LOG_ID                        : DESCRIPTION
#_______________________________________________________________________________
DEPT               .м                                      : Колонка глубины 
CALI               .м                                      : Каверномер 
CILD               .MS/M                                   : 4  CILD 
COLL               .unitless                               : Описание 
CSAT               .unitless                               : Описание 
GR                 .uR/h                                   : Гамма каротаж 
LLS                .Ohmm                                   : Боковой каротаж 
MINV               .Ohmm                                   : Микро-градиент зонд 
MNOR               .Ohmm                                   : Микро-потенциал зонд 
NGLD               .у.е.                                   : Показания зонда НГК-60 аппаратуры ДРСТ-3-90 
PHIE               .v/v                                    : Описание 
PHIEN              .v/v                                    :  
PHIT               .v/v                                    : Описание 
PRMB               .mD                                     :  
PRMB_DGR           .mD                                     :  
RT                 .ohmm                                   : УЭС пласта 
SOIL_ARCHIE        .v/v                                    :  
SOIL_DW            .v/v                                    :  
SP                 .mv                                     : Потенциал самополяризации 
VSH_FIN            .v/v                                    : Описание 
VSH_GR             .v/v                                    : Shale volume 
VSH_SP             .v/v                                    : Shale Volume 
~Ascii
# ...
1068.5     0.254      466.62482  -9999      -9999      6.715      1.482      1.597      1.203      1.14       0.1374096  0.1374096  0.3415     0.9824646  0.8617777  1.667      0.118907   0.3967127  30.867     0.6184558  0.6894367  0.5474749 
1068.6     0.253      469.1604900000002 -9999      -9999      6.581      1.477      1.651      1.252      1.125      0.1504764  0.1504764  0.345625   1.715322   1.090514   1.666      0.19404    0.4207738  31.115     0.5913594  0.6262503  0.5564686 
1068.7     0.253      470.0536200000003 -9999      -9999      6.458      1.475      1.733      1.308      1.12       0.1590344  0.1590344  0.347      2.470932   1.353551   1.669      0.237858   0.4345515  31.369     0.5695928  0.5733616  0.5658239 
1068.8     0.252      471.7662399999999 -9999      -9999      6.357      1.481      1.832      1.362      1.122      0.1636477  0.1636477  0.34645    3.008222   1.616342   1.676      0.26098    0.441246   31.605     0.5539465  0.5332894  0.5746036 
1068.9     0.251      470.0835300000002 -9999      -9999      6.281      1.499      1.976      1.416      1.132      0.1641381  0.1641381  0.3437     3.071808   1.847216   1.687      0.265786   0.4409465  31.835     0.544127   0.5049938  0.5832602 
1069       0.25       468.4008500000001 -9999      -9999      6.217      1.529      2.18       1.471      1.147      0.162499   0.162499   0.339575   2.864404   2.067031   1.7        0.261436   0.4367598  32.036     0.5365939  0.4823335  0.5908543 
1069.1     0.249      462.5812399999999 -9999      -9999      6.159      1.563      2.412      1.531      1.163      0.1603247  0.1603247  0.335175   2.610725   2.288751   1.715      0.254954   0.4317742  32.2       0.5298493  0.4626772  0.5970213 
1069.2     0.248      457.35822  -9999      -9999      6.097      1.597      2.627      1.608      1.178      0.1587181  0.1587181  0.33105    2.43782    2.552123   1.729      0.250705   0.4275315  32.331     0.522218   0.4425503  0.6018857 
1069.3     0.249      452.5010099999999 -9999      -9999      6.028      1.631      2.787      1.695      1.191      0.1580863  0.1580863  0.327475   2.37301    2.881016   1.743      0.250972   0.4251169  32.429     0.5132992  0.4211786  0.6054197 
1069.4     0.249      447.4608200000001 -9999      -9999      5.95       1.666      2.888      1.763      1.201      0.1588738  0.1588738  0.324725   2.454067   3.304123   1.755      0.257431   0.4251827  32.477     0.5025794  0.3982596  0.6068993 
1069.5     0.249      442.9269100000001 -9999      -9999      5.871      1.702      2.925      1.809      1.207      0.1610639  0.1610639  0.323075   2.694344   3.79603    1.767      0.270227   0.4283427  32.457     0.4909426  0.3763176  0.6055676 
1069.6     0.249      438.6850899999998 -9999      -9999      5.795      1.737      2.893      1.835      1.208      0.1645406  0.1645406  0.3228     3.124998   4.338243   1.779      0.288316   0.4346441  32.402     0.4795739  0.3563507  0.6027971 
1069.7     0.249      435.29639  -9999      -9999      5.788      1.771      2.84       1.849      1.207      0.1659031  0.1659031  0.323075   3.31197    4.391923   1.789      0.29634    0.4383135  32.297     0.4762784  0.3545658  0.597991  
1069.8     0.248      431.9076800000001 -9999      -9999      5.832      1.797      2.786      1.859      1.206      0.1650897  0.1650897  0.32335    3.199045   4.065229   1.8        0.295196   0.4392606  32.192     0.4795766  0.3659354  0.5932178 
1069.9     0.249      427.6657999999998 -9999      -9999      5.904      1.814      2.704      1.871      1.207      0.1622034  0.1622034  0.323075   2.828517   3.582219   1.81       0.284731   0.4367025  32.116     0.4874896  0.3853322  0.5896471 
1070       0.249      425.13004  -9999      -9999      5.965      1.826      2.596      1.883      1.211      0.1584007  0.1584007  0.321975   2.40505    3.21819    1.82       0.269678   0.4319214  32.107     0.4956796  0.4025681  0.5887911 
1070.1     0.25       421.7412699999999 -9999      -9999      6.017      1.835      2.534      1.893      1.217      0.1541011  0.1541011  0.320325   2.00209    2.93723    1.83       0.251504   0.4256692  32.138     0.5037089  0.4178684  0.5895494 
1070.2     0.25       419.0140399999999 -9999      -9999      6.036      1.845      2.543      1.892      1.223      0.1509253  0.1509253  0.318675   1.748481   2.840809   1.839      0.237802   0.4206712  32.237     0.5083324  0.4236026  0.5930621 
1070.3     0.25       415.6706200000002 -9999      -9999      6.049      1.857      2.622      1.873      1.226      0.1488696  0.1488696  0.31785    1.601714   2.776667   1.847      0.229118   0.417979   32.335     0.5120617  0.4275714  0.596552  
1070.4     0.249      413.17419  -9999      -9999      6.074      1.869      2.711      1.848      1.227      0.1472252  0.1472252  0.317575   1.493225   2.657356   1.854      0.222132   0.4163205  32.361     0.5162116  0.4353085  0.5971147 
1070.5     0.247      410.6804800000001 -9999      -9999      6.147      1.878      2.729      1.803      1.226      0.1440502  0.1440502  0.31785    1.304117   2.337513   1.859      0.206255   0.4126196  32.312     0.5266662  0.4587114  0.594621  
1070.6     0.246      408.2093500000001 -9999      -9999      6.249      1.888      2.686      1.745      1.222      0.1403681  0.1403681  0.31895    1.114591   1.954035   1.86       0.185875   0.4083439  32.18      0.5411573  0.4935336  0.5887811 
1070.7     0.245      406.5346099999999 -9999      -9999      6.331      1.897      2.609      1.683      1.212      0.1398108  0.1398108  0.3217     1.088413   1.691883   1.858      0.1822     0.4103364  31.946     0.5511793  0.5234352  0.5789235 
1070.8     0.245      405.6968400000002 -9999      -9999      6.382      1.901      2.473      1.619      1.2        0.1417667  0.1417667  0.325      1.183101   1.54689    1.851      0.191734   0.4160218  31.67      0.5552523  0.5429396  0.567565  
1070.9     0.246      406.5134299999999 -9999      -9999      6.412      1.899      2.329      1.551      1.186      0.1451229  0.1451229  0.32885    1.36517    1.467475   1.84       0.207737   0.4236355  31.455     0.5567487  0.5547506  0.5587468 
1071       0.247      408.2278099999999 -9999      -9999      6.426      1.887      2.245      1.499      1.171      0.1493949  0.1493949  0.332975   1.638      1.431823   1.827      0.227318   0.4322751  31.298     0.5563034  0.5603499  0.5522568 
1071.1     0.247      411.6579600000002 -9999      -9999      6.418      1.859      2.177      1.46       1.157      0.1543467  0.1543467  0.336825   2.023174   1.452088   1.812      0.248708   0.4408954  31.219     0.5529646  0.5571434  0.5487857 
1071.2     0.248      416.8059400000001 -9999      -9999      6.397      1.82       2.119      1.429      1.144      0.159191   0.159191   0.3404     2.487486   1.50666    1.799      0.268743   0.4490184  31.248     0.5491183  0.5488132  0.5494233 
1071.3     0.248      421.9543799999998 -9999      -9999      6.394      1.783      2.12       1.433      1.135      0.161208   0.161208   0.342875   2.710948   1.514621   1.788      0.27552    0.4524249  31.364     0.5505061  0.5476335  0.5533786 
1071.4     0.248      426.2434400000001 -9999      -9999      6.409      1.748      2.188      1.471      1.132      0.1601573  0.1601573  0.3437     2.592149   1.47523    1.78       0.268986   0.4506575  31.518     0.55619    0.5535579  0.5588221 
1071.5     0.248      429.6732800000002 -9999      -9999      6.412      1.708      2.323      1.544      1.136      0.1577363  0.1577363  0.3426     2.337855   1.467475   1.776      0.256854   0.4457636  31.706     0.5601929  0.5547506  0.5656351 
1071.6     0.247      432.3273600000002 -9999      -9999      6.413      1.666      2.526      1.633      1.144      0.1540289  0.1540289  0.3404     1.99594    1.464899   1.775      0.238767   0.4383737  31.941     0.5647608  0.5551487  0.5743729 
1071.7     0.247      433.9613600000002 -9999      -9999      6.412      1.628      2.753      1.728      1.157      0.1490852  0.1490852  0.336825   1.616505   1.467475   1.779      0.214604   0.4283506  32.172     0.5689086  0.5547506  0.5830666 
