~Version
 VERS              .         2.0                           : CWLS LOG ASCII STANDARD - VERSION 2.0
 WRAP              .         NO                            : ONE LINE PER DEPTH STEP
 DLM               .         SPACE                         : DELIMITING CHARACTER(SPACE TAB OR COMMA)
~Well Information
#_______________________________________________________________________________
#
#PARAMETER_NAME    .UNIT     VALUE                         : DESCRIPTION
#_______________________________________________________________________________
STRT               .M        880                           : First reference value
STOP               .M        1396                          : Last reference value
STEP               .M        0.2                           : Step increment
NULL               .         -9999                         : Missing value
COMP               .                                       : Company
WELL               .         4021                          : Well name
FLD                .         УЗЕНЬ                         : Field
LOC                .                                       : Location
CNTY               .                                       : County
STAT               .                                       : State
CTRY               .         Казахстан                     : Country
SRVC               .                                       : Service Company
DATE               .         23.03.2009                    : Date
UWI                .                                       : Unique Well ID
Block              .         3а                            : 
Cartographic_reference_system .         GCS_WGS_1984                  : ESRI,PE_10_3_1- <?xml version="1.0" encoding="utf-16"?><ILateBoundCoordinateReferenceSystem name="GCS_WGS_1984"><AuthorityCode>EPSG,4326</AuthorityCode></ILateBoundCoordinateReferenceSystem>
Category           .         Нефтяная                      : 
Condition          .         В простое                     : 
Date               .         06.05.1990                    : 
EREF               .m        235.7                         : 100.8
Gorizont           .         18                            : 14
HZCS               .GCS_WGS_1984 WGS_1984_EASE-Grid_2.0_Global : ESRI,PE_10_3_1- <?xml version="1.0" encoding="utf-16"?><ILateBoundCoordinateReferenceSystem name="WGS_1984_EASE-Grid_2.0_Global"><AuthorityCode>EPSG,6933</AuthorityCode></ILateBoundCoordinateReferenceSystem>
Interpretator      .         Чиндаулова Г.К.               : 
Kupol              .         основной                      : osnovnoi
LATI               .dega     0.6315670686                  : GCS_WGS_1984
LONG               .dega     0.5736255958                  : GCS_WGS_1984
METD               .         OGZ3, GZ3, SP                 : Method
Mud                .         0                             : 
Mud_density        .         0                             : 
Mud_resistivity    .         0                             : 
NGDU               .         НГДУ-1                        : 
ORIGINALWELLNAME   .         4021                          : 
SCAL               .         500                           : Scale
Spud_date          .         1990                          : 1961
Viscosity          .         0                             : 
X                  .m        55347                         : 46154
Y                  .m        80569.5                       : 85761.93
YEAR               .         2018                          : 
Исправлено         .         18                            : 
~Parameter Information Block
#_______________________________________________________________________________
#
#PARAMETER_NAME    .UNIT     VALUE                         : DESCRIPTION
#_______________________________________________________________________________
SET                .         LQC_KAZNIPI_Petrel            : 
TLFamily_CALI      .         Caliper                       : 
TLFamily_CILD      .         Conductivity                  : 
TLFamily_COLL      .         Net Reservoir Flag            : 
TLFamily_CSAT      .         Fluid Code                    : 
TLFamily_DEPT      .         Measured Depth                : 
TLFamily_GR        .         Russian Gamma Ray             : 
TLFamily_LLS       .         Lateral Log Resistivity       : 
TLFamily_MINV      .         Micro Gradient Resistivity    : 
TLFamily_MNOR      .         Micro Resistivity             : 
TLFamily_NGLD      .         Neutron Far                   : 
TLFamily_PHIE      .         Effective Porosity            : 
TLFamily_PHIEN     .         Effective Porosity            : 
TLFamily_PHIT      .         Porosity                      : 
TLFamily_PRMB      .         Permeability                  : 
TLFamily_PRMB_DGR  .         Permeability                  : 
TLFamily_RT        .         Formation Resistivity         : 
TLFamily_SOIL_ARCHIE .         Oil Saturation                : 
TLFamily_SOIL_DW   .         Oil Saturation                : 
TLFamily_SP        .         Spontaneous Potential         : 
TLFamily_VSH_FIN   .         Shale Volume                  : 
TLFamily_VSH_GR    .         Shale Volume                  : 
TLFamily_VSH_SP    .         Shale Volume                  : 
~Curve Information
#_______________________________________________________________________________
#
#LOGNAME           .UNIT     LOG_ID                        : DESCRIPTION
#_______________________________________________________________________________
DEPT               .M                                      : Колонка глубины 
CALI               .м                                      : Каверномер 
CILD               .мСм/м                                  : Индукционный каротаж 
COLL               .unitless                               : Описание 
CSAT               .unitless                               : Описание 
GR                 .uR/h                                   : Гамма каротаж 
LLS                .Ohmm                                   : Боковой каротаж 
MINV               .Ohmm                                   : Микро-градиент зонд 
MNOR               .Ohmm                                   : Микро-потенциал зонд 
NGLD               .у.е.                                   : Показания зонда НГК-60 аппаратуры ДРСТ-3-90 
PHIE               .v/v                                    : Описание 
PHIEN              .v/v                                    :  
PHIT               .v/v                                    : Описание 
PRMB               .mD                                     :  
PRMB_DGR           .mD                                     :  
RT                 .ohmm                                   : Description 
SOIL_ARCHIE        .v/v                                    :  
SOIL_DW            .v/v                                    :  
SP                 .мВ                                     : Потенциал самополяризации 
VSH_FIN            .v/v                                    : Описание 
VSH_GR             .v/v                                    : Shale volume 
VSH_SP             .v/v                                    : Shale Volume 
~Ascii
# ...
1087.2     0.218      342.56     -9999      -9999      5.777      1.918      0.552      0.733      1.078      0.1407616  0.1407616  0.3191476  1.133454   1.372065   1.918      0.09131426 0.4181921  39.95      0.5405638  0.5701898  0.5109377 
1087.4     0.217      337.735    -9999      -9999      5.732      2.069      0.999      0.928      1.105      0.138854   0.138854   0.312241   1.044889   1.509565   2.069      0.1125774  0.429191   39.77      0.5254153  0.5483817  0.5024489 
1087.6     0.217      337.723    -9999      -9999      5.6        2.16       0.845      1.159      1.162      0.1320319  0.1320319  0.2976604  0.7811056  1.997644   2.16       0.09131315 0.4134193  40.029     0.5019045  0.4891055  0.5147035 
1087.8     0.216      331.278    -9999      -9999      5.492      2.23       1.148      1.271      1.194      0.1277256  0.1277256  0.2894748  0.6500502  2.512252   2.23       0.07858154 0.4052052  40.444     0.4901489  0.4454049  0.534893  
1088       0.217      322.048    -9999      -9999      5.338      2.19       0.963      1.156      1.195      0.133071   0.133071   0.289219   0.8165     3.483435   2.19       0.1033189  0.4086244  40.875     0.4731756  0.3897574  0.5565939 
1088.2     0.217      301.702    -9999      -9999      5.19       2.41       0.615      1.052      1.197      0.1386653  0.1386653  0.2887074  1.036518   4.768932   2.41       0.1729098  0.4443768  41.067     0.4546729  0.3428405  0.5665052 
1088.4     0.218      285.938    -9999      -9999      5.07       2.905      2.784      1.572      1.196      0.1495528  0.1495528  0.2889632  1.649071   6.15215    2.905      0.2905996  0.508673   40.465     0.4224557  0.3089784  0.5359329 
1088.6     0.217      278.533    -9999      -9999      4.832      3.603      3.596      2.023      1.223      0.1582808  0.1582808  0.2820566  2.392782   10.19519   3.603      0.3896878  0.5620922  39.691     0.3750781  0.2513927  0.4987634 
1088.8     0.216      285.477    -9999      -9999      4.54       3.706      4.037      2.387      1.205      0.1794444  0.1794444  0.286661   5.900695   18.9468    3.706      0.4600675  0.5932747  38.701     0.3248988  0.1951882  0.4546094 
1089       0.217      299.923    -9999      -9999      4.577      2.923      1.065      1.405      1.18       0.1838611  0.1838611  0.293056   7.123806   17.51589   2.923      0.4091024  0.5524278  38.832     0.3308936  0.2015484  0.4602388 
1089.2     0.217      312.598    -9999      -9999      5.025      2.343      0.679      0.938      1.133      0.1776031  0.1776031  0.3050786  5.455055   6.76868    2.343      0.3244048  0.5051869  39.178     0.3862893  0.2971609  0.4754177 
1089.4     0.217      333.272    -9999      -9999      5.436      2.252      0.674      1.081      1.103      0.1636568  0.1636568  0.3127526  3.009394   2.829302   2.252      0.2609174  0.4866109  39.265     0.4518054  0.4243052  0.4793056 
1089.6     0.22       355.673    -9999      -9999      5.716      1.947      0.605      0.805      1.083      0.150173   0.150173   0.3178686  1.693269   1.561706   1.947      0.1471456  0.4350121  39.18      0.5081686  0.5408305  0.4755067 
1089.8     0.221      367.6261   -9999      -9999      5.821      1.717      0.779      0.907      1.045      0.1520147  0.1520147  0.327589   1.831632   1.249738   1.717      0.1048742  0.4122368  39.095     0.5320435  0.5923518  0.4717352 
1090       0.22       392.3701   -9999      -9999      6.151      1.698      0.627      0.789      1.052      0.1184837  0.1184837  0.3257984  0.4382913  0.6203735  1.698      0          0.3502828  39.01      0.6282265  0.7884619  0.467991  
1090.2     0.221      403.298    -9999      -9999      6.439      1.678      0.566      0.738      1.039      0.1192656  0.1192656  0.3291238  0.4531547  0.3366658  1.678      0          0.3522073  39.098     0.6359339  0.8        0.4718678 
1090.4     0.222      409.75     -9999      -9999      6.624      1.647      0.518      0.68       1.043      0.1214348  0.1214348  0.3281006  0.4970781  0.2273432  1.647      0          0.3489955  38.652     0.6262601  0.8        0.4525202 
1090.6     0.222      416.697    -9999      -9999      6.585      1.647      0.448      0.613      1.057      0.1183365  0.1183365  0.3245194  0.4355488  0.2469613  1.647      0          0.3383303  38.583     0.6247967  0.8        0.4495934 
1090.8     0.222      409.3649   -9999      -9999      6.467      1.733      0.939      0.799      1.078      0.1098059  0.1098059  0.3191476  0.3027118  0.3172423  1.733      0          0.3305828  39.027     0.6343689  0.8        0.4687377 
1091       0.223      405.022    -9999      -9999      6.311      1.905      0.646      0.862      1.088      0.09869593 0.09869593 0.3165896  0.1884717  0.4417523  1.905      0          0.33424    40.151     0.6602838  0.8        0.5205676 
1091.2     0.223      399.271    -9999      -9999      6.16       1.901      0.538      0.779      1.087      0.09295867 0.09295867 0.3168454  0.1475632  0.6086366  1.901      0          0.3204446  40.985     0.6784446  0.7946355  0.5622537 
1091.4     0.223      386.368    -9999      -9999      5.985      1.844      0.733      0.991      1.081      0.1082928  0.1082928  0.3183802  0.2837944  0.8823844  1.844      0          0.3468833  41.519     0.6366284  0.6828163  0.5904406 
1091.6     0.223      366.659    -9999      -9999      5.95       2.001      0.87       0.991      1.091      0.1026478  0.1026478  0.3158222  0.2230719  0.9504256  2.001      0          0.3579799  42.225     0.645983   0.6624162  0.6295498 
1091.8     0.224      352.271    -9999      -9999      5.65       2.381      1.353      1.27       1.123      0.1136822  0.1136822  0.3076366  0.3571318  1.79652    2.381      0.01107837 0.4222202  42.829     0.5877405  0.5107648  0.6647163 
1092       0.224      340.952    -9999      -9999      5.243      2.495      1.105      1.439      1.138      0.1307329  0.1307329  0.3037996  0.7390059  4.261576   2.495      0.1434148  0.459186   43.246     0.5244446  0.3589547  0.6899346 
1092.2     0.224      333.1119   -9999      -9999      4.826      2.282      1.144      1.046      1.151      0.1470921  0.1470921  0.3004742  1.484773   10.32584   2.282      0.1939535  0.4553404  43.075     0.4647943  0.250089   0.6794996 
1092.4     0.224      322.606    -9999      -9999      4.784      2.119      0.611      0.641      1.146      0.1549501  0.1549501  0.3017532  2.075919   11.28853   2.119      0.2024143  0.4474272  42.555     0.4448578  0.2411499  0.6485656 
1092.6     0.225      301.604    -9999      -9999      4.664      2.668      0.918      1.203      1.158      0.1621636  0.1621636  0.2986836  2.823724   14.56275   2.668      0.3119597  0.5131614  41.878     0.4136969  0.2173317  0.610062  
1092.8     0.223      289.046    -9999      -9999      4.492      2.728      1.526      1.731      1.204      0.16377    0.16377    0.2869168  3.023955   20.97867   2.728      0.3249233  0.5085772  40.924     0.3731722  0.1872354  0.5591089 
1093       0.224      268.099    -9999      -9999      4.012      2.816      1.184      1.266      1.25       0.1633616  0.1633616  0.27515    2.971748   58.10335   2.816      0.3334587  0.5034618  40.824     0.3387526  0.1235185  0.5539867 
1093.2     0.224      255.264    -9999      -9999      4.097      3.472      2.516      2.326      1.294      0.1487915  0.1487915  0.2638948  1.596383   48.5127    3.472      0.3446319  0.5240957  41.031     0.3487979  0.1329607  0.5646352 
1093.4     0.224      251.275    -9999      -9999      4.195      3.422      3.612      2.33       1.319      0.1377748  0.1377748  0.2574998  0.9978874  39.40283   3.422      0.2944326  0.4985192  41.34      0.362803   0.1447462  0.5808599 
1093.6     0.224      247.193    -9999      -9999      3.921      3.022      2.247      2.25       1.284      0.1493023  0.1493023  0.2664528  1.631544   70.48186   3.022      0.3026054  0.4935481  41.619     0.3550015  0.1141517  0.5958514 
1093.8     0.224      242.846    -9999      -9999      4.202      3.15       2.38       1.623      1.225      0.1599604  0.1599604  0.281545   2.57047    38.82177   3.15       0.3559156  0.5330968  41.534     0.3684382  0.1456269  0.5912495 
