~Version
 VERS              .         2.0                           : CWLS LOG ASCII STANDARD - VERSION 2.0
 WRAP              .         NO                            : ONE LINE PER DEPTH STEP
 DLM               .         SPACE                         : DELIMITING CHARACTER(SPACE TAB OR COMMA)
~Well Information
#_______________________________________________________________________________
#
#PARAMETER_NAME    .UNIT     VALUE                         : DESCRIPTION
#_______________________________________________________________________________
STRT               .M        880                           : First reference value
STOP               .M        1396                          : Last reference value
STEP               .M        0.2                           : Step increment
NULL               .         -9999                         : Missing value
COMP               .                                       : Company
WELL               .         4021                          : Well name
FLD                .         УЗЕНЬ                         : Field
LOC                .                                       : Location
CNTY               .                                       : County
STAT               .                                       : State
CTRY               .         Казахстан                     : Country
SRVC               .                                       : Service Company
DATE               .         23.03.2009                    : Date
UWI                .                                       : Unique Well ID
Block              .         3а                            : 
Cartographic_reference_system .         GCS_WGS_1984                  : ESRI,PE_10_3_1- <?xml version="1.0" encoding="utf-16"?><ILateBoundCoordinateReferenceSystem name="GCS_WGS_1984"><AuthorityCode>EPSG,4326</AuthorityCode></ILateBoundCoordinateReferenceSystem>
Category           .         Нефтяная                      : 
Condition          .         В простое                     : 
Date               .         06.05.1990                    : 
EREF               .m        235.7                         : 100.8
Gorizont           .         18                            : 14
HZCS               .GCS_WGS_1984 WGS_1984_EASE-Grid_2.0_Global : ESRI,PE_10_3_1- <?xml version="1.0" encoding="utf-16"?><ILateBoundCoordinateReferenceSystem name="WGS_1984_EASE-Grid_2.0_Global"><AuthorityCode>EPSG,6933</AuthorityCode></ILateBoundCoordinateReferenceSystem>
Interpretator      .         Чиндаулова Г.К.               : 
Kupol              .         основной                      : osnovnoi
LATI               .dega     0.6315670686                  : GCS_WGS_1984
LONG               .dega     0.5736255958                  : GCS_WGS_1984
METD               .         OGZ3, GZ3, SP                 : Method
Mud                .         0                             : 
Mud_density        .         0                             : 
Mud_resistivity    .         0                             : 
NGDU               .         НГДУ-1                        : 
ORIGINALWELLNAME   .         4021                          : 
SCAL               .         500                           : Scale
Spud_date          .         1990                          : 1961
Viscosity          .         0                             : 
X                  .m        55347                         : 46154
Y                  .m        80569.5                       : 85761.93
YEAR               .         2018                          : 
Исправлено         .         18                            : 
~Parameter Information Block
#_______________________________________________________________________________
#
#PARAMETER_NAME    .UNIT     VALUE                         : DESCRIPTION
#_______________________________________________________________________________
SET                .         LQC_KAZNIPI_Petrel            : 
TLFamily_CALI      .         Caliper                       : 
TLFamily_CILD      .         Conductivity                  : 
TLFamily_COLL      .         Net Reservoir Flag            : 
TLFamily_CSAT      .         Fluid Code                    : 
TLFamily_DEPT      .         Measured Depth                : 
TLFamily_GR        .         Russian Gamma Ray             : 
TLFamily_LLS       .         Lateral Log Resistivity       : 
TLFamily_MINV      .         Micro Gradient Resistivity    : 
TLFamily_MNOR      .         Micro Resistivity             : 
TLFamily_NGLD      .         Neutron Far                   : 
TLFamily_PHIE      .         Effective Porosity            : 
TLFamily_PHIEN     .         Effective Porosity            : 
TLFamily_PHIT      .         Porosity                      : 
TLFamily_PRMB      .         Permeability                  : 
TLFamily_PRMB_DGR  .         Permeability                  : 
TLFamily_RT        .         Formation Resistivity         : 
TLFamily_SOIL_ARCHIE .         Oil Saturation                : 
TLFamily_SOIL_DW   .         Oil Saturation                : 
TLFamily_SP        .         Spontaneous Potential         : 
TLFamily_VSH_FIN   .         Shale Volume                  : 
TLFamily_VSH_GR    .         Shale Volume                  : 
TLFamily_VSH_SP    .         Shale Volume                  : 
~Curve Information
#_______________________________________________________________________________
#
#LOGNAME           .UNIT     LOG_ID                        : DESCRIPTION
#_______________________________________________________________________________
DEPT               .M                                      : Колонка глубины 
CALI               .м                                      : Каверномер 
CILD               .мСм/м                                  : Индукционный каротаж 
COLL               .unitless                               : Описание 
CSAT               .unitless                               : Описание 
GR                 .uR/h                                   : Гамма каротаж 
LLS                .Ohmm                                   : Боковой каротаж 
MINV               .Ohmm                                   : Микро-градиент зонд 
MNOR               .Ohmm                                   : Микро-потенциал зонд 
NGLD               .у.е.                                   : Показания зонда НГК-60 аппаратуры ДРСТ-3-90 
PHIE               .v/v                                    : Описание 
PHIEN              .v/v                                    :  
PHIT               .v/v                                    : Описание 
PRMB               .mD                                     :  
PRMB_DGR           .mD                                     :  
RT                 .ohmm                                   : Description 
SOIL_ARCHIE        .v/v                                    :  
SOIL_DW            .v/v                                    :  
SP                 .мВ                                     : Потенциал самополяризации 
VSH_FIN            .v/v                                    : Описание 
VSH_GR             .v/v                                    : Shale volume 
VSH_SP             .v/v                                    : Shale Volume 
~Ascii
# ...
1155.2     0.215      478.295    -9999      -9999      6.764      1.611      1.562      0.914      1.078      0.1474352  0.1474352  0.3191476  1.506663   2.793716   1.611      0.05280208 0.3761042  39.291     0.5203406  0.426504   0.5203406 
1155.4     0.215      478.94     -9999      -9999      6.901      1.629      1.654      0.942      1.066      0.1434812  0.1434812  0.3222172  1.272853   2.251308   1.629      0.03515194 0.3769316  39.724     0.5416242  0.4658039  0.5416242 
1155.6     0.217      474.982    -9999      -9999      6.797      1.678      1.6        0.855      1.077      0.1476113  0.1476113  0.3194034  1.518019   2.652166   1.678      0.07170707 0.3892666  39.296     0.5205821  0.4356561  0.5205821 
1155.8     0.218      462.381    -9999      -9999      6.528      1.866      1.464      0.883      1.119      0.1408905  0.1408905  0.3086598  1.139703   4.052037   1.866      0.08025169 0.3978885  39.041     0.5083919  0.3664214  0.5083919 
1156       0.217      469.3029   -9999      -9999      6.262      2.144      1.918      1.435      1.122      0.1431731  0.1431731  0.3078924  1.256235   6.161597   2.144      0.1502576  0.440805   38.844     0.4991494  0.3087849  0.4991494 
1156.2     0.217      475.3559   -9999      -9999      5.979      1.547      1.859      0.848      1.089      0.1484864  0.1484864  0.3163338  1.575747   9.623784   1.547      0.04056633 0.3615289  39.046     0.5086285  0.2573838  0.5086285 
1156.4     0.218      447.136    -9999      -9999      5.873      1.52       1.555      0.905      1.117      0.1358107  0.1358107  0.3091714  0.9177016  11.37313   1.52       0          0.324338   39.394     0.5253355  0.2404159  0.5253355 
1156.6     0.218      376.869    -9999      -9999      5.895      1.586      1.472      0.91       1.159      0.1150846  0.1150846  0.2984278  0.3791434  10.98565   1.586      0          0.2812683  40         0.5555855  0.243843   0.5555855 
1156.8     0.219      331.065    -9999      -9999      5.938      2.328      1.383      0.868      1.188      0.1078689  0.1078689  0.2910096  0.2787089  10.266     2.328      0          0.3829691  39.988     0.554972   0.2506832  0.554972  
1157       0.219      305.662    -9999      -9999      5.855      4.042      2.332      1.675      1.216      0.1217804  0.1217804  0.2838472  0.5044595  11.7003    4.042      0.2734264  0.5447281  38.67      0.4911116  0.2376477  0.4911116 
1157.2     0.219      293.638    -9999      -9999      5.683      4.555      2.705      1.962      1.224      0.1362662  0.1362662  0.2818008  0.9357033  15.34243   4.555      0.3771023  0.5870079  37.523     0.441014   0.2127522  0.441014  
1157.4     0.219      261.468    1          2          5.627      4.571      1.852      1.646      1.237      0.1568488  0.1568488  0.2784754  2.251011   16.7577    4.571      0.4498349  0.6067881  35.624     0.3685656  0.2052233  0.3685656 
1157.6     0.218      253.621    1          2          5.645      5.357      1.648      1.777      1.25       0.171969   0.171969   0.27515    4.28984    16.2891    5.357      0.5286487  0.6473316  33.879     0.3126697  0.2076138  0.3126697 
1157.8     0.219      254.614    1          2          5.857      3.849      1.824      1.537      1.234      0.1780216  0.1780216  0.2792428  5.553284   11.6635    3.849      0.4658851  0.5933091  33.674     0.306731   0.2379537  0.306731  
1158       0.219      259.715    1          2          6.156      3.548      1.503      1.583      1.246      0.176033   0.176033   0.2761732  5.101717   7.28161    3.548      0.4396249  0.5716698  33.559     0.3034551  0.2884284  0.3034551 
1158.2     0.22       278.545    1          2          6.106      3.408      1.789      1.572      1.246      0.1639971  0.1639971  0.2761732  3.053391   7.878469   3.408      0.3926037  0.5503469  34.768     0.3399275  0.2792975  0.3399275 
1158.4     0.221      294.497    1          2          6.276      2.743      2.075      1.511      1.222      0.1599239  0.1599239  0.2823124  2.566476   6.027166   2.743      0.3125762  0.5004334  35.69      0.3708742  0.3115788  0.3708742 
1158.6     0.221      305.603    -9999      -9999      6.446      2.288      2.177      1.328      1.225      0.1536874  0.1536874  0.281545   1.967076   4.610889   2.288      0.2251204  0.4434636  36.152     0.3874473  0.3475911  0.3874473 
1158.8     0.222      271.685    -9999      -9999      6.38       1.948      1.802      1.145      1.252      0.1467566  0.1467566  0.2746384  1.463681   5.116199   1.948      0.1300893  0.3765056  36.154     0.3875206  0.3331403  0.3875206 
1159       0.219      241.261    -9999      -9999      6.024      1.982      1.92       0.973      1.297      0.1331106  0.1331106  0.2631274  0.8178794  8.965053   1.982      0.0605717  0.3409843  36.329     0.3939903  0.2649446  0.3939903 
1159.2     0.218      239.352    6          6          5.439      3.233      2.038      1.383      1.322      0.1179138  0.1179138  0.2567324  0.4277679  22.53511   3.233      0.170153   0.4513191  37.022     0.4206623  0.1818429  0.4206623 
1159.4     0.218      251.363    6          6          4.835      7.402      2.587      2.67       1.362      0.1019086  0.1019086  0.2465004  0.2161491  58.36705   7.402      0.3612046  0.6072715  37.454     0.4381568  0.1232903  0.4381568 
1159.6     0.218      283.112    6          6          4.718      8.793      2.905      2.915      1.358      0.1061533  0.1061533  0.2475236  0.2590452  70.18256   8.793      0.4313685  0.6459754  37.215     0.4283947  0.1143503  0.4283947 
1159.8     0.219      288.059    6          6          5.527      3.065      1.983      1.283      1.215      0.1393613  0.1393613  0.284103   1.067744   19.61746   3.065      0.2643659  0.503338   37.465     0.4386112  0.1924354  0.4386112 
1160       0.218      294.112    -9999      -9999      6.005      2.55       1.628      1.219      1.12       0.1648576  0.1648576  0.308404   3.167534   9.2375     2.55       0.3072114  0.51478    37.377     0.434989   0.2617255  0.434989  
1160.2     0.219      308.0439   -9999      -9999      6.301      2.69       2.004      1.354      1.087      0.1832385  0.1832385  0.3168454  6.937138   5.794369   2.69       0.3837958  0.5541848  36.617     0.4048693  0.3166309  0.4048693 
1160.4     0.219      337.493    -9999      -9999      6.513      2.723      2.793      1.459      1.056      0.1966148  0.1966148  0.3247752  12.27273   4.148946   2.723      0.423779   0.5755239  36.177     0.3883649  0.3629022  0.3883649 
1160.6     0.22       343.547    -9999      -9999      6.93       2.06       2.079      1.169      1.076      0.1771511  0.1771511  0.3196592  5.350889   2.150755   2.06       0.2807419  0.4864644  37.3       0.4318428  0.4745764  0.4318428 
1160.8     0.221      359.157    -9999      -9999      7.193      2.072      2.25       1.079      1.086      0.1674561  0.1674561  0.3171012  3.538767   1.421098   2.072      0.2466627  0.473988   37.819     0.4534699  0.5620729  0.4534699 
1161       0.219      366.079    -9999      -9999      7.107      2.177      2.152      0.961      1.111      0.1718877  0.1718877  0.3107062  4.274982   1.627318   2.177      0.2804926  0.4857056  37.022     0.4206623  0.5318178  0.4206623 
1161.2     0.218      373.001    -9999      -9999      6.92       2.216      1.789      1.141      1.12       0.1919324  0.1919324  0.308404   10.05105   2.184911   2.216      0.3518211  0.5099525  35.166     0.3529443  0.4715329  0.3529443 
1161.4     0.217      400.21     -9999      -9999      6.645      2.869      1.376      1.344      1.101      0.2093751  0.2093751  0.3132642  21.14919   3.369861   2.869      0.4676956  0.5880877  33.952     0.3148153  0.3950686  0.3148153 
1161.6     0.217      438.104    -9999      -9999      6.527      2.745      1.592      1.651      1.101      0.2203721  0.2203721  0.3132642  33.80519   4.058428   2.745      0.4802411  0.5876337  32.749     0.2814913  0.3661857  0.2814913 
1161.8     0.217      453.3751   -9999      -9999      6.803      1.758      1.31       1.066      1.08       0.2128588  0.2128588  0.318636   24.53687   2.627212   1.758      0.3397077  0.4825537  34.144     0.320537   0.4373411  0.320537  
