~Version
 VERS              .         2.0                           : CWLS LOG ASCII STANDARD - VERSION 2.0
 WRAP              .         NO                            : ONE LINE PER DEPTH STEP
 DLM               .         SPACE                         : DELIMITING CHARACTER(SPACE TAB OR COMMA)
~Well Information
#_______________________________________________________________________________
#
#PARAMETER_NAME    .UNIT     VALUE                         : DESCRIPTION
#_______________________________________________________________________________
STRT               .M        880                           : First reference value
STOP               .M        1396                          : Last reference value
STEP               .M        0.2                           : Step increment
NULL               .         -9999                         : Missing value
COMP               .                                       : Company
WELL               .         4021                          : Well name
FLD                .         УЗЕНЬ                         : Field
LOC                .                                       : Location
CNTY               .                                       : County
STAT               .                                       : State
CTRY               .         Казахстан                     : Country
SRVC               .                                       : Service Company
DATE               .         23.03.2009                    : Date
UWI                .                                       : Unique Well ID
Block              .         3а                            : 
Cartographic_reference_system .         GCS_WGS_1984                  : ESRI,PE_10_3_1- <?xml version="1.0" encoding="utf-16"?><ILateBoundCoordinateReferenceSystem name="GCS_WGS_1984"><AuthorityCode>EPSG,4326</AuthorityCode></ILateBoundCoordinateReferenceSystem>
Category           .         Нефтяная                      : 
Condition          .         В простое                     : 
Date               .         06.05.1990                    : 
EREF               .m        235.7                         : 100.8
Gorizont           .         18                            : 14
HZCS               .GCS_WGS_1984 WGS_1984_EASE-Grid_2.0_Global : ESRI,PE_10_3_1- <?xml version="1.0" encoding="utf-16"?><ILateBoundCoordinateReferenceSystem name="WGS_1984_EASE-Grid_2.0_Global"><AuthorityCode>EPSG,6933</AuthorityCode></ILateBoundCoordinateReferenceSystem>
Interpretator      .         Чиндаулова Г.К.               : 
Kupol              .         основной                      : osnovnoi
LATI               .dega     0.6315670686                  : GCS_WGS_1984
LONG               .dega     0.5736255958                  : GCS_WGS_1984
METD               .         OGZ3, GZ3, SP                 : Method
Mud                .         0                             : 
Mud_density        .         0                             : 
Mud_resistivity    .         0                             : 
NGDU               .         НГДУ-1                        : 
ORIGINALWELLNAME   .         4021                          : 
SCAL               .         500                           : Scale
Spud_date          .         1990                          : 1961
Viscosity          .         0                             : 
X                  .m        55347                         : 46154
Y                  .m        80569.5                       : 85761.93
YEAR               .         2018                          : 
Исправлено         .         18                            : 
~Parameter Information Block
#_______________________________________________________________________________
#
#PARAMETER_NAME    .UNIT     VALUE                         : DESCRIPTION
#_______________________________________________________________________________
SET                .         LQC_KAZNIPI_Petrel            : 
TLFamily_CALI      .         Caliper                       : 
TLFamily_CILD      .         Conductivity                  : 
TLFamily_COLL      .         Net Reservoir Flag            : 
TLFamily_CSAT      .         Fluid Code                    : 
TLFamily_DEPT      .         Measured Depth                : 
TLFamily_GR        .         Russian Gamma Ray             : 
TLFamily_LLS       .         Lateral Log Resistivity       : 
TLFamily_MINV      .         Micro Gradient Resistivity    : 
TLFamily_MNOR      .         Micro Resistivity             : 
TLFamily_NGLD      .         Neutron Far                   : 
TLFamily_PHIE      .         Effective Porosity            : 
TLFamily_PHIEN     .         Effective Porosity            : 
TLFamily_PHIT      .         Porosity                      : 
TLFamily_PRMB      .         Permeability                  : 
TLFamily_PRMB_DGR  .         Permeability                  : 
TLFamily_RT        .         Formation Resistivity         : 
TLFamily_SOIL_ARCHIE .         Oil Saturation                : 
TLFamily_SOIL_DW   .         Oil Saturation                : 
TLFamily_SP        .         Spontaneous Potential         : 
TLFamily_VSH_FIN   .         Shale Volume                  : 
TLFamily_VSH_GR    .         Shale Volume                  : 
TLFamily_VSH_SP    .         Shale Volume                  : 
~Curve Information
#_______________________________________________________________________________
#
#LOGNAME           .UNIT     LOG_ID                        : DESCRIPTION
#_______________________________________________________________________________
DEPT               .M                                      : Колонка глубины 
CALI               .м                                      : Каверномер 
CILD               .мСм/м                                  : Индукционный каротаж 
COLL               .unitless                               : Описание 
CSAT               .unitless                               : Описание 
GR                 .uR/h                                   : Гамма каротаж 
LLS                .Ohmm                                   : Боковой каротаж 
MINV               .Ohmm                                   : Микро-градиент зонд 
MNOR               .Ohmm                                   : Микро-потенциал зонд 
NGLD               .у.е.                                   : Показания зонда НГК-60 аппаратуры ДРСТ-3-90 
PHIE               .v/v                                    : Описание 
PHIEN              .v/v                                    :  
PHIT               .v/v                                    : Описание 
PRMB               .mD                                     :  
PRMB_DGR           .mD                                     :  
RT                 .ohmm                                   : Description 
SOIL_ARCHIE        .v/v                                    :  
SOIL_DW            .v/v                                    :  
SP                 .мВ                                     : Потенциал самополяризации 
VSH_FIN            .v/v                                    : Описание 
VSH_GR             .v/v                                    : Shale volume 
VSH_SP             .v/v                                    : Shale Volume 
~Ascii
# ...
1318.4     0.215      389.415    -9999      -9999      6.578      2.142      2.701      0.843      1.17       0.120722   0.120722   0.295614   0.4821944  1.26684    2.142      0.06999508 0.4201308  27.851     0.5299758  0.5890734  0.4708782 
1318.6     0.215      392.8449   -9999      -9999      6.544      2.155      2.731      0.837      1.181      0.1177203  0.1177203  0.2928002  0.4242519  1.346552   2.155      0.05207068 0.4128693  28.2       0.5305451  0.5745767  0.4865135 
1318.8     0.215      390.192    -9999      -9999      6.536      2.145      2.72       0.804      1.199      0.1116673  0.1116673  0.2881958  0.327724   1.366027   2.145      0.005303435 0.3937427  28.464     0.5349347  0.5712177  0.4986517 
1319       0.215      384.931    -9999      -9999      6.441      2.108      2.595      0.745      1.19       0.1145356  0.1145356  0.290498   0.3703693  1.619972   2.108      0.0190569  0.3972377  29.194     0.5332194  0.5328013  0.5336375 
1319.2     0.215      380.622    -9999      -9999      6.296      2.105      2.995      0.753      1.172      0.1232333  0.1232333  0.2951024  0.5367075  2.101496   2.105      0.0790235  0.4189915  29.766     0.5208154  0.4790877  0.5625432 
1319.4     0.218      374.474    -9999      -9999      6.214      2.111      3.003      0.729      1.167      0.1290887  0.1290887  0.2963814  0.6889595  2.434691   2.111      0.1166965  0.4315579  29.77      0.5069476  0.4511451  0.56275   
1319.6     0.218      355.906    -9999      -9999      6.374      2.118      2.682      0.725      1.198      0.1103769  0.1103769  0.2884516  0.310175   1.826968   2.118      0          0.387577   29.947     0.5396202  0.5072718  0.5719687 
1319.8     0.215      339.501    -9999      -9999      6.113      2.27       3.029      0.83       1.212      0.1242706  0.1242706  0.2848704  0.5609847  2.918563   2.27       0.117533   0.4300222  29.607     0.4866661  0.4189576  0.5543745 
1320       0.215      336.031    -9999      -9999      5.802      2.698      4.006      0.971      1.182      0.1595699  0.1595699  0.2925444  2.528019   5.100113   2.698      0.3454756  0.5338426  27.884     0.4029529  0.333569   0.4723368 
1320.2     0.215      322.0741   -9999      -9999      5.474      2.841      3.431      1.222      1.191      0.1806428  0.1806428  0.2902422  6.210129   9.188435   2.841      0.4265669  0.5661483  26.171     0.3321195  0.2622953  0.4019436 
1320.4     0.214      310.393    -9999      -9999      5.427      2.869      2.211      1.382      1.176      0.1966082  0.1966082  0.2940792  12.2693    9.997145   2.869      0.4697882  0.5863976  24.317     0.2953665  0.2534145  0.3373185 
1320.6     0.213      301.128    1          2          5.691      3.306      1.452      1.422      1.155      0.2036805  0.2036805  0.299451   16.58877   6.224432   3.306      0.5189517  0.6243365  22.043     0.2902138  0.3075083  0.2729193 
1320.8     0.21       293.706    1          2          5.853      3.656      1.489      1.551      1.157      0.2043066  0.2043066  0.2989394  17.03776   4.654013   3.656      0.542365   0.6428762  19.988     0.286766   0.3462724  0.2272595 
1321       0.209      286.259    1          2          5.756      3.377      1.655      1.6        1.191      0.202621   0.202621   0.2902422  15.85589   5.539046   3.377      0.5215563  0.6206856  18.967     0.2655188  0.3225113  0.2085264 
1321.2     0.209      286.212    1          2          5.676      3.318      1.632      1.606      1.178      0.2099604  0.2099604  0.2935676  21.68372   6.394277   3.318      0.5323034  0.625506   18.611     0.2533552  0.3041464  0.202564  
1321.4     0.209      284.902    1          2          5.532      3.326      1.746      1.869      1.156      0.220438   0.220438   0.2991952  33.90043   8.280051   3.326      0.5522316  0.6375844  18.676     0.2386581  0.2736848  0.2036314 
1321.6     0.21       277.427    1          2          5.389      3.06       1.773      1.78       1.17       0.2210317  0.2210317  0.295614   34.76966   10.70275   3.06       0.535459   0.6199715  18.792     0.2260071  0.2464546  0.2055597 
1321.8     0.21       273.035    1          2          5.369      3.137      1.749      1.832      1.192      0.2170458  0.2170458  0.2899864  29.33412   11.09391   3.137      0.53351    0.6175472  18.402     0.2210321  0.2428686  0.1991956 
1322       0.21       263.427    1          2          5.468      3.116      1.936      1.745      1.22       0.206949   0.206949   0.282824   19.0702    9.28792    3.116      0.5122136  0.6027399  18.371     0.2299243  0.2611445  0.1987041 
1322.2     0.21       258.251    1          2          5.425      3.298      2.043      1.831      1.191      0.2146417  0.2146417  0.2902422  26.47543   10.03309   3.298      0.5398965  0.6254174  18.767     0.2290925  0.2530434  0.2051416 
1322.4     0.212      252.951    1          2          5.221      3.449      1.817      1.48       1.199      0.2197506  0.2197506  0.2881958  32.92094   14.46918   3.449      0.5585981  0.6358853  18.257     0.2074097  0.2179045  0.1969149 
1322.6     0.21       242.74     1          2          5.185      3.862      1.429      1.471      1.194      0.2266389  0.2266389  0.2894748  44.16309   15.43493   3.862      0.5925166  0.6612775  16.145     0.1904119  0.2122307  0.1685932 
1322.8     0.209      237.212    1          2          5.26       3.994      1.593      1.573      1.19       0.227857   0.227857   0.290498   46.51823   13.49103   3.994      0.600761   0.6683556  14.861     0.189821   0.2242224  0.1554196 
1323       0.209      235.426    1          2          4.992      3.838      1.742      1.564      1.186      0.235984   0.235984   0.2915212  65.7891    21.82425   3.838      0.6054549  0.6674064  14.517     0.1682946  0.1842386  0.1523507 
1323.2     0.209      233.056    1          2          4.974      3.709      1.743      1.569      1.211      0.2294901  0.2294901  0.2851262  49.87366   22.54082   3.709      0.5892107  0.6532306  14.855     0.1685943  0.1818241  0.1553645 
1323.4     0.209      233.593    1          2          5.028      3.637      1.828      1.71       1.253      0.2167065  0.2167065  0.2743826  28.91263   20.45875   3.637      0.5641932  0.6331347  15.378     0.1747762  0.189164   0.1603883 
1323.6     0.211      238.297    1          2          4.835      3.367      1.812      1.645      1.291      0.2098666  0.2098666  0.2646622  21.59717   28.92772   3.367      0.5353291  0.6053827  16.082     0.1660472  0.1642143  0.1678802 
1323.8     0.214      232.145    1          2          4.828      2.765      1.636      1.542      1.387      0.1819294  0.1819294  0.2401054  6.560419   29.29343   2.765      0.4228026  0.5105674  17.744     0.176291   0.163374   0.189208  
1324       0.219      204.39     6          6          4.863      2.701      1.164      1.338      1.555      0.1325098  0.1325098  0.197131   0.7971889  27.50992   2.701      0.2308911  0.3655324  19.821     0.1958218  0.1676188  0.2240249 
1324.2     0.218      163.184    6          6          4.628      11.095     4.317      3.702      1.655      0.1096803  0.1096803  0.171551   0.3010945  41.94322   11.095     0.532729   0.6326811  20.319     0.1874871  0.1411001  0.2338741 
1324.4     0.215      142.82     6          6          4.366      36.729     4.91       4.576      1.651      0.1156123  0.1156123  0.1725742  0.3877733  67.12418   36.729     0.7455022  0.8031844  20.065     0.1726119  0.1164497  0.228774  
1324.6     0.214      134.221    6          6          4.361      22.283     4.521      4.684      1.646      0.118348   0.118348   0.1738532  0.4357635  67.72926   22.283     0.6847287  0.7508518  19.628     0.1681974  0.1160238  0.2203711 
1324.8     0.213      135.042    6          6          4.592      8.933      2.744      2.857      1.553      0.1408388  0.1408388  0.1976426  1.137192   44.74269   8.933      0.5839356  0.6604661  18.868     0.1721328  0.1374261  0.2068396 
1325       0.215      130.303    1          2          4.918      6.987      1.632      1.643      1.418      0.1721066  0.1721066  0.2321756  4.315083   24.92408   6.987      0.607901   0.6786082  17.767     0.1820274  0.1745131  0.1895417 
