~Version
 VERS              .         2.0                           : CWLS LOG ASCII STANDARD - VERSION 2.0
 WRAP              .         NO                            : ONE LINE PER DEPTH STEP
 DLM               .         SPACE                         : DELIMITING CHARACTER(SPACE TAB OR COMMA)
~Well Information
#_______________________________________________________________________________
#
#PARAMETER_NAME    .UNIT     VALUE                         : DESCRIPTION
#_______________________________________________________________________________
STRT               .M        880                           : First reference value
STOP               .M        1396                          : Last reference value
STEP               .M        0.2                           : Step increment
NULL               .         -9999                         : Missing value
COMP               .                                       : Company
WELL               .         4021                          : Well name
FLD                .         УЗЕНЬ                         : Field
LOC                .                                       : Location
CNTY               .                                       : County
STAT               .                                       : State
CTRY               .         Казахстан                     : Country
SRVC               .                                       : Service Company
DATE               .         23.03.2009                    : Date
UWI                .                                       : Unique Well ID
Block              .         3а                            : 
Cartographic_reference_system .         GCS_WGS_1984                  : ESRI,PE_10_3_1- <?xml version="1.0" encoding="utf-16"?><ILateBoundCoordinateReferenceSystem name="GCS_WGS_1984"><AuthorityCode>EPSG,4326</AuthorityCode></ILateBoundCoordinateReferenceSystem>
Category           .         Нефтяная                      : 
Condition          .         В простое                     : 
Date               .         06.05.1990                    : 
EREF               .m        235.7                         : 100.8
Gorizont           .         18                            : 14
HZCS               .GCS_WGS_1984 WGS_1984_EASE-Grid_2.0_Global : ESRI,PE_10_3_1- <?xml version="1.0" encoding="utf-16"?><ILateBoundCoordinateReferenceSystem name="WGS_1984_EASE-Grid_2.0_Global"><AuthorityCode>EPSG,6933</AuthorityCode></ILateBoundCoordinateReferenceSystem>
Interpretator      .         Чиндаулова Г.К.               : 
Kupol              .         основной                      : osnovnoi
LATI               .dega     0.6315670686                  : GCS_WGS_1984
LONG               .dega     0.5736255958                  : GCS_WGS_1984
METD               .         OGZ3, GZ3, SP                 : Method
Mud                .         0                             : 
Mud_density        .         0                             : 
Mud_resistivity    .         0                             : 
NGDU               .         НГДУ-1                        : 
ORIGINALWELLNAME   .         4021                          : 
SCAL               .         500                           : Scale
Spud_date          .         1990                          : 1961
Viscosity          .         0                             : 
X                  .m        55347                         : 46154
Y                  .m        80569.5                       : 85761.93
YEAR               .         2018                          : 
Исправлено         .         18                            : 
~Parameter Information Block
#_______________________________________________________________________________
#
#PARAMETER_NAME    .UNIT     VALUE                         : DESCRIPTION
#_______________________________________________________________________________
SET                .         LQC_KAZNIPI_Petrel            : 
TLFamily_CALI      .         Caliper                       : 
TLFamily_CILD      .         Conductivity                  : 
TLFamily_COLL      .         Net Reservoir Flag            : 
TLFamily_CSAT      .         Fluid Code                    : 
TLFamily_DEPT      .         Measured Depth                : 
TLFamily_GR        .         Russian Gamma Ray             : 
TLFamily_LLS       .         Lateral Log Resistivity       : 
TLFamily_MINV      .         Micro Gradient Resistivity    : 
TLFamily_MNOR      .         Micro Resistivity             : 
TLFamily_NGLD      .         Neutron Far                   : 
TLFamily_PHIE      .         Effective Porosity            : 
TLFamily_PHIEN     .         Effective Porosity            : 
TLFamily_PHIT      .         Porosity                      : 
TLFamily_PRMB      .         Permeability                  : 
TLFamily_PRMB_DGR  .         Permeability                  : 
TLFamily_RT        .         Formation Resistivity         : 
TLFamily_SOIL_ARCHIE .         Oil Saturation                : 
TLFamily_SOIL_DW   .         Oil Saturation                : 
TLFamily_SP        .         Spontaneous Potential         : 
TLFamily_VSH_FIN   .         Shale Volume                  : 
TLFamily_VSH_GR    .         Shale Volume                  : 
TLFamily_VSH_SP    .         Shale Volume                  : 
~Curve Information
#_______________________________________________________________________________
#
#LOGNAME           .UNIT     LOG_ID                        : DESCRIPTION
#_______________________________________________________________________________
DEPT               .M                                      : Колонка глубины 
CALI               .м                                      : Каверномер 
CILD               .мСм/м                                  : Индукционный каротаж 
COLL               .unitless                               : Описание 
CSAT               .unitless                               : Описание 
GR                 .uR/h                                   : Гамма каротаж 
LLS                .Ohmm                                   : Боковой каротаж 
MINV               .Ohmm                                   : Микро-градиент зонд 
MNOR               .Ohmm                                   : Микро-потенциал зонд 
NGLD               .у.е.                                   : Показания зонда НГК-60 аппаратуры ДРСТ-3-90 
PHIE               .v/v                                    : Описание 
PHIEN              .v/v                                    :  
PHIT               .v/v                                    : Описание 
PRMB               .mD                                     :  
PRMB_DGR           .mD                                     :  
RT                 .ohmm                                   : Description 
SOIL_ARCHIE        .v/v                                    :  
SOIL_DW            .v/v                                    :  
SP                 .мВ                                     : Потенциал самополяризации 
VSH_FIN            .v/v                                    : Описание 
VSH_GR             .v/v                                    : Shale volume 
VSH_SP             .v/v                                    : Shale Volume 
~Ascii
# ...
959.2000000000001 0.242      165.344    -9999      -9999      6.071      6.109      4.137      1.911      1.152      0.1414167  0.1414167  0.3002184  1.165569   0.3391668  6.109      0.31351    0.8273308  28.534     0.4812174  0.8        0.1624347 
959.4      0.229      167.706    -9999      -9999      6.099      6.363      0.818      0.745      1.19       0.1311608  0.1311608  0.290498   0.7526159  0.3202069  6.363      0.300838   0.8216506  28.839     0.4828401  0.8        0.1656802 
959.6      0.228      178.993    -9999      -9999      5.929      3.476      0.678      0.741      1.141      0.1423582  0.1423582  0.3030322  1.213328   0.4540591  3.476      0.234786   0.7729318  29.541     0.4868908  0.8        0.1737815 
959.8      0.234      164.166    -9999      -9999      5.787      4.153      0.537      0.528      1.096      0.1550693  0.1550693  0.3145432  2.086493   0.6078699  4.153      0.285237   0.8043426  29.348     0.4832544  0.7950445  0.1714642 
960        0.233      162.99     -9999      -9999      5.65       4.593      0.5        0.442      1.059      0.1802098  0.1802098  0.3240078  6.096495   0.8054677  4.593      0.333329   0.8293671  28.567     0.4357516  0.7087251  0.1627781 
960.2000000000001 0.23       203.099    -9999      -9999      5.624      3.38       0.489      0.441      1.02       0.1937648  0.1937648  0.333984   10.86805   0.8496625  3.38       0.312587   0.8108509  27.92      0.4249068  0.6934341  0.1563795 
960.4      0.257      202.596    -9999      -9999      5.793      2.641      0.505      0.533      1.01       0.1790314  0.1790314  0.336542   5.79768    0.6004228  2.641      0.258355   0.7787535  27.831     0.4773048  0.7990565  0.1555531 
960.6      0.295      186.841    -9999      -9999      5.928      2.995      0.55       0.561      1.027      0.1743985  0.1743985  0.3321934  4.758188   0.4549925  2.995      0.269788   0.7882044  27.915     0.4781664  0.8        0.1563328 
960.8      0.292      190.363    -9999      -9999      6.074      3.025      0.531      0.68       1.048      0.1685437  0.1685437  0.3268216  3.70678    0.3370832  3.025      0.261914   0.7839844  28.22      0.4796299  0.8        0.1592599 
961        0.264      207.622    -9999      -9999      6.006      2.947      0.511      0.67       1.06       0.1649194  0.1649194  0.323752   3.175893   0.3876228  2.947      0.251836   0.777786   28.552     0.4813109  0.8        0.1626218 
961.2000000000001 0.251      212.758    -9999      -9999      6.081      2.9        0.518      0.684      1.061      0.1646602  0.1646602  0.3234962  3.140971   0.33227    2.9        0.248898   0.7757328  28.554     0.4813213  0.8        0.1626426 
961.4      0.252      212.78     -9999      -9999      6.109      3.368      0.55       0.765      1.067      0.1629049  0.1629049  0.3219614  2.91442    0.3136953  3.368      0.268451   0.7903174  28.681     0.4819894  0.8        0.1639787 
961.6      0.256      217.561    -9999      -9999      5.886      3.115      0.505      0.658      1.076      0.1607439  0.1607439  0.3196592  2.657813   0.4959964  3.115      0.253042   0.779759   28.6       0.4815617  0.8        0.1631233 
961.8      0.268      222.353    -9999      -9999      5.646      2.855      0.451      0.44       1.097      0.1715506  0.1715506  0.3142874  4.21397    0.8121146  2.855      0.258158   0.7748909  28.165     0.4325358  0.7063507  0.1587208 
962        0.285      229.319    -9999      -9999      5.571      2.68       0.642      0.527      1.123      0.1727664  0.1727664  0.3076366  4.43825    0.9474046  2.68       0.250494   0.7658066  27.673     0.4086974  0.6632779  0.1541169 
962.2000000000001 0.272      219.824    -9999      -9999      5.566      3.093      0.982      0.769      1.146      0.1672669  0.1672669  0.3017532  3.510318   0.9571871  3.093      0.263123   0.7763765  27.723     0.4075343  0.6605015  0.1545671 
962.4      0.254      200.868    -9999      -9999      5.489      3.55       1.036      1.148      1.177      0.1654947  0.1654947  0.2938234  3.254784   1.121243   3.55       0.280198   0.7872471  28.149     0.3888747  0.6191846  0.1585649 
962.6      0.247      198.024    -9999      -9999      5.273      3.476      1.04       0.906      1.224      0.1692664  0.1692664  0.2818008  3.822815   1.747529   3.476      0.283104   0.782554   28.819     0.3410132  0.516564   0.1654624 
962.8      0.244      196.826    -9999      -9999      5.088      3.506      1.533      1.058      1.293      0.163122   0.163122   0.2641506  2.941533   2.555579   3.506      0.274622   0.7720405  29.222     0.3061472  0.4423057  0.1699886 
963        0.23       187.235    -9999      -9999      4.836      4.828      2.026      1.951      1.351      0.1618627  0.1618627  0.2493142  2.787711   4.288792   4.828      0.315416   0.7990286  29.392     0.2650046  0.3580228  0.1719864 
963.2000000000001 0.221      169.981    -9999      -9999      4.503      6.056      3.194      2.448      1.427      0.1569431  0.1569431  0.2298734  2.260085   8.50065    6.056      0.335627   0.8099999  29.329     0.2210009  0.2707621  0.1712398 
963.4      0.222      153.334    -9999      -9999      4.189      5.729      2.6        2.187      1.474      0.1554863  0.1554863  0.2178508  2.123934   16.20379   5.729      0.327132   0.7982022  29.215     0.1889834  0.2080594  0.1699075 
963.6      0.224      157.152    -9999      -9999      4.007      4.807      2.005      1.925      1.507      0.1525384  0.1525384  0.2094094  1.873006   23.55078   4.807      0.300814   0.7730431  28.875     0.1723364  0.1785989  0.166074  
963.8      0.226      157.771    -9999      -9999      4.003      4.127      1.32       1.32       1.537      0.1455858  0.1455858  0.2017354  1.39239    23.74512   4.127      0.267663   0.7446032  28.521     0.1701502  0.1780005  0.1622999 
964        0.224      147.411    -9999      -9999      3.998      3.937      0.873      0.788      1.56       0.1393018  0.1393018  0.195852   1.065038   23.99029   3.937      0.248168   0.7287784  28.82      0.1713644  0.1772555  0.1654732 
964.2000000000001 0.218      128.304    6          6          3.891      5.851      1.758      1.684      1.585      0.1350363  0.1350363  0.189457   0.8878883  29.88859   5.851      0.296901   0.7702406  29.029     0.1649111  0.1620377  0.1677846 
964.4      0.213      108.033    6          6          3.626      10.057     2.358      2.581      1.675      0.1183389  0.1183389  0.166435   0.4355932  51.51695   10.057     0.333694   0.8002779  28.468     0.1457459  0.1297382  0.1617536 
964.6      0.21       86.84299   6          6          3.257      16.475     2.418      3.07       1.778      0.09852462 0.09852462 0.1400876  0.1870997  109.9482   16.475     0.350809   0.8136371  27.954     0.1259484  0.09519825 0.1566986 
964.8      0.21       89.325     6          6          2.954      20.361     1.865      2.02       1.851      0.08414343 0.08414343 0.1214142  0.1013208  204.8982   20.361     0.341922   0.8052125  27.438     0.1129418  0.07383054 0.152053  
965        0.21       99.746     6          6          2.692      9.009      1.771      1.893      1.843      0.08967271 0.08967271 0.1234606  0.1282668  350.9992   9.009      0.249765   0.7184151  26.62      0.1023875  0.05926261 0.1455124 
965.2000000000001 0.209      115.067    6          6          2.552      6.93       1.809      2.252      1.739      0.1180177  0.1180177  0.1500638  0.4296679  467.9723   6.93       0.285965   0.7457505  26.052     0.0971093  0.05269559 0.141523  
965.4      0.21       146.782    6          6          2.497      4.273      1.506      1.307      1.592      0.1559206  0.1559206  0.1876664  2.163646   523.9545   4.273      0.290534   0.7478393  26.135     0.09619933 0.05031945 0.1420792 
965.6      0.21       189.24     1          3          2.414      2.507      1.46       1.269      1.504      0.1786299  0.1786299  0.2101768  5.699241   621.3693   2.507      0.249753   0.7092488  26.448     0.09559672 0.04693494 0.1442585 
