~Version
 VERS              .         2.0                           : CWLS LOG ASCII STANDARD - VERSION 2.0
 WRAP              .         NO                            : ONE LINE PER DEPTH STEP
 DLM               .         SPACE                         : DELIMITING CHARACTER(SPACE TAB OR COMMA)
~Well Information
#_______________________________________________________________________________
#
#PARAMETER_NAME    .UNIT     VALUE                         : DESCRIPTION
#_______________________________________________________________________________
STRT               .M        880                           : First reference value
STOP               .M        1396                          : Last reference value
STEP               .M        0.2                           : Step increment
NULL               .         -9999                         : Missing value
COMP               .                                       : Company
WELL               .         4021                          : Well name
FLD                .         УЗЕНЬ                         : Field
LOC                .                                       : Location
CNTY               .                                       : County
STAT               .                                       : State
CTRY               .         Казахстан                     : Country
SRVC               .                                       : Service Company
DATE               .         23.03.2009                    : Date
UWI                .                                       : Unique Well ID
Block              .         3а                            : 
Cartographic_reference_system .         GCS_WGS_1984                  : ESRI,PE_10_3_1- <?xml version="1.0" encoding="utf-16"?><ILateBoundCoordinateReferenceSystem name="GCS_WGS_1984"><AuthorityCode>EPSG,4326</AuthorityCode></ILateBoundCoordinateReferenceSystem>
Category           .         Нефтяная                      : 
Condition          .         В простое                     : 
Date               .         06.05.1990                    : 
EREF               .m        235.7                         : 100.8
Gorizont           .         18                            : 14
HZCS               .GCS_WGS_1984 WGS_1984_EASE-Grid_2.0_Global : ESRI,PE_10_3_1- <?xml version="1.0" encoding="utf-16"?><ILateBoundCoordinateReferenceSystem name="WGS_1984_EASE-Grid_2.0_Global"><AuthorityCode>EPSG,6933</AuthorityCode></ILateBoundCoordinateReferenceSystem>
Interpretator      .         Чиндаулова Г.К.               : 
Kupol              .         основной                      : osnovnoi
LATI               .dega     0.6315670686                  : GCS_WGS_1984
LONG               .dega     0.5736255958                  : GCS_WGS_1984
METD               .         OGZ3, GZ3, SP                 : Method
Mud                .         0                             : 
Mud_density        .         0                             : 
Mud_resistivity    .         0                             : 
NGDU               .         НГДУ-1                        : 
ORIGINALWELLNAME   .         4021                          : 
SCAL               .         500                           : Scale
Spud_date          .         1990                          : 1961
Viscosity          .         0                             : 
X                  .m        55347                         : 46154
Y                  .m        80569.5                       : 85761.93
YEAR               .         2018                          : 
Исправлено         .         18                            : 
~Parameter Information Block
#_______________________________________________________________________________
#
#PARAMETER_NAME    .UNIT     VALUE                         : DESCRIPTION
#_______________________________________________________________________________
SET                .         LQC_KAZNIPI_Petrel            : 
TLFamily_CALI      .         Caliper                       : 
TLFamily_CILD      .         Conductivity                  : 
TLFamily_COLL      .         Net Reservoir Flag            : 
TLFamily_CSAT      .         Fluid Code                    : 
TLFamily_DEPT      .         Measured Depth                : 
TLFamily_GR        .         Russian Gamma Ray             : 
TLFamily_LLS       .         Lateral Log Resistivity       : 
TLFamily_MINV      .         Micro Gradient Resistivity    : 
TLFamily_MNOR      .         Micro Resistivity             : 
TLFamily_NGLD      .         Neutron Far                   : 
TLFamily_PHIE      .         Effective Porosity            : 
TLFamily_PHIEN     .         Effective Porosity            : 
TLFamily_PHIT      .         Porosity                      : 
TLFamily_PRMB      .         Permeability                  : 
TLFamily_PRMB_DGR  .         Permeability                  : 
TLFamily_RT        .         Formation Resistivity         : 
TLFamily_SOIL_ARCHIE .         Oil Saturation                : 
TLFamily_SOIL_DW   .         Oil Saturation                : 
TLFamily_SP        .         Spontaneous Potential         : 
TLFamily_VSH_FIN   .         Shale Volume                  : 
TLFamily_VSH_GR    .         Shale Volume                  : 
TLFamily_VSH_SP    .         Shale Volume                  : 
~Curve Information
#_______________________________________________________________________________
#
#LOGNAME           .UNIT     LOG_ID                        : DESCRIPTION
#_______________________________________________________________________________
DEPT               .M                                      : Колонка глубины 
CALI               .м                                      : Каверномер 
CILD               .мСм/м                                  : Индукционный каротаж 
COLL               .unitless                               : Описание 
CSAT               .unitless                               : Описание 
GR                 .uR/h                                   : Гамма каротаж 
LLS                .Ohmm                                   : Боковой каротаж 
MINV               .Ohmm                                   : Микро-градиент зонд 
MNOR               .Ohmm                                   : Микро-потенциал зонд 
NGLD               .у.е.                                   : Показания зонда НГК-60 аппаратуры ДРСТ-3-90 
PHIE               .v/v                                    : Описание 
PHIEN              .v/v                                    :  
PHIT               .v/v                                    : Описание 
PRMB               .mD                                     :  
PRMB_DGR           .mD                                     :  
RT                 .ohmm                                   : Description 
SOIL_ARCHIE        .v/v                                    :  
SOIL_DW            .v/v                                    :  
SP                 .мВ                                     : Потенциал самополяризации 
VSH_FIN            .v/v                                    : Описание 
VSH_GR             .v/v                                    : Shale volume 
VSH_SP             .v/v                                    : Shale Volume 
~Ascii
# ...
1026       0.246      328.424    -9999      -9999      4.841      2.323      1.335      1.012      1.17       0.1147668  0.1147668  0.295614   0.3740396  1.892504   2.323      0.007806896 0.4019202  43.353     0.5480219  0.5000239  0.5960198 
1026.2     0.244      344.912    -9999      -9999      4.834      2.051      1.016      0.771      1.116      0.1283393  0.1283393  0.3094272  0.6672876  1.922256   2.051      0.04567425 0.4063547  43.438     0.5487512  0.4968491  0.6006533 
1026.4     0.242      351.244    -9999      -9999      4.78       1.798      0.691      0.549      1.126      0.1229367  0.1229367  0.3068692  0.52996    2.168067   1.798      0          0.352522   44.168     0.5573713  0.4730254  0.6417173 
1026.6     0.236      336.225    -9999      -9999      4.632      1.689      0.87       0.601      1.138      0.1267671  0.1267671  0.3037996  0.6240118  3.015145   1.689      0          0.3351789  44.472     0.536462   0.4134248  0.6594992 
1026.8     0.233      317.164    -9999      -9999      4.412      2.297      1.697      1.062      1.165      0.1343664  0.1343664  0.296893   0.8628785  4.92295    2.297      0.130535   0.4339869  44.252     0.4925049  0.3384196  0.6465902 
1027       0.233      318.729    -9999      -9999      4.353      2.894      3.364      1.523      1.201      0.1293186  0.1293186  0.2876842  0.695747   5.614692   2.894      0.1934131  0.4782696  44.122     0.4798959  0.3207299  0.639062  
1027.2     0.226      332.724    -9999      -9999      4.288      2.686      3.162      1.488      1.239      0.1258198  0.1258198  0.2779638  0.5993024  6.48983    2.686      0.1444874  0.4409645  43.783     0.4610425  0.3023098  0.6197751 
1027.4     0.224      357.683    -9999      -9999      4.385      1.822      1.009      0.889      1.186      0.09319372 0.09319372 0.2915212  0.1490499  0.6498704  1.822      0          0.26697    43.759     0.6009924  0.7736476  0.6009924 
1027.6     0.232      340.429    -9999      -9999      4.532      1.662      0.613      0.659      1.133      0.103972   0.103972   0.3050786  0.2360325  0.4273605  1.662      0          0.2825445  43.912     0.6094139  0.8        0.6094139 
1027.8     0.244      316.026    -9999      -9999      4.414      1.993      1.362      0.761      1.206      0.08350127 0.08350127 0.2864052  0.09858349 0.5982957  1.993      0          0.2642501  44.01      0.6148604  0.8        0.6148604 
1028       0.233      310.829    -9999      -9999      4.094      2.4        0.86       1.386      1.258      0.05951364 0.05951364 0.2731036  0.0354401  1.489968   2.4        0          0.2297999  44.578     0.6472423  0.5513154  0.6472423 
1028.2     0.223      309.104    -9999      -9999      3.807      2.43       2.022      1.284      1.3        0.05186481 0.05186481 0.26236    0.02557527 3.377331   2.43       0          0.1804007  44.416     0.6378642  0.3947116  0.6378642 
1028.4     0.222      306.01     -9999      -9999      3.708      2.636      2.979      1.426      1.318      0.06233501 0.06233501 0.2577556  0.03997179 4.478852   2.636      0          0.2454414  43.597     0.5921836  0.3517394  0.5921836 
1028.6     0.222      302.9081   -9999      -9999      3.614      2.479      1.023      1.177      1.311      0.06689039 0.06689039 0.2595462  0.04854342 5.85556    2.479      0          0.242466   43.441     0.5838055  0.3152756  0.5838055 
1028.8     0.221      300.4441   -9999      -9999      3.415      2.161      1.784      1.579      1.308      0.07437216 0.07437216 0.2603136  0.06678993 10.32745   2.161      0          0.2174134  43.054     0.5634589  0.250073   0.5634589 
1029       0.221      290.604    -9999      -9999      3.436      2.452      2.62       1.872      1.326      0.0697336  0.0697336  0.2557092  0.05480163 9.727216   2.452      0          0.2406909  43.056     0.5635625  0.2562627  0.5635625 
1029.2     0.221      277.807    -9999      -9999      3.349      2.772      2.66       1.497      1.357      0.06761879 0.06761879 0.2477794  0.05007514 12.46585   2.772      0          0.2631746  42.711     0.5459412  0.2315764  0.5459412 
1029.4     0.221      270.02     -9999      -9999      3.043      2.603      3.262      1.754      1.41       0.05205694 0.05205694 0.234222   0.02578569 29.82954   2.603      0          0.1427074  42.831     0.5520154  0.1621686  0.5520154 
1029.6     0.221      260.493    -9999      -9999      2.877      2.771      3.864      1.779      1.367      0.05189525 0.05189525 0.2452214  0.02560849 47.88583   2.771      0          0.1948072  43.479     0.5858368  0.1336687  0.5858368 
1029.8     0.221      249.277    -9999      -9999      2.775      3.079      4.467      1.845      1.402      0.04881822 0.04881822 0.2362684  0.02245897 64.04939   3.079      0          0.2016595  43.142     0.5680309  0.1187008  0.5680309 
1030       0.221      236.165    -9999      -9999      2.747      3.627      4.375      1.64       1.41       0.05968465 0.05968465 0.234222   0.03569953 69.37263   3.627      0          0.303531   42.368     0.5289011  0.1148935  0.5289011 
1030.2     0.221      231.07     -9999      -9999      2.82       3.627      3.344      1.875      1.438      0.0643409  0.0643409  0.2270596  0.04354193 56.33668   3.627      0          0.3056005  41.614     0.493087   0.1250857  0.493087  
1030.4     0.221      235.424    -9999      -9999      2.968      2.892      3.467      1.619      1.384      0.08406875 0.08406875 0.2408728  0.1009986  36.942     2.892      0          0.3168206  41.218     0.4751638  0.1486084  0.4751638 
1030.6     0.221      238.907    -9999      -9999      3.022      3.026      3.217      1.566      1.372      0.08332244 0.08332244 0.2439424  0.09783446 31.67024   3.026      0          0.3355477  41.475     0.4867271  0.1582516  0.4867271 
1030.8     0.221      238.051    -9999      -9999      3.067      2.589      3.408      1.521      1.373      0.07717741 0.07717741 0.2436866  0.07527851 27.85654   2.589      0          0.2620176  41.861     0.5045733  0.166764   0.5045733 
1031       0.221      230.249    -9999      -9999      3.023      2.784      4.737      1.67       1.356      0.07244423 0.07244423 0.2480352  0.06151782 31.58005   2.784      0          0.2816104  42.433     0.5320939  0.158436   0.5320939 
1031.2     0.221      221.58     -9999      -9999      2.971      2.962      3.759      1.45       1.4        0.06229111 0.06229111 0.23678    0.03989702 36.62733   2.962      0          0.2452781  42.365     0.5287542  0.1491284  0.5287542 
1031.4     0.221      219.856    -9999      -9999      2.919      3.047      4.057      1.932      1.424      0.0668405  0.0668405  0.2306408  0.04844024 42.4813    3.047      0          0.2596248  41.685     0.4963645  0.1403675  0.4963645 
1031.6     0.221      224.119    -9999      -9999      2.897      3.296      4.356      1.814      1.449      0.07253375 0.07253375 0.2242458  0.06175314 45.23147   3.296      0          0.2943146  40.866     0.4597335  0.1368178  0.4597335 
1031.8     0.221      219.984    -9999      -9999      2.926      3.115      4.465      1.695      1.476      0.08303582 0.08303582 0.2173392  0.09664578 41.64179   3.115      0          0.2934458  39.573     0.40698    0.1415162  0.40698   
1032       0.221      224.233    -9999      -9999      2.943      2.928      4.573      1.576      1.464      0.09146998 0.09146998 0.2204088  0.1384854  39.67146   2.928      0          0.302631   39.142     0.3907237  0.1443452  0.3907237 
1032.2     0.221      225.981    -9999      -9999      2.861      2.812      3.276      1.338      1.45       0.09662743 0.09662743 0.22399    0.172557   50.12103   2.812      0          0.309703   39.012     0.3859471  0.1312016  0.3859471 
1032.4     0.221      225.993    -9999      -9999      2.825      2.877      3.11       1.633      1.456      0.09511679 0.09511679 0.2224552  0.16179    55.53918   2.877      0          0.3105733  39.01      0.385874   0.125816   0.385874  
1032.6     0.222      224.441    -9999      -9999      2.635      3.008      2.808      1.505      1.488      0.1009981  0.1009981  0.2142696  0.2079158  95.47276   3.008      0.01763689 0.3250893  37.772     0.343247   0.1008471  0.343247  
