~Version
 VERS              .         2.0                           : CWLS LOG ASCII STANDARD - VERSION 2.0
 WRAP              .         NO                            : ONE LINE PER DEPTH STEP
 DLM               .         SPACE                         : DELIMITING CHARACTER(SPACE TAB OR COMMA)
~Well Information
#_______________________________________________________________________________
#
#PARAMETER_NAME    .UNIT     VALUE                         : DESCRIPTION
#_______________________________________________________________________________
STRT               .M        880                           : First reference value
STOP               .M        1396                          : Last reference value
STEP               .M        0.2                           : Step increment
NULL               .         -9999                         : Missing value
COMP               .                                       : Company
WELL               .         4021                          : Well name
FLD                .         УЗЕНЬ                         : Field
LOC                .                                       : Location
CNTY               .                                       : County
STAT               .                                       : State
CTRY               .         Казахстан                     : Country
SRVC               .                                       : Service Company
DATE               .         23.03.2009                    : Date
UWI                .                                       : Unique Well ID
Block              .         3а                            : 
Cartographic_reference_system .         GCS_WGS_1984                  : ESRI,PE_10_3_1- <?xml version="1.0" encoding="utf-16"?><ILateBoundCoordinateReferenceSystem name="GCS_WGS_1984"><AuthorityCode>EPSG,4326</AuthorityCode></ILateBoundCoordinateReferenceSystem>
Category           .         Нефтяная                      : 
Condition          .         В простое                     : 
Date               .         06.05.1990                    : 
EREF               .m        235.7                         : 100.8
Gorizont           .         18                            : 14
HZCS               .GCS_WGS_1984 WGS_1984_EASE-Grid_2.0_Global : ESRI,PE_10_3_1- <?xml version="1.0" encoding="utf-16"?><ILateBoundCoordinateReferenceSystem name="WGS_1984_EASE-Grid_2.0_Global"><AuthorityCode>EPSG,6933</AuthorityCode></ILateBoundCoordinateReferenceSystem>
Interpretator      .         Чиндаулова Г.К.               : 
Kupol              .         основной                      : osnovnoi
LATI               .dega     0.6315670686                  : GCS_WGS_1984
LONG               .dega     0.5736255958                  : GCS_WGS_1984
METD               .         OGZ3, GZ3, SP                 : Method
Mud                .         0                             : 
Mud_density        .         0                             : 
Mud_resistivity    .         0                             : 
NGDU               .         НГДУ-1                        : 
ORIGINALWELLNAME   .         4021                          : 
SCAL               .         500                           : Scale
Spud_date          .         1990                          : 1961
Viscosity          .         0                             : 
X                  .m        55347                         : 46154
Y                  .m        80569.5                       : 85761.93
YEAR               .         2018                          : 
Исправлено         .         18                            : 
~Parameter Information Block
#_______________________________________________________________________________
#
#PARAMETER_NAME    .UNIT     VALUE                         : DESCRIPTION
#_______________________________________________________________________________
SET                .         LQC_KAZNIPI_Petrel            : 
TLFamily_CALI      .         Caliper                       : 
TLFamily_CILD      .         Conductivity                  : 
TLFamily_COLL      .         Net Reservoir Flag            : 
TLFamily_CSAT      .         Fluid Code                    : 
TLFamily_DEPT      .         Measured Depth                : 
TLFamily_GR        .         Russian Gamma Ray             : 
TLFamily_LLS       .         Lateral Log Resistivity       : 
TLFamily_MINV      .         Micro Gradient Resistivity    : 
TLFamily_MNOR      .         Micro Resistivity             : 
TLFamily_NGLD      .         Neutron Far                   : 
TLFamily_PHIE      .         Effective Porosity            : 
TLFamily_PHIEN     .         Effective Porosity            : 
TLFamily_PHIT      .         Porosity                      : 
TLFamily_PRMB      .         Permeability                  : 
TLFamily_PRMB_DGR  .         Permeability                  : 
TLFamily_RT        .         Formation Resistivity         : 
TLFamily_SOIL_ARCHIE .         Oil Saturation                : 
TLFamily_SOIL_DW   .         Oil Saturation                : 
TLFamily_SP        .         Spontaneous Potential         : 
TLFamily_VSH_FIN   .         Shale Volume                  : 
TLFamily_VSH_GR    .         Shale Volume                  : 
TLFamily_VSH_SP    .         Shale Volume                  : 
~Curve Information
#_______________________________________________________________________________
#
#LOGNAME           .UNIT     LOG_ID                        : DESCRIPTION
#_______________________________________________________________________________
DEPT               .M                                      : Колонка глубины 
CALI               .м                                      : Каверномер 
CILD               .мСм/м                                  : Индукционный каротаж 
COLL               .unitless                               : Описание 
CSAT               .unitless                               : Описание 
GR                 .uR/h                                   : Гамма каротаж 
LLS                .Ohmm                                   : Боковой каротаж 
MINV               .Ohmm                                   : Микро-градиент зонд 
MNOR               .Ohmm                                   : Микро-потенциал зонд 
NGLD               .у.е.                                   : Показания зонда НГК-60 аппаратуры ДРСТ-3-90 
PHIE               .v/v                                    : Описание 
PHIEN              .v/v                                    :  
PHIT               .v/v                                    : Описание 
PRMB               .mD                                     :  
PRMB_DGR           .mD                                     :  
RT                 .ohmm                                   : Description 
SOIL_ARCHIE        .v/v                                    :  
SOIL_DW            .v/v                                    :  
SP                 .мВ                                     : Потенциал самополяризации 
VSH_FIN            .v/v                                    : Описание 
VSH_GR             .v/v                                    : Shale volume 
VSH_SP             .v/v                                    : Shale Volume 
~Ascii
# ...
1250.4     0.22       330.435    -9999      -9999      5.201      2.067      1.306      1.164      1.198      0.1758988  0.1758988  0.2884516  5.072591   12.0909    2.067      0.2977017  0.4681664  25.366     0.3410693  0.2344824  0.4476562 
1250.6     0.22       306.811    -9999      -9999      5.041      2.301      1.118      1.306      1.214      0.186664   0.186664   0.2843588  8.02837    16.26922   2.301      0.3658433  0.5038676  23.752     0.296045   0.2077173  0.3843727 
1250.8     0.22       285.306    1          2          4.732      3.014      1.108      1.382      1.25       0.1955324  0.1955324  0.27515    11.71905   28.86156   3.014      0.4634261  0.5664983  21.749     0.2412654  0.1643679  0.318163  
1251       0.218      268.174    1          2          4.539      3.826      1.136      1.386      1.282      0.2016209  0.2016209  0.2669644  15.19377   41.28711   3.826      0.5328947  0.6134419  19.305     0.1980108  0.1420114  0.2540101 
1251.2     0.218      259.116    1          2          4.458      3.632      1.274      1.372      1.306      0.2008848  0.2008848  0.2608252  14.72419   47.98152   3.632      0.5198209  0.5972623  18.166     0.1816376  0.1335597  0.2297156 
1251.4     0.219      250.605    1          2          4.559      3.403      1.269      1.454      1.308      0.2005135  0.2005135  0.2603136  14.49287   39.78333   3.403      0.5041212  0.5831345  17.567     0.1812125  0.1441793  0.2182456 
1251.6     0.219      245.98     1          2          4.702      3.278      1.392      1.535      1.287      0.2034085  0.2034085  0.2656854  16.3975    30.51333   3.278      0.5015974  0.5827754  17.486     0.1887178  0.1606747  0.2167609 
1251.8     0.218      242.455    1          2          4.463      3.15       1.479      1.545      1.24       0.2208249  0.2208249  0.277708   34.46442   47.53855   3.15       0.5272591  0.5992957  17.145     0.172373   0.1340665  0.2106795 
1252       0.218      238.931    1          2          4.508      3.201      1.446      1.513      1.262      0.2133997  0.2133997  0.2720804  25.10954   43.73112   3.201      0.5166215  0.591907   17.495     0.1778203  0.1387154  0.2169251 
1252.2     0.219      243.232    1          2          4.627      3.297      1.53       1.665      1.293      0.2030229  0.2030229  0.2641506  16.13003   35.06837   3.297      0.5021251  0.5822505  17.59      0.1852354  0.1518007  0.2186701 
1252.4     0.218      243.555    1          2          4.831      3.293      1.715      1.723      1.255      0.2085546  0.2085546  0.273871   20.42187   24.01918   3.293      0.5133693  0.5952533  17.591     0.1979285  0.1771684  0.2186885 
1252.6     0.218      238.283    1          2          5.007      3.182      1.942      1.868      1.286      0.1964068  0.1964068  0.2659412  12.16435   17.32844   3.182      0.4789404  0.5704712  17.607     0.2107102  0.2024358  0.2189846 
1252.8     0.218      231.789    1          2          4.898      3.501      2.124      1.853      1.244      0.2105937  0.2105937  0.2766848  22.27742   21.21182   3.501      0.5311471  0.611372   17.342     0.200276   0.1863924  0.2141597 
1253       0.218      226.86     1          2          5.041      3.717      2.142      1.873      1.217      0.213777   0.213777   0.2835914  25.51687   16.26922   3.717      0.5500537  0.6305169  17.411     0.2115587  0.2077173  0.2154    
1253.2     0.219      222.808    1          2          5.229      3.809      2.085      1.806      1.21       0.2089163  0.2089163  0.285382   20.73934   11.47889   3.809      0.5461863  0.6328006  17.869     0.2317142  0.2395089  0.2239195 
1253.4     0.219      217.739    1          2          5.347      3.678      1.953      1.826      1.209      0.2035418  0.2035418  0.2856378  16.49096   9.222111   3.678      0.5280803  0.6224157  18.459     0.2487758  0.2619037  0.2356478 
1253.6     0.219      216.823    1          2          5.064      3.606      1.756      1.657      1.277      0.1922699  0.1922699  0.2682434  10.19678   15.58964   3.606      0.499451   0.5949298  19.086     0.2302228  0.2113681  0.2490774 
1253.8     0.22       221.124    1          2          5.299      3.524      1.99       1.662      1.296      0.1802787  0.1802787  0.2633832  6.114456   10.08099   3.524      0.4648295  0.5745901  19.177     0.2518317  0.2525518  0.2511116 
1254       0.22       228.034    -9999      -9999      5.121      3.419      2.35       1.801      1.263      0.1939618  0.1939618  0.2718246  10.95975   14.02532   3.419      0.4906864  0.5887073  19.181     0.235948   0.2206944  0.2512015 
1254.2     0.22       237.737    -9999      -9999      5.139      3.288      3.653      1.978      1.192      0.2085905  0.2085905  0.2899864  20.45312   13.56471   3.288      0.5130951  0.6081798  19.962     0.2466543  0.2237243  0.2695844 
1254.4     0.22       253.121    -9999      -9999      5.104      3.211      4.303      1.947      1.236      0.1961142  0.1961142  0.2787312  12.01346   14.47468   3.211      0.4804798  0.5836765  20.485     0.2503547  0.2178707  0.2828388 
1254.6     0.218      265.991    -9999      -9999      5.021      2.965      4.05       1.676      1.264      0.187634   0.187634   0.2715688  8.367493   16.88419   2.965      0.439512   0.5519473  21.266     0.2543478  0.2045941  0.3041015 
1254.8     0.217      268.713    -9999      -9999      5.021      2.648      3.588      1.427      1.295      0.1763284  0.1763284  0.263639   5.166395   16.88419   2.648      0.3760975  0.5050012  21.961     0.2645777  0.2045941  0.3245612 
1255       0.215      272.145    -9999      -9999      5.1        2.453      3.723      1.52       1.322      0.1664971  0.1664971  0.2567324  3.396947   14.5825    2.453      0.320161   0.4651147  22.127     0.2734402  0.2172115  0.3296689 
1255.2     0.216      272.968    -9999      -9999      4.908      2.516      3.281      1.063      1.346      0.1615402  0.1615402  0.2505932  2.749636   20.82194   2.516      0.3102842  0.457575   22.819     0.2698575  0.1878097  0.3519053 
1255.4     0.217      267.515    -9999      -9999      5.091      2.498      2.273      1.322      1.364      0.1493092  0.1493092  0.2459888  1.632028   14.82801   2.498      0.2588352  0.4316348  23.355     0.2929684  0.2157357  0.3702011 
1255.6     0.218      262.778    -9999      -9999      4.994      2.599      3.897      1.207      1.355      0.1472487  0.1472487  0.248291   1.494725   17.75143   2.599      0.2636346  0.4427376  24.484     0.3061888  0.2004521  0.4119255 
1255.8     0.215      254.872    -9999      -9999      4.808      2.581      3.889      1.097      1.333      0.1543668  0.1543668  0.2539186  2.024908   25.0662    2.581      0.2909887  0.4586588  24.92      0.3016722  0.1741084  0.429236  
1256       0.215      235.395    -9999      -9999      4.883      2.784      4.344      1.344      1.404      0.1316043  0.1316043  0.2357568  0.7669892  21.81037   2.784      0.2137403  0.4189815  25.349     0.3156136  0.1842864  0.4469407 
1256.2     0.214      209.266    -9999      -9999      4.756      3.202      4.629      1.586      1.383      0.138485   0.138485   0.2411286  1.028574   27.60474   3.202      0.2956623  0.4763009  25.532     0.3110413  0.1673835  0.4546991 
1256.4     0.214      193.57     6          6          4.791      5.404      4.94       3.591      1.393      0.1301117  0.1301117  0.2385706  0.7196852  25.86932   5.404      0.4182839  0.5840485  26.23      0.3286633  0.1718806  0.485446  
1256.6     0.213      181.126    6          6          4.627      10.634     4.805      3.604      1.433      0.1151068  0.1151068  0.2283386  0.379503   35.06837   10.634     0.5289093  0.6804273  27.264     0.3431267  0.1518007  0.5344527 
1256.8     0.213      183.369    6          6          4.565      10.081     4.621      2.581      1.437      0.1113755  0.1113755  0.2273154  0.3236706  39.34297   10.081     0.5028901  0.6666227  27.728     0.3513329  0.1448361  0.5578297 
1257       0.212      212.55     6          6          4.692      6.657      3.653      2.883      1.394      0.1124437  0.1124437  0.2383148  0.3387563  31.08469   6.657      0.4010159  0.6029322  28.586     0.3814277  0.1594621  0.6033932 
