~Version
 VERS              .         2.0                           : CWLS LOG ASCII STANDARD - VERSION 2.0
 WRAP              .         NO                            : ONE LINE PER DEPTH STEP
 DLM               .         SPACE                         : DELIMITING CHARACTER(SPACE TAB OR COMMA)
~Well Information
#_______________________________________________________________________________
#
#PARAMETER_NAME    .UNIT     VALUE                         : DESCRIPTION
#_______________________________________________________________________________
STRT               .M        880                           : First reference value
STOP               .M        1396                          : Last reference value
STEP               .M        0.2                           : Step increment
NULL               .         -9999                         : Missing value
COMP               .                                       : Company
WELL               .         4021                          : Well name
FLD                .         УЗЕНЬ                         : Field
LOC                .                                       : Location
CNTY               .                                       : County
STAT               .                                       : State
CTRY               .         Казахстан                     : Country
SRVC               .                                       : Service Company
DATE               .         23.03.2009                    : Date
UWI                .                                       : Unique Well ID
Block              .         3а                            : 
Cartographic_reference_system .         GCS_WGS_1984                  : ESRI,PE_10_3_1- <?xml version="1.0" encoding="utf-16"?><ILateBoundCoordinateReferenceSystem name="GCS_WGS_1984"><AuthorityCode>EPSG,4326</AuthorityCode></ILateBoundCoordinateReferenceSystem>
Category           .         Нефтяная                      : 
Condition          .         В простое                     : 
Date               .         06.05.1990                    : 
EREF               .m        235.7                         : 100.8
Gorizont           .         18                            : 14
HZCS               .GCS_WGS_1984 WGS_1984_EASE-Grid_2.0_Global : ESRI,PE_10_3_1- <?xml version="1.0" encoding="utf-16"?><ILateBoundCoordinateReferenceSystem name="WGS_1984_EASE-Grid_2.0_Global"><AuthorityCode>EPSG,6933</AuthorityCode></ILateBoundCoordinateReferenceSystem>
Interpretator      .         Чиндаулова Г.К.               : 
Kupol              .         основной                      : osnovnoi
LATI               .dega     0.6315670686                  : GCS_WGS_1984
LONG               .dega     0.5736255958                  : GCS_WGS_1984
METD               .         OGZ3, GZ3, SP                 : Method
Mud                .         0                             : 
Mud_density        .         0                             : 
Mud_resistivity    .         0                             : 
NGDU               .         НГДУ-1                        : 
ORIGINALWELLNAME   .         4021                          : 
SCAL               .         500                           : Scale
Spud_date          .         1990                          : 1961
Viscosity          .         0                             : 
X                  .m        55347                         : 46154
Y                  .m        80569.5                       : 85761.93
YEAR               .         2018                          : 
Исправлено         .         18                            : 
~Parameter Information Block
#_______________________________________________________________________________
#
#PARAMETER_NAME    .UNIT     VALUE                         : DESCRIPTION
#_______________________________________________________________________________
SET                .         LQC_KAZNIPI_Petrel            : 
TLFamily_CALI      .         Caliper                       : 
TLFamily_CILD      .         Conductivity                  : 
TLFamily_COLL      .         Net Reservoir Flag            : 
TLFamily_CSAT      .         Fluid Code                    : 
TLFamily_DEPT      .         Measured Depth                : 
TLFamily_GR        .         Russian Gamma Ray             : 
TLFamily_LLS       .         Lateral Log Resistivity       : 
TLFamily_MINV      .         Micro Gradient Resistivity    : 
TLFamily_MNOR      .         Micro Resistivity             : 
TLFamily_NGLD      .         Neutron Far                   : 
TLFamily_PHIE      .         Effective Porosity            : 
TLFamily_PHIEN     .         Effective Porosity            : 
TLFamily_PHIT      .         Porosity                      : 
TLFamily_PRMB      .         Permeability                  : 
TLFamily_PRMB_DGR  .         Permeability                  : 
TLFamily_RT        .         Formation Resistivity         : 
TLFamily_SOIL_ARCHIE .         Oil Saturation                : 
TLFamily_SOIL_DW   .         Oil Saturation                : 
TLFamily_SP        .         Spontaneous Potential         : 
TLFamily_VSH_FIN   .         Shale Volume                  : 
TLFamily_VSH_GR    .         Shale Volume                  : 
TLFamily_VSH_SP    .         Shale Volume                  : 
~Curve Information
#_______________________________________________________________________________
#
#LOGNAME           .UNIT     LOG_ID                        : DESCRIPTION
#_______________________________________________________________________________
DEPT               .M                                      : Колонка глубины 
CALI               .м                                      : Каверномер 
CILD               .мСм/м                                  : Индукционный каротаж 
COLL               .unitless                               : Описание 
CSAT               .unitless                               : Описание 
GR                 .uR/h                                   : Гамма каротаж 
LLS                .Ohmm                                   : Боковой каротаж 
MINV               .Ohmm                                   : Микро-градиент зонд 
MNOR               .Ohmm                                   : Микро-потенциал зонд 
NGLD               .у.е.                                   : Показания зонда НГК-60 аппаратуры ДРСТ-3-90 
PHIE               .v/v                                    : Описание 
PHIEN              .v/v                                    :  
PHIT               .v/v                                    : Описание 
PRMB               .mD                                     :  
PRMB_DGR           .mD                                     :  
RT                 .ohmm                                   : Description 
SOIL_ARCHIE        .v/v                                    :  
SOIL_DW            .v/v                                    :  
SP                 .мВ                                     : Потенциал самополяризации 
VSH_FIN            .v/v                                    : Описание 
VSH_GR             .v/v                                    : Shale volume 
VSH_SP             .v/v                                    : Shale Volume 
~Ascii
# ...
1189.2     0.222      354.332    -9999      -9999      5.651      2.486      3.525      0.974      1.13       0.2203916  0.2203916  0.305846   33.83336   13.43722   2.486      0.4631141  0.5667629  33.194     0.2589527  0.2245886  0.2933169 
1189.4     0.221      351.696    -9999      -9999      5.806      2.55       3.089      0.978      1.116      0.2123577  0.2123577  0.3094272  24.01802   10.45153   2.55       0.4520414  0.5685531  34.753     0.2941501  0.2488565  0.3394436 
1189.6     0.22       354.276    -9999      -9999      5.885      2.563      2.718      1.01       1.093      0.2102577  0.2102577  0.3153106  21.96041   9.195162   2.563      0.4485952  0.5726478  35.792     0.3183421  0.262217   0.3744674 
1189.8     0.22       355.118    -9999      -9999      5.983      2.343      2.654      1.23       1.069      0.2136897  0.2136897  0.3214498  25.422     7.844435   2.343      0.4329304  0.5610141  35.759     0.3265458  0.2797917  0.3732999 
1190       0.221      354.22     -9999      -9999      6.105      2.237      2.652      0.995      1.065      0.2119672  0.2119672  0.322473   23.62134   6.436744   2.237      0.4163764  0.5500856  35.562     0.334866   0.3033254  0.3664067 
1190.2     0.221      361.147    -9999      -9999      6.192      2.152      2.546      1.038      1.074      0.2076623  0.2076623  0.3201708  19.65929   5.590015   2.152      0.3949536  0.535458   35.392     0.3409348  0.3213072  0.3605624 
1190.4     0.222      360.25     -9999      -9999      6.128      2.062      2.827      1.179      1.139      0.1941774  0.1941774  0.3035438  11.06103   6.201161   2.062      0.3455278  0.4966047  35.223     0.3314131  0.307979   0.3548473 
1190.6     0.222      360.222    -9999      -9999      6.345      2.105      3.585      1.034      1.2        0.1725847  0.1725847  0.28794    4.403986   4.362061   2.105      0.2817517  0.4607417  34.881     0.3495614  0.3555549  0.3435679 
1190.8     0.22       367.998    -9999      -9999      6.454      2.292      2.811      1.089      1.202      0.1738802  0.1738802  0.2874284  4.654163   3.655519   2.292      0.3143527  0.4842149  33.649     0.3440854  0.3821583  0.3060125 
1191       0.219      374.946    -9999      -9999      6.149      2.195      2.848      1.041      1.173      0.1997665  0.1997665  0.2948466  14.03845   5.993594   2.195      0.379961   0.5093821  32.046     0.2881214  0.3122903  0.2639525 
1191.2     0.219      370.709    -9999      -9999      6.237      2.091      2.796      0.945      1.178      0.1929458  0.1929458  0.2935676  10.49499   5.196729   2.091      0.3461896  0.4888001  32.645     0.3049147  0.3310226  0.2788067 
1191.4     0.218      371.413    -9999      -9999      6.175      2.071      2.596      0.849      1.193      0.191267   0.191267   0.2897306  9.769815   5.746214   2.071      0.3382164  0.4804759  32.654     0.2983747  0.3177117  0.2790376 
1191.6     0.218      369.28     -9999      -9999      6.592      2.082      3.286      0.934      1.162      0.1838832  0.1838832  0.2976604  7.130509   2.92273    2.082      0.3168313  0.4818347  32.329     0.3447795  0.4187136  0.2708454 
1191.8     0.217      367.038    -9999      -9999      6.7        2.118      3.56       1.063      1.182      0.1760763  0.1760763  0.2925444  5.111138   2.453298   2.118      0.2962086  0.4717469  31.713     0.3529337  0.4497447  0.2561227 
1192       0.215      360.294    -9999      -9999      6.635      2.189      3.441      1.032      1.192      0.1809051  0.1809051  0.2899864  6.280002   2.725925   2.189      0.323153   0.483338   30.511     0.3305493  0.4308035  0.2302951 
1192.2     0.215      342.638    -9999      -9999      6.145      2.206      3.7        1.17       1.19       0.1385709  0.1385709  0.290498   1.032353   2.098472   2.206      0.1493487  0.4288439  30.62      0.460385   0.4793694  0.4414006 
1192.4     0.215      328.935    -9999      -9999      5.919      2.314      4.291      1.656      1.183      0.1499222  0.1499222  0.2922886  1.675254   3.19143    2.314      0.2233424  0.4610787  31.033     0.4314134  0.4039431  0.4588837 
1192.6     0.215      317.507    -9999      -9999      5.721      2.693      3.635      1.503      1.189      0.1602736  0.1602736  0.2907538  2.605034   4.607959   2.693      0.3175613  0.5118059  30.661     0.3953947  0.3476814  0.4431079 
1192.8     0.215      307.912    -9999      -9999      5.338      2.855      2.858      1.405      1.191      0.1829236  0.1829236  0.2902422  6.844586   9.377387   2.855      0.4082217  0.5498649  29.317     0.3252078  0.2601242  0.3902915 
1193       0.215      306.881    -9999      -9999      5.327      2.359      3.33       1.281      1.17       0.1841608  0.1841608  0.295614   7.21544    9.570706   2.359      0.3565703  0.5115032  30.03      0.337737   0.2579657  0.4175083 
1193.2     0.215      288.719    -9999      -9999      5.521      2.248      3.164      1.658      1.171      0.1714769  0.1714769  0.2953582  4.200745   6.677956   2.248      0.2996491  0.4847345  30.872     0.3753979  0.2988029  0.4519929 
1193.4     0.215      261.627    -9999      -9999      5.576      2.482      3.794      2.344      1.169      0.1734619  0.1734619  0.2958698  4.571872   6.030194   2.482      0.3381169  0.5123853  30.351     0.3709329  0.3115149  0.4303508 
1193.6     0.215      211.786    -9999      -9999      5.409      3.419      4.545      2.849      1.15       0.1898842  0.1898842  0.30073    9.210314   8.220132   3.419      0.4736278  0.6033076  29.505     0.3358963  0.2744976  0.397295  
1193.8     0.215      178.315    -9999      -9999      5.187      6.329      4.076      3.169      1.109      0.2138729  0.2138729  0.3112178  25.62142   12.40904   6.329      0.644536   0.7278654  28.403     0.2949845  0.2320087  0.3579604 
1194       0.215      166.533    -9999      -9999      4.896      12.052     3.819      3.127      1.131      0.2196217  0.2196217  0.3055902  32.74049   21.29067   12.052     0.743257   0.8028526  27.698     0.2605105  0.1861102  0.3349108 
1194.2     0.215      152.851    6          6          4.557      16.15      3.913      2.725      1.157      0.220356   0.220356   0.2989394  33.782     39.9312    16.15      0.7768554  0.8277323  27.615     0.2381316  0.143961   0.3323022 
1194.4     0.216      140.123    6          6          4.426      12.202     3.667      2.192      1.152      0.2243109  0.2243109  0.3002184  39.98895   50.91615   12.202     0.7493968  0.8037699  27.531     0.2300228  0.1303611  0.3296844 
1194.6     0.215      133.665    -9999      -9999      4.443      6.326      4.768      2.304      1.104      0.2367337  0.2367337  0.3124968  67.92672   49.33548   6.326      0.6745536  0.7396885  27.448     0.2295852  0.1320507  0.3271196 
1194.8     0.215      132.767    -9999      -9999      4.543      4.834001   3.957      1.463      1.012      0.2561088  0.2561088  0.3360304  155.2079   40.98186   4.834001   0.6552181  0.7237722  27.918     0.2421868  0.1424424  0.3419312 
1195       0.215      133.593    -9999      -9999      4.474      3.87       2.324      1.79       0.987      0.2591141  0.2591141  0.3424254  176.4331   46.57828   3.87       0.6211559  0.6961302  28.745     0.2524585  0.1351883  0.3697286 
1195.2     0.216      130.071    -9999      -9999      4.484      3.258      2.417      2.205      1.032      0.244876   0.244876   0.3309144  96.12944   45.72214   3.258      0.5685605  0.6540794  29.179     0.2607223  0.1362163  0.3852284 
1195.4     0.215      113.432    1          2          4.597      5.806      2.29       2.259      1.076      0.2342907  0.2342907  0.3196592  61.20559   37.07536   5.806      0.6581118  0.7306728  28.724     0.2586923  0.1483899  0.3689947 
1195.6     0.213      96.104     1          2          4.603      10.371     2.307      2.355      1.143      0.2273174  0.2273174  0.3025206  45.45991   36.66497   10.371     0.7326469  0.7892726  26.761     0.2278884  0.1490659  0.3067109 
1195.8     0.213      88.25      1          2          4.495      12.512     2.331      2.431      1.203      0.2173271  0.2173271  0.2871726  29.68812   44.7986    12.512     0.7454122  0.7984961  26.007     0.2116531  0.1373561  0.2859502 
