~Version
 VERS              .         2.0                           : CWLS LOG ASCII STANDARD - VERSION 2.0
 WRAP              .         NO                            : ONE LINE PER DEPTH STEP
 DLM               .         SPACE                         : DELIMITING CHARACTER(SPACE TAB OR COMMA)
~Well Information
#_______________________________________________________________________________
#
#PARAMETER_NAME    .UNIT     VALUE                         : DESCRIPTION
#_______________________________________________________________________________
STRT               .M        880                           : First reference value
STOP               .M        1396                          : Last reference value
STEP               .M        0.2                           : Step increment
NULL               .         -9999                         : Missing value
COMP               .                                       : Company
WELL               .         4021                          : Well name
FLD                .         УЗЕНЬ                         : Field
LOC                .                                       : Location
CNTY               .                                       : County
STAT               .                                       : State
CTRY               .         Казахстан                     : Country
SRVC               .                                       : Service Company
DATE               .         23.03.2009                    : Date
UWI                .                                       : Unique Well ID
Block              .         3а                            : 
Cartographic_reference_system .         GCS_WGS_1984                  : ESRI,PE_10_3_1- <?xml version="1.0" encoding="utf-16"?><ILateBoundCoordinateReferenceSystem name="GCS_WGS_1984"><AuthorityCode>EPSG,4326</AuthorityCode></ILateBoundCoordinateReferenceSystem>
Category           .         Нефтяная                      : 
Condition          .         В простое                     : 
Date               .         06.05.1990                    : 
EREF               .m        235.7                         : 100.8
Gorizont           .         18                            : 14
HZCS               .GCS_WGS_1984 WGS_1984_EASE-Grid_2.0_Global : ESRI,PE_10_3_1- <?xml version="1.0" encoding="utf-16"?><ILateBoundCoordinateReferenceSystem name="WGS_1984_EASE-Grid_2.0_Global"><AuthorityCode>EPSG,6933</AuthorityCode></ILateBoundCoordinateReferenceSystem>
Interpretator      .         Чиндаулова Г.К.               : 
Kupol              .         основной                      : osnovnoi
LATI               .dega     0.6315670686                  : GCS_WGS_1984
LONG               .dega     0.5736255958                  : GCS_WGS_1984
METD               .         OGZ3, GZ3, SP                 : Method
Mud                .         0                             : 
Mud_density        .         0                             : 
Mud_resistivity    .         0                             : 
NGDU               .         НГДУ-1                        : 
ORIGINALWELLNAME   .         4021                          : 
SCAL               .         500                           : Scale
Spud_date          .         1990                          : 1961
Viscosity          .         0                             : 
X                  .m        55347                         : 46154
Y                  .m        80569.5                       : 85761.93
YEAR               .         2018                          : 
Исправлено         .         18                            : 
~Parameter Information Block
#_______________________________________________________________________________
#
#PARAMETER_NAME    .UNIT     VALUE                         : DESCRIPTION
#_______________________________________________________________________________
SET                .         LQC_KAZNIPI_Petrel            : 
TLFamily_CALI      .         Caliper                       : 
TLFamily_CILD      .         Conductivity                  : 
TLFamily_COLL      .         Net Reservoir Flag            : 
TLFamily_CSAT      .         Fluid Code                    : 
TLFamily_DEPT      .         Measured Depth                : 
TLFamily_GR        .         Russian Gamma Ray             : 
TLFamily_LLS       .         Lateral Log Resistivity       : 
TLFamily_MINV      .         Micro Gradient Resistivity    : 
TLFamily_MNOR      .         Micro Resistivity             : 
TLFamily_NGLD      .         Neutron Far                   : 
TLFamily_PHIE      .         Effective Porosity            : 
TLFamily_PHIEN     .         Effective Porosity            : 
TLFamily_PHIT      .         Porosity                      : 
TLFamily_PRMB      .         Permeability                  : 
TLFamily_PRMB_DGR  .         Permeability                  : 
TLFamily_RT        .         Formation Resistivity         : 
TLFamily_SOIL_ARCHIE .         Oil Saturation                : 
TLFamily_SOIL_DW   .         Oil Saturation                : 
TLFamily_SP        .         Spontaneous Potential         : 
TLFamily_VSH_FIN   .         Shale Volume                  : 
TLFamily_VSH_GR    .         Shale Volume                  : 
TLFamily_VSH_SP    .         Shale Volume                  : 
~Curve Information
#_______________________________________________________________________________
#
#LOGNAME           .UNIT     LOG_ID                        : DESCRIPTION
#_______________________________________________________________________________
DEPT               .M                                      : Колонка глубины 
CALI               .м                                      : Каверномер 
CILD               .мСм/м                                  : Индукционный каротаж 
COLL               .unitless                               : Описание 
CSAT               .unitless                               : Описание 
GR                 .uR/h                                   : Гамма каротаж 
LLS                .Ohmm                                   : Боковой каротаж 
MINV               .Ohmm                                   : Микро-градиент зонд 
MNOR               .Ohmm                                   : Микро-потенциал зонд 
NGLD               .у.е.                                   : Показания зонда НГК-60 аппаратуры ДРСТ-3-90 
PHIE               .v/v                                    : Описание 
PHIEN              .v/v                                    :  
PHIT               .v/v                                    : Описание 
PRMB               .mD                                     :  
PRMB_DGR           .mD                                     :  
RT                 .ohmm                                   : Description 
SOIL_ARCHIE        .v/v                                    :  
SOIL_DW            .v/v                                    :  
SP                 .мВ                                     : Потенциал самополяризации 
VSH_FIN            .v/v                                    : Описание 
VSH_GR             .v/v                                    : Shale volume 
VSH_SP             .v/v                                    : Shale Volume 
~Ascii
# ...
1284.4     0.213      359.794    -9999      -9999      5.86       2.118      2.594      1.166      1.155      0.1794709  0.1794709  0.299451   5.907378   3.560573   2.118      0.3177403  0.4903378  26.534     0.3635761  0.386287   0.3408651 
1284.6     0.214      368.6141   -9999      -9999      5.934      1.922      2.539      1.259      1.172      0.1637904  0.1637904  0.2951024  3.026585   3.103847   1.922      0.2267471  0.4400699  27.884     0.3979152  0.4085591  0.3872714 
1284.8     0.214      376.387    -9999      -9999      5.729      1.942      2.702      1.182      1.189      0.1629688  0.1629688  0.2907538  2.922369   4.540078   1.942      0.2271167  0.4368423  28.859     0.3872274  0.3497948  0.42466   
1285       0.215      387.091    -9999      -9999      5.828      1.932      2.867      1.191      1.204      0.151697   0.151697   0.2869168  1.806981   3.778346   1.932      0.1753367  0.4144007  29.295     0.4097571  0.3770359  0.4424784 
1285.2     0.215      395.616    -9999      -9999      5.96       1.938      2.966      1.139      1.199      0.1439974  0.1439974  0.2881958  1.301185   2.957691   1.938      0.1383168  0.4048328  29.644     0.4369649  0.4166856  0.4572442 
1285.4     0.215      401.4419   -9999      -9999      6.056      2.019      2.837      1.188      1.176      0.1445812  0.1445812  0.2940792  1.33399    2.475186   2.019      0.1576889  0.4249492  29.66      0.4530242  0.4481165  0.457932  
1285.6     0.215      400.526    -9999      -9999      6.047      2.098      2.386      1.271      1.182      0.1405129  0.1405129  0.2925444  1.121498   2.516861   2.098      0.1519017  0.4277689  30.08      0.4607014  0.4450717  0.4763311 
1285.8     0.214      396.928    -9999      -9999      6.165      2.047      2.574      1.248      1.209      0.1233563  0.1233563  0.2856378  0.5395306  2.02204    2.047      0.03901149 0.3820682  30.531     0.4917621  0.4866873  0.4968369 
1286       0.213      400.4349   -9999      -9999      6.226      2.019      2.49       1.136      1.153      0.1345006  0.1345006  0.2999626  0.8678303  1.805693   2.019      0.1029643  0.4158876  30.45      0.5014001  0.5097039  0.4930963 
1286.2     0.213      402.123    -9999      -9999      6.169      1.942      2.21       1.186      1.177      0.1350928  0.1350928  0.2938234  0.8900288  2.00709    1.942      0.08993503 0.3977706  30.024     0.4810018  0.4881642  0.4738394 
1286.4     0.213      406.4201   -9999      -9999      6.134      1.876      2.261      1.127      1.178      0.1369152  0.1369152  0.2935676  0.9619657  2.141735   1.876      0.0857804  0.3900837  30.028     0.4747043  0.4753915  0.474017  
1286.6     0.213      411.37     -9999      -9999      6.265      1.912      2.14       1.172      1.185      0.1269048  0.1269048  0.291777   0.6276858  1.679665   1.912      0.03195561 0.3757531  30.033     0.4996129  0.5249867  0.4742391 
1286.8     0.214      409.8009   -9999      -9999      6.109      1.877      2.528      1.103      1.189      0.1358362  0.1358362  0.2907538  0.9187018  2.243403   1.877      0.07968914 0.384752   29.992     0.4694472  0.4664735  0.4724209 
1287       0.214      418.948    -9999      -9999      6.135      1.894      2.192      1.171      1.165      0.1400785  0.1400785  0.296893   1.10091    2.137764   1.894      0.1077949  0.4024561  30.042     0.4751955  0.4757519  0.474639  
1287.2     0.214      421.869    -9999      -9999      6.226      1.87       1.87       1.104      1.168      0.1336723  0.1336723  0.2961256  0.8377108  1.805693   1.87       0.06508942 0.3867656  30.047     0.4922826  0.5097039  0.4748614 
1287.4     0.214      421.822    -9999      -9999      5.817      1.87       1.934      1.129      1.157      0.1609659  0.1609659  0.2989394  2.683103   3.85624    1.87       0.2047735  0.4328252  29.761     0.4181015  0.3739071  0.4622959 
1287.6     0.214      426.119    -9999      -9999      5.996      1.853      2.087      1.126      1.138      0.1566016  0.1566016  0.3037996  2.227407   2.766615   1.853      0.1820076  0.4296066  29.798     0.4460546  0.428205   0.4639041 
1287.8     0.213      433.022    -9999      -9999      6.041      1.876      2.181      1.139      1.134      0.1526299  0.1526299  0.3048228  1.880329   2.545033   1.876      0.168328   0.4285497  30.147     0.4611907  0.4430534  0.4793281 
1288       0.213      432.291    -9999      -9999      6.229      1.868      1.987      1.133      1.122      0.1444738  0.1444738  0.3078924  1.327892   1.79567    1.868      0.1258303  0.4185806  30.152     0.495208   0.5108636  0.4795524 
1288.2     0.212      434.788    -9999      -9999      6.379      1.854      1.793      1.1        1.13       0.1336505  0.1336505  0.305846   0.8369312  1.359488   1.854      0.06117836 0.3962991  29.966     0.5218045  0.5723379  0.4712712 
1288.4     0.213      437.224    -9999      -9999      6.322      1.868      1.743      1.088      1.132      0.1406542  0.1406542  0.3053344  1.128275   1.51112    1.868      0.1051909  0.4095403  29.472     0.4990309  0.5481512  0.4499107 
1288.6     0.213      436.308    -9999      -9999      6.337      1.869      1.707      1.081      1.133      0.1411187  0.1411187  0.3050786  1.15085    1.46965    1.869      0.1079807  0.4101393  29.218     0.4968481  0.5544152  0.4392811 
1288.8     0.215      435.397    -9999      -9999      6.405      1.893      1.868      1.145      1.154      0.130884   0.130884   0.2997068  0.7437835  1.295472   1.893      0.05321268 0.3901644  29.222     0.5115843  0.583722   0.4394467 
1289       0.215      435.345    -9999      -9999      6.224      1.879      2.041      1.183      1.176      0.1314445  0.1314445  0.2940792  0.7617782  1.812404   1.879      0.05343841 0.3816577  30.089     0.4928325  0.5089323  0.4767328 
1289.2     0.215      434.4289   -9999      -9999      6.025      1.865      1.963      1.074      1.175      0.1489447  0.1489447  0.294335   1.606848   2.621705   1.865      0.1480867  0.4088932  29.318     0.4405768  0.4377159  0.4434377 
1289.4     0.216      435.251    -9999      -9999      6.048      1.835      1.885      1.133      1.153      0.152144   0.152144   0.2999626  1.841768   2.512196   1.835      0.1573225  0.4157903  29.485     0.447935   0.4454089  0.4504611 
1289.6     0.215      435.203    -9999      -9999      6.155      1.855      2.014      1.21       1.135      0.149933   0.149933   0.304567   1.67603    2.059901   1.855      0.1508403  0.4210203  29.572     0.4685878  0.4830146  0.454161  
1289.8     0.215      434.287    -9999      -9999      6.539      1.857      1.933      1.165      1.104      0.1252429  0.1252429  0.3124968  0.5847361  1.010341   1.857      0.007273133 0.390195   30.356     0.5674362  0.6460851  0.4887872 
1290       0.215      431.634    -9999      -9999      6.64       1.881      2.015      1.139      1.104      0.1140207  0.1140207  0.3124968  0.3623251  0.8377122  1.881      0          0.3729335  30.715     0.6014427  0.6974563  0.505429  
1290.2     0.215      432.1969   -9999      -9999      6.38       1.872      2.264      1.075      1.126      0.1219886  0.1219886  0.3068692  0.5089586  1.356969   1.872      0          0.3796362  31.582     0.5602443  0.5727715  0.547717  
1290.4     0.216      430.6711   -9999      -9999      6.377      1.891      2.249      1.126      1.116      0.1210716  0.1210716  0.3094272  0.4894378  1.364543   1.891      0          0.3842756  32.017     0.5707746  0.5714713  0.5700778 
1290.6     0.214      428.886    -9999      -9999      6.431      1.853      2.14       1.114      1.098      0.1209507  0.1209507  0.3140316  0.4869217  1.234469   1.853      0          0.3835547  32.108     0.5850935  0.5953326  0.5748544 
1290.8     0.215      427.101    -9999      -9999      6.525      1.854      2.189      1.139      1.101      0.112899   0.112899   0.3132642  0.3453993  1.036925   1.854      0          0.3671224  32.112     0.6071673  0.6392695  0.575065  
1291       0.215      420.656    -9999      -9999      6.562      1.902      2.244      1.158      1.119      0.1067389  0.1067389  0.3086598  0.2655955  0.9681389  1.902      0          0.3563984  31.945     0.6118817  0.6574402  0.5663231 
