~Version
 VERS              .         2.0                           : CWLS LOG ASCII STANDARD - VERSION 2.0
 WRAP              .         NO                            : ONE LINE PER DEPTH STEP
 DLM               .         SPACE                         : DELIMITING CHARACTER(SPACE TAB OR COMMA)
~Well Information
#_______________________________________________________________________________
#
#PARAMETER_NAME    .UNIT     VALUE                         : DESCRIPTION
#_______________________________________________________________________________
STRT               .M        880                           : First reference value
STOP               .M        1396                          : Last reference value
STEP               .M        0.2                           : Step increment
NULL               .         -9999                         : Missing value
COMP               .                                       : Company
WELL               .         4021                          : Well name
FLD                .         УЗЕНЬ                         : Field
LOC                .                                       : Location
CNTY               .                                       : County
STAT               .                                       : State
CTRY               .         Казахстан                     : Country
SRVC               .                                       : Service Company
DATE               .         23.03.2009                    : Date
UWI                .                                       : Unique Well ID
Block              .         3а                            : 
Cartographic_reference_system .         GCS_WGS_1984                  : ESRI,PE_10_3_1- <?xml version="1.0" encoding="utf-16"?><ILateBoundCoordinateReferenceSystem name="GCS_WGS_1984"><AuthorityCode>EPSG,4326</AuthorityCode></ILateBoundCoordinateReferenceSystem>
Category           .         Нефтяная                      : 
Condition          .         В простое                     : 
Date               .         06.05.1990                    : 
EREF               .m        235.7                         : 100.8
Gorizont           .         18                            : 14
HZCS               .GCS_WGS_1984 WGS_1984_EASE-Grid_2.0_Global : ESRI,PE_10_3_1- <?xml version="1.0" encoding="utf-16"?><ILateBoundCoordinateReferenceSystem name="WGS_1984_EASE-Grid_2.0_Global"><AuthorityCode>EPSG,6933</AuthorityCode></ILateBoundCoordinateReferenceSystem>
Interpretator      .         Чиндаулова Г.К.               : 
Kupol              .         основной                      : osnovnoi
LATI               .dega     0.6315670686                  : GCS_WGS_1984
LONG               .dega     0.5736255958                  : GCS_WGS_1984
METD               .         OGZ3, GZ3, SP                 : Method
Mud                .         0                             : 
Mud_density        .         0                             : 
Mud_resistivity    .         0                             : 
NGDU               .         НГДУ-1                        : 
ORIGINALWELLNAME   .         4021                          : 
SCAL               .         500                           : Scale
Spud_date          .         1990                          : 1961
Viscosity          .         0                             : 
X                  .m        55347                         : 46154
Y                  .m        80569.5                       : 85761.93
YEAR               .         2018                          : 
Исправлено         .         18                            : 
~Parameter Information Block
#_______________________________________________________________________________
#
#PARAMETER_NAME    .UNIT     VALUE                         : DESCRIPTION
#_______________________________________________________________________________
SET                .         LQC_KAZNIPI_Petrel            : 
TLFamily_CALI      .         Caliper                       : 
TLFamily_CILD      .         Conductivity                  : 
TLFamily_COLL      .         Net Reservoir Flag            : 
TLFamily_CSAT      .         Fluid Code                    : 
TLFamily_DEPT      .         Measured Depth                : 
TLFamily_GR        .         Russian Gamma Ray             : 
TLFamily_LLS       .         Lateral Log Resistivity       : 
TLFamily_MINV      .         Micro Gradient Resistivity    : 
TLFamily_MNOR      .         Micro Resistivity             : 
TLFamily_NGLD      .         Neutron Far                   : 
TLFamily_PHIE      .         Effective Porosity            : 
TLFamily_PHIEN     .         Effective Porosity            : 
TLFamily_PHIT      .         Porosity                      : 
TLFamily_PRMB      .         Permeability                  : 
TLFamily_PRMB_DGR  .         Permeability                  : 
TLFamily_RT        .         Formation Resistivity         : 
TLFamily_SOIL_ARCHIE .         Oil Saturation                : 
TLFamily_SOIL_DW   .         Oil Saturation                : 
TLFamily_SP        .         Spontaneous Potential         : 
TLFamily_VSH_FIN   .         Shale Volume                  : 
TLFamily_VSH_GR    .         Shale Volume                  : 
TLFamily_VSH_SP    .         Shale Volume                  : 
~Curve Information
#_______________________________________________________________________________
#
#LOGNAME           .UNIT     LOG_ID                        : DESCRIPTION
#_______________________________________________________________________________
DEPT               .M                                      : Колонка глубины 
CALI               .м                                      : Каверномер 
CILD               .мСм/м                                  : Индукционный каротаж 
COLL               .unitless                               : Описание 
CSAT               .unitless                               : Описание 
GR                 .uR/h                                   : Гамма каротаж 
LLS                .Ohmm                                   : Боковой каротаж 
MINV               .Ohmm                                   : Микро-градиент зонд 
MNOR               .Ohmm                                   : Микро-потенциал зонд 
NGLD               .у.е.                                   : Показания зонда НГК-60 аппаратуры ДРСТ-3-90 
PHIE               .v/v                                    : Описание 
PHIEN              .v/v                                    :  
PHIT               .v/v                                    : Описание 
PRMB               .mD                                     :  
PRMB_DGR           .mD                                     :  
RT                 .ohmm                                   : Description 
SOIL_ARCHIE        .v/v                                    :  
SOIL_DW            .v/v                                    :  
SP                 .мВ                                     : Потенциал самополяризации 
VSH_FIN            .v/v                                    : Описание 
VSH_GR             .v/v                                    : Shale volume 
VSH_SP             .v/v                                    : Shale Volume 
~Ascii
# ...
932.8      0.217      207.038    -9999      -9999      4.925      6.374      3.041      2.576      1.277      0.1776158  0.1776158  0.2682434  5.458006   3.572111   6.374      0.3658     0.8389536  28.634     0.2746291  0.3857771  0.163481  
933        0.217      232.241    -9999      -9999      4.864      8.593      2.187      2.284      1.275      0.1826201  0.1826201  0.268755   6.756545   4.04904    8.593      0.398268   0.8632613  27.825     0.261015   0.3665321  0.1554978 
933.2000000000001 0.217      259.4      -9999      -9999      4.899      2.689      1.492      1.521      1.29       0.1768617  0.1768617  0.264918   5.285258   3.768107   2.689      0.257657   0.7499219  27.903     0.2668372  0.3774538  0.1562207 
933.4      0.218      267.294    -9999      -9999      4.934      2.364      1.328      1.156      1.251      0.1858467  0.1858467  0.2748942  7.753344   3.50667    2.364      0.252036   0.7445046  27.312     0.269841   0.3887008  0.1509813 
933.6      0.219      245.016    -9999      -9999      5.108      2.725      1.616      1.344      1.181      0.1933703  0.1933703  0.2928002  10.68675   2.452701   2.725      0.283617   0.7740707  27.526     0.3013026  0.4497894  0.1528159 
933.8      0.219      213.993    -9999      -9999      4.996      5.355      1.88       1.678      1.126      0.2133637  0.2133637  0.3068692  25.07096   3.087279   5.355      0.381866   0.8499556  28.012     0.2833501  0.4094529  0.1572472 
934        0.22       241.033    -9999      -9999      4.808      5.501      3.207      1.4        1.142      0.2194321  0.2194321  0.3027764  32.4768    4.542737   5.501      0.389072   0.8529077  27.815     0.2525585  0.3497111  0.1554058 
934.2000000000001 0.226      278.244    -9999      -9999      4.69       2.458      3.039      0.412      1.11       0.2338263  0.2338263  0.310962   60.00512   5.788984   2.458      0.316359   0.7894958  27.283     0.2337446  0.3167511  0.150738  
934.4      0.24       253.599    -9999      -9999      4.746      2.319      1.063      0.684      1.039      0.2497027  0.2497027  0.3291238  118.1021   5.159847   2.319      0.324125   0.7961134  27.115     0.2406701  0.3319867  0.1493534 
934.6      0.266      206.186    -9999      -9999      4.696      2.794      1.289      0.932      0.973      0.2697046  0.2697046  0.3460066  277.1672   5.718062   2.794      0.360767   0.8255932  26.424     0.2312181  0.3183495  0.1440867 
934.8      0.279      224.681    -9999      -9999      4.874      2.639      0.948      0.863      0.935      0.2717152  0.2717152  0.355727   301.9836   3.9667     2.639      0.356268   0.8237399  25.745     0.2545812  0.36962    0.1395424 
935        0.283      251.335    -9999      -9999      4.813      2.208      0.56       0.552      0.951      0.2703872  0.2703872  0.3516342  285.3543   4.49631    2.208      0.335701   0.8056841  26.007     0.2462032  0.3511811  0.1412252 
935.2000000000001 0.305      238.272    -9999      -9999      4.823      2.301      0.849      0.588      0.974      0.263728   0.263728   0.3457508  214.803    4.40488    2.301      0.335124   0.8056615  26.265     0.248554   0.3541395  0.1429685 
935.4      0.294      173.92     -9999      -9999      4.896      3.725      0.902      0.834      1.022      0.2472485  0.2472485  0.3334724  106.3652   3.791405   3.725      0.373377   0.8394659  26.694     0.2612847  0.376505   0.1460645 
935.6      0.235      163.542    -9999      -9999      4.66       4.829      2.105      1.74       1.056      0.2496021  0.2496021  0.3247752  117.5966   6.15701    4.829      0.398577   0.8577023  26.78      0.2277973  0.3088788  0.1467157 
935.8      0.222      174.619    -9999      -9999      4.496      4.4        4.954      2.137      1.104      0.243982   0.243982   0.3124968  92.53306   8.623789   4.4        0.386684   0.8462381  26.694     0.2076206  0.2691767  0.1460645 
936        0.23       179.287    -9999      -9999      4.609      5.947      2.826      1.407      1.153      0.2272425  0.2272425  0.2999626  45.31475   6.837134   5.947      0.401453   0.8602055  26.521     0.2203641  0.2959424  0.1447857 
936.2000000000001 0.237      201.816    -9999      -9999      4.635      8.074      2.617      2.594      1.219      0.2095621  0.2095621  0.2830798  21.31852   6.481504   8.074      0.414013   0.8714541  26.283     0.2227809  0.3024683  0.1430934 
936.4      0.216      260.224    -9999      -9999      4.415      5.297      2.719      2.656      1.259      0.2074112  0.2074112  0.2728478  19.44984   10.1852    5.297      0.375882   0.8374242  26.563     0.1982929  0.2514934  0.1450924 
936.6      0.213      293.495    -9999      -9999      4.197      2.429      2.258      1.958      1.284      0.2077239  0.2077239  0.2664528  19.711     15.93965   2.429      0.286097   0.757117   26.748     0.1779663  0.2094604  0.1464722 
936.8      0.213      316.305    -9999      -9999      4.042      2.039      1.941      1.167      1.326      0.2003273  0.2003273  0.2557092  14.37825   21.91678   2.039      0.250703   0.7244161  27.4       0.1678239  0.1839206  0.1517272 
937        0.213      333.619    -9999      -9999      3.996      1.951      1.739      1.171      1.302      0.2066115  0.2066115  0.2618484  18.79766   24.08905   1.951      0.252738   0.7258204  28.071     0.1673846  0.1769584  0.1578109 
937.2000000000001 0.213      339.907    -9999      -9999      4.093      1.88       1.749      1.145      1.261      0.2146303  0.2146303  0.2723362  26.46255   19.73659   1.88       0.257858   0.7312931  28.067     0.1748664  0.1919603  0.1577725 
937.4      0.214      343.094    -9999      -9999      4.165      1.892      1.957      1.119      1.252      0.2162823  0.2162823  0.2746384  28.3943    17.02278   1.892      0.260956   0.7342961  27.165     0.1768367  0.2039122  0.1497611 
937.6      0.214      356.947    -9999      -9999      4.265      2.682      1.925      1.257      1.243      0.2156429  0.2156429  0.2769406  27.6304    13.86138   2.682      0.308444   0.7774827  27.163     0.1857507  0.2217566  0.1497447 
937.8      0.216      377.241    -9999      -9999      4.263      2.567      1.753      1.422      1.265      0.2100888  0.2100888  0.271313   21.80278   13.91844   2.567      0.29643    0.767214   27.154     0.185528   0.2213849  0.1496711 
938        0.216      378.109    -9999      -9999      4.07       1.961      1.58       1.241      1.304      0.2056186  0.2056186  0.2613368  18.01829   20.69157   1.961      0.25215    0.7256079  27.12      0.168843   0.188292   0.149394  
938.2000000000001 0.215      350.767    -9999      -9999      4.037      1.867      1.543      1.109      1.335      0.1973054  0.1973054  0.253407   12.63958   22.14306   1.867      0.232226   0.7085242  27.971     0.1700048  0.1831508  0.1568588 
938.4      0.215      288.692    -9999      -9999      4.062      1.951      1.791      1.179      1.373      0.186164   0.186164   0.2436866  7.858982   21.03448   1.951      0.221645   0.7007749  28.452     0.174311   0.1870324  0.1615895 
938.6      0.216      254.98     -9999      -9999      3.954      3.084      1.659      1.149      1.419      0.1777048  0.1777048  0.2319198  5.47876    26.25996   3.084      0.278985   0.7502874  28.064     0.1642878  0.1708319  0.1577437 
938.8      0.216      218.933    -9999      -9999      3.962      7.936      1.885      1.541      1.487      0.1595332  0.1595332  0.2145254  2.524065   25.83189   7.936      0.367791   0.8292785  28.424     0.1666429  0.1719823  0.1613036 
939        0.214      189.734    -9999      -9999      4.063      19.421     2.579      2.363      1.575      0.1353215  0.1353215  0.192015   0.8987522  20.99129   19.421     0.419071   0.8748943  27.923     0.1717985  0.1871895  0.1564076 
939.2000000000001 0.216      180.187    -9999      -9999      4.089      16.902     2.548      2.441      1.666      0.1118741  0.1118741  0.1687372  0.3306268  19.89944   16.902     0.377269   0.8428784  27.582     0.1723124  0.1913172  0.1533076 
