~Version
 VERS              .         2.0                           : CWLS LOG ASCII STANDARD - VERSION 2.0
 WRAP              .         NO                            : ONE LINE PER DEPTH STEP
 DLM               .         SPACE                         : DELIMITING CHARACTER(SPACE TAB OR COMMA)
~Well Information
#_______________________________________________________________________________
#
#PARAMETER_NAME    .UNIT     VALUE                         : DESCRIPTION
#_______________________________________________________________________________
STRT               .M        880                           : First reference value
STOP               .M        1396                          : Last reference value
STEP               .M        0.2                           : Step increment
NULL               .         -9999                         : Missing value
COMP               .                                       : Company
WELL               .         4021                          : Well name
FLD                .         УЗЕНЬ                         : Field
LOC                .                                       : Location
CNTY               .                                       : County
STAT               .                                       : State
CTRY               .         Казахстан                     : Country
SRVC               .                                       : Service Company
DATE               .         23.03.2009                    : Date
UWI                .                                       : Unique Well ID
Block              .         3а                            : 
Cartographic_reference_system .         GCS_WGS_1984                  : ESRI,PE_10_3_1- <?xml version="1.0" encoding="utf-16"?><ILateBoundCoordinateReferenceSystem name="GCS_WGS_1984"><AuthorityCode>EPSG,4326</AuthorityCode></ILateBoundCoordinateReferenceSystem>
Category           .         Нефтяная                      : 
Condition          .         В простое                     : 
Date               .         06.05.1990                    : 
EREF               .m        235.7                         : 100.8
Gorizont           .         18                            : 14
HZCS               .GCS_WGS_1984 WGS_1984_EASE-Grid_2.0_Global : ESRI,PE_10_3_1- <?xml version="1.0" encoding="utf-16"?><ILateBoundCoordinateReferenceSystem name="WGS_1984_EASE-Grid_2.0_Global"><AuthorityCode>EPSG,6933</AuthorityCode></ILateBoundCoordinateReferenceSystem>
Interpretator      .         Чиндаулова Г.К.               : 
Kupol              .         основной                      : osnovnoi
LATI               .dega     0.6315670686                  : GCS_WGS_1984
LONG               .dega     0.5736255958                  : GCS_WGS_1984
METD               .         OGZ3, GZ3, SP                 : Method
Mud                .         0                             : 
Mud_density        .         0                             : 
Mud_resistivity    .         0                             : 
NGDU               .         НГДУ-1                        : 
ORIGINALWELLNAME   .         4021                          : 
SCAL               .         500                           : Scale
Spud_date          .         1990                          : 1961
Viscosity          .         0                             : 
X                  .m        55347                         : 46154
Y                  .m        80569.5                       : 85761.93
YEAR               .         2018                          : 
Исправлено         .         18                            : 
~Parameter Information Block
#_______________________________________________________________________________
#
#PARAMETER_NAME    .UNIT     VALUE                         : DESCRIPTION
#_______________________________________________________________________________
SET                .         LQC_KAZNIPI_Petrel            : 
TLFamily_CALI      .         Caliper                       : 
TLFamily_CILD      .         Conductivity                  : 
TLFamily_COLL      .         Net Reservoir Flag            : 
TLFamily_CSAT      .         Fluid Code                    : 
TLFamily_DEPT      .         Measured Depth                : 
TLFamily_GR        .         Russian Gamma Ray             : 
TLFamily_LLS       .         Lateral Log Resistivity       : 
TLFamily_MINV      .         Micro Gradient Resistivity    : 
TLFamily_MNOR      .         Micro Resistivity             : 
TLFamily_NGLD      .         Neutron Far                   : 
TLFamily_PHIE      .         Effective Porosity            : 
TLFamily_PHIEN     .         Effective Porosity            : 
TLFamily_PHIT      .         Porosity                      : 
TLFamily_PRMB      .         Permeability                  : 
TLFamily_PRMB_DGR  .         Permeability                  : 
TLFamily_RT        .         Formation Resistivity         : 
TLFamily_SOIL_ARCHIE .         Oil Saturation                : 
TLFamily_SOIL_DW   .         Oil Saturation                : 
TLFamily_SP        .         Spontaneous Potential         : 
TLFamily_VSH_FIN   .         Shale Volume                  : 
TLFamily_VSH_GR    .         Shale Volume                  : 
TLFamily_VSH_SP    .         Shale Volume                  : 
~Curve Information
#_______________________________________________________________________________
#
#LOGNAME           .UNIT     LOG_ID                        : DESCRIPTION
#_______________________________________________________________________________
DEPT               .M                                      : Колонка глубины 
CALI               .м                                      : Каверномер 
CILD               .мСм/м                                  : Индукционный каротаж 
COLL               .unitless                               : Описание 
CSAT               .unitless                               : Описание 
GR                 .uR/h                                   : Гамма каротаж 
LLS                .Ohmm                                   : Боковой каротаж 
MINV               .Ohmm                                   : Микро-градиент зонд 
MNOR               .Ohmm                                   : Микро-потенциал зонд 
NGLD               .у.е.                                   : Показания зонда НГК-60 аппаратуры ДРСТ-3-90 
PHIE               .v/v                                    : Описание 
PHIEN              .v/v                                    :  
PHIT               .v/v                                    : Описание 
PRMB               .mD                                     :  
PRMB_DGR           .mD                                     :  
RT                 .ohmm                                   : Description 
SOIL_ARCHIE        .v/v                                    :  
SOIL_DW            .v/v                                    :  
SP                 .мВ                                     : Потенциал самополяризации 
VSH_FIN            .v/v                                    : Описание 
VSH_GR             .v/v                                    : Shale volume 
VSH_SP             .v/v                                    : Shale Volume 
~Ascii
# ...
899.8      0.402      -9999      -9999      -9999      4.439      -9999      1.155      0.847      0.896      0.2971433  0.2971433  0.3657032  893.249    9.695172   -9999      -9999      -9999      28.184     0.2077573  0.2566082  0.1589064 
900        0.396      -9999      -9999      -9999      4.47       -9999      0.832      0.675      0.916      0.2919856  0.2919856  0.3605872  716.868    9.096962   -9999      -9999      -9999      27.478     0.2078837  0.2633691  0.1523983 
900.2000000000001 0.398      -9999      -9999      -9999      4.541      -9999      2.376      0.927      0.95       0.2811944  0.2811944  0.35189    452.4405   7.86225    -9999      -9999      -9999      27.062     0.2142289  0.2795326  0.1489253 
900.4      0.403      -9999      -9999      -9999      4.466      -9999      1.59       0.908      0.937      0.2872832  0.2872832  0.3552154  586.596    9.172022   -9999      -9999      -9999      27.099     0.2058553  0.2624869  0.1492237 
900.6      0.408      -9999      -9999      -9999      4.363      -9999      0.776      0.64       0.927      0.2932425  0.2932425  0.3577734  756.3465   11.33356   -9999      -9999      -9999      27.235     0.1955482  0.2407583  0.1503381 
900.8      0.407      -9999      -9999      -9999      4.485      -9999      0.524      0.471      0.905      0.2940435  0.2940435  0.363401   782.6324   8.82089    -9999      -9999      -9999      27.62      0.2101741  0.2667042  0.153644  
901        0.402      -9999      -9999      -9999      4.581      -9999      0.56       0.552      0.894      0.2925139  0.2925139  0.3662148  733.2057   7.241979   -9999      -9999      -9999      28.049     0.223336   0.2890718  0.1576001 
901.2000000000001 0.388      -9999      -9999      -9999      4.633      -9999      0.51       0.385      0.886      0.2924225  0.2924225  0.3682612  730.353    6.508192   -9999      -9999      -9999      28.056     0.2298141  0.3019612  0.1576671 
901.4      0.387      -9999      -9999      -9999      4.542      -9999      0.473      0.391      0.889      0.2955804  0.2955804  0.3674938  835.6492   7.846116   -9999      -9999      -9999      27.887     0.2179194  0.2797672  0.1560716 
901.6      0.383      -9999      -9999      -9999      4.621      -9999      0.492      0.409      0.895      0.2917295  0.2917295  0.365959   709.081    6.670638   -9999      -9999      -9999      27.307     0.2249379  0.2989366  0.1509392 
901.8      0.374      -9999      -9999      -9999      4.764      -9999      0.479      0.433      0.931      0.2769321  0.2769321  0.3567502  377.2357   4.972518   -9999      -9999      -9999      26.779     0.241873   0.3370379  0.1467081 
902        0.359      -9999      -9999      -9999      4.765      -9999      0.515      0.481      0.954      0.2710284  0.2710284  0.3508668  293.2662   4.962314   -9999      -9999      -9999      26.758     0.2419344  0.3373207  0.1465481 
902.2000000000001 0.356      -9999      -9999      -9999      4.83       -9999      0.477      0.426      0.96       0.2658524  0.2658524  0.349332   235.1737   4.341986   -9999      -9999      -9999      27.159     0.2529686  0.3562253  0.149712  
902.4      0.369      -9999      -9999      -9999      4.927      -9999      0.496      0.421      0.941      0.2654715  0.2654715  0.3541922  231.3841   3.557465   -9999      -9999      -9999      27.347     0.2688507  0.3864249  0.1512766 
902.6      0.371      -9999      -9999      -9999      4.915      -9999      0.536      0.493      0.924      0.2701989  0.2701989  0.3585408  283.0727   3.64626    -9999      -9999      -9999      27.53      0.2677025  0.3825543  0.1528508 
902.8      0.356      -9999      -9999      -9999      4.696      -9999      0.507      0.506      0.902      0.285835   0.285835   0.3641684  551.4629   5.718062   -9999      -9999      -9999      27.922     0.2373739  0.3183495  0.1563983 
903        0.347      -9999      -9999      -9999      4.813      -9999      0.483      0.435      0.883      0.2854205  0.2854205  0.3690286  541.7991   4.49631    -9999      -9999      -9999      27.829     0.2533579  0.3511811  0.1555346 
903.2000000000001 0.346      -9999      -9999      -9999      4.84       -9999      0.5        0.423      0.891      0.2823659  0.2823659  0.3669822  475.6204   4.253689   -9999      -9999      -9999      27.615     0.2564129  0.3592263  0.1535996 
903.4      0.34       -9999      -9999      -9999      4.983      -9999      0.515      0.431      0.9        0.2729785  0.2729785  0.36468    318.7007   3.170845   -9999      -9999      -9999      27.285     0.2778832  0.4050117  0.1507547 
903.6      0.332      -9999      -9999      -9999      4.923      -9999      0.513      0.431      0.905      0.2758596  0.2758596  0.363401   360.3692   3.586821   -9999      -9999      -9999      26.608     0.2652769  0.3851303  0.1454236 
903.8      0.299      -9999      -9999      -9999      5.113      -9999      0.511      0.412      0.907      0.2637815  0.2637815  0.3628894  215.2942   2.427634   -9999      -9999      -9999      27.068     0.3003268  0.4516801  0.1489735 
904        0.296      -9999      -9999      -9999      5.189      -9999      0.509      0.418      0.895      0.2615522  0.2615522  0.365959   195.7668   2.076694   -9999      -9999      -9999      27.356     0.3163843  0.4814158  0.1513528 
904.2000000000001 0.327      -9999      -9999      -9999      5.263      -9999      0.53       0.431      0.911      0.2515178  0.2515178  0.3618662  127.6079   1.783802   -9999      -9999      -9999      27.936     0.3343891  0.5122488  0.1565295 
904.4      0.339      -9999      -9999      -9999      5.268      -9999      0.484      0.419      0.936      0.2446003  0.2446003  0.3554712  95.00566   1.765571   -9999      -9999      -9999      28.043     0.3359723  0.514402   0.1575427 
904.6      0.337      -0.031     -9999      -9999      5.341      -9999      0.525      0.443      0.955      0.2342895  0.2342895  0.350611   61.20237   1.519678   -9999      -9999      -9999      28.1       0.3524894  0.5468886  0.1580901 
904.8      0.321      25.76      -9999      -9999      5.141      -9999      0.485      0.44       0.957      0.2480919  0.2480919  0.3500994  110.2612   2.291926   -9999      -9999      -9999      27.859     0.3091135  0.4624153  0.1558117 
905        0.315      205.261    -9999      -9999      5.303      -9999      0.53       0.469      0.952      0.2388814  0.2388814  0.3513784  74.44266   1.643073   -9999      -9999      -9999      27.44      0.3408999  0.5297296  0.1520702 
905.2000000000001 0.297      253.888    -9999      -9999      5.542      -9999      0.515      0.445      0.956      0.2186951  0.2186951  0.3503552  31.47177   1.005567   -9999      -9999      -9999      27.267     0.3989702  0.647336   0.1506043 
905.4      0.279      247.745    -9999      -9999      5.346      -9999      0.471      0.45       0.961      0.2337888  0.2337888  0.3490762  59.90914   1.504147   -9999      -9999      -9999      27.136     0.3493558  0.5491875  0.1495242 
905.6      0.274      240.67     -9999      -9999      5.429      -9999      0.482      0.45       0.941      0.232699   0.232699   0.3541922  57.1884    1.268336   -9999      -9999      -9999      26.886     0.3681613  0.5887896  0.1475329 
905.8      0.268      243.279    -9999      -9999      5.413      -9999      0.98       0.561      0.91       0.2417787  0.2417787  0.362122   84.23376   1.31072    -9999      -9999      -9999      26.998     0.3646766  0.5809395  0.1484137 
906        0.262      241.542    -9999      -9999      5.334      -9999      0.755      0.664      0.912      0.2464565  0.2464565  0.3616104  102.8326   1.541691   -9999      -9999      -9999      27.684     0.3489511  0.5436866  0.1542156 
906.2000000000001 0.268      240.675    -9999      -9999      5.421      -9999      0.53       0.432      0.915      0.2384452  0.2384452  0.360843   73.0705    1.289354   -9999      -9999      -9999      27.981     0.3709024  0.5848514  0.1569533 
