~Version
 VERS              .         2.0                           : CWLS LOG ASCII STANDARD - VERSION 2.0
 WRAP              .         NO                            : ONE LINE PER DEPTH STEP
 DLM               .         SPACE                         : DELIMITING CHARACTER(SPACE TAB OR COMMA)
~Well Information
#_______________________________________________________________________________
#
#PARAMETER_NAME    .UNIT     VALUE                         : DESCRIPTION
#_______________________________________________________________________________
STRT               .M        880                           : First reference value
STOP               .M        1396                          : Last reference value
STEP               .M        0.2                           : Step increment
NULL               .         -9999                         : Missing value
COMP               .                                       : Company
WELL               .         4021                          : Well name
FLD                .         УЗЕНЬ                         : Field
LOC                .                                       : Location
CNTY               .                                       : County
STAT               .                                       : State
CTRY               .         Казахстан                     : Country
SRVC               .                                       : Service Company
DATE               .         23.03.2009                    : Date
UWI                .                                       : Unique Well ID
Block              .         3а                            : 
Cartographic_reference_system .         GCS_WGS_1984                  : ESRI,PE_10_3_1- <?xml version="1.0" encoding="utf-16"?><ILateBoundCoordinateReferenceSystem name="GCS_WGS_1984"><AuthorityCode>EPSG,4326</AuthorityCode></ILateBoundCoordinateReferenceSystem>
Category           .         Нефтяная                      : 
Condition          .         В простое                     : 
Date               .         06.05.1990                    : 
EREF               .m        235.7                         : 100.8
Gorizont           .         18                            : 14
HZCS               .GCS_WGS_1984 WGS_1984_EASE-Grid_2.0_Global : ESRI,PE_10_3_1- <?xml version="1.0" encoding="utf-16"?><ILateBoundCoordinateReferenceSystem name="WGS_1984_EASE-Grid_2.0_Global"><AuthorityCode>EPSG,6933</AuthorityCode></ILateBoundCoordinateReferenceSystem>
Interpretator      .         Чиндаулова Г.К.               : 
Kupol              .         основной                      : osnovnoi
LATI               .dega     0.6315670686                  : GCS_WGS_1984
LONG               .dega     0.5736255958                  : GCS_WGS_1984
METD               .         OGZ3, GZ3, SP                 : Method
Mud                .         0                             : 
Mud_density        .         0                             : 
Mud_resistivity    .         0                             : 
NGDU               .         НГДУ-1                        : 
ORIGINALWELLNAME   .         4021                          : 
SCAL               .         500                           : Scale
Spud_date          .         1990                          : 1961
Viscosity          .         0                             : 
X                  .m        55347                         : 46154
Y                  .m        80569.5                       : 85761.93
YEAR               .         2018                          : 
Исправлено         .         18                            : 
~Parameter Information Block
#_______________________________________________________________________________
#
#PARAMETER_NAME    .UNIT     VALUE                         : DESCRIPTION
#_______________________________________________________________________________
SET                .         LQC_KAZNIPI_Petrel            : 
TLFamily_CALI      .         Caliper                       : 
TLFamily_CILD      .         Conductivity                  : 
TLFamily_COLL      .         Net Reservoir Flag            : 
TLFamily_CSAT      .         Fluid Code                    : 
TLFamily_DEPT      .         Measured Depth                : 
TLFamily_GR        .         Russian Gamma Ray             : 
TLFamily_LLS       .         Lateral Log Resistivity       : 
TLFamily_MINV      .         Micro Gradient Resistivity    : 
TLFamily_MNOR      .         Micro Resistivity             : 
TLFamily_NGLD      .         Neutron Far                   : 
TLFamily_PHIE      .         Effective Porosity            : 
TLFamily_PHIEN     .         Effective Porosity            : 
TLFamily_PHIT      .         Porosity                      : 
TLFamily_PRMB      .         Permeability                  : 
TLFamily_PRMB_DGR  .         Permeability                  : 
TLFamily_RT        .         Formation Resistivity         : 
TLFamily_SOIL_ARCHIE .         Oil Saturation                : 
TLFamily_SOIL_DW   .         Oil Saturation                : 
TLFamily_SP        .         Spontaneous Potential         : 
TLFamily_VSH_FIN   .         Shale Volume                  : 
TLFamily_VSH_GR    .         Shale Volume                  : 
TLFamily_VSH_SP    .         Shale Volume                  : 
~Curve Information
#_______________________________________________________________________________
#
#LOGNAME           .UNIT     LOG_ID                        : DESCRIPTION
#_______________________________________________________________________________
DEPT               .M                                      : Колонка глубины 
CALI               .м                                      : Каверномер 
CILD               .мСм/м                                  : Индукционный каротаж 
COLL               .unitless                               : Описание 
CSAT               .unitless                               : Описание 
GR                 .uR/h                                   : Гамма каротаж 
LLS                .Ohmm                                   : Боковой каротаж 
MINV               .Ohmm                                   : Микро-градиент зонд 
MNOR               .Ohmm                                   : Микро-потенциал зонд 
NGLD               .у.е.                                   : Показания зонда НГК-60 аппаратуры ДРСТ-3-90 
PHIE               .v/v                                    : Описание 
PHIEN              .v/v                                    :  
PHIT               .v/v                                    : Описание 
PRMB               .mD                                     :  
PRMB_DGR           .mD                                     :  
RT                 .ohmm                                   : Description 
SOIL_ARCHIE        .v/v                                    :  
SOIL_DW            .v/v                                    :  
SP                 .мВ                                     : Потенциал самополяризации 
VSH_FIN            .v/v                                    : Описание 
VSH_GR             .v/v                                    : Shale volume 
VSH_SP             .v/v                                    : Shale Volume 
~Ascii
# ...
1379.6     0.201      461.9289   8          2          6.189      2.076      1.067      1.171      1.319      0.1802344  0.1802344  0.2574998  6.102891   6.256852   2.076      0.3448148  0.464036   7.792      0.2341377  0.3068566  0.1614188 
1379.8     0.201      473.884    8          2          6.307      2.02       1.198      1.193      1.338      0.1727987  0.1727987  0.2526396  4.444361   5.054484   2.02       0.3115491  0.4407702  6.439      0.241942   0.3347953  0.1490888 
1380       0.201      476.4349   8          2          6.221      1.971      1.121      1.135      1.345      0.1743162  0.1743162  0.250849   4.741513   5.905035   1.971      0.3088532  0.4336316  6.507      0.2319176  0.3141943  0.1496409 
1380.2     0.202      480.7239   8          2          6.078      1.945      1.219      1.156      1.348      0.1783826  0.1783826  0.2500816  5.639446   7.64781    1.945      0.3183614  0.4344136  6.769      0.2172697  0.282707   0.1518324 
1380.4     0.204      480.502    8          2          6.024      1.949      1.206      1.14       1.329      0.1823872  0.1823872  0.2549418  6.689771   8.432365   1.949      0.3320593  0.4464612  8.411      0.2198625  0.2716553  0.1680697 
1380.6     0.204      483.219    8          2          6.229      1.911      1.243      1.144      1.304      0.1820707  0.1820707  0.2613368  6.600092   5.820218   1.911      0.3248388  0.448492   8.072      0.2402001  0.3160559  0.1643444 
1380.8     0.205      485.494    8          2          6.378      1.879      0.993      1.021      1.287      0.2202681  0.2202681  0.2656854  33.65567   3.180058   1.879      0.4234842  0.4922634  6.137      0.1376281  0.4045323  0.1376281 
1381       0.206      487.451    8          2          6.202      1.838      1.162      1.084      1.306      0.2180258  0.2180258  0.2608252  30.58621   4.271472   1.838      0.4122704  0.4789322  4.552      0.129695   0.3586149  0.129695  
1381.2     0.205      491.425    8          2          6.186      1.819      1.358      1.235      1.361      0.2051363  0.2051363  0.2467562  17.65145   4.3876     1.819      0.3772046  0.4450319  3.611      0.1261209  0.3547083  0.1261209 
1381.4     -9999      505.587    8          2          6.044      1.939      1.133      1.112      1.343      0.2092097  0.2092097  0.2513606  21.00051   5.566919   1.939      0.4058606  0.4725944  4.059      0.1277299  0.3218509  0.1277299 
1381.6     -9999      523.784    8          2          5.872      1.954      1.11       1.164      1.319      0.2140121  0.2140121  0.2574998  25.77399   7.427547   1.954      0.4195921  0.4868286  5.023      0.1317808  0.2861007  0.1317808 
1381.8     -9999      542.571    8          2          5.744      1.882      1.183      1.154      1.316      0.2123058  0.2123058  0.2582672  23.96498   9.205352   1.882      0.4051432  0.4761674  6.41       0.1392769  0.2620984  0.1392769 
1382       -9999      554.5319   8          2          5.981      1.758      1.057      1.075      1.296      0.2149962  0.2149962  0.2633832  26.87875   6.187062   1.758      0.392509   0.466915   7.476      0.1466273  0.3082653  0.1466273 
1382.2     -9999      551.4169   8          2          -9999      1.693      1.171      1.148      1.29       0.2110686  0.2110686  0.264918   22.73322   -9999      1.693      0.3716643  0.4542296  9.313      0.16318    -9999      0.16318   
1382.4     -9999      547.884    8          2          -9999      1.68       1.06       1.04       1.303      0.2044793  0.2044793  0.2615926  17.16372   -9999      1.68       0.3517249  0.4405707  10.19      0.1730705  -9999      0.1730705 
1382.6     -9999      546.09     8          2          -9999      1.705      1.134      1.101      1.276      0.2088158  0.2088158  0.2684992  20.65059   -9999      1.705      0.3678629  0.457788   10.805     0.1808589  -9999      0.1808589 
1382.8     -9999      535.895    8          2          -9999      1.731      1.093      1.07       1.263      0.2077014  0.2077014  0.2718246  19.69212   -9999      1.731      0.3694045  0.4644072  11.751     0.1943126  -9999      0.1943126 
1383       -9999      520.7769   8          2          -9999      1.736      1.126      1.088      1.234      0.2116512  0.2116512  0.2792428  23.30513   -9999      1.736      0.3805054  0.4775767  12.411     0.2048231  -9999      0.2048231 
1383.2     -9999      506.624    -9999      -9999      -9999      1.742      1.204      1.135      1.179      0.2203859  0.2203859  0.2933118  33.82513   -9999      1.742      0.4029128  0.5016344  13.324     0.2209876  -9999      0.2209876 
1383.4     -9999      483.816    -9999      -9999      -9999      1.684      1.302      1.114      1.209      0.1928295  0.1928295  0.2856378  10.44307   -9999      1.684      0.3185044  0.4552737  16.033     0.2812373  -9999      0.2812373 
1383.6     -9999      461.5869   -9999      -9999      -9999      1.783      1.359      1.139      1.239      0.1778498  0.1778498  0.2779638  5.512737   -9999      1.783      0.2881164  0.4436097  16.85      0.3033759  -9999      0.3033759 
1383.8     -9999      443.23     -9999      -9999      -9999      1.782      1.421      1.128      1.244      0.1509604  0.1509604  0.2766848  1.751097   -9999      1.782      0.1786528  0.4029203  19.268     0.3809832  -9999      0.3809832 
1384       -9999      432.916    -9999      -9999      -9999      1.814      1.598      1.186      1.245      0.1170475  0.1170475  0.276429   0.4122516  -9999      1.814      0.01694651 0.3651511  21.785     0.4829741  -9999      0.4829741 
1384.2     -9999      423.521    -9999      -9999      -9999      1.801      1.917      1.129      1.251      0.1027798  0.1027798  0.2748942  0.224331   -9999      1.801      0          0.327685   22.61      0.5215588  -9999      0.5215588 
1384.4     -9999      409.6709   -9999      -9999      -9999      1.806      2.129      1.065      -9999      -9999      -9999      -9999      -9999      -9999      1.806      -9999      -9999      24.281     0.6080974  -9999      0.6080974 
1384.6     -9999      398.506    -9999      -9999      -9999      1.869      2.218      1.089      -9999      -9999      -9999      -9999      -9999      -9999      1.869      -9999      -9999      24.717     0.6326005  -9999      0.6326005 
1384.8     -9999      383.17     -9999      -9999      -9999      1.902      1.996      1.198      -9999      -9999      -9999      -9999      -9999      -9999      1.902      -9999      -9999      24.465     0.6183388  -9999      0.6183388 
1385       -9999      369.901    -9999      -9999      -9999      1.964      2.092      1.203      -9999      -9999      -9999      -9999      -9999      -9999      1.964      -9999      -9999      23.781     0.5809928  -9999      0.5809928 
1385.2     -9999      363.7639   -9999      -9999      -9999      1.959      2.312      1.19       -9999      -9999      -9999      -9999      -9999      -9999      1.959      -9999      -9999      23.283     0.5550334  -9999      0.5550334 
1385.4     -9999      358.386    -9999      -9999      -9999      1.945      2.36       1.142      -9999      -9999      -9999      -9999      -9999      -9999      1.945      -9999      -9999      22.216     0.5028     -9999      0.5028    
1385.6     -9999      355.885    -9999      -9999      -9999      1.979      1.982      1.191      -9999      -9999      -9999      -9999      -9999      -9999      1.979      -9999      -9999      19.476     0.388556   -9999      0.388556  
1385.8     -9999      354.092    -9999      -9999      -9999      2.034      1.481      1.238      -9999      -9999      -9999      -9999      -9999      -9999      2.034      -9999      -9999      17.258     0.3151755  -9999      0.3151755 
1386       -9999      349.692    -9999      -9999      -9999      2.191      1.161      1.165      -9999      -9999      -9999      -9999      -9999      -9999      2.191      -9999      -9999      11.965     0.1976162  -9999      0.1976162 
1386.2     -9999      351.916    -9999      -9999      -9999      1.876      1.103      1.093      -9999      -9999      -9999      -9999      -9999      -9999      1.876      -9999      -9999      8.4        0.1542911  -9999      0.1542911 
