~Version
 VERS              .         2.0                           : CWLS LOG ASCII STANDARD - VERSION 2.0
 WRAP              .         NO                            : ONE LINE PER DEPTH STEP
 DLM               .         SPACE                         : DELIMITING CHARACTER(SPACE TAB OR COMMA)
~Well Information
#_______________________________________________________________________________
#
#PARAMETER_NAME    .UNIT     VALUE                         : DESCRIPTION
#_______________________________________________________________________________
STRT               .M        880                           : First reference value
STOP               .M        1396                          : Last reference value
STEP               .M        0.2                           : Step increment
NULL               .         -9999                         : Missing value
COMP               .                                       : Company
WELL               .         4021                          : Well name
FLD                .         УЗЕНЬ                         : Field
LOC                .                                       : Location
CNTY               .                                       : County
STAT               .                                       : State
CTRY               .         Казахстан                     : Country
SRVC               .                                       : Service Company
DATE               .         23.03.2009                    : Date
UWI                .                                       : Unique Well ID
Block              .         3а                            : 
Cartographic_reference_system .         GCS_WGS_1984                  : ESRI,PE_10_3_1- <?xml version="1.0" encoding="utf-16"?><ILateBoundCoordinateReferenceSystem name="GCS_WGS_1984"><AuthorityCode>EPSG,4326</AuthorityCode></ILateBoundCoordinateReferenceSystem>
Category           .         Нефтяная                      : 
Condition          .         В простое                     : 
Date               .         06.05.1990                    : 
EREF               .m        235.7                         : 100.8
Gorizont           .         18                            : 14
HZCS               .GCS_WGS_1984 WGS_1984_EASE-Grid_2.0_Global : ESRI,PE_10_3_1- <?xml version="1.0" encoding="utf-16"?><ILateBoundCoordinateReferenceSystem name="WGS_1984_EASE-Grid_2.0_Global"><AuthorityCode>EPSG,6933</AuthorityCode></ILateBoundCoordinateReferenceSystem>
Interpretator      .         Чиндаулова Г.К.               : 
Kupol              .         основной                      : osnovnoi
LATI               .dega     0.6315670686                  : GCS_WGS_1984
LONG               .dega     0.5736255958                  : GCS_WGS_1984
METD               .         OGZ3, GZ3, SP                 : Method
Mud                .         0                             : 
Mud_density        .         0                             : 
Mud_resistivity    .         0                             : 
NGDU               .         НГДУ-1                        : 
ORIGINALWELLNAME   .         4021                          : 
SCAL               .         500                           : Scale
Spud_date          .         1990                          : 1961
Viscosity          .         0                             : 
X                  .m        55347                         : 46154
Y                  .m        80569.5                       : 85761.93
YEAR               .         2018                          : 
Исправлено         .         18                            : 
~Parameter Information Block
#_______________________________________________________________________________
#
#PARAMETER_NAME    .UNIT     VALUE                         : DESCRIPTION
#_______________________________________________________________________________
SET                .         LQC_KAZNIPI_Petrel            : 
TLFamily_CALI      .         Caliper                       : 
TLFamily_CILD      .         Conductivity                  : 
TLFamily_COLL      .         Net Reservoir Flag            : 
TLFamily_CSAT      .         Fluid Code                    : 
TLFamily_DEPT      .         Measured Depth                : 
TLFamily_GR        .         Russian Gamma Ray             : 
TLFamily_LLS       .         Lateral Log Resistivity       : 
TLFamily_MINV      .         Micro Gradient Resistivity    : 
TLFamily_MNOR      .         Micro Resistivity             : 
TLFamily_NGLD      .         Neutron Far                   : 
TLFamily_PHIE      .         Effective Porosity            : 
TLFamily_PHIEN     .         Effective Porosity            : 
TLFamily_PHIT      .         Porosity                      : 
TLFamily_PRMB      .         Permeability                  : 
TLFamily_PRMB_DGR  .         Permeability                  : 
TLFamily_RT        .         Formation Resistivity         : 
TLFamily_SOIL_ARCHIE .         Oil Saturation                : 
TLFamily_SOIL_DW   .         Oil Saturation                : 
TLFamily_SP        .         Spontaneous Potential         : 
TLFamily_VSH_FIN   .         Shale Volume                  : 
TLFamily_VSH_GR    .         Shale Volume                  : 
TLFamily_VSH_SP    .         Shale Volume                  : 
~Curve Information
#_______________________________________________________________________________
#
#LOGNAME           .UNIT     LOG_ID                        : DESCRIPTION
#_______________________________________________________________________________
DEPT               .M                                      : Колонка глубины 
CALI               .м                                      : Каверномер 
CILD               .мСм/м                                  : Индукционный каротаж 
COLL               .unitless                               : Описание 
CSAT               .unitless                               : Описание 
GR                 .uR/h                                   : Гамма каротаж 
LLS                .Ohmm                                   : Боковой каротаж 
MINV               .Ohmm                                   : Микро-градиент зонд 
MNOR               .Ohmm                                   : Микро-потенциал зонд 
NGLD               .у.е.                                   : Показания зонда НГК-60 аппаратуры ДРСТ-3-90 
PHIE               .v/v                                    : Описание 
PHIEN              .v/v                                    :  
PHIT               .v/v                                    : Описание 
PRMB               .mD                                     :  
PRMB_DGR           .mD                                     :  
RT                 .ohmm                                   : Description 
SOIL_ARCHIE        .v/v                                    :  
SOIL_DW            .v/v                                    :  
SP                 .мВ                                     : Потенциал самополяризации 
VSH_FIN            .v/v                                    : Описание 
VSH_GR             .v/v                                    : Shale volume 
VSH_SP             .v/v                                    : Shale Volume 
~Ascii
# ...
1216.4     0.222      365.484    -9999      -9999      5.973      2.042      1.717      1.213      1.103      0.1666016  0.1666016  0.3127526  3.412116   2.887214   2.042      0.2487007  0.471719   31.173     0.4428818  0.4208092  0.4649544 
1216.6     0.222      355.012    -9999      -9999      5.985      2.007      1.653      1.274      1.157      0.1495151  0.1495151  0.2989394  1.64642    2.82365    2.007      0.1677266  0.4286307  31.534     0.4528009  0.4246519  0.48095   
1216.8     0.22       318.128    -9999      -9999      5.841      1.851      1.551      1.128      1.184      0.1453348  0.1453348  0.2920328  1.377564   3.688313   1.851      0.1139006  0.3897937  32.127     0.4445392  0.3807671  0.5083114 
1217       0.218      290.0669   -9999      -9999      5.69       2.072      1.441      1.399      1.213      0.148723   0.148723   0.2846146  1.591729   4.880728   2.072      0.1762803  0.4193457  31.601     0.4117926  0.3396119  0.4839733 
1217.2     0.216      277.776    -9999      -9999      5.519      3.306      1.299      1.475      1.225      0.1664403  0.1664403  0.281545   3.388721   6.702776   3.306      0.4002263  0.5574802  29.557     0.3488022  0.2983505  0.3992538 
1217.4     0.216      261.105    1          2          5.237      4.918      1.159      1.442      1.231      0.1895728  0.1895728  0.2800102  9.088775   11.30979   4.918      0.5555508  0.6547591  26.776     0.2740529  0.2409647  0.3071411 
1217.6     0.216      247.936    1          2          5.078      4.256      1.258      1.408      1.243      0.1973069  0.1973069  0.2769406  12.64039   15.18996   4.256      0.5406322  0.6325963  25.342     0.2413142  0.2136216  0.2690068 
1217.8     0.216      241.75     1          2          5.295      4.019      1.381      1.405      1.218      0.1987822  0.1987822  0.2833356  13.46129   10.15606   4.019      0.5311653  0.6280874  24.995     0.2562224  0.2517877  0.260657  
1218       0.215      236.496    1          2          5.458      3.939      1.291      1.405      1.179      0.2024633  0.2024633  0.2933118  15.7496    7.505862   3.939      0.5342242  0.6346591  25.207     0.2752985  0.284878   0.265719  
1218.2     0.215      241.627    1          2          5.397      3.771      1.319      1.476      1.167      0.2077868  0.2077868  0.2963814  19.76398   8.405178   3.771      0.5352251  0.6328446  25.174     0.2684683  0.2720137  0.2649229 
1218.4     0.215      245.577    1          2          5.427      3.708      1.296      1.522      1.153      0.2092799  0.2092799  0.2999626  21.06343   7.950174   3.708      0.5344482  0.6334238  25.436     0.2747961  0.2782661  0.2713262 
1218.6     0.215      249.466    -9999      -9999      5.675      3.421      1.304      1.388      1.147      0.2002375  0.2002375  0.3014974  14.3233    5.01845    3.421      0.4975504  0.6125128  25.698     0.3068481  0.3357749  0.2779212 
1218.8     0.216      258.125    -9999      -9999      5.82       3.032      1.563      1.559      1.17       0.186632   0.186632   0.295614   8.017448   3.834837   3.032      0.4346611  0.5714403  25.999     0.3302484  0.3747579  0.2857389 
1219       0.216      267.328    -9999      -9999      5.617      2.777      1.491      1.464      1.172      0.1935649  0.1935649  0.2951024  10.77582   5.588542   2.777      0.4292887  0.5583556  26.308     0.3076892  0.3213418  0.2940367 
1219.2     0.215      275.966    -9999      -9999      5.495      2.708      1.418      1.362      1.155      0.2048463  0.2048463  0.299451   17.43447   7.00795    2.708      0.4503104  0.5668022  25.794     0.2866809  0.2929754  0.2803864 
1219.4     0.215      273.133    -9999      -9999      5.57       2.469      1.361      1.294      1.152      0.2055965  0.2055965  0.3002184  18.00132   6.097691   2.469      0.4277772  0.5476838  25.109     0.286733   0.3101023  0.2633637 
1219.6     0.215      266.974    1          2          5.492      2.806      1.455      1.484      1.138      0.2134319  0.2134319  0.3037996  25.14406   7.047059   2.806      0.4783942  0.5851194  24.768     0.2738414  0.2923104  0.2553723 
1219.8     0.215      272.883    1          2          5.399      3.381      1.369      1.507      1.126      0.2166971  0.2166971  0.3068692  28.90104   8.374049   3.381      0.5283615  0.6266165  25.546     0.2732489  0.2724262  0.2740715 
1220       0.215      276.56     1          2          5.516      3.617      1.425      1.53       1.147      0.206423   0.206423   0.3014974  18.6472    6.740186   3.617      0.5233157  0.627844   25.722     0.2881041  0.2976732  0.2785351 
1220.2     0.216      274.389    1          2          5.692      3.589      1.434      1.556      1.15       0.1978998  0.1978998  0.30073    12.96409   4.862655   3.589      0.5036771  0.6192931  25.898     0.3116068  0.3401268  0.2830867 
1220.4     0.217      272.616    1          2          5.673      3.571      1.564      1.524      1.15       0.1967867  0.1967867  0.30073    12.36304   5.037106   3.571      0.5000547  0.6174527  26.332     0.3149797  0.3352665  0.2946929 
1220.6     0.217      273.051    1          2          5.691      3.553      1.564      1.536      1.166      0.1882658  0.1882658  0.2966372  8.596037   4.871682   3.553      0.4791704  0.6063152  27.111     0.328398   0.3398693  0.3169268 
1220.8     0.218      281.95     1          2          5.682      3.642      1.491      1.569      1.187      0.182404   0.182404   0.2912654  6.69456    4.953701   3.642      0.4708021  0.6018288  27.287     0.3298831  0.3375601  0.3222061 
1221       0.219      297.6421   1          2          5.691      3.642      1.436      1.539      1.179      0.1809264  0.1809264  0.2933118  6.285699   4.871682   3.642      0.46704    0.6021745  27.897     0.3405618  0.3398693  0.3412544 
1221.2     0.218      315.316    1          2          5.717      3.441      1.624      1.509      1.153      0.1805627  0.1805627  0.2999626  6.188968   4.642281   3.441      0.4516909  0.5958278  28.951     0.3618177  0.3466295  0.377006  
1221.4     0.219      343.52     -9999      -9999      5.752      2.836      1.812      1.449      1.143      0.1659932  0.1659932  0.3025206  3.324714   4.350439   2.836      0.3539647  0.541943   31.322     0.4137195  0.3559425  0.4714965 
1221.6     0.22       355.875    -9999      -9999      5.751      2.271      2.006      1.465      1.15       0.1466781  0.1466781  0.30073    1.45879    4.358515   2.271      0.2014045  0.4608567  33.518     0.4668239  0.355673   0.5779749 
1221.8     0.221      360.792    -9999      -9999      5.825      1.843      2.211      1.101      1.144      0.1259947  0.1259947  0.3022648  0.6037894  3.799433   1.843      0          0.3681249  35.514     0.5341518  0.3761799  0.6921237 
1222       0.219      367.976    -9999      -9999      5.766      1.958      2.41       1.06       1.138      0.1214229  0.1214229  0.3037996  0.4968261  4.238903   1.958      0          0.3805348  36.356     0.5526567  0.3597374  0.745576  
1222.2     0.218      374.8959   -9999      -9999      5.999      2.028      2.2        1.321      1.138      0.1090013  0.1090013  0.3037996  0.2925002  2.751259   2.028      0          0.3671191  36.445     0.5902979  0.4291793  0.7514166 
1222.4     0.218      379.207    -9999      -9999      5.768      2.008      2.378      0.979      1.149      0.1214903  0.1214903  0.3009858  0.4982561  4.223204   2.008      0.003045629 0.3848082  36.078     0.5439258  0.3602829  0.7275688 
1222.6     0.218      376.121    -9999      -9999      5.719      1.993      2.567      1.156      1.151      0.1260158  0.1260158  0.3004742  0.6043342  4.625091   1.993      0.03089803 0.3901314  35.804     0.5286617  0.347155   0.7101684 
1222.8     0.218      361.743    -9999      -9999      5.786      1.957      2.055      1.152      1.151      0.1258789  0.1258789  0.3004742  0.6008141  4.084511   1.957      0.02164663 0.384299   35.527     0.5290768  0.365229   0.6929244 
1223       0.217      334.1341   -9999      -9999      5.772      1.987      1.986      1.133      1.169      0.1204999  0.1204999  0.2958698  0.4776478  4.191982   1.987      0          0.3729431  35.665     0.531424   0.3613762  0.7014719 
