~Version
 VERS              .         2.0                           : CWLS LOG ASCII STANDARD - VERSION 2.0
 WRAP              .         NO                            : ONE LINE PER DEPTH STEP
 DLM               .         SPACE                         : DELIMITING CHARACTER(SPACE TAB OR COMMA)
~Well Information
#_______________________________________________________________________________
#
#PARAMETER_NAME    .UNIT     VALUE                         : DESCRIPTION
#_______________________________________________________________________________
STRT               .M        880                           : First reference value
STOP               .M        1396                          : Last reference value
STEP               .M        0.2                           : Step increment
NULL               .         -9999                         : Missing value
COMP               .                                       : Company
WELL               .         4021                          : Well name
FLD                .         УЗЕНЬ                         : Field
LOC                .                                       : Location
CNTY               .                                       : County
STAT               .                                       : State
CTRY               .         Казахстан                     : Country
SRVC               .                                       : Service Company
DATE               .         23.03.2009                    : Date
UWI                .                                       : Unique Well ID
Block              .         3а                            : 
Cartographic_reference_system .         GCS_WGS_1984                  : ESRI,PE_10_3_1- <?xml version="1.0" encoding="utf-16"?><ILateBoundCoordinateReferenceSystem name="GCS_WGS_1984"><AuthorityCode>EPSG,4326</AuthorityCode></ILateBoundCoordinateReferenceSystem>
Category           .         Нефтяная                      : 
Condition          .         В простое                     : 
Date               .         06.05.1990                    : 
EREF               .m        235.7                         : 100.8
Gorizont           .         18                            : 14
HZCS               .GCS_WGS_1984 WGS_1984_EASE-Grid_2.0_Global : ESRI,PE_10_3_1- <?xml version="1.0" encoding="utf-16"?><ILateBoundCoordinateReferenceSystem name="WGS_1984_EASE-Grid_2.0_Global"><AuthorityCode>EPSG,6933</AuthorityCode></ILateBoundCoordinateReferenceSystem>
Interpretator      .         Чиндаулова Г.К.               : 
Kupol              .         основной                      : osnovnoi
LATI               .dega     0.6315670686                  : GCS_WGS_1984
LONG               .dega     0.5736255958                  : GCS_WGS_1984
METD               .         OGZ3, GZ3, SP                 : Method
Mud                .         0                             : 
Mud_density        .         0                             : 
Mud_resistivity    .         0                             : 
NGDU               .         НГДУ-1                        : 
ORIGINALWELLNAME   .         4021                          : 
SCAL               .         500                           : Scale
Spud_date          .         1990                          : 1961
Viscosity          .         0                             : 
X                  .m        55347                         : 46154
Y                  .m        80569.5                       : 85761.93
YEAR               .         2018                          : 
Исправлено         .         18                            : 
~Parameter Information Block
#_______________________________________________________________________________
#
#PARAMETER_NAME    .UNIT     VALUE                         : DESCRIPTION
#_______________________________________________________________________________
SET                .         LQC_KAZNIPI_Petrel            : 
TLFamily_CALI      .         Caliper                       : 
TLFamily_CILD      .         Conductivity                  : 
TLFamily_COLL      .         Net Reservoir Flag            : 
TLFamily_CSAT      .         Fluid Code                    : 
TLFamily_DEPT      .         Measured Depth                : 
TLFamily_GR        .         Russian Gamma Ray             : 
TLFamily_LLS       .         Lateral Log Resistivity       : 
TLFamily_MINV      .         Micro Gradient Resistivity    : 
TLFamily_MNOR      .         Micro Resistivity             : 
TLFamily_NGLD      .         Neutron Far                   : 
TLFamily_PHIE      .         Effective Porosity            : 
TLFamily_PHIEN     .         Effective Porosity            : 
TLFamily_PHIT      .         Porosity                      : 
TLFamily_PRMB      .         Permeability                  : 
TLFamily_PRMB_DGR  .         Permeability                  : 
TLFamily_RT        .         Formation Resistivity         : 
TLFamily_SOIL_ARCHIE .         Oil Saturation                : 
TLFamily_SOIL_DW   .         Oil Saturation                : 
TLFamily_SP        .         Spontaneous Potential         : 
TLFamily_VSH_FIN   .         Shale Volume                  : 
TLFamily_VSH_GR    .         Shale Volume                  : 
TLFamily_VSH_SP    .         Shale Volume                  : 
~Curve Information
#_______________________________________________________________________________
#
#LOGNAME           .UNIT     LOG_ID                        : DESCRIPTION
#_______________________________________________________________________________
DEPT               .M                                      : Колонка глубины 
CALI               .м                                      : Каверномер 
CILD               .мСм/м                                  : Индукционный каротаж 
COLL               .unitless                               : Описание 
CSAT               .unitless                               : Описание 
GR                 .uR/h                                   : Гамма каротаж 
LLS                .Ohmm                                   : Боковой каротаж 
MINV               .Ohmm                                   : Микро-градиент зонд 
MNOR               .Ohmm                                   : Микро-потенциал зонд 
NGLD               .у.е.                                   : Показания зонда НГК-60 аппаратуры ДРСТ-3-90 
PHIE               .v/v                                    : Описание 
PHIEN              .v/v                                    :  
PHIT               .v/v                                    : Описание 
PRMB               .mD                                     :  
PRMB_DGR           .mD                                     :  
RT                 .ohmm                                   : Description 
SOIL_ARCHIE        .v/v                                    :  
SOIL_DW            .v/v                                    :  
SP                 .мВ                                     : Потенциал самополяризации 
VSH_FIN            .v/v                                    : Описание 
VSH_GR             .v/v                                    : Shale volume 
VSH_SP             .v/v                                    : Shale Volume 
~Ascii
# ...
992.2000000000001 0.213      563.899    1          3          1.558      1.253      1.375      1.035      1.22       0.2560455  0.2560455  0.282824   154.7896   3606.706   1.253      0.245807   0.7035475  25.723     0.08114701 0.02288902 0.139405  
992.4      0.211      559.611    1          3          1.579      1.265      1.426      1.081      1.227      0.2548115  0.2548115  0.2810334  146.854    3454.408   1.265      0.245896   0.7032951  25.076     0.07946026 0.02329583 0.1356247 
992.6      0.212      555.1819   1          3          1.576      1.358      1.467      1.113      1.246      0.2500634  0.2500634  0.2761732  119.9333   3475.765   1.358      0.251497   0.7084032  24.961     0.07912038 0.02323728 0.1350035 
992.8      0.214      554.167    1          3          1.595      1.471      1.454      1.067      1.238      0.2514879  0.2514879  0.2782196  127.4454   3342.702   1.471      0.265152   0.721659   25.559     0.08100511 0.02361063 0.1383996 
993        0.214      556.7791   1          3          1.59       1.453      1.371      1.021      1.222      0.2549181  0.2549181  0.2823124  147.523    3377.217   1.453      0.267042   0.7238595  26.199     0.08301302 0.0235118  0.1425142 
993.2000000000001 0.214      554.386    1          3          1.602      1.363      1.188      0.975      1.227      0.2533073  0.2533073  0.2810334  137.7286   3294.974   1.363      0.255724   0.713342   26.452     0.08401844 0.02374969 0.1442872 
993.4      0.214      546.851    1          3          1.616      1.318      1.24       0.929      1.237      0.2504036  0.2504036  0.2784754  121.6857   3201.552   1.318      0.24725    0.7054725  26.699     0.08506617 0.02403027 0.1461021 
993.6      0.214      533.024    1          3          1.607      1.325      1.343      1.055      1.234      0.2516673  0.2516673  0.2792428  128.4243   3261.3     1.325      0.249528   0.7073815  26.309     0.08356204 0.02384952 0.1432746 
993.8      0.214      521.8011   1          3          1.596      1.427      1.323      1.077      1.246      0.2489273  0.2489273  0.2761732  114.2601   3335.842   1.427      0.257774   0.714914   26.048     0.08256344 0.02363044 0.1414964 
994        0.215      524.0679   1          3          1.618      1.56       1.625      1.089      1.253      0.2472515  0.2472515  0.2743826  106.3791   3188.424   1.56       0.269147   0.7255248  25.874     0.08221537 0.02407062 0.1403601 
994.2000000000001 0.215      534.131    1          3          1.719      1.535      1.362      1.06       1.239      0.2503929  0.2503929  0.2779638  121.6304   2590.953   1.535      0.270207   0.7268186  25.957     0.08354817 0.02619901 0.1408973 
994.4      0.217      534.051    1          3          1.773      1.39       1.295      0.897      1.264      0.2434168  0.2434168  0.2715688  90.32923   2318.88    1.39       0.247354   0.7054554  26.299     0.08530896 0.02741314 0.1432048 
994.6      0.218      522.9249   1          3          1.777      1.341      1.346      0.86       1.258      0.2444893  0.2444893  0.2731036  94.55698   2299.902   1.341      0.242997   0.7016292  26.674     0.08670991 0.02750529 0.1459145 
994.8      0.218      514.244    1          3          1.812      1.386      1.262      1.018      1.274      0.2400734  0.2400734  0.2690108  78.32505   2140.33    1.386      0.242867   0.7015974  26.824     0.08768892 0.02832486 0.147053  
995        0.217      511.691    1          3          1.838      1.466      1.366      1.021      1.28       0.2385627  0.2385627  0.267476   73.4374    2029.002   1.466      0.249819   0.7081054  26.723     0.0876162  0.02894946 0.1462829 
995.2000000000001 0.217      513.222    1          3          1.864      1.559      1.53       1.037      1.266      0.242356   0.242356   0.2710572  86.33331   1923.464   1.559      0.26359    0.7210189  26.462     0.08697343 0.02958783 0.144359  
995.4      0.218      520.76     1          3          1.903      1.537      1.223      0.961      1.263      0.2437299  0.2437299  0.2718246  91.54327   1775.361   1.537      0.263037   0.7202047  25.77      0.08513556 0.03057188 0.1396992 
995.6      0.218      523.392    1          3          1.934      1.423      1.419      0.886      1.253      0.2454698  0.2454698  0.2743826  98.59478   1665.816   1.423      0.253394   0.7116103  26.391     0.08761461 0.03137736 0.1438519 
995.8      0.218      525.154    1          3          1.933      1.374      1.275      0.907      1.251      0.245597   0.245597   0.2748942  99.13135   1669.242   1.374      0.248129   0.706869   26.713     0.08877926 0.03135105 0.1462075 
996        0.216      526.0469   1          3          1.859      1.382      1.227      0.911      1.263      0.2421092  0.2421092  0.2718246  85.42947   1943.325   1.382      0.244883   0.7039791  27.27      0.09004667 0.02946398 0.1506294 
996.2000000000001 0.217      528.0219   1          3          1.833      1.403      1.298      0.93       1.273      0.2389299  0.2389299  0.2692666  74.59673   2049.952   1.403      0.243394   0.7028724  27.774     0.09192935 0.02882828 0.1550304 
996.4      0.215      532.377    1          3          1.839      1.411      1.217      1.005      1.266      0.241605   0.241605   0.2710572  83.61214   2024.838   1.411      0.24753    0.7063128  27.136     0.08924897 0.02897376 0.1495242 
996.6      0.215      531.334    1          3          1.837      1.389      1.132      0.981      1.235      0.2496602  0.2496602  0.278987   117.8884   2033.174   1.389      0.254501   0.7129591  27.048     0.08886902 0.02892519 0.1488129 
996.8      0.215      519.941    1          3          1.797      1.382      1.171      0.939      1.208      0.2579709  0.2579709  0.2858936  168.0368   2207.316   1.382      0.262902   0.7203071  26.012     0.08461441 0.02797067 0.1412582 
997        0.215      512.1859   1          3          1.763      1.416      1.351      1.055      1.207      0.2582198  0.2582198  0.2861494  169.8306   2367.014   1.416      0.266762   0.7239418  26.136     0.08463506 0.02718413 0.142086  
997.2000000000001 0.215      502.697    1          3          1.744      1.486      1.413      1.129      1.214      0.2565002  0.2565002  0.2843588  157.8204   2461.237   1.486      0.271987   0.7287723  26.136     0.08442012 0.02675427 0.142086  
997.4      0.215      491.5181   1          3          1.735      1.492      1.691      0.98       1.217      0.2554229  0.2554229  0.2835914  150.7333   2507.169   1.492      0.27144    0.7283882  26.435     0.08535919 0.02655304 0.1441654 
997.6      0.215      474.353    1          3          1.808      1.505      1.451      1.044      1.212      0.2558063  0.2558063  0.2848704  153.2185   2157.991   1.505      0.273095   0.7303877  26.935     0.08807299 0.02822997 0.147916  
997.8      0.215      462.816    1          3          1.866      1.584      1.353      1.205      1.227      0.2516089  0.2516089  0.2810334  128.1048   1915.577   1.584      0.276027   0.7332248  27.033     0.08916513 0.02963752 0.1486927 
998        0.215      455.8869   1          3          1.887      1.725      1.35       1.234      1.253      0.2454057  0.2454057  0.2743826  98.32577   1834.689   1.725      0.281531   0.7380356  26.612     0.08780873 0.03016427 0.1454532 
998.2000000000001 0.215      454.382    1          3          1.728      1.767      1.192      1.178      1.3        0.234558   0.234558   0.26236    61.90723   2543.485   1.767      0.273029   0.7292539  26.138     0.08424853 0.02639757 0.1420995 
998.4      0.216      440.823    1          3          1.633      1.645      1.128      1.116      1.349      0.222424   0.222424   0.2498258  36.89688   3091.665   1.645      0.247517   0.704722   26.078     0.08303586 0.02437543 0.1416963 
998.6      0.215      414.077    1          3          1.606      1.497      1.216      1.258      1.365      0.2179521  0.2179521  0.245733   30.49022   3268.008   1.497      0.226275   0.6847379  26.487     0.08418438 0.02382952 0.1445393 
