~Version
 VERS              .         2.0                           : CWLS LOG ASCII STANDARD - VERSION 2.0
 WRAP              .         NO                            : ONE LINE PER DEPTH STEP
 DLM               .         SPACE                         : DELIMITING CHARACTER(SPACE TAB OR COMMA)
~Well Information
#_______________________________________________________________________________
#
#PARAMETER_NAME    .UNIT     VALUE                         : DESCRIPTION
#_______________________________________________________________________________
STRT               .M        880                           : First reference value
STOP               .M        1396                          : Last reference value
STEP               .M        0.2                           : Step increment
NULL               .         -9999                         : Missing value
COMP               .                                       : Company
WELL               .         4021                          : Well name
FLD                .         УЗЕНЬ                         : Field
LOC                .                                       : Location
CNTY               .                                       : County
STAT               .                                       : State
CTRY               .         Казахстан                     : Country
SRVC               .                                       : Service Company
DATE               .         23.03.2009                    : Date
UWI                .                                       : Unique Well ID
Block              .         3а                            : 
Cartographic_reference_system .         GCS_WGS_1984                  : ESRI,PE_10_3_1- <?xml version="1.0" encoding="utf-16"?><ILateBoundCoordinateReferenceSystem name="GCS_WGS_1984"><AuthorityCode>EPSG,4326</AuthorityCode></ILateBoundCoordinateReferenceSystem>
Category           .         Нефтяная                      : 
Condition          .         В простое                     : 
Date               .         06.05.1990                    : 
EREF               .m        235.7                         : 100.8
Gorizont           .         18                            : 14
HZCS               .GCS_WGS_1984 WGS_1984_EASE-Grid_2.0_Global : ESRI,PE_10_3_1- <?xml version="1.0" encoding="utf-16"?><ILateBoundCoordinateReferenceSystem name="WGS_1984_EASE-Grid_2.0_Global"><AuthorityCode>EPSG,6933</AuthorityCode></ILateBoundCoordinateReferenceSystem>
Interpretator      .         Чиндаулова Г.К.               : 
Kupol              .         основной                      : osnovnoi
LATI               .dega     0.6315670686                  : GCS_WGS_1984
LONG               .dega     0.5736255958                  : GCS_WGS_1984
METD               .         OGZ3, GZ3, SP                 : Method
Mud                .         0                             : 
Mud_density        .         0                             : 
Mud_resistivity    .         0                             : 
NGDU               .         НГДУ-1                        : 
ORIGINALWELLNAME   .         4021                          : 
SCAL               .         500                           : Scale
Spud_date          .         1990                          : 1961
Viscosity          .         0                             : 
X                  .m        55347                         : 46154
Y                  .m        80569.5                       : 85761.93
YEAR               .         2018                          : 
Исправлено         .         18                            : 
~Parameter Information Block
#_______________________________________________________________________________
#
#PARAMETER_NAME    .UNIT     VALUE                         : DESCRIPTION
#_______________________________________________________________________________
SET                .         LQC_KAZNIPI_Petrel            : 
TLFamily_CALI      .         Caliper                       : 
TLFamily_CILD      .         Conductivity                  : 
TLFamily_COLL      .         Net Reservoir Flag            : 
TLFamily_CSAT      .         Fluid Code                    : 
TLFamily_DEPT      .         Measured Depth                : 
TLFamily_GR        .         Russian Gamma Ray             : 
TLFamily_LLS       .         Lateral Log Resistivity       : 
TLFamily_MINV      .         Micro Gradient Resistivity    : 
TLFamily_MNOR      .         Micro Resistivity             : 
TLFamily_NGLD      .         Neutron Far                   : 
TLFamily_PHIE      .         Effective Porosity            : 
TLFamily_PHIEN     .         Effective Porosity            : 
TLFamily_PHIT      .         Porosity                      : 
TLFamily_PRMB      .         Permeability                  : 
TLFamily_PRMB_DGR  .         Permeability                  : 
TLFamily_RT        .         Formation Resistivity         : 
TLFamily_SOIL_ARCHIE .         Oil Saturation                : 
TLFamily_SOIL_DW   .         Oil Saturation                : 
TLFamily_SP        .         Spontaneous Potential         : 
TLFamily_VSH_FIN   .         Shale Volume                  : 
TLFamily_VSH_GR    .         Shale Volume                  : 
TLFamily_VSH_SP    .         Shale Volume                  : 
~Curve Information
#_______________________________________________________________________________
#
#LOGNAME           .UNIT     LOG_ID                        : DESCRIPTION
#_______________________________________________________________________________
DEPT               .M                                      : Колонка глубины 
CALI               .м                                      : Каверномер 
CILD               .мСм/м                                  : Индукционный каротаж 
COLL               .unitless                               : Описание 
CSAT               .unitless                               : Описание 
GR                 .uR/h                                   : Гамма каротаж 
LLS                .Ohmm                                   : Боковой каротаж 
MINV               .Ohmm                                   : Микро-градиент зонд 
MNOR               .Ohmm                                   : Микро-потенциал зонд 
NGLD               .у.е.                                   : Показания зонда НГК-60 аппаратуры ДРСТ-3-90 
PHIE               .v/v                                    : Описание 
PHIEN              .v/v                                    :  
PHIT               .v/v                                    : Описание 
PRMB               .mD                                     :  
PRMB_DGR           .mD                                     :  
RT                 .ohmm                                   : Description 
SOIL_ARCHIE        .v/v                                    :  
SOIL_DW            .v/v                                    :  
SP                 .мВ                                     : Потенциал самополяризации 
VSH_FIN            .v/v                                    : Описание 
VSH_GR             .v/v                                    : Shale volume 
VSH_SP             .v/v                                    : Shale Volume 
~Ascii
# ...
1060       0.254      546.155    -9999      -9999      6.388      1.289      0.751      0.68       0.928      0.1691497  0.1691497  0.3575176  3.803832   1.037116   1.289      0.06692695 0.3829689  39.769     0.5708117  0.6392214  0.5024021 
1060.2     0.246      516.654    -9999      -9999      6.461      1.325      0.645      0.708      0.934      0.161433   0.161433   0.3559828  2.737085   0.9022364  1.325      0.04067894 0.3789273  39.77      0.589545   0.676641   0.5024489 
1060.4     0.236      506.1119   -9999      -9999      6.509      1.381      0.579      0.595      0.944      0.1572609  0.1572609  0.3534248  2.290925   0.8232561  1.381      0.03743125 0.382877   39.423     0.5944362  0.7024316  0.4864407 
1060.6     0.239      512.864    -9999      -9999      6.253      1.611      0.676      0.778      0.949      0.181928   0.181928   0.3521458  6.560043   1.341913   1.611      0.2112776  0.4582286  38.739     0.5158114  0.5753871  0.4562357 
1060.8     0.245      525.876    -9999      -9999      6.011      1.765      0.636      0.905      0.967      0.1972506  0.1972506  0.3475414  12.6101    2.129652   1.765      0.2957425  0.4944897  38.217     0.4554266  0.476491   0.4343621 
1061       0.244      518.9221   -9999      -9999      5.73       1.448      0.564      0.686      0.958      0.2120541  0.2120541  0.3498436  23.70908   3.640991   1.448      0.2743881  0.4598857  38.647     0.4175439  0.3827802  0.4523075 
1061.2     0.243      512.816    -9999      -9999      5.872      1.393      0.536      0.591      0.988      0.1920002  0.1920002  0.3421696  10.08015   2.776647   1.393      0.1942997  0.4194406  39.337     0.4550589  0.4275726  0.4825453 
1061.4     0.239      502.3969   -9999      -9999      5.986      1.398      0.53       0.579      0.976      0.1877974  0.1877974  0.3452392  8.42599    2.233728   1.398      0.1799978  0.4185778  39.433     0.4770964  0.4672974  0.4868955 
1061.6     0.235      484.9789   -9999      -9999      5.953      1.385      0.753      0.695      0.97       0.1937037  0.1937037  0.346774   10.83977   2.378937   1.385      0.1983106  0.4244697  39.107     0.4638494  0.455433   0.4722659 
1061.8     0.233      469.29     -9999      -9999      5.933      1.447      0.655      0.684      0.97       0.1963784  0.1963784  0.346774   12.14959   2.471498   1.447      0.2239421  0.4399725  38.898     0.4557444  0.4483895  0.4630993 
1062       0.235      444.936    -9999      -9999      5.747      1.572      0.557      0.727      0.995      0.1972925  0.1972925  0.340379   12.63264   3.524754   1.572      0.2565505  0.4576232  39.265     0.4335954  0.3878852  0.4793056 
1062.2     0.236      430.233    -9999      -9999      5.437      1.762      0.641      0.796      1.027      0.2026354  0.2026354  0.3321934  15.86561   6.369081   1.762      0.3115208  0.4856639  39.293     0.3926001  0.3046371  0.4805631 
1062.4     0.238      425.962    -9999      -9999      5.296      1.99       0.928      0.902      1.057      0.2020489  0.2020489  0.3245194  15.47367   8.33578    1.99       0.3480895  0.5086394  39.04      0.3711228  0.2729361  0.4693094 
1062.6     0.233      428.557    -9999      -9999      5.227      2.089      0.795      1.084      1.068      0.2036579  0.2036579  0.3217056  16.57283   9.509065   2.089      0.3671613  0.5194653  38.752     0.3577203  0.2586473  0.4567933 
1062.8     0.235      437.138    -9999      -9999      5.271      1.906      0.87       0.977      1.038      0.207981   0.207981   0.3293796  19.92834   8.743149   1.906      0.351318   0.5081359  39.012     0.3678745  0.26767    0.4680789 
1063       0.234      440.6911   -9999      -9999      5.377      1.707      0.776      0.871      0.996      0.2173761  0.2173761  0.3401232  29.75026   7.141812   1.707      0.3426561  0.4991261  38.668     0.3719609  0.2907205  0.4532014 
1063.2     0.239      421.043    -9999      -9999      5.58       1.474      0.648      0.708      1.021      0.2015266  0.2015266  0.3337282  15.13282   4.847848   1.474      0.2477919  0.4379742  38.842     0.4006108  0.3405505  0.4606712 
1063.4     0.244      405.942    -9999      -9999      5.898      1.544      0.718      0.798      1.031      0.1831588  0.1831588  0.3311702  6.913591   2.642231   1.544      0.2001087  0.4269896  38.843     0.4485193  0.4363244  0.4607144 
1063.6     0.245      411.034    -9999      -9999      5.811      1.781      0.729      0.931      1.047      0.182534   0.182534   0.3270774  6.731802   3.119477   1.781      0.2497236  0.4617131  39.017     0.4380101  0.407722   0.4682983 
1063.8     0.24       424.9659   -9999      -9999      5.877      1.949      0.952      1.064      1.065      0.1789507  0.1789507  0.322473   5.777759   3.84598    1.949      0.2682716  0.4769266  39.621     0.434916   0.3743142  0.4955178 
1064       0.234      442.054    -9999      -9999      5.886      2.013      1.043      1.193      1.045      0.186871   0.186871   0.327589   8.099585   3.783169   2.013      0.305961   0.4988273  39.191     0.4264182  0.3768395  0.4759968 
1064.2     0.232      446.709    -9999      -9999      5.733      1.67       0.706      0.919      1.024      0.2038646  0.2038646  0.3329608  16.71958   5.005223   1.67       0.2976848  0.4736946  38.504     0.3912005  0.3361369  0.4462641 
1064.4     0.245      443.05     -9999      -9999      5.966      1.483      0.65       0.732      1.005      0.2005275  0.2005275  0.337821   14.5015    3.268068   1.483      0.2466836  0.4426622  38.16      0.416041   0.4000479  0.4320342 
1064.6     0.251      435.248    -9999      -9999      6.127      1.491      0.573      0.662      0.997      0.194124   0.194124   0.3398674  11.03585   2.434262   1.491      0.2270406  0.438991   38.162     0.4416466  0.4511776  0.4321156 
1064.8     0.245      425.978    -9999      -9999      6.435      1.611      0.949      0.771      1.017      0.1667872  0.1667872  0.3347514  3.43923    1.385616   1.611      0.1492708  0.422057   38.594     0.5089825  0.5679062  0.4500589 
1065       0.234      429.302    -9999      -9999      6.206      1.756      0.866      0.89       1.05       0.1687489  0.1687489  0.32631    3.739366   2.106672   1.756      0.1912688  0.4402091  39.198     0.4774578  0.4786066  0.4763089 
1065.2     0.241      428.424    -9999      -9999      5.999      1.795      0.755      0.786      1.068      0.1748166  0.1748166  0.3217056  4.843792   3.076596   1.795      0.2238142  0.4491303  39.285     0.4451182  0.4100329  0.4802035 
1065.4     0.244      419.312    -9999      -9999      5.9        1.754      1.115      0.894      1.084      0.1761749  0.1761749  0.3176128  5.132677   3.687497   1.754      0.2206238  0.4400806  39.2       0.4285998  0.3808015  0.4763981 
1065.6     0.245      416.2459   -9999      -9999      5.978      1.824      1.187      0.749      1.082      0.1779509  0.1779509  0.3181244  5.53656    3.1971     1.824      0.2414611  0.4536271  38.495     0.4247683  0.4036504  0.4458862 
1065.8     0.238      419.7091   -9999      -9999      6.309      1.892      1.213      0.907      1.069      0.1659653  0.1659653  0.3214498  3.320761   1.744847   1.892      0.2076934  0.4522046  37.997     0.4711652  0.5168881  0.4254422 
1066       0.236      430.988    -9999      -9999      6.184      1.762      1.018      0.894      1.085      0.1722637  0.1722637  0.317357   4.34409    2.193194   1.762      0.2069295  0.4361338  37.568     0.4396768  0.4708049  0.4085487 
1066.2     0.242      435.32     -9999      -9999      6.089      1.637      0.823      0.811      1.078      0.181088   0.181088   0.3191476  6.329172   2.609516   1.637      0.2140192  0.4283398  37.296     0.4183625  0.4385496  0.3981754 
1066.4     0.242      423.7931   -9999      -9999      6.215      1.552      0.629      0.764      1.016      0.1858476  0.1858476  0.3350072  7.753644   2.072267   1.552      0.2121103  0.4356923  37.915     0.4519989  0.4818355  0.4221623 
1066.6     0.242      417.9309   -9999      -9999      6.42       1.649      0.714      0.863      1.032      0.1658239  0.1658239  0.3309144  3.300795   1.424168   1.649      0.1542716  0.4234037  38.329     0.5002744  0.5615779  0.4389708 
