~Version
 VERS              .         2.0                           : CWLS LOG ASCII STANDARD - VERSION 2.0
 WRAP              .         NO                            : ONE LINE PER DEPTH STEP
 DLM               .         SPACE                         : DELIMITING CHARACTER(SPACE TAB OR COMMA)
~Well Information
#_______________________________________________________________________________
#
#PARAMETER_NAME    .UNIT     VALUE                         : DESCRIPTION
#_______________________________________________________________________________
STRT               .M        880                           : First reference value
STOP               .M        1396                          : Last reference value
STEP               .M        0.2                           : Step increment
NULL               .         -9999                         : Missing value
COMP               .                                       : Company
WELL               .         4021                          : Well name
FLD                .         УЗЕНЬ                         : Field
LOC                .                                       : Location
CNTY               .                                       : County
STAT               .                                       : State
CTRY               .         Казахстан                     : Country
SRVC               .                                       : Service Company
DATE               .         23.03.2009                    : Date
UWI                .                                       : Unique Well ID
Block              .         3а                            : 
Cartographic_reference_system .         GCS_WGS_1984                  : ESRI,PE_10_3_1- <?xml version="1.0" encoding="utf-16"?><ILateBoundCoordinateReferenceSystem name="GCS_WGS_1984"><AuthorityCode>EPSG,4326</AuthorityCode></ILateBoundCoordinateReferenceSystem>
Category           .         Нефтяная                      : 
Condition          .         В простое                     : 
Date               .         06.05.1990                    : 
EREF               .m        235.7                         : 100.8
Gorizont           .         18                            : 14
HZCS               .GCS_WGS_1984 WGS_1984_EASE-Grid_2.0_Global : ESRI,PE_10_3_1- <?xml version="1.0" encoding="utf-16"?><ILateBoundCoordinateReferenceSystem name="WGS_1984_EASE-Grid_2.0_Global"><AuthorityCode>EPSG,6933</AuthorityCode></ILateBoundCoordinateReferenceSystem>
Interpretator      .         Чиндаулова Г.К.               : 
Kupol              .         основной                      : osnovnoi
LATI               .dega     0.6315670686                  : GCS_WGS_1984
LONG               .dega     0.5736255958                  : GCS_WGS_1984
METD               .         OGZ3, GZ3, SP                 : Method
Mud                .         0                             : 
Mud_density        .         0                             : 
Mud_resistivity    .         0                             : 
NGDU               .         НГДУ-1                        : 
ORIGINALWELLNAME   .         4021                          : 
SCAL               .         500                           : Scale
Spud_date          .         1990                          : 1961
Viscosity          .         0                             : 
X                  .m        55347                         : 46154
Y                  .m        80569.5                       : 85761.93
YEAR               .         2018                          : 
Исправлено         .         18                            : 
~Parameter Information Block
#_______________________________________________________________________________
#
#PARAMETER_NAME    .UNIT     VALUE                         : DESCRIPTION
#_______________________________________________________________________________
SET                .         LQC_KAZNIPI_Petrel            : 
TLFamily_CALI      .         Caliper                       : 
TLFamily_CILD      .         Conductivity                  : 
TLFamily_COLL      .         Net Reservoir Flag            : 
TLFamily_CSAT      .         Fluid Code                    : 
TLFamily_DEPT      .         Measured Depth                : 
TLFamily_GR        .         Russian Gamma Ray             : 
TLFamily_LLS       .         Lateral Log Resistivity       : 
TLFamily_MINV      .         Micro Gradient Resistivity    : 
TLFamily_MNOR      .         Micro Resistivity             : 
TLFamily_NGLD      .         Neutron Far                   : 
TLFamily_PHIE      .         Effective Porosity            : 
TLFamily_PHIEN     .         Effective Porosity            : 
TLFamily_PHIT      .         Porosity                      : 
TLFamily_PRMB      .         Permeability                  : 
TLFamily_PRMB_DGR  .         Permeability                  : 
TLFamily_RT        .         Formation Resistivity         : 
TLFamily_SOIL_ARCHIE .         Oil Saturation                : 
TLFamily_SOIL_DW   .         Oil Saturation                : 
TLFamily_SP        .         Spontaneous Potential         : 
TLFamily_VSH_FIN   .         Shale Volume                  : 
TLFamily_VSH_GR    .         Shale Volume                  : 
TLFamily_VSH_SP    .         Shale Volume                  : 
~Curve Information
#_______________________________________________________________________________
#
#LOGNAME           .UNIT     LOG_ID                        : DESCRIPTION
#_______________________________________________________________________________
DEPT               .M                                      : Колонка глубины 
CALI               .м                                      : Каверномер 
CILD               .мСм/м                                  : Индукционный каротаж 
COLL               .unitless                               : Описание 
CSAT               .unitless                               : Описание 
GR                 .uR/h                                   : Гамма каротаж 
LLS                .Ohmm                                   : Боковой каротаж 
MINV               .Ohmm                                   : Микро-градиент зонд 
MNOR               .Ohmm                                   : Микро-потенциал зонд 
NGLD               .у.е.                                   : Показания зонда НГК-60 аппаратуры ДРСТ-3-90 
PHIE               .v/v                                    : Описание 
PHIEN              .v/v                                    :  
PHIT               .v/v                                    : Описание 
PRMB               .mD                                     :  
PRMB_DGR           .mD                                     :  
RT                 .ohmm                                   : Description 
SOIL_ARCHIE        .v/v                                    :  
SOIL_DW            .v/v                                    :  
SP                 .мВ                                     : Потенциал самополяризации 
VSH_FIN            .v/v                                    : Описание 
VSH_GR             .v/v                                    : Shale volume 
VSH_SP             .v/v                                    : Shale Volume 
~Ascii
# ...
1121.2     0.23       390.977    -9999      -9999      6.292      2.08       1.705      0.992      1.052      0.139452   0.139452   0.3257984  1.071884   2.178222   2.08       0.1180901  0.446587   42.703     0.564686   0.4721237  0.6572483 
1121.4     0.232      394.46     -9999      -9999      6.255      1.904      1.431      1.06       1.038      0.1462922  0.1462922  0.3293796  1.434977   2.327249   1.904      0.1182825  0.4356689  42.581     0.5548102  0.4595364  0.6500841 
1121.6     0.232      398.7841   -9999      -9999      6.219      1.926      1.13       0.983      1.072      0.1410013  0.1410013  0.3206824  1.145104   2.482032   1.926      0.09443067 0.4215134  42.431     0.5444881  0.4476114  0.6413647 
1121.8     0.23       400.4991   -9999      -9999      6.444      1.938      0.783      0.897      1.105      0.1185175  0.1185175  0.312241   0.4389243  1.659706   1.938      0          0.3750262  42.52      0.5870409  0.5275555  0.6465263 
1122       0.229      401.344    -9999      -9999      6.607      1.93       0.828      0.909      1.098      0.1123016  0.1123016  0.3140316  0.3367096  1.239981   1.93       0          0.363989   42.204     0.6113031  0.5942505  0.6283557 
1122.2     0.23       400.451    -9999      -9999      6.717      1.994      0.791      0.85       1.114      0.1002405  0.1002405  0.3099388  0.2013057  1.018519   1.994      0          0.3435419  42.179     0.6354493  0.6439618  0.6269368 
1122.4     0.228      398.688    -9999      -9999      6.689      1.887      0.957      0.946      1.119      0.1018865  0.1018865  0.3086598  0.2159451  1.070826   1.887      0          0.3271116  42.096     0.6265858  0.6309268  0.6222448 
1122.6     0.225      392.709    -9999      -9999      6.457      2.102      1.359      1.032      1.121      0.1151592  0.1151592  0.3081482  0.3803526  1.621559   2.102      0          0.3885435  42.356     0.584815   0.5325882  0.6370418 
1122.8     0.224      388.206    -9999      -9999      6.227      2.008      1.728      1.091      1.15       0.124531   0.124531   0.30073    0.5672492  2.446768   2.008      0.01051593 0.3823155  42.014     0.5339364  0.4502345  0.6176384 
1123       0.223      382.096    -9999      -9999      6.293      1.968      1.968      0.972      1.153      0.1179792  0.1179792  0.2999626  0.4289622  2.174327   1.968      0          0.3626318  42.241     0.5514649  0.4724687  0.630461  
1123.2     0.223      366.424    -9999      -9999      6.689      2.023      2.009      1.039      1.117      0.09402741 0.09402741 0.3091714  0.154445   1.070826   2.023      0          0.3329253  42.967     0.6519515  0.6309268  0.6729762 
1123.4     0.225      334.779    -9999      -9999      6.577      2.018      2.355      1.125      1.09       0.1050196  0.1050196  0.316078   0.2468174  1.308334   2.018      0          0.3660164  43.373     0.6395709  0.5813719  0.6977699 
1123.6     0.224      300.544    -9999      -9999      6.371      1.983      2.447      0.811      1.115      0.1026127  0.1026127  0.309683   0.2227376  1.891195   1.983      0          0.3466222  44.264     0.6274859  0.5001652  0.7548065 
1123.8     0.224      260.568    -9999      -9999      6.174      1.987      2.232      0.835      1.144      0.111451   0.111451   0.3022648  0.3247139  2.690065   1.987      0          0.3557805  43.779     0.5782236  0.4331394  0.7233077 
1124       0.224      223.326    -9999      -9999      6.058      2.017      2.271      0.974      1.158      0.1244387  0.1244387  0.2986836  0.5650208  3.310315   2.017      0.01195249 0.3808574  42.717     0.5280149  0.3979552  0.6580746 
1124.2     0.224      210.157    -9999      -9999      6.055      2.142      1.425      1.162      1.167      0.1342551  0.1342551  0.2963814  0.8587918  3.328126   2.142      0.1009088  0.4130512  41.427     0.4912919  0.3970841  0.5854995 
1124.4     0.223      205.417    6          6          5.814      3.585      1.436      1.418      1.219      0.14078    0.14078    0.2830798  1.134347   5.121584   3.585      0.3225252  0.5415289  40.333     0.4312114  0.3329973  0.5294256 
1124.6     0.221      199.001    6          6          5.295      7.999      1.825      1.862      1.291      0.1587115  0.1587115  0.2646622  2.43714    12.95851   7.999      0.581221   0.6949316  37.713     0.3210627  0.2279401  0.4141852 
1124.8     0.219      178.54     6          6          4.96       8.644      2.057      2.029      1.253      0.1886367  0.1886367  0.2743826  8.733081   23.5927    8.644      0.652589   0.7321744  35.663     0.259836   0.1784692  0.3412028 
1125       0.222      175.79     1          2          5.185      5.224      1.626      1.687      1.217      0.2013023  0.2013023  0.2835914  14.98873   15.77616   5.224      0.5841885  0.6710281  33.866     0.2493609  0.210344   0.2883778 
1125.2     0.223      186.201    1          2          5.677      4.772      1.541      1.479      1.191      0.1952062  0.1952062  0.2902422  11.55712   6.543707   4.772      0.554373   0.6561573  33.338     0.287988   0.301291   0.2746851 
1125.4     0.222      197.438    1          2          5.77       4.073      1.499      1.379      1.179      0.1971959  0.1971959  0.2933118  12.58071   5.540934   4.073      0.5242112  0.6316582  32.737     0.2912602  0.3224663  0.260054  
1125.6     0.221      203.974    1          2          5.675      4.954      1.619      1.61       1.181      0.2011353  0.2011353  0.2928002  14.88238   6.567156   4.954      0.5733955  0.6683642  32.506     0.2777723  0.3008512  0.2546935 
1125.8     0.222      213.106    -9999      -9999      6.395      4.93       1.609      1.734      1.196      0.1643127  0.1643127  0.2889632  3.094765   1.81173    4.93       0.4900826  0.6364869  32.138     0.3777288  0.5090097  0.246448  
1126       0.222      237.449    -9999      -9999      6.933      4.099      1.455      1.54       1.208      0.1210894  0.1210894  0.2858936  0.4898106  0.6921235  4.099      0.2745994  0.5490001  32.063     0.4994066  0.7540019  0.2448112 
1126.2     0.224      245.75     -9999      -9999      6.863      3.659      1.514      1.489      1.217      0.1251023  0.1251023  0.2835914  0.5812404  0.7844379  3.659      0.2563166  0.5259855  32.031     0.48027    0.7164227  0.2441173 
1126.4     0.224      255.404    -9999      -9999      6.645      3.395      1.629      1.561      1.216      0.1409516  0.1409516  0.2838472  1.142677   1.158504   3.395      0.305727   0.5298795  32.522     0.433017   0.610974   0.2550601 
1126.6     0.224      271.762    -9999      -9999      6.437      2.997      1.433      1.417      1.214      0.1551253  0.1551253  0.2843588  2.091491   1.680616   2.997      0.3228271  0.5184218  32.665     0.3916165  0.5248653  0.2583678 
1126.8     0.224      288.761    -9999      -9999      6.223      2.899      1.472      1.43       1.221      0.1573112  0.1573112  0.2825682  2.295851   2.464336   2.899      0.3205112  0.5111619  34.65      0.3795666  0.4489211  0.3102122 
1127       0.224      300.823    -9999      -9999      6.515      2.791      1.537      1.376      1.223      0.1298696  0.1298696  0.2820566  0.7122929  1.461771   2.791      0.1826118  0.4629959  36.426     0.4611726  0.5556335  0.3667118 
1127.2     0.226      329.834    -9999      -9999      6.5        2.437      1.502      1.225      1.223      0.1181571  0.1181571  0.2820566  0.4322285  1.50152    2.437      0.0541533  0.4047269  38.444     0.4966652  0.5495796  0.4437509 
1127.4     0.229      342.499    -9999      -9999      6.372      2.04       1.473      0.928      1.231      0.1120616  0.1120616  0.2800102  0.3332805  1.887813   2.04       0          0.3335831  40.084     0.5089353  0.5005308  0.5173398 
1127.6     0.227      334.935    -9999      -9999      6.274      1.839      1.627      0.796      1.263      0.08658317 0.08658317 0.2718246  0.1124316  2.249489   1.839      0          0.2165333  42.694     0.5613376  0.4659577  0.6567176 
1127.8     0.227      297.206    -9999      -9999      6.103      2.02       1.96       1.095      1.331      0.070652   0.070652   0.2544302  0.05699077 3.054316   2.02       0          0.1641277  43.45      0.5569037  0.4112516  0.7025557 
