~Version
 VERS              .         2.0                           : CWLS LOG ASCII STANDARD - VERSION 2.0
 WRAP              .         NO                            : ONE LINE PER DEPTH STEP
 DLM               .         SPACE                         : DELIMITING CHARACTER(SPACE TAB OR COMMA)
~Well Information
#_______________________________________________________________________________
#
#PARAMETER_NAME    .UNIT     VALUE                         : DESCRIPTION
#_______________________________________________________________________________
STRT               .M        880                           : First reference value
STOP               .M        1396                          : Last reference value
STEP               .M        0.2                           : Step increment
NULL               .         -9999                         : Missing value
COMP               .                                       : Company
WELL               .         4021                          : Well name
FLD                .         УЗЕНЬ                         : Field
LOC                .                                       : Location
CNTY               .                                       : County
STAT               .                                       : State
CTRY               .         Казахстан                     : Country
SRVC               .                                       : Service Company
DATE               .         23.03.2009                    : Date
UWI                .                                       : Unique Well ID
Block              .         3а                            : 
Cartographic_reference_system .         GCS_WGS_1984                  : ESRI,PE_10_3_1- <?xml version="1.0" encoding="utf-16"?><ILateBoundCoordinateReferenceSystem name="GCS_WGS_1984"><AuthorityCode>EPSG,4326</AuthorityCode></ILateBoundCoordinateReferenceSystem>
Category           .         Нефтяная                      : 
Condition          .         В простое                     : 
Date               .         06.05.1990                    : 
EREF               .m        235.7                         : 100.8
Gorizont           .         18                            : 14
HZCS               .GCS_WGS_1984 WGS_1984_EASE-Grid_2.0_Global : ESRI,PE_10_3_1- <?xml version="1.0" encoding="utf-16"?><ILateBoundCoordinateReferenceSystem name="WGS_1984_EASE-Grid_2.0_Global"><AuthorityCode>EPSG,6933</AuthorityCode></ILateBoundCoordinateReferenceSystem>
Interpretator      .         Чиндаулова Г.К.               : 
Kupol              .         основной                      : osnovnoi
LATI               .dega     0.6315670686                  : GCS_WGS_1984
LONG               .dega     0.5736255958                  : GCS_WGS_1984
METD               .         OGZ3, GZ3, SP                 : Method
Mud                .         0                             : 
Mud_density        .         0                             : 
Mud_resistivity    .         0                             : 
NGDU               .         НГДУ-1                        : 
ORIGINALWELLNAME   .         4021                          : 
SCAL               .         500                           : Scale
Spud_date          .         1990                          : 1961
Viscosity          .         0                             : 
X                  .m        55347                         : 46154
Y                  .m        80569.5                       : 85761.93
YEAR               .         2018                          : 
Исправлено         .         18                            : 
~Parameter Information Block
#_______________________________________________________________________________
#
#PARAMETER_NAME    .UNIT     VALUE                         : DESCRIPTION
#_______________________________________________________________________________
SET                .         LQC_KAZNIPI_Petrel            : 
TLFamily_CALI      .         Caliper                       : 
TLFamily_CILD      .         Conductivity                  : 
TLFamily_COLL      .         Net Reservoir Flag            : 
TLFamily_CSAT      .         Fluid Code                    : 
TLFamily_DEPT      .         Measured Depth                : 
TLFamily_GR        .         Russian Gamma Ray             : 
TLFamily_LLS       .         Lateral Log Resistivity       : 
TLFamily_MINV      .         Micro Gradient Resistivity    : 
TLFamily_MNOR      .         Micro Resistivity             : 
TLFamily_NGLD      .         Neutron Far                   : 
TLFamily_PHIE      .         Effective Porosity            : 
TLFamily_PHIEN     .         Effective Porosity            : 
TLFamily_PHIT      .         Porosity                      : 
TLFamily_PRMB      .         Permeability                  : 
TLFamily_PRMB_DGR  .         Permeability                  : 
TLFamily_RT        .         Formation Resistivity         : 
TLFamily_SOIL_ARCHIE .         Oil Saturation                : 
TLFamily_SOIL_DW   .         Oil Saturation                : 
TLFamily_SP        .         Spontaneous Potential         : 
TLFamily_VSH_FIN   .         Shale Volume                  : 
TLFamily_VSH_GR    .         Shale Volume                  : 
TLFamily_VSH_SP    .         Shale Volume                  : 
~Curve Information
#_______________________________________________________________________________
#
#LOGNAME           .UNIT     LOG_ID                        : DESCRIPTION
#_______________________________________________________________________________
DEPT               .M                                      : Колонка глубины 
CALI               .м                                      : Каверномер 
CILD               .мСм/м                                  : Индукционный каротаж 
COLL               .unitless                               : Описание 
CSAT               .unitless                               : Описание 
GR                 .uR/h                                   : Гамма каротаж 
LLS                .Ohmm                                   : Боковой каротаж 
MINV               .Ohmm                                   : Микро-градиент зонд 
MNOR               .Ohmm                                   : Микро-потенциал зонд 
NGLD               .у.е.                                   : Показания зонда НГК-60 аппаратуры ДРСТ-3-90 
PHIE               .v/v                                    : Описание 
PHIEN              .v/v                                    :  
PHIT               .v/v                                    : Описание 
PRMB               .mD                                     :  
PRMB_DGR           .mD                                     :  
RT                 .ohmm                                   : Description 
SOIL_ARCHIE        .v/v                                    :  
SOIL_DW            .v/v                                    :  
SP                 .мВ                                     : Потенциал самополяризации 
VSH_FIN            .v/v                                    : Описание 
VSH_GR             .v/v                                    : Shale volume 
VSH_SP             .v/v                                    : Shale Volume 
~Ascii
# ...
1345.6     0.209      208.324    6          6          4.778      5.845      1.599      2.734      1.523      0.1457271  0.1457271  0.2053166  1.400807   80.27438   5.845      0.5149462  0.6017647  13.515     0.1805741  0.108246   0.2529022 
1345.8     0.209      246.235    1          2          5.281      3.615      1.411      1.705      1.395      0.1731858  0.1731858  0.238059   4.518348   32.3231    3.615      0.477102   0.5678264  12.746     0.1965854  0.1569386  0.2362322 
1346       0.209      273.53     1          2          5.656      2.824      1.222      1.359      1.287      0.1956533  0.1956533  0.2656854  11.77966   16.40523   2.824      0.4720366  0.5641487  11.781     0.2122184  0.2070124  0.2174244 
1346.2     0.209      290.645    1          2          6.001      2.479      1.532      1.268      1.211      0.2035382  0.2035382  0.2851262  16.48842   8.790511   2.479      0.4577317  0.5607404  12.307     0.2472364  0.2670802  0.2273927 
1346.4     0.209      315.808    -9999      -9999      6.168      2.254      1.877      1.276      1.224      0.1889876  0.1889876  0.2818008  8.864769   6.499046   2.254      0.3951315  0.5214208  13.838     0.2812521  0.3021347  0.2603694 
1346.6     0.21       334.58     -9999      -9999      6.061      2.142      1.974      1.283      1.224      0.1892082  0.1892082  0.2818008  8.948554   7.886591   2.142      0.3811197  0.5093094  14.711     0.2805836  0.27918    0.2819873 
1346.8     0.21       353.232    -9999      -9999      6.022      2.143      2.069      1.291      1.218      0.1889959  0.1889959  0.2833356  8.867881   8.462923   2.143      0.3806498  0.510733   15.397     0.285878   0.2712543  0.3005017 
1347       0.21       363.099    -9999      -9999      5.974      2.261      1.598      1.294      1.227      0.1859777  0.1859777  0.2810334  7.796782   9.230397   2.261      0.387506   0.5181631  15.877     0.2880477  0.2618078  0.3142877 
1347.2     0.211      372.492    -9999      -9999      5.964      2.382      1.55       1.265      1.238      0.1856036  0.1856036  0.2782196  7.673397   9.398838   2.382      0.4012595  0.5274155  15.43      0.2806544  0.2598816  0.3014272 
1347.4     0.212      379.276    -9999      -9999      6.127      2.469      1.529      1.25       1.225      0.1830201  0.1830201  0.281545   6.872819   6.999258   2.469      0.4040225  0.5362829  15.521     0.2985602  0.2931239  0.3039965 
1347.6     0.212      391.7801   -9999      -9999      6.223      2.566      1.429      1.301      1.213      0.1829187  0.1829187  0.2846146  6.843142   5.883717   2.566      0.41442    0.5478854  15.439     0.3081694  0.3146586  0.3016802 
1347.8     0.212      402.623    -9999      -9999      6.089      2.432      1.329      1.27       1.219      0.1842049  0.1842049  0.2830798  7.229036   7.497171   2.432      0.4031485  0.5354999  15.875     0.2996208  0.2850128  0.3142288 
1348       0.21       402.577    -9999      -9999      6.119      2.179      1.508      1.247      1.201      0.1842558  0.1842558  0.2876842  7.244738   7.101254   2.179      0.3717266  0.513912   16.57      0.3134194  0.2913974  0.3354414 
1348.2     0.211      406.456    -9999      -9999      6.02       2.128      1.472      1.278      1.177      0.1911049  0.1911049  0.2938234  9.702501   8.493587   2.128      0.3845819  0.5214899  17.071     0.3112683  0.270854   0.3516826 
1348.4     0.212      411.1839   -9999      -9999      5.832      2.156      1.947      1.308      1.173      0.1924053  0.1924053  0.2948466  10.25585   11.93299   2.156      0.3919477  0.5269131  18.031     0.3104281  0.2357444  0.3851117 
1348.6     0.21       410.975    -9999      -9999      5.879      2.146      1.525      1.197      1.185      0.1837474  0.1837474  0.291777   7.089342   10.9606    2.146      0.3656867  0.5136424  18.71      0.3273624  0.2440703  0.4106545 
1348.8     0.21       410.2209   -9999      -9999      5.889      2.12       1.363      1.146      1.177      0.1942356  0.1942356  0.2938234  11.0885    10.76417   2.12       0.3921569  0.523846   17.25      0.3017811  0.2458793  0.357683  
1349       0.212      409.305    -9999      -9999      5.944      2.112      1.744      1.304      1.176      0.1891499  0.1891499  0.2940792  8.926345   9.745026   2.112      0.3768428  0.5178523  17.886     0.3179675  0.2560714  0.3798636 
1349.2     0.212      408.146    -9999      -9999      5.985      2.086      2.07       1.33       1.179      0.1747619  0.1747619  0.2933118  4.832505   9.048586   2.086      0.3284976  0.4978705  19.787     0.3592421  0.2639431  0.4545411 
1349.4     0.212      407.037    -9999      -9999      6.058      2.118      2.196      1.314      1.197      0.1698875  0.1698875  0.2887074  3.92542    7.929493   2.118      0.3166473  0.4911205  19.479     0.3600604  0.2785623  0.4415585 
1349.6     0.212      402.208    -9999      -9999      6.259      2.141      2.154      1.306      1.22       0.1520604  0.1520604  0.282824   1.835206   5.512861   2.141      0.2511824  0.4639125  20.129     0.3962534  0.3231359  0.469371  
1349.8     0.212      403.032    -9999      -9999      6.346      2.153      1.906      1.377      1.227      0.1478498  0.1478498  0.2810334  1.533542   4.710269   2.153      0.2346529  0.4572527  19.974     0.4035866  0.3445777  0.4625955 
1350       0.212      399.505    -9999      -9999      6.303      2.143      2.241      1.342      1.247      0.1414616  0.1414616  0.2759174  1.167803   5.091182   2.143      0.2028976  0.4401152  20.392     0.4074419  0.3338078  0.481076  
1350.2     0.212      393.3609   -9999      -9999      6.492      2.171      2.85       1.186      1.232      0.1329461  0.1329461  0.2797544  0.8121606  3.617221   2.171      0.1637194  0.4345159  20.932     0.4448737  0.3838053  0.5059421 
1350.4     0.213      396.785    -9999      -9999      6.604      2.167      2.845      1.179      1.195      0.1292382  0.1292382  0.289219   0.6933661  2.953988   2.167      0.1421186  0.4391121  21.886     0.4847903  0.4168988  0.5526819 
1350.6     0.214      396.572    -9999      -9999      6.443      2.159      1.867      1.266      1.158      0.1499318  0.1499318  0.2986836  1.675941   3.952398   2.159      0.2449042  0.4803279  21.46      0.450763   0.3701656  0.5313605 
1350.8     0.214      393.022    -9999      -9999      6.425      2.131      1.828      1.346      1.199      0.1436406  0.1436406  0.2881958  1.281536   4.083175   2.131      0.2113643  0.4563444  21.035     0.438046   0.3652779  0.5108141 
1351       0.214      390.707    -9999      -9999      6.386      2.178      1.904      1.37       1.205      0.1417249  0.1417249  0.286661   1.180993   4.381563   2.178      0.2102147  0.4576155  21.299     0.4392002  0.3549078  0.5234926 
1351.2     0.216      386.7941   -9999      -9999      6.347      2.23       2.427      1.211      1.217      0.1462932  0.1462932  0.2835914  1.435039   4.701759   2.23       0.2401979  0.4673161  20.529     0.4160551  0.3448322  0.4872779 
1351.4     0.214      383.02     -9999      -9999      6.449      2.225      2.86       1.129      1.241      0.1350165  0.1350165  0.2774522  0.8871369  3.909742   2.225      0.1843577  0.4420565  20.62      0.4316234  0.3718093  0.4914374 
1351.6     0.213      372.6591   -9999      -9999      6.561      2.22       2.702      1.229      1.266      0.1232863  0.1232863  0.2710572  0.5379221  3.192872   2.22       0.1162358  0.412798   20.626     0.4477906  0.4038685  0.4917127 
1351.8     0.212      363.9561   -9999      -9999      6.552      2.212      2.087      1.442      1.234      0.1350826  0.1350826  0.2792428  0.8896426  3.245265   2.212      0.1824605  0.4426935  20.2       0.4368491  0.4011932  0.472505  
1352       0.212      354.591    -9999      -9999      6.624      2.227      1.985      1.482      1.243      0.121224   0.121224   0.2769406  0.4926298  2.849052   2.227      0.1044794  0.4175269  21.24      0.4718685  0.4231018  0.5206352 
1352.2     0.212      340.031    -9999      -9999      6.622      2.256      2.22       1.349      1.255      0.11613    0.11613    0.273871   0.3964303  2.859375   2.256      0.07598896 0.4075503  21.504     0.4780031  0.4224774  0.5335289 
