~Version
 VERS              .         2.0                           : CWLS LOG ASCII STANDARD - VERSION 2.0
 WRAP              .         NO                            : ONE LINE PER DEPTH STEP
 DLM               .         SPACE                         : DELIMITING CHARACTER(SPACE TAB OR COMMA)
~Well Information
#_______________________________________________________________________________
#
#PARAMETER_NAME    .UNIT     VALUE                         : DESCRIPTION
#_______________________________________________________________________________
STRT               .M        987                           : First reference value
STOP               .M        1321.2                        : Last reference value
STEP               .M        0.2                           : Step increment
NULL               .         -9999                         : Missing value
COMP               .                                       : Company
WELL               .         1253                          : Well name
FLD                .         УЗЕНЬ                         : Field
LOC                .                                       : Location
CNTY               .                                       : County
STAT               .                                       : State
CTRY               .                                       : Country
SRVC               .                                       : Service Company
DATE               .         03.01.1968                    : Date
UWI                .                                       : Unique Well ID
Block              .         4                             : 
Category           .         Нефтяная                      : 
Condition          .         Ликвидированная               : 
Date               .         30.05.1968                    : 
EREF               .m        223.3                         : 100.8
Gorizont           .         15                            : 14
Interpretator      .         Алпанова Н.К.                 : 
Kupol              .         основной                      : osnovnoi
Moii_15_vosst      .         15_vosst                      : 
Mud                .                                       : 
Mud_density        .                                       : 
Mud_resistivity    .                                       : 
Mud_density        .                                       : 
Mud_resistivity    .                                       : 
NGDU               .         НГДУ-1                        : 
ORIGINALWELLNAME   .         1253                          : 
Spud_date          .         1968                          : 1961
Spud_date          .         1968                          : 1961
Viscosity          .                                       : 
X                  .m        54076.2                       : 46154
Y                  .m        82250.8                       : 85761.93
YEAR               .         2018                          : 
~Parameter Information Block
#_______________________________________________________________________________
#
#PARAMETER_NAME    .UNIT     VALUE                         : DESCRIPTION
#_______________________________________________________________________________
SET                .         LQC_KAZNIPI_Petrel            : 
AVST               .DEGC     -999.25                       : Average Surface Temperature
BS                 .MM       -999.25                       : Диаметр долота
CABL               .         -999.25                       : Cable Tipe
CBD                .m        -999.25                       : 
CLEN               .KM       -999.25                       : Cable Length
DFD                .G/C3     -999.25                       : Drilling Fluid Density
DFV                .s        -999.25                       : Вязкость промывочной жидкости
DIRE               .         -999.25                       : Move Direction
EGL                .m        -999.25                       : Альтитуда поверхности земли
EKB                .m        -999.25                       : Альтитуда стола ротора
GSDD               .         CSAT                          : CSATкрив,0,DEPT,BOTTOM,,,,0
MT                 .         -999.25                       : Mud type
RMF                .OHMM     -999.25                       : Сопротивление фильтрата промывочной жидкости
SPEE               .M        -999.25                       : Speed
TDL                .m        -999.25                       : Полная глубина по каротажу
TLFamily_CALI      .         Caliper                       : 
TLFamily_COLL      .         Net Reservoir Flag            : 
TLFamily_CSAT      .         Fluid Code                    : 
TLFamily_DEPT      .         Measured Depth                : 
TLFamily_GR        .         Russian Gamma Ray             : 
TLFamily_GZ3       .         Gradient 225                  : 
TLFamily_LLS       .         Lateral Log Resistivity       : 
TLFamily_MINV      .         Micro Gradient Resistivity    : 
TLFamily_MNOR      .         Micro Resistivity             : 
TLFamily_NGLD      .         Neutron Far                   : 
TLFamily_OGZ       .         Gradient Inverted 225         : 
TLFamily_PHIE      .         Effective Porosity            : 
TLFamily_PHIEN     .         Effective Porosity            : 
TLFamily_PHIT      .         Porosity                      : 
TLFamily_PRMB      .         Permeability                  : 
TLFamily_PRMB_DGR  .         Permeability                  : 
TLFamily_RT        .         Formation Resistivity         : 
TLFamily_SOIL_ARCHIE .         Oil Saturation                : 
TLFamily_SOIL_DW   .         Oil Saturation                : 
TLFamily_SP        .         Spontaneous Potential         : 
TLFamily_VSH_FIN   .         Shale Volume                  : 
TLFamily_VSH_GR    .         Shale Volume                  : 
TLFamily_VSH_SP    .         Shale Volume                  : 
TOOL               .         -999.25                       : Tool Type
~Curve Information
#_______________________________________________________________________________
#
#LOGNAME           .UNIT     LOG_ID                        : DESCRIPTION
#_______________________________________________________________________________
DEPT               .M                                      : Колонка глубины 
CALI               .м                                      : Каверномер 
COLL               .unitless                               :  
CSAT               .unitless                               :  
GR                 .uR/h                                   : Гамма каротаж 
GZ3                .Ohmm                                   : Градиент-зонд  длиной 2.25м 
LLS                .Ohmm                                   : Боковой каротаж 
MINV               .Ohmm                                   : Микро-градиент зонд 
MNOR               .Ohmm                                   : Микро-потенциал зонд 
NGLD               .у.е.                                   : Показания зонда НГК-60 аппаратуры ДРСТ-3-90 
OGZ                .Ohmm                                   : Обращенный градиент-зонд 
PHIE               .м3/м3                                  : Описание 
PHIEN              .v/v                                    :  
PHIT               .м3/м3                                  : Описание 
PRMB               .mD                                     :  
PRMB_DGR           .mD                                     :  
RT                 .ohmm                                   : Description 
SOIL_ARCHIE        .v/v                                    :  
SOIL_DW            .v/v                                    :  
SP                 .мВ                                     : Потенциал самополяризации 
VSH_FIN            .unitless                               : Описание 
VSH_GR             .unitless                               : Shale volume 
VSH_SP             .unitless                               : Shale Volume 
~Ascii
# ...
1006       0.222      1          3          2.077265   2.184      5.442      1.143      1.289      1.002594   2.413      0.2559241  0.2559241  0.2826111  153.9901   4595.701   2.292796   0.5035048  0.5502559  29.653     0.08086980000000001 0.0207326  0.141007  
1006.2     0.222      1          3          2.088978   2.159      5.186      1.092      1.308      0.9988813  2.464      0.2575988  0.2575988  0.2843127  165.3913   4508.418   2.301439   0.5071881  0.5538872  29.653     0.08095128 0.02089557 0.141007  
1006.4     0.221      1          3          2.10317    2.134      5.474      1.111      1.276      0.9955739  2.515      0.2590817  0.2590817  0.2858285  176.1891   4404.883   2.308888   0.5103887  0.5570498  29.653     0.08105087 0.02109475 0.141007  
1006.6     0.221      1          3          2.118472   2.134      5.794      1.124      1.175      0.9934243  2.515      0.2600311  0.2600311  0.2868136  183.4697   4295.918   2.308888   0.511946   0.5586122  29.653     0.0811593  0.02131161 0.141007  
1006.8     0.221      1          3          2.134269   2.108      5.538      1.143      1.257      0.9928304  2.464      0.2602659  0.2602659  0.2870858  185.3168   4186.252   2.27214    0.5086442  0.5554703  29.653     0.08127242 0.02153784 0.141007  
1007       0.222      1          3          2.151263   2.108      5.026      1.035      1.238      0.9939958  2.515      0.2596912  0.2596912  0.2865517  180.8297   4071.401   2.293584   0.5098627  0.5566624  29.653     0.08139544 0.02178389 0.141007  
1007.2     0.221      1          3          2.170893   2.108      4.834      1.162      1.257      0.9966798  2.489      0.2584137  0.2584137  0.2853217  171.2404   3942.646   2.282712   0.5066540000000001 0.5535716  29.653     0.0815393  0.02207162 0.141007  
1007.4     0.221      1          3          2.194002   2.108      4.449      1.06       1.308      1.000461   2.565      0.2566241  0.2566241  0.2835887  158.6567   3796.284   2.314154   0.506835   0.5537412  29.653     0.0817111  0.0224152  0.141007  
1007.6     0.221      1          3          2.2191     2.108      4.193      1.264      1.46       1.004757   2.642      0.2545926  0.2545926  0.2816198  145.4893   3643.478   2.344984   0.5064839  0.5533974  29.653     0.08190070000000001 0.02279441 0.141007  
1007.8     0.221      1          3          2.243645   2.032      4.577      0.889      1.111      1.008913   2.642      0.2526259  0.2526259  0.2797154  133.7836   3499.984   2.297195   0.4983154  0.5455149  29.653     0.08208923999999999 0.02317148 0.141007  
1008       0.221      1          3          2.262629   2.007      4.289      1.099      1.314      1.01269    2.616      0.250846   0.250846   0.2779843  124.0038   3392.885   2.271387   0.4925332  0.539924   29.653     0.0822372  0.0234674  0.141007  
1008.2     0.221      1          3          2.271231   2.007      4.065      0.991      1.219      1.016155   2.642      0.2492354  0.2492354  0.276396   115.7716   3345.443   2.281133   0.4907025  0.5381289  29.653     0.08230487 0.02360273 0.141007  
1008.4     0.221      1          3          2.265233   2.007      4.033      0.965      1.118      1.019519   2.565      0.2477495  0.2477495  0.2748545  108.6624   3378.457   2.251949   0.4849403  0.5324612  29.591     0.08213631 0.02350828 0.1407643 
1008.6     0.221      1          3          2.243133   2.007      4.065      0.965      1.162      1.023175   2.54       0.2462105  0.2462105  0.2731788  101.7594   3502.915   2.242261   0.4810887  0.5285547  29.466     0.08172201 0.02316356 0.1402805 
1008.8     0.221      1          3          2.205965   2.007      4.097      1.067      1.238      1.02745    2.515      0.2443053  0.2443053  0.2712198  93.8176    3722.663   2.232466   0.4764915  0.5239924  29.529     0.08155931 0.02259517 0.1405234 
1009       0.22       1          3          2.157292   2.007      4.161      1.003      1.314      1.032379   2.515      0.2422057  0.2422057  0.2689609  85.78191   4031.416   2.232466   0.4725413  0.5199395  29.466     0.08107615999999999 0.02187186 0.1402805 
1009.2     0.221      1          3          2.102292   2.007      4.161      1.264      1.283      1.037784   2.515      0.2398978  0.2398978  0.2664835  77.74046   4411.219   2.232466   0.4681244  0.51541    29.404     0.08056273 0.02108237 0.1400431 
1009.4     0.221      1          3          2.046767   1.981      4.033      1.276      1.302      1.043391   2.464      0.2374548  0.2374548  0.2639138  70.04835   4830.962   2.196258   0.4592282  0.5065593  29.404     0.08017866 0.02031423 0.1400431 
1009.6     0.222      1          3          1.996358   1.905      3.841      0.965      1.137      1.04901    2.438      0.2349315  0.2349315  0.2613386  62.90123   5246.521   2.138793   0.4473395  0.4948573  29.404     0.08002155 0.02       0.1400431 
1009.8     0.221      1          3          1.954307   2.007      4.321      0.946      1.187      1.054431   2.464      0.2324471  0.2324471  0.2588542  56.57724   5620.397   2.212144   0.4509554  0.4983037  29.404     0.08002155 0.02       0.1400431 
1010       0.221      1          3          1.921858   2.007      4.353      1.06       1.067      1.059327   2.489      0.2302033  0.2302033  0.2566104  51.41397   5927.013   2.222163   0.4474703  0.4948441  29.404     0.08002155 0.02       0.1400431 
1010.2     0.222      1          3          1.897767   2.007      3.489      1.219      1.384      1.063409   2.464      0.2283326  0.2283326  0.2547397  47.4713    6165.426   2.212144   0.4423484  0.4897994  29.404     0.08002155 0.02       0.1400431 
1010.4     0.222      1          3          1.879292   1.981      3.457      0.946      0.965      1.065962   2.464      0.2271623  0.2271623  0.2535694  45.16011   6354.741   2.196258   0.4379495  0.4854767  29.404     0.08002155 0.02       0.1400431 
1010.6     0.222      1          3          1.862831   1.956      3.553      0.813      1.213      1.066421   2.489      0.2269128  0.2269128  0.2533591  44.6821    6528.311   2.190544   0.4367231  0.4843189  29.466     0.08014023000000001 0.02       0.1402805 
1010.8     0.222      1          3          1.846113   1.956      3.393      1.01       1.308      1.064105   2.464      0.2279341  0.2279341  0.2544205  46.67145   6709.438   2.180807   0.4377478  0.4853935  29.529     0.08026172 0.02       0.1405234 
1011       0.221      1          3          1.829261   1.93       3.232      1.073      1.092      1.058805   2.413      0.2302835  0.2302835  0.2568496  51.59013   6897.101   2.144642   0.4383568  0.4861459  29.653     0.08050350000000001 0.02       0.141007  
1011.2     0.221      1          3          1.814252   1.905      3.297      0.946      0.997      1.050718   2.388      0.2339081  0.2339081  0.2605559  60.21481   7068.658   2.119329   0.442849   0.4907207  29.778     0.08075081000000001 0.02       0.1415016 
1011.4     0.222      1          3          1.804246   1.905      4.097      1.048      1.149      1.040375   2.362      0.2385235  0.2385235  0.2652963  73.31480000000001 7185.399   2.109027   0.4509964  0.4989246  29.966     0.08112961000000001 0.02       0.1422592 
1011.6     0.222      1          3          1.802095   1.88       4.706      0.883      1.187      1.028708   2.311      0.2438284  0.2438284  0.270643   91.92869   7210.74    2.073338   0.4570834  0.5050478  30.028     0.08125636 0.02       0.1425127 
1011.8     0.222      1          3          1.80846    1.854      4.097      1.041      1.34       1.016718   2.261      0.2492813  0.2492813  0.276138   115.9985   7135.996   2.037373   0.4630505  0.511057   30.09      0.08138403 0.02       0.1427681 
1012       0.222      1          3          1.821107   1.829      3.297      0.762      1.124      1.005518   2.134      0.2542849  0.2542849  0.2812712  143.5925   6989.777   1.969763   0.4638404  0.5121159  30.278     0.08177674 0.02       0.1435535 
1012.2     0.222      1          3          1.836884   1.803      3.04       1.073      0.914      0.9960105  2.184      0.2585987  0.2585987  0.2856284  172.5972   6811.571   1.975296   0.4723336  0.5205299  30.34      0.08190812 0.02       0.1438162 
