~Version
 VERS              .         2.0                           : CWLS LOG ASCII STANDARD - VERSION 2.0
 WRAP              .         NO                            : ONE LINE PER DEPTH STEP
 DLM               .         SPACE                         : DELIMITING CHARACTER(SPACE TAB OR COMMA)
~Well Information
#_______________________________________________________________________________
#
#PARAMETER_NAME    .UNIT     VALUE                         : DESCRIPTION
#_______________________________________________________________________________
STRT               .M        987                           : First reference value
STOP               .M        1321.2                        : Last reference value
STEP               .M        0.2                           : Step increment
NULL               .         -9999                         : Missing value
COMP               .                                       : Company
WELL               .         1253                          : Well name
FLD                .         УЗЕНЬ                         : Field
LOC                .                                       : Location
CNTY               .                                       : County
STAT               .                                       : State
CTRY               .                                       : Country
SRVC               .                                       : Service Company
DATE               .         03.01.1968                    : Date
UWI                .                                       : Unique Well ID
Block              .         4                             : 
Category           .         Нефтяная                      : 
Condition          .         Ликвидированная               : 
Date               .         30.05.1968                    : 
EREF               .m        223.3                         : 100.8
Gorizont           .         15                            : 14
Interpretator      .         Алпанова Н.К.                 : 
Kupol              .         основной                      : osnovnoi
Moii_15_vosst      .         15_vosst                      : 
Mud                .                                       : 
Mud_density        .                                       : 
Mud_resistivity    .                                       : 
Mud_density        .                                       : 
Mud_resistivity    .                                       : 
NGDU               .         НГДУ-1                        : 
ORIGINALWELLNAME   .         1253                          : 
Spud_date          .         1968                          : 1961
Spud_date          .         1968                          : 1961
Viscosity          .                                       : 
X                  .m        54076.2                       : 46154
Y                  .m        82250.8                       : 85761.93
YEAR               .         2018                          : 
~Parameter Information Block
#_______________________________________________________________________________
#
#PARAMETER_NAME    .UNIT     VALUE                         : DESCRIPTION
#_______________________________________________________________________________
SET                .         LQC_KAZNIPI_Petrel            : 
AVST               .DEGC     -999.25                       : Average Surface Temperature
BS                 .MM       -999.25                       : Диаметр долота
CABL               .         -999.25                       : Cable Tipe
CBD                .m        -999.25                       : 
CLEN               .KM       -999.25                       : Cable Length
DFD                .G/C3     -999.25                       : Drilling Fluid Density
DFV                .s        -999.25                       : Вязкость промывочной жидкости
DIRE               .         -999.25                       : Move Direction
EGL                .m        -999.25                       : Альтитуда поверхности земли
EKB                .m        -999.25                       : Альтитуда стола ротора
GSDD               .         CSAT                          : CSATкрив,0,DEPT,BOTTOM,,,,0
MT                 .         -999.25                       : Mud type
RMF                .OHMM     -999.25                       : Сопротивление фильтрата промывочной жидкости
SPEE               .M        -999.25                       : Speed
TDL                .m        -999.25                       : Полная глубина по каротажу
TLFamily_CALI      .         Caliper                       : 
TLFamily_COLL      .         Net Reservoir Flag            : 
TLFamily_CSAT      .         Fluid Code                    : 
TLFamily_DEPT      .         Measured Depth                : 
TLFamily_GR        .         Russian Gamma Ray             : 
TLFamily_GZ3       .         Gradient 225                  : 
TLFamily_LLS       .         Lateral Log Resistivity       : 
TLFamily_MINV      .         Micro Gradient Resistivity    : 
TLFamily_MNOR      .         Micro Resistivity             : 
TLFamily_NGLD      .         Neutron Far                   : 
TLFamily_OGZ       .         Gradient Inverted 225         : 
TLFamily_PHIE      .         Effective Porosity            : 
TLFamily_PHIEN     .         Effective Porosity            : 
TLFamily_PHIT      .         Porosity                      : 
TLFamily_PRMB      .         Permeability                  : 
TLFamily_PRMB_DGR  .         Permeability                  : 
TLFamily_RT        .         Formation Resistivity         : 
TLFamily_SOIL_ARCHIE .         Oil Saturation                : 
TLFamily_SOIL_DW   .         Oil Saturation                : 
TLFamily_SP        .         Spontaneous Potential         : 
TLFamily_VSH_FIN   .         Shale Volume                  : 
TLFamily_VSH_GR    .         Shale Volume                  : 
TLFamily_VSH_SP    .         Shale Volume                  : 
TOOL               .         -999.25                       : Tool Type
~Curve Information
#_______________________________________________________________________________
#
#LOGNAME           .UNIT     LOG_ID                        : DESCRIPTION
#_______________________________________________________________________________
DEPT               .M                                      : Колонка глубины 
CALI               .м                                      : Каверномер 
COLL               .unitless                               :  
CSAT               .unitless                               :  
GR                 .uR/h                                   : Гамма каротаж 
GZ3                .Ohmm                                   : Градиент-зонд  длиной 2.25м 
LLS                .Ohmm                                   : Боковой каротаж 
MINV               .Ohmm                                   : Микро-градиент зонд 
MNOR               .Ohmm                                   : Микро-потенциал зонд 
NGLD               .у.е.                                   : Показания зонда НГК-60 аппаратуры ДРСТ-3-90 
OGZ                .Ohmm                                   : Обращенный градиент-зонд 
PHIE               .м3/м3                                  : Описание 
PHIEN              .v/v                                    :  
PHIT               .м3/м3                                  : Описание 
PRMB               .mD                                     :  
PRMB_DGR           .mD                                     :  
RT                 .ohmm                                   : Description 
SOIL_ARCHIE        .v/v                                    :  
SOIL_DW            .v/v                                    :  
SP                 .мВ                                     : Потенциал самополяризации 
VSH_FIN            .unitless                               : Описание 
VSH_GR             .unitless                               : Shale volume 
VSH_SP             .unitless                               : Shale Volume 
~Ascii
# ...
1230       0.208      -9999      -9999      7.95761    5.41       6.179      1.835      1.238      1.014231   6.528      0.1639517  0.1639517  0.2772779  3.047484   2.471109   5.916649   0.537546   0.6641521  32.151     0.3434127  0.4484183  0.2384071 
1230.2     0.208      -9999      -9999      7.952722   5.588      6.435      1.257      1.333      1.012105   7.112      0.1670944  0.1670944  0.2782523  3.48459    2.489908   6.25856    0.5569656  0.6766165  31.152     0.3368421  0.4470327  0.2266515 
1230.4     0.208      1          2          7.897362   5.486      11.11      1.054      1.613      1.009171   7.34       0.1725577  0.1725577  0.2795971  4.398914   2.713096   6.279002   0.5698664  0.6822237  30.278     0.3243618  0.4316342  0.2170893 
1230.6     0.208      1          2          7.809736   5.283      21.229     1.118      1.664      1.005324   6.756      0.1802672  0.1802672  0.2813598  6.111445   3.107961   5.929388   0.5746501000000001 0.6799396  29.029     0.3063412  0.4083381  0.2043443 
1230.8     0.209      1          2          7.711199   5.156      23.471     0.984      1.676      1.000974   6.35       0.1886068  0.1886068  0.2833536  8.72195    3.621045   5.691048   0.5831292  0.6806286  27.531     0.2871115  0.3836398  0.1905832 
1231       0.208      1          2          7.621164   5.258      15.017     0.959      1.524      0.9966553  5.588      0.1953614  0.1953614  0.2853329  11.63391   4.163581   5.41798    0.5862738  0.6787027  26.594     0.2726406  0.3623807  0.1829006 
1231.2     0.208      1          2          7.551386   5.486      12.135     1.143      1.276      0.9928496  4.978      0.1996495  0.1996495  0.287077   13.96855   4.63936    5.219669   0.5868575  0.6767366  26.594     0.2649319  0.3467185  0.1831452 
1231.4     0.208      1          2          7.505494   5.664      21.069     0.997      1.467      0.9899710000000001 4.419      0.202052   0.202052   0.2883963  15.47576   4.981539   4.964637   0.5814143000000001 0.6710595  26.969     0.2616493  0.3367886  0.1865099 
1231.6     0.208      1          2          7.481027   5.562      27.313     0.978      1.46       0.9882322  3.962      0.2025789  0.2025789  0.2891932  15.82748   5.17417    4.627603   0.5683552  0.6602085  27.718     0.2624674  0.3316112  0.1933236 
1231.8     0.208      1          2          7.471708   5.385      23.631     1.035      1.778      0.9880393  3.886      0.2021807  0.2021807  0.2892816  15.56091   5.249478   4.514316   0.5625564  0.6557527  28.218     0.2639421  0.3296604  0.1982238 
1232       0.208      1          2          7.468748   5.131      19.788     1.073      1.721      0.9896898  4.064      0.2015775  0.2015775  0.2885252  15.16569   5.273628   4.535592   0.5623832  0.655608   28.155     0.2634778  0.3290431  0.1979125 
1232.2     0.208      1          2          7.465106   4.902      13.864     1.321      1.733      0.9934831  4.292      0.2005864  0.2005864  0.2867867  14.538     5.303496   4.576764   0.5623603  0.6552414  27.718     0.261213   0.3282851  0.1941409 
1232.4     0.209      1          2          7.456267   5.054      10.342     0.952      1.562      0.9994657  4.419      0.1992826  0.1992826  0.2840449  13.75167   5.37669    4.715217   0.5659802  0.6574999  26.907     0.2568553  0.3264529  0.1872578 
1232.6     0.209      1          2          7.440181   5.537      8.228      1.092      1.549      1.007408   4.47       0.1974143  0.1974143  0.280405   12.69841   5.51249    4.946615   0.572133   0.6617538  25.97      0.2514871  0.3231447  0.1798295 
1232.8     0.209      1          2          7.416432   6.274      8.356      1.054      1.524      1.016663   4.496      0.1946422  0.1946422  0.2761632  11.28245   5.719278   5.238236   0.5783191  0.6664076  25.408     0.2470334  0.3183219  0.1757449 
1233       0.209      1          2          7.387764   6.756      11.174     1.162      1.626      1.026233   4.445      0.1917688  0.1917688  0.2717775  9.981175   5.979257   5.362096   0.5774806  0.66512    24.909     0.2424507  0.3125958  0.1723056 
1233.2     0.21       1          2          7.357928   7.01       14.312     0.952      1.645      1.035116   4.318      0.1887749  0.1887749  0.2677064  8.784694   6.262386   5.344135   0.5709752  0.6593658  24.784     0.2391865  0.3067459  0.1716271 
1233.4     0.21       1          2          7.332235   7.137      16.746     1.01       1.556      1.042547   4.14       0.1860773  0.1860773  0.2643006  7.829987   6.516919   5.240255   0.561543   0.6513438  24.846     0.2370402  0.301796   0.1722843 
1233.6     0.21       1          2          7.312741   7.34       16.202     1.118      1.797      1.048227   3.937      0.1842697  0.1842697  0.2616977  7.249044   6.716922   5.125048   0.5531623  0.6439602  24.659     0.2346302  0.2980938  0.1711666 
1233.8     0.21       1          2          7.298623   7.594      15.081     1.111      1.467      1.052219   3.581      0.1823963  0.1823963  0.2598679  6.692365   6.8656     4.866956   0.5381025  0.6315808  25.034     0.2347625  0.2954408  0.1740843 
1234       0.21       1          2          7.286163   8.052      14.953     1.073      1.702      1.054996   3.53       0.1813179  0.1813179  0.2585956  6.39153    6.999532   4.90823    0.537547   0.6311721  25.159     0.2341748  0.2931192  0.1752304 
1234.2     0.21       1          2          7.270731   8.788      14.184     1.048      1.848      1.057078   3.53       0.181177   0.181177   0.2576412  6.353243   7.169053   5.036798   0.5428150000000001 0.6350029  24.846     0.2317097  0.290269   0.1731505 
1234.4     0.21       1          2          7.246326   9.829      12.711     1.041      1.549      1.058839   3.683      0.1816534  0.1816534  0.256834   6.483643   7.445554   5.358231   0.5569109  0.645855   24.347     0.2278201  0.285818   0.1698222 
1234.6     0.21       1          2          7.207308   14.825     12.135     1.022      1.429      1.060443   4.115      0.1826635  0.1826635  0.2560992  6.769061   7.909937   6.441908   0.5955584  0.6772153  23.785     0.2225325  0.2788433  0.1662216 
1234.8     0.21       1          2          7.148882   22.732     12.807     1.016      1.441      1.061873   5.486      0.1842431  0.1842431  0.2554435  7.240802   8.660023000000001 8.83888    0.6539569  0.7250097  23.223     0.2157589  0.2687162  0.1628016 
1235       0.21       1          2          7.067992   21.843     12.711     1.035      1.505      1.0629     6.274      0.1864599  0.1864599  0.2549731  7.958793   9.817342999999999 9.748052   0.6729208  0.7391685  22.724     0.2076158  0.2552995  0.159932  
1235.2     0.21       1          2          6.965982   19.938     12.711     1.079      1.568      1.063699   6.807      0.1892391  0.1892391  0.2546068  8.960357   11.49982   10.14903   0.6831591  0.7457349  22.162     0.1980839  0.2393309  0.156837  
1235.4     0.21       1          2          6.846568   18.033     13.704     1.099      1.695      1.064709   7.213      0.1921901  0.1921901  0.254144   10.16215   13.83914   10.30437   0.6896207  0.7490234  21.538     0.1877388  0.2219021  0.1535755 
1235.6     0.21       1          2          6.71814    17.144     16.106     1.086      1.689      1.066539   7.518      0.1947173  0.1947173  0.2533052  11.31864   16.88874   10.4524    0.6951792999999999 0.7516945  20.913     0.1775392  0.2045715  0.1505069 
1235.8     0.21       1          2          6.592124   17.779     28.274     1.016      1.899      1.070033   7.899      0.1959336  0.1959336  0.2517039  11.92128   20.53341   10.93826   0.7032234000000001 0.7570165  20.601     0.1690012  0.1888828  0.1491196 
1236       0.21       1          2          6.479874   19.176     49.889     1.251      1.905      1.075752   8.407      0.1955751  0.1955751  0.2490828  11.7404    24.43736   11.68927   0.7118696  0.7633415  20.414     0.1621448  0.1759241  0.1483655 
1236.2     0.21       1          2          6.390587   20.319     65.901     1.086      1.575      1.083784   9.017      0.1933168  0.1933168  0.2454016  10.66239   28.06619   12.49089   0.7178601  0.767948   20.601     0.1578328  0.1662542  0.1494114 
