~Version
 VERS              .         2.0                           : CWLS LOG ASCII STANDARD - VERSION 2.0
 WRAP              .         NO                            : ONE LINE PER DEPTH STEP
 DLM               .         SPACE                         : DELIMITING CHARACTER(SPACE TAB OR COMMA)
~Well Information
#_______________________________________________________________________________
#
#PARAMETER_NAME    .UNIT     VALUE                         : DESCRIPTION
#_______________________________________________________________________________
STRT               .M        987                           : First reference value
STOP               .M        1321.2                        : Last reference value
STEP               .M        0.2                           : Step increment
NULL               .         -9999                         : Missing value
COMP               .                                       : Company
WELL               .         1253                          : Well name
FLD                .         УЗЕНЬ                         : Field
LOC                .                                       : Location
CNTY               .                                       : County
STAT               .                                       : State
CTRY               .                                       : Country
SRVC               .                                       : Service Company
DATE               .         03.01.1968                    : Date
UWI                .                                       : Unique Well ID
Block              .         4                             : 
Category           .         Нефтяная                      : 
Condition          .         Ликвидированная               : 
Date               .         30.05.1968                    : 
EREF               .m        223.3                         : 100.8
Gorizont           .         15                            : 14
Interpretator      .         Алпанова Н.К.                 : 
Kupol              .         основной                      : osnovnoi
Moii_15_vosst      .         15_vosst                      : 
Mud                .                                       : 
Mud_density        .                                       : 
Mud_resistivity    .                                       : 
Mud_density        .                                       : 
Mud_resistivity    .                                       : 
NGDU               .         НГДУ-1                        : 
ORIGINALWELLNAME   .         1253                          : 
Spud_date          .         1968                          : 1961
Spud_date          .         1968                          : 1961
Viscosity          .                                       : 
X                  .m        54076.2                       : 46154
Y                  .m        82250.8                       : 85761.93
YEAR               .         2018                          : 
~Parameter Information Block
#_______________________________________________________________________________
#
#PARAMETER_NAME    .UNIT     VALUE                         : DESCRIPTION
#_______________________________________________________________________________
SET                .         LQC_KAZNIPI_Petrel            : 
AVST               .DEGC     -999.25                       : Average Surface Temperature
BS                 .MM       -999.25                       : Диаметр долота
CABL               .         -999.25                       : Cable Tipe
CBD                .m        -999.25                       : 
CLEN               .KM       -999.25                       : Cable Length
DFD                .G/C3     -999.25                       : Drilling Fluid Density
DFV                .s        -999.25                       : Вязкость промывочной жидкости
DIRE               .         -999.25                       : Move Direction
EGL                .m        -999.25                       : Альтитуда поверхности земли
EKB                .m        -999.25                       : Альтитуда стола ротора
GSDD               .         CSAT                          : CSATкрив,0,DEPT,BOTTOM,,,,0
MT                 .         -999.25                       : Mud type
RMF                .OHMM     -999.25                       : Сопротивление фильтрата промывочной жидкости
SPEE               .M        -999.25                       : Speed
TDL                .m        -999.25                       : Полная глубина по каротажу
TLFamily_CALI      .         Caliper                       : 
TLFamily_COLL      .         Net Reservoir Flag            : 
TLFamily_CSAT      .         Fluid Code                    : 
TLFamily_DEPT      .         Measured Depth                : 
TLFamily_GR        .         Russian Gamma Ray             : 
TLFamily_GZ3       .         Gradient 225                  : 
TLFamily_LLS       .         Lateral Log Resistivity       : 
TLFamily_MINV      .         Micro Gradient Resistivity    : 
TLFamily_MNOR      .         Micro Resistivity             : 
TLFamily_NGLD      .         Neutron Far                   : 
TLFamily_OGZ       .         Gradient Inverted 225         : 
TLFamily_PHIE      .         Effective Porosity            : 
TLFamily_PHIEN     .         Effective Porosity            : 
TLFamily_PHIT      .         Porosity                      : 
TLFamily_PRMB      .         Permeability                  : 
TLFamily_PRMB_DGR  .         Permeability                  : 
TLFamily_RT        .         Formation Resistivity         : 
TLFamily_SOIL_ARCHIE .         Oil Saturation                : 
TLFamily_SOIL_DW   .         Oil Saturation                : 
TLFamily_SP        .         Spontaneous Potential         : 
TLFamily_VSH_FIN   .         Shale Volume                  : 
TLFamily_VSH_GR    .         Shale Volume                  : 
TLFamily_VSH_SP    .         Shale Volume                  : 
TOOL               .         -999.25                       : Tool Type
~Curve Information
#_______________________________________________________________________________
#
#LOGNAME           .UNIT     LOG_ID                        : DESCRIPTION
#_______________________________________________________________________________
DEPT               .M                                      : Колонка глубины 
CALI               .м                                      : Каверномер 
COLL               .unitless                               :  
CSAT               .unitless                               :  
GR                 .uR/h                                   : Гамма каротаж 
GZ3                .Ohmm                                   : Градиент-зонд  длиной 2.25м 
LLS                .Ohmm                                   : Боковой каротаж 
MINV               .Ohmm                                   : Микро-градиент зонд 
MNOR               .Ohmm                                   : Микро-потенциал зонд 
NGLD               .у.е.                                   : Показания зонда НГК-60 аппаратуры ДРСТ-3-90 
OGZ                .Ohmm                                   : Обращенный градиент-зонд 
PHIE               .м3/м3                                  : Описание 
PHIEN              .v/v                                    :  
PHIT               .м3/м3                                  : Описание 
PRMB               .mD                                     :  
PRMB_DGR           .mD                                     :  
RT                 .ohmm                                   : Description 
SOIL_ARCHIE        .v/v                                    :  
SOIL_DW            .v/v                                    :  
SP                 .мВ                                     : Потенциал самополяризации 
VSH_FIN            .unitless                               : Описание 
VSH_GR             .unitless                               : Shale volume 
VSH_SP             .unitless                               : Shale Volume 
~Ascii
# ...
1274.8     0.213      -9999      -9999      8.331706   1.93       2.4        1.314      0.864      0.9749321  2.184      0.1114716  0.1114716  0.2952886  0.324999   1.383441   2.049159   0          0.3639412  46.072     0.5570213000000001 0.5682706  0.5570213000000001
1275       0.214      -9999      -9999      8.358908   1.93       2.432      1.092      0.883      0.966154   2.235      0.1140052  0.1140052  0.2993116  0.3620849  1.326301   2.071332   0          0.377872   46.135     0.5615346  0.578143   0.5615346 
1275.2     0.215      -9999      -9999      8.399763   1.905      2.4        1.511      0.927      0.9560363  2.261      0.1184353  0.1184353  0.3039486  0.4373875  1.244883   2.067789   0.009036588 0.3918813  46.072     0.5621615  0.593294   0.5621615 
1275.4     0.215      -9999      -9999      8.451714   1.88       2.4        1.492      1.003      0.9459421  2.311      0.1234884  0.1234884  0.3085747  0.542578   1.148532   2.073338   0.04564933 0.4076035  45.947     0.5608678  0.6131343  0.5608678 
1275.6     0.216      -9999      -9999      8.508846   1.854      2.368      1.346      0.921      0.9373147  2.337      0.1284993  0.1284993  0.3125287  0.6718561  1.051158   2.067668   0.07695954000000001 0.4200983  45.76      0.5576649  0.6357207  0.5576649 
1275.8     0.215      -9999      -9999      8.561573   1.829      2.336      1.448      1.073      0.9315109  2.337      0.1322108  0.1322108  0.3151886  0.7870868  0.9686344  2.052027   0.09635514000000001 0.4270643  45.573     0.554478   0.6573029  0.554478  
1276       0.215      -9999      -9999      8.600791   1.803      2.432      0.933      0.857      0.9292383  2.362      0.1349316  0.1349316  0.3162301  0.8839308  0.9114842  2.044987   0.110813   0.4315916  45.323     0.5493895  0.6738294  0.5493895 
1276.2     0.214      -9999      -9999      8.621206   1.778      2.368      0.883      0.864      0.9306132  2.438      0.1347199  0.1347199  0.3155999  0.8759874  0.883081   2.05634    0.1119065  0.4321209  45.198     0.5481213  0.6825962  0.5481213 
1276.4     0.215      -9999      -9999      8.622382   1.727      2.304      0.8        0.762      0.9350343  2.438      0.1324812  0.1324812  0.3135738  0.7962153  0.8814726000000001 2.021813   0.0916607  0.4213728  45.136     0.5487655  0.6831046  0.5487655 
1276.6     0.215      -9999      -9999      8.607836   1.727      2.176      0.692      0.635      0.9415795  2.464      0.1292787  0.1292787  0.3105741  0.6945657  0.9015811  2.030698   0.07400169 0.4138389  45.073     0.54938    0.6768418000000001 0.54938   
1276.8     0.215      -9999      -9999      8.582314   1.676      2.112      1.041      0.775      0.9491055000000001 2.413      0.1249932  0.1249932  0.3071249  0.5785431  0.9379774  1.978082   0.03459058 0.4022319  45.073     0.5519143  0.6659918  0.5519143 
1277       0.215      -9999      -9999      8.550997   1.651      2.08       1.251      0.8        0.9564353  2.413      0.1201564  0.1201564  0.3037657  0.4707025  0.9846507  1.960563   0          0.3864918  45.136     0.5563917  0.6529158000000001 0.5563917 
1277.2     0.214      -9999      -9999      8.516786   1.727      2.048      0.946      0.787      0.9625707  2.362      0.1177677  0.1177677  0.3009538  0.4251102  1.038296   1.995194   0          0.3837137  45.011     0.5551095  0.6389245  0.5551095 
1277.4     0.214      -9999      -9999      8.481317   1.854      2.08       1.073      0.933      0.9667935  2.311      0.1156276  0.1156276  0.2990186  0.3880273  1.097002   2.057428   0          0.3865044  44.948     0.55573    0.6247354000000001 0.55573   
1277.6     0.213      -9999      -9999      8.445174   1.981      2.08       0.61       0.61       0.9688034  2.235      0.1151191  0.1151191  0.2980974  0.3797017  1.160238   2.100349   0          0.3906334  44.824     0.5544798  0.6106009  0.5544798 
1277.8     0.213      -9999      -9999      8.41046    2.108      2.112      0.876      0.565      0.9687591  2.286      0.1149347  0.1149347  0.2981177  0.3767285  1.224404   2.193395   0.01056393 0.4033736  44.761     0.5550998  0.5973263  0.5550998 
1278       0.212      -9999      -9999      8.376501   2.184      2.112      0.927      0.654      0.9672415  2.159      0.1155998  0.1155998  0.2988132  0.3875677  1.290607   2.171428   0.01086276 0.4025132  44.699     0.5551921  0.5846194  0.5551921 
1278.2     0.212      -9999      -9999      8.343631   2.286      2.112      0.705      0.686      0.9650921  2.108      0.1165645  0.1165645  0.2997983  0.4038461  1.358094   2.193395   0.02262367 0.408557   44.636     0.5552538  0.5725776  0.5552538 
1278.4     0.212      -9999      -9999      8.308991   2.438      2.112      0.952      0.762      0.9632198  2.032      0.1180289  0.1180289  0.3006563  0.429873   1.433037   2.216562   0.03794887 0.4154088  44.511     0.5534164  0.560156   0.5534164 
1278.6     0.212      -9999      -9999      8.268185   2.591      2.144      1.092      1.01       0.9622793  1.981      0.1178029  0.1178029  0.3010874  0.425748   1.526646   2.245307   0.04215006 0.4192789  44.511     0.5554078  0.545868   0.5554078 
1278.8     0.212      -9999      -9999      8.217644   2.743      2.176      1.353      1.01       0.9627477  1.956      0.1181846  0.1181846  0.3008727  0.4327363  1.651104   2.283596   0.05239421 0.4245941  44.387     0.5536004  0.528676   0.5536004 
1279       0.212      -9999      -9999      8.154495   2.896      2.176      1.213      0.946      0.9647804  1.905      0.1165956  0.1165956  0.2999411  0.4043823  1.820962   2.298221   0.04402498 0.4224335  44.387     0.5555924  0.5079542  0.5555924 
1279.2     0.212      -9999      -9999      8.082573   2.921      2.176      1.054      0.959      0.9684046  1.88       0.1142753  0.1142753  0.2982802  0.3662805  2.035804   2.28764    0.02503198 0.4147624  44.387     0.5575905  0.485341   0.5575905 
1279.4     0.211      -9999      -9999      8.008452   2.845      2.208      1.314      0.972      0.9734572  1.981      0.1132054  0.1132054  0.2959646  0.3499429  2.283765   2.335659   0.02654749 0.4159335  44.199     0.5538155  0.4630894  0.5538155 
1279.6     0.211      -9999      -9999      7.942529   2.718      2.272      1.137      0.952      0.9797771  1.93       0.1140323  0.1140323  0.2930682  0.3625037  2.529571   2.257203   0.01706373 0.4037504  43.762     0.542533   0.4441572  0.542533  
1279.8     0.211      -9999      -9999      7.893505   2.565      2.336      1.073      0.87       0.9871807  1.88       0.1173121  0.1173121  0.2896751  0.4169297  2.729364   2.169719   0.0230879  0.3937497  43.013     0.522312   0.4305818  0.522312  
1280       0.211      -9999      -9999      7.868229   2.438      2.496      1.175      0.984      0.9952438  1.829      0.1159719  0.1159719  0.2859797  0.3937667  2.83846    2.090041   0          0.3746334  42.701     0.5151753  0.4237458  0.5151753 
1280.2     0.211      -9999      -9999      7.868056   2.362      2.816      1.079      1.187      1.003622   1.778      0.1596154  0.1596154  0.2821402  2.532921   2.839223   2.02881    0.2289791  0.4343066  36.833     0.3712873  0.4236992  0.3712873 
1280.4     0.211      -9999      -9999      7.88937    2.337      3.553      1.378      1.321      1.011854   1.778      0.1584024  0.1584024  0.2783673  2.405221   2.746917   2.019531   0.2221683  0.4266661  36.396     0.3635301  0.4294562  0.3635301 
1280.6     0.211      -9999      -9999      7.925089   2.311      4.417      1.473      1.638      1.019482   1.727      0.1531782  0.1531782  0.2748714  1.924822   2.598911   1.976769   0.1910299  0.4081982  36.583     0.3687671  0.4392795  0.3687671 
1280.8     0.211      -9999      -9999      7.965924   2.311      4.257      1.168      1.327      1.026099   1.727      0.1475127  0.1475127  0.2718386  1.511652   2.439449   1.976769   0.1640355  0.3952232  36.895     0.3767451  0.4507856  0.3767451 
1281       0.211      -9999      -9999      8.003165   2.311      4.097      1.143      1.162      1.031351   1.88       0.1410531  0.1410531  0.2694319  1.147636   2.302565   2.073338   0.1500279  0.3956783  37.395     0.3890266  0.4615417  0.3890266 
