~Version
 VERS              .         2.0                           : CWLS LOG ASCII STANDARD - VERSION 2.0
 WRAP              .         NO                            : ONE LINE PER DEPTH STEP
 DLM               .         SPACE                         : DELIMITING CHARACTER(SPACE TAB OR COMMA)
~Well Information
#_______________________________________________________________________________
#
#PARAMETER_NAME    .UNIT     VALUE                         : DESCRIPTION
#_______________________________________________________________________________
STRT               .M        987                           : First reference value
STOP               .M        1321.2                        : Last reference value
STEP               .M        0.2                           : Step increment
NULL               .         -9999                         : Missing value
COMP               .                                       : Company
WELL               .         1253                          : Well name
FLD                .         УЗЕНЬ                         : Field
LOC                .                                       : Location
CNTY               .                                       : County
STAT               .                                       : State
CTRY               .                                       : Country
SRVC               .                                       : Service Company
DATE               .         03.01.1968                    : Date
UWI                .                                       : Unique Well ID
Block              .         4                             : 
Category           .         Нефтяная                      : 
Condition          .         Ликвидированная               : 
Date               .         30.05.1968                    : 
EREF               .m        223.3                         : 100.8
Gorizont           .         15                            : 14
Interpretator      .         Алпанова Н.К.                 : 
Kupol              .         основной                      : osnovnoi
Moii_15_vosst      .         15_vosst                      : 
Mud                .                                       : 
Mud_density        .                                       : 
Mud_resistivity    .                                       : 
Mud_density        .                                       : 
Mud_resistivity    .                                       : 
NGDU               .         НГДУ-1                        : 
ORIGINALWELLNAME   .         1253                          : 
Spud_date          .         1968                          : 1961
Spud_date          .         1968                          : 1961
Viscosity          .                                       : 
X                  .m        54076.2                       : 46154
Y                  .m        82250.8                       : 85761.93
YEAR               .         2018                          : 
~Parameter Information Block
#_______________________________________________________________________________
#
#PARAMETER_NAME    .UNIT     VALUE                         : DESCRIPTION
#_______________________________________________________________________________
SET                .         LQC_KAZNIPI_Petrel            : 
AVST               .DEGC     -999.25                       : Average Surface Temperature
BS                 .MM       -999.25                       : Диаметр долота
CABL               .         -999.25                       : Cable Tipe
CBD                .m        -999.25                       : 
CLEN               .KM       -999.25                       : Cable Length
DFD                .G/C3     -999.25                       : Drilling Fluid Density
DFV                .s        -999.25                       : Вязкость промывочной жидкости
DIRE               .         -999.25                       : Move Direction
EGL                .m        -999.25                       : Альтитуда поверхности земли
EKB                .m        -999.25                       : Альтитуда стола ротора
GSDD               .         CSAT                          : CSATкрив,0,DEPT,BOTTOM,,,,0
MT                 .         -999.25                       : Mud type
RMF                .OHMM     -999.25                       : Сопротивление фильтрата промывочной жидкости
SPEE               .M        -999.25                       : Speed
TDL                .m        -999.25                       : Полная глубина по каротажу
TLFamily_CALI      .         Caliper                       : 
TLFamily_COLL      .         Net Reservoir Flag            : 
TLFamily_CSAT      .         Fluid Code                    : 
TLFamily_DEPT      .         Measured Depth                : 
TLFamily_GR        .         Russian Gamma Ray             : 
TLFamily_GZ3       .         Gradient 225                  : 
TLFamily_LLS       .         Lateral Log Resistivity       : 
TLFamily_MINV      .         Micro Gradient Resistivity    : 
TLFamily_MNOR      .         Micro Resistivity             : 
TLFamily_NGLD      .         Neutron Far                   : 
TLFamily_OGZ       .         Gradient Inverted 225         : 
TLFamily_PHIE      .         Effective Porosity            : 
TLFamily_PHIEN     .         Effective Porosity            : 
TLFamily_PHIT      .         Porosity                      : 
TLFamily_PRMB      .         Permeability                  : 
TLFamily_PRMB_DGR  .         Permeability                  : 
TLFamily_RT        .         Formation Resistivity         : 
TLFamily_SOIL_ARCHIE .         Oil Saturation                : 
TLFamily_SOIL_DW   .         Oil Saturation                : 
TLFamily_SP        .         Spontaneous Potential         : 
TLFamily_VSH_FIN   .         Shale Volume                  : 
TLFamily_VSH_GR    .         Shale Volume                  : 
TLFamily_VSH_SP    .         Shale Volume                  : 
TOOL               .         -999.25                       : Tool Type
~Curve Information
#_______________________________________________________________________________
#
#LOGNAME           .UNIT     LOG_ID                        : DESCRIPTION
#_______________________________________________________________________________
DEPT               .M                                      : Колонка глубины 
CALI               .м                                      : Каверномер 
COLL               .unitless                               :  
CSAT               .unitless                               :  
GR                 .uR/h                                   : Гамма каротаж 
GZ3                .Ohmm                                   : Градиент-зонд  длиной 2.25м 
LLS                .Ohmm                                   : Боковой каротаж 
MINV               .Ohmm                                   : Микро-градиент зонд 
MNOR               .Ohmm                                   : Микро-потенциал зонд 
NGLD               .у.е.                                   : Показания зонда НГК-60 аппаратуры ДРСТ-3-90 
OGZ                .Ohmm                                   : Обращенный градиент-зонд 
PHIE               .м3/м3                                  : Описание 
PHIEN              .v/v                                    :  
PHIT               .м3/м3                                  : Описание 
PRMB               .mD                                     :  
PRMB_DGR           .mD                                     :  
RT                 .ohmm                                   : Description 
SOIL_ARCHIE        .v/v                                    :  
SOIL_DW            .v/v                                    :  
SP                 .мВ                                     : Потенциал самополяризации 
VSH_FIN            .unitless                               : Описание 
VSH_GR             .unitless                               : Shale volume 
VSH_SP             .unitless                               : Shale Volume 
~Ascii
# ...
1210.8     0.234      -9999      -9999      8.536732   2.489      2.784      0.451      0.54       0.930582   2.261      0.1355339  0.1355339  0.3156143  0.9069302  1.006675   2.369528   0.1613893  0.4721829  48.257     0.5456982  0.6470447  0.4443516 
1211       0.235      -9999      -9999      8.458291   2.311      3.873      0.768      0.622      0.9406261  1.854      0.1430063  0.1430063  0.311011   1.247331   1.136879   2.057428   0.1448465  0.4397932  46.447     0.5091053  0.6156929  0.4025176 
1211.2     0.232      -9999      -9999      8.371778   2.337      4.001      0.775      0.787      0.9512571  2.083      0.1535301  0.1535301  0.3061389  1.953927   1.300097   2.202702   0.2214608  0.4679864  43.513     0.4624508  0.5828732  0.3420285 
1211.4     0.225      -9999      -9999      8.283254   2.464      3.168      1.283      0.991      0.9616539  2.235      0.1547977  0.1547977  0.301374   2.062467   1.491389   2.34392    0.249231   0.4809537  43.2       0.4441706  0.5511009  0.3372403 
1211.6     0.218      -9999      -9999      8.199802   2.565      3.617      1.327      1.105      0.9710034  2.337      0.154595   0.154595   0.2970891  2.044717   1.697424   2.445698   0.2632175  0.4871502  43.325     0.4318003  0.5227368  0.3408638 
1211.8     0.214      -9999      -9999      8.126449   2.565      4.481      1.505      1.194      0.9788809000000001 2.362      0.1451752  0.1451752  0.2934789  1.368218   1.901907   2.459318   0.2237759  0.4719909  46.072     0.4494051  0.4990129  0.3997972 
1212       0.217      -9999      -9999      8.068447   2.616      4.577      1.289      1.422      0.9852346  2.362      0.1357479  0.1357479  0.290567   0.9152466  2.080893   2.48252    0.1806491  0.4574189  48.382     0.4691489  0.4810189  0.4572788 
1212.2     0.22       -9999      -9999      8.028663   2.692      4.289      1.092      1.6        0.9903851  2.362      0.1315508  0.1315508  0.2882065  0.7652403  2.21331    2.516226   0.16324    0.4518259  49.194     0.4747143  0.469053   0.4803755 
1212.4     0.224      -9999      -9999      8.006185   2.794      5.154      1.054      1.124      0.9946065  2.286      0.1278847  0.1278847  0.2862718  0.6544753  2.291816   2.5146     0.1421261  0.4434292  49.755     0.479961   0.4624244  0.4974976 
1212.6     0.23       -9999      -9999      8.001054   2.769      4.513      1.245      1.441      0.9981109  2.261      0.1282239  0.1282239  0.2846658  0.6640103000000001 2.310122   2.489347   0.1400391  0.4392124  49.318     0.4740665  0.4609246  0.4872084 
1212.8     0.226      -9999      -9999      8.0121     2.642      4.866      1.181      1.587      1.000681   2.21       0.1319574  0.1319574  0.283488   0.778627   2.270889   2.406768   0.1478862  0.4343982  48.007     0.4591837  0.4641598  0.4542077 
1213       0.224      8          2          8.039077   2.54       5.154      1.359      1.187      1.002142   2.21       0.1360477  0.1360477  0.2828184  0.927026   2.177855   2.363537   0.1631552  0.43505    46.447     0.4447596  0.4721562  0.417363  
1213.2     0.221      8          2          8.0832     2.388      4.257      0.883      1.353      1.002289   2.21       0.1441234  0.1441234  0.282751   1.308196   2.033831   2.295555   0.1931714  0.4392991  43.513     0.4200836  0.4855331  0.3546341 
1213.4     0.22       8          2          8.140958   2.261      3.873      1.067      1.079      1.001122   2.21       0.1500727  0.1500727  0.2832859  1.686043   1.859595   2.235209   0.211303   0.4413337  40.703     0.4036765  0.5036185  0.3037345 
1213.6     0.217      8          2          8.209042   2.21       3.745      1.53       1.2        0.9986443  2.159      0.1545989  0.1545989  0.2844213  2.045051   1.673278   2.184202   0.2230816  0.44277    37.894     0.3934014  0.5258039  0.2609989 
1213.8     0.214      8          2          8.27996    2.388      3.361      1.156      0.94       0.9948339000000001 2.286      0.1546135  0.1546135  0.2861676  2.04633    1.499027   2.335887   0.2472404  0.4631802  36.833     0.3986487  0.5499527  0.2473447 
1214       0.21       8          2          8.345028   2.642      4.001      0.946      1.257      0.9897044  2.591      0.1543471  0.1543471  0.2885185  2.023211   1.355158   2.616251   0.2851616  0.4949263  36.208     0.4065799  0.5730839  0.2400759 
1214.2     0.212      8          2          8.394855   2.743      4.962      1.137      1.429      0.9832298  2.489      0.1482456  0.1482456  0.2914858  1.559647   1.254394   2.609834   0.2587502  0.4894584  38.768     0.4340611  0.591453   0.2766693 
1214.4     0.22       8          2          8.42415    2.87       5.858      0.984      1.511      0.9754949000000001 2.591      0.141449   0.141449   0.2950307  1.167177   1.198687   2.723373   0.2431015  0.4948329  41.765     0.465399   0.6025262  0.3282719 
1214.6     0.221      -9999      -9999      8.430191   3.048      5.442      1.022      1.473      0.9669846  2.642      0.1362876  0.1362876  0.298931   0.9365594  1.187512   2.830515   0.2322254  0.5014776  44.324     0.4928586  0.6048351  0.3808822 
1214.8     0.224      -9999      -9999      8.414544   3.302      4.866      1.041      1.353      0.95875    2.743      0.1324975  0.1324975  0.3027049  0.7967716  1.216677   2.996654   0.2339139  0.5141227  46.509     0.5157798  0.5988724  0.4326872 
1215       0.228      -9999      -9999      8.380639   3.607      4.161      1.003      1.264      0.9521391  2.896      0.1329448  0.1329448  0.3057346  0.8121172  1.282355   3.212632   0.2607018  0.5342398  47.57      0.5236055  0.5861528  0.4610581 
1215.2     0.229      -9999      -9999      8.335647   3.962      3.649      0.794      1.34       0.9484708  3.099      0.1357114  0.1357114  0.3074158  0.9138244  1.375016   3.477762   0.3003705  0.5573125  47.883     0.5203164  0.5696899  0.4709428 
1215.4     0.227      -9999      -9999      8.285812   4.038      4.129      0.851      1.384      0.9488094  3.251      0.1462693  0.1462693  0.3072606  1.433574   1.485484   3.602013   0.3552729  0.5770788  45.947     0.4878525  0.5519945000000001 0.4237106 
1215.6     0.224      -9999      -9999      8.236268   3.911      4.866      1.245      1.226      0.9536083  3.099      0.1511923  0.1511923  0.3050613  1.768507   1.604106   3.457971   0.3614839  0.5719365  44.761     0.4662696  0.5349469  0.3975924 
1215.8     0.222      -9999      -9999      8.19072    3.657      4.641      1.549      1.003      0.9625304  2.692      0.1549579  0.1549579  0.3009723  2.076609   1.7215     3.101164   0.3422496  0.5485668  43.2       0.4424679  0.5197392  0.3651967 
1216       0.221      -9999      -9999      8.149302   3.454      4.193      1.505      1.041      0.9745582  2.083      0.1588558  0.1588558  0.29546    2.452184   1.835691   2.598765   0.3006676  0.5061119  40.891     0.4139521  0.5062861  0.321618  
1216.2     0.219      -9999      -9999      8.106768   3.327      3.809      1.816      1.486      0.9880003000000001 1.854      0.1593601  0.1593601  0.2892995  2.505492   1.960845   2.381107   0.2733733  0.4780613  39.267     0.3937558  0.492833   0.2946786 
1216.4     0.219      -9999      -9999      8.056142   3.276      3.521      1.435      1.257      1.000983   1.778      0.1556304  0.1556304  0.2833497  2.137027   2.12098    2.304997   0.2468355  0.4577531  39.33      0.3870283  0.4772856  0.296771  
1216.6     0.217      -9999      -9999      7.993464   3.251      4.353      1.435      1.245      1.011836   1.803      0.1337226  0.1337226  0.2783757  0.8395068999999999 2.337469   2.31957    0.1429775  0.420307   45.323     0.4383428  0.4587149  0.4179707 
1216.8     0.216      -9999      -9999      7.915345   3.149      6.435      0.724      1.213      1.019237   1.956      0.1304785  0.1304785  0.2749838  0.7310312  2.638485   2.413102   0.140541   0.4219232  46.135     0.4378949  0.4365771  0.4392126 
1217       0.216      -9999      -9999      7.825309   2.997      9.733      1.067      0.851      1.022364   2.108      0.1314819  0.1314819  0.2735505  0.7629967  3.033808   2.475093   0.1563584  0.4290448  46.447     0.4305108  0.4123846  0.4486371 
