~Version
 VERS              .         2.0                           : CWLS LOG ASCII STANDARD - VERSION 2.0
 WRAP              .         NO                            : ONE LINE PER DEPTH STEP
 DLM               .         SPACE                         : DELIMITING CHARACTER(SPACE TAB OR COMMA)
~Well Information
#_______________________________________________________________________________
#
#PARAMETER_NAME    .UNIT     VALUE                         : DESCRIPTION
#_______________________________________________________________________________
STRT               .M        987                           : First reference value
STOP               .M        1321.2                        : Last reference value
STEP               .M        0.2                           : Step increment
NULL               .         -9999                         : Missing value
COMP               .                                       : Company
WELL               .         1253                          : Well name
FLD                .         УЗЕНЬ                         : Field
LOC                .                                       : Location
CNTY               .                                       : County
STAT               .                                       : State
CTRY               .                                       : Country
SRVC               .                                       : Service Company
DATE               .         03.01.1968                    : Date
UWI                .                                       : Unique Well ID
Block              .         4                             : 
Category           .         Нефтяная                      : 
Condition          .         Ликвидированная               : 
Date               .         30.05.1968                    : 
EREF               .m        223.3                         : 100.8
Gorizont           .         15                            : 14
Interpretator      .         Алпанова Н.К.                 : 
Kupol              .         основной                      : osnovnoi
Moii_15_vosst      .         15_vosst                      : 
Mud                .                                       : 
Mud_density        .                                       : 
Mud_resistivity    .                                       : 
Mud_density        .                                       : 
Mud_resistivity    .                                       : 
NGDU               .         НГДУ-1                        : 
ORIGINALWELLNAME   .         1253                          : 
Spud_date          .         1968                          : 1961
Spud_date          .         1968                          : 1961
Viscosity          .                                       : 
X                  .m        54076.2                       : 46154
Y                  .m        82250.8                       : 85761.93
YEAR               .         2018                          : 
~Parameter Information Block
#_______________________________________________________________________________
#
#PARAMETER_NAME    .UNIT     VALUE                         : DESCRIPTION
#_______________________________________________________________________________
SET                .         LQC_KAZNIPI_Petrel            : 
AVST               .DEGC     -999.25                       : Average Surface Temperature
BS                 .MM       -999.25                       : Диаметр долота
CABL               .         -999.25                       : Cable Tipe
CBD                .m        -999.25                       : 
CLEN               .KM       -999.25                       : Cable Length
DFD                .G/C3     -999.25                       : Drilling Fluid Density
DFV                .s        -999.25                       : Вязкость промывочной жидкости
DIRE               .         -999.25                       : Move Direction
EGL                .m        -999.25                       : Альтитуда поверхности земли
EKB                .m        -999.25                       : Альтитуда стола ротора
GSDD               .         CSAT                          : CSATкрив,0,DEPT,BOTTOM,,,,0
MT                 .         -999.25                       : Mud type
RMF                .OHMM     -999.25                       : Сопротивление фильтрата промывочной жидкости
SPEE               .M        -999.25                       : Speed
TDL                .m        -999.25                       : Полная глубина по каротажу
TLFamily_CALI      .         Caliper                       : 
TLFamily_COLL      .         Net Reservoir Flag            : 
TLFamily_CSAT      .         Fluid Code                    : 
TLFamily_DEPT      .         Measured Depth                : 
TLFamily_GR        .         Russian Gamma Ray             : 
TLFamily_GZ3       .         Gradient 225                  : 
TLFamily_LLS       .         Lateral Log Resistivity       : 
TLFamily_MINV      .         Micro Gradient Resistivity    : 
TLFamily_MNOR      .         Micro Resistivity             : 
TLFamily_NGLD      .         Neutron Far                   : 
TLFamily_OGZ       .         Gradient Inverted 225         : 
TLFamily_PHIE      .         Effective Porosity            : 
TLFamily_PHIEN     .         Effective Porosity            : 
TLFamily_PHIT      .         Porosity                      : 
TLFamily_PRMB      .         Permeability                  : 
TLFamily_PRMB_DGR  .         Permeability                  : 
TLFamily_RT        .         Formation Resistivity         : 
TLFamily_SOIL_ARCHIE .         Oil Saturation                : 
TLFamily_SOIL_DW   .         Oil Saturation                : 
TLFamily_SP        .         Spontaneous Potential         : 
TLFamily_VSH_FIN   .         Shale Volume                  : 
TLFamily_VSH_GR    .         Shale Volume                  : 
TLFamily_VSH_SP    .         Shale Volume                  : 
TOOL               .         -999.25                       : Tool Type
~Curve Information
#_______________________________________________________________________________
#
#LOGNAME           .UNIT     LOG_ID                        : DESCRIPTION
#_______________________________________________________________________________
DEPT               .M                                      : Колонка глубины 
CALI               .м                                      : Каверномер 
COLL               .unitless                               :  
CSAT               .unitless                               :  
GR                 .uR/h                                   : Гамма каротаж 
GZ3                .Ohmm                                   : Градиент-зонд  длиной 2.25м 
LLS                .Ohmm                                   : Боковой каротаж 
MINV               .Ohmm                                   : Микро-градиент зонд 
MNOR               .Ohmm                                   : Микро-потенциал зонд 
NGLD               .у.е.                                   : Показания зонда НГК-60 аппаратуры ДРСТ-3-90 
OGZ                .Ohmm                                   : Обращенный градиент-зонд 
PHIE               .м3/м3                                  : Описание 
PHIEN              .v/v                                    :  
PHIT               .м3/м3                                  : Описание 
PRMB               .mD                                     :  
PRMB_DGR           .mD                                     :  
RT                 .ohmm                                   : Description 
SOIL_ARCHIE        .v/v                                    :  
SOIL_DW            .v/v                                    :  
SP                 .мВ                                     : Потенциал самополяризации 
VSH_FIN            .unitless                               : Описание 
VSH_GR             .unitless                               : Shale volume 
VSH_SP             .unitless                               : Shale Volume 
~Ascii
# ...
1070       0.228      -9999      -9999      3.746627   1.803      10.982     2.788      2.172      1.08037    5.029      0.1580495  0.1580495  0.2469665  2.369289   43.22559   2.654358   0.294692   0.4471223  48.632     0.2694455  0.1393756  0.3995155 
1070.2     0.229      -9999      -9999      3.987586   1.676      11.398     1.86       2.21       1.055409   5.029      0.1602442  0.1602442  0.2584063  2.601774   30.64667   2.514125   0.2851347  0.4501173  50.067     0.2974607  0.1603889  0.4345325 
1070.4     0.23       -9999      -9999      4.26176    1.575      11.078     2.153      1.505      1.027336   4.877      0.1657476  0.1657476  0.271272   3.290072   20.72227   2.381052   0.2879101  0.4585436  50.692     0.319771   0.188178   0.451364  
1070.6     0.232      -9999      -9999      4.562769   1.499      10.918     1.676      1.632      0.9978456  4.699      0.1704364  0.1704364  0.2847874  4.018409   13.4852    2.272927   0.2896794  0.4677163  51.316     0.346518   0.224262   0.468774  
1070.8     0.237      -9999      -9999      4.878925   1.499      8.933      1.733      1.492      0.9687317  4.445      0.1719025  0.1719025  0.2981303  4.277692   8.587947   2.241943   0.2904028  0.4803953  52.252     0.3825083  0.2696348  0.4953819 
1071       0.241      -9999      -9999      5.194419   1.575      6.467      0.933      1.746      0.9414916  4.165      0.1713867  0.1713867  0.3106144  4.184616   5.474332   2.285671   0.2949631  0.4974142  53.064     0.4219021  0.3240626  0.5197417 
1071.2     0.245      -9999      -9999      5.489165   1.676      4.385      0.324      1.226      0.9170896  3.937      0.1714216  0.1714216  0.3217978  4.190857   3.59446    2.351118   0.3043653  0.515051   53.251     0.4556853  0.3847958  0.5265749 
1071.4     0.254      -9999      -9999      5.74479    1.829      3.168      0.387      0.673      0.8961279  3.683      0.1699908  0.1699908  0.3314046  3.942754   2.49566    2.444197   0.3119197  0.5313343  53.376     0.4891327  0.4466117  0.5316536 
1071.6     0.263      -9999      -9999      5.94557    1.981      2.048      0.26       0.413      0.878803   3.327      0.1679381  0.1679381  0.3393446  3.612265   1.873842   2.483341   0.309766   0.539615   53.501     0.5194135  0.5020514  0.5367755 
1071.8     0.267      -9999      -9999      6.083528   2.134      1.567      0.298      0.298      0.8650277  3.226      0.1667754  0.1667754  0.3456578  3.437504   1.538934   2.568763   0.3165104  0.5512692  53.563     0.5420678  0.544084   0.5400517 
1072       0.275      -9999      -9999      6.158762   2.261      1.823      0.273      0.387      0.8544274  2.87       0.166753   0.166753   0.3505159  3.434215   1.38225    2.529359   0.3114535  0.5516575  53.688     0.5568575  0.5684706000000001 0.5452444 
1072.2     0.28       -9999      -9999      6.180483   2.311      2.08       0.298      0.279      0.8465163  2.489      0.1683197  0.1683197  0.3541416  3.671534   1.340055   2.3967     0.2995531  0.5439693  53.813     0.5630966  0.5757126  0.5504806 
1072.4     0.286      -9999      -9999      6.164153   2.286      2.336      0.292      0.337      0.8408027  2.108      0.1713191  0.1713191  0.3567601  4.17256    1.371655   2.193395   0.2809492  0.5286508  53.876     0.5619427  0.5702595  0.5536259 
1072.6     0.273      -9999      -9999      6.128544   2.438      2.464      0.324      0.273      0.8366275  1.803      0.1746486  0.1746486  0.3586736  4.809217   1.443168   2.072961   0.2739145  0.520288   53.938     0.5576515  0.5585471  0.556756  
1072.8     0.277      -9999      -9999      6.092851   2.565      2.432      0.451      0.292      0.8336542  1.753      0.1773895  0.1773895  0.3600363  5.405587   1.518592   2.082652   0.2852615  0.5253603  54         0.5534749  0.5470483  0.5599015000000001
1073       0.27       -9999      -9999      6.071785   2.718      2.304      0.781      0.514      0.8317193000000001 1.702      0.1778888  0.1778888  0.360923   5.52192    1.564943   2.093229   0.2887018  0.5277876  54.25      0.5546492  0.5403733  0.568925  
1073.2     0.246      -9999      -9999      6.071962   2.819      2.112      0.845      0.406      0.830876   1.753      0.1767565  0.1767565  0.3613095  5.261597   1.564547   2.161727   0.2954614  0.5344999  54.5       0.5592515  0.5404291  0.5780739 
1073.4     0.253      -9999      -9999      6.09247    2.972      1.92       0.489      0.337      0.8311888  1.93       0.1746727  0.1746727  0.3611662  4.814158   1.519417   2.340253   0.3141664  0.5504664  54.625     0.5651317  0.5469270000000001 0.5833364 
1073.6     0.261      -9999      -9999      6.124956   3.099      1.856      0.47       0.502      0.8327581  2.007      0.1720169  0.1720169  0.360447   4.298619   1.450578   2.436229   0.3179396  0.556285   54.625     0.571      0.5573803000000001 0.5846198 
1073.8     0.271      -9999      -9999      6.156327   3.251      1.92       0.406      0.444      0.8357928  1.956      0.1687171  0.1687171  0.3590562  3.734288   1.387061   2.442464   0.3071672  0.5525104  54.625     0.5767851000000001 0.5676645  0.5859057 
1074       0.271      -9999      -9999      6.172913   3.556      2.112      0.33       0.502      0.8405617  1.854      0.1667291  0.1667291  0.3568706  3.430721   1.354612   2.437273   0.2992785  0.5483091  54.375     0.5761862  0.5731782  0.5791942 
1074.2     0.247      -9999      -9999      6.161823   3.886      2.336      0.705      0.483      0.8478366000000001 1.753      0.1641194  0.1641194  0.3535365  3.069357   1.376224   2.416087   0.2866675  0.5409475  54.313     0.5739912  0.5694857  0.5784967 
1074.4     0.249      -9999      -9999      6.115399   4.343      2.496      0.298      0.508      0.8581212  1.626      0.1623586  0.1623586  0.348823   2.8473     1.470498   2.366131   0.2728398  0.5303265  54.188     0.5650438  0.5542846  0.575803  
1074.6     0.251      -9999      -9999      6.027922   4.851      2.4        0.483      0.394      0.872252   1.651      0.1628041  0.1628041  0.3423469  2.90192    1.666045   2.46355    0.2881789  0.5348005  53.688     0.5440691  0.5267348  0.5614033000000001
1074.8     0.237      -9999      -9999      5.895897   5.41       2.624      0.629      0.597      0.8909071  1.905      0.1636332  0.1636332  0.3337973  3.00636    2.011511   2.817785   0.33462    0.5590174  53.064     0.5156488  0.4877259  0.5435718000000001
1075       0.241      -9999      -9999      5.716501   6.02       2.784      0.343      0.419      0.91437    2.286      0.162211   0.162211   0.3230442  2.829436   2.598485   3.313682   0.3786533  0.5836685  52.752     0.4873733  0.439309   0.5354377 
1075.2     0.243      -9999      -9999      5.488351   6.629      2.816      0.54       0.502      0.9423107  2.464      0.1606604  0.1606604  0.310239   2.648365   3.598638   3.592622   0.3967521  0.5885821  52.252     0.4532686  0.3846134  0.5219238000000001
1075.4     0.245      -9999      -9999      5.214339   7.594      2.784      0.222      0.349      0.9737329  2.692      0.1563279  0.1563279  0.2958382  2.201559   5.320887   3.974926   0.4108485  0.5930312  52.065     0.4227585  0.3278466  0.5176704 
1075.6     0.236      -9999      -9999      4.903056   7.798      3.297      0.483      0.489      1.006673   2.997      0.1506099  0.1506099  0.280742   1.725116   8.2972     4.329895   0.4153588  0.5915162  51.94      0.3943397  0.2734536  0.5152258 
1075.8     0.226      -9999      -9999      4.571023   7.213      5.346      0.813      0.686      1.038482   3.124      0.1440737  0.1440737  0.2661637  1.305427   13.32727   4.359758   0.3942816  0.5721214  51.878     0.3699697  0.2253434  0.5145960000000001
1076       0.221      -9999      -9999      4.242046   6.096      13.352     2.318      4.013      1.066165   3.175      0.1376838  0.1376838  0.2534767  0.9940231000000001 21.31359   4.175343   0.3569595  0.5415143  51.878     0.3508875  0.1860285  0.5157465 
1076.2     0.226      -9999      -9999      3.942674   5.207      36.76      3.365      3.467      1.087184   3.099      0.1324795  0.1324795  0.2438435  0.7961606  32.67546   3.885503   0.3121797  0.5059865  51.94      0.3374666  0.1562453  0.5186879 
