~Version
 VERS              .         2.0                           : CWLS LOG ASCII STANDARD - VERSION 2.0
 WRAP              .         NO                            : ONE LINE PER DEPTH STEP
 DLM               .         SPACE                         : DELIMITING CHARACTER(SPACE TAB OR COMMA)
~Well Information
#_______________________________________________________________________________
#
#PARAMETER_NAME    .UNIT     VALUE                         : DESCRIPTION
#_______________________________________________________________________________
STRT               .M        987                           : First reference value
STOP               .M        1321.2                        : Last reference value
STEP               .M        0.2                           : Step increment
NULL               .         -9999                         : Missing value
COMP               .                                       : Company
WELL               .         1253                          : Well name
FLD                .         УЗЕНЬ                         : Field
LOC                .                                       : Location
CNTY               .                                       : County
STAT               .                                       : State
CTRY               .                                       : Country
SRVC               .                                       : Service Company
DATE               .         03.01.1968                    : Date
UWI                .                                       : Unique Well ID
Block              .         4                             : 
Category           .         Нефтяная                      : 
Condition          .         Ликвидированная               : 
Date               .         30.05.1968                    : 
EREF               .m        223.3                         : 100.8
Gorizont           .         15                            : 14
Interpretator      .         Алпанова Н.К.                 : 
Kupol              .         основной                      : osnovnoi
Moii_15_vosst      .         15_vosst                      : 
Mud                .                                       : 
Mud_density        .                                       : 
Mud_resistivity    .                                       : 
Mud_density        .                                       : 
Mud_resistivity    .                                       : 
NGDU               .         НГДУ-1                        : 
ORIGINALWELLNAME   .         1253                          : 
Spud_date          .         1968                          : 1961
Spud_date          .         1968                          : 1961
Viscosity          .                                       : 
X                  .m        54076.2                       : 46154
Y                  .m        82250.8                       : 85761.93
YEAR               .         2018                          : 
~Parameter Information Block
#_______________________________________________________________________________
#
#PARAMETER_NAME    .UNIT     VALUE                         : DESCRIPTION
#_______________________________________________________________________________
SET                .         LQC_KAZNIPI_Petrel            : 
AVST               .DEGC     -999.25                       : Average Surface Temperature
BS                 .MM       -999.25                       : Диаметр долота
CABL               .         -999.25                       : Cable Tipe
CBD                .m        -999.25                       : 
CLEN               .KM       -999.25                       : Cable Length
DFD                .G/C3     -999.25                       : Drilling Fluid Density
DFV                .s        -999.25                       : Вязкость промывочной жидкости
DIRE               .         -999.25                       : Move Direction
EGL                .m        -999.25                       : Альтитуда поверхности земли
EKB                .m        -999.25                       : Альтитуда стола ротора
GSDD               .         CSAT                          : CSATкрив,0,DEPT,BOTTOM,,,,0
MT                 .         -999.25                       : Mud type
RMF                .OHMM     -999.25                       : Сопротивление фильтрата промывочной жидкости
SPEE               .M        -999.25                       : Speed
TDL                .m        -999.25                       : Полная глубина по каротажу
TLFamily_CALI      .         Caliper                       : 
TLFamily_COLL      .         Net Reservoir Flag            : 
TLFamily_CSAT      .         Fluid Code                    : 
TLFamily_DEPT      .         Measured Depth                : 
TLFamily_GR        .         Russian Gamma Ray             : 
TLFamily_GZ3       .         Gradient 225                  : 
TLFamily_LLS       .         Lateral Log Resistivity       : 
TLFamily_MINV      .         Micro Gradient Resistivity    : 
TLFamily_MNOR      .         Micro Resistivity             : 
TLFamily_NGLD      .         Neutron Far                   : 
TLFamily_OGZ       .         Gradient Inverted 225         : 
TLFamily_PHIE      .         Effective Porosity            : 
TLFamily_PHIEN     .         Effective Porosity            : 
TLFamily_PHIT      .         Porosity                      : 
TLFamily_PRMB      .         Permeability                  : 
TLFamily_PRMB_DGR  .         Permeability                  : 
TLFamily_RT        .         Formation Resistivity         : 
TLFamily_SOIL_ARCHIE .         Oil Saturation                : 
TLFamily_SOIL_DW   .         Oil Saturation                : 
TLFamily_SP        .         Spontaneous Potential         : 
TLFamily_VSH_FIN   .         Shale Volume                  : 
TLFamily_VSH_GR    .         Shale Volume                  : 
TLFamily_VSH_SP    .         Shale Volume                  : 
TOOL               .         -999.25                       : Tool Type
~Curve Information
#_______________________________________________________________________________
#
#LOGNAME           .UNIT     LOG_ID                        : DESCRIPTION
#_______________________________________________________________________________
DEPT               .M                                      : Колонка глубины 
CALI               .м                                      : Каверномер 
COLL               .unitless                               :  
CSAT               .unitless                               :  
GR                 .uR/h                                   : Гамма каротаж 
GZ3                .Ohmm                                   : Градиент-зонд  длиной 2.25м 
LLS                .Ohmm                                   : Боковой каротаж 
MINV               .Ohmm                                   : Микро-градиент зонд 
MNOR               .Ohmm                                   : Микро-потенциал зонд 
NGLD               .у.е.                                   : Показания зонда НГК-60 аппаратуры ДРСТ-3-90 
OGZ                .Ohmm                                   : Обращенный градиент-зонд 
PHIE               .м3/м3                                  : Описание 
PHIEN              .v/v                                    :  
PHIT               .м3/м3                                  : Описание 
PRMB               .mD                                     :  
PRMB_DGR           .mD                                     :  
RT                 .ohmm                                   : Description 
SOIL_ARCHIE        .v/v                                    :  
SOIL_DW            .v/v                                    :  
SP                 .мВ                                     : Потенциал самополяризации 
VSH_FIN            .unitless                               : Описание 
VSH_GR             .unitless                               : Shale volume 
VSH_SP             .unitless                               : Shale Volume 
~Ascii
987.0      0.305      -9999      -9999      -9999      4.877      9.477      0.787      0.698      -9999      4.8        -9999      -9999      -9999      -9999      -9999      4.838194   -9999      -9999      43.45      -9999      0.08332504 0.5807738 
987.2000000000001 0.306      -9999      -9999      -9999      5.004      9.733      0.546      0.521      -9999      4.826      -9999      -9999      -9999      -9999      -9999      4.913389   -9999      -9999      43.45      -9999      0.1128681  0.5807738 
987.4      0.291      -9999      -9999      -9999      5.461      9.189      0.368      0.273      -9999      4.8        -9999      -9999      -9999      -9999      -9999      5.10921    -9999      -9999      43.45      -9999      0.1238576  0.5807738 
987.6      0.277      -9999      -9999      -9999      6.07       9.509      1.067      0.286      -9999      4.648      -9999      -9999      -9999      -9999      -9999      5.264668   -9999      -9999      43.325     -9999      0.1238576  0.5767998 
987.8      0.261      -9999      -9999      -9999      6.553      8.997      0.756      0.229      -9999      4.369      -9999      -9999      -9999      -9999      -9999      5.24264    -9999      -9999      43.076     -9999      0.1197864  0.5689534000000001
988        0.268      -9999      -9999      -9999      6.883      9.029      0.356      0.406      -9999      4.165      -9999      -9999      -9999      -9999      -9999      5.189662   -9999      -9999      42.763     -9999      0.08260410999999999 0.559221  
988.2000000000001 0.296      -9999      -9999      -9999      7.366      10.758     0.197      0.324      -9999      4.115      -9999      -9999      -9999      -9999      -9999      5.280218   -9999      -9999      42.451     -9999      0.1405365  0.5496637 
988.4      0.323      -9999      -9999      -9999      8.509      12.039     0.171      0.559      -9999      3.886      -9999      -9999      -9999      -9999      -9999      5.335373   -9999      -9999      42.451     -9999      0.141763   0.5496637 
988.6      0.289      -9999      -9999      -9999      10.185     11.558     0.559      0.419      -9999      4.267      -9999      -9999      -9999      -9999      -9999      6.014309   -9999      -9999      42.139     -9999      0.08914473000000001 0.540249  
988.8      0.255      -9999      -9999      -9999      12.319     10.694     0.229      0.603      -9999      4.927      -9999      -9999      -9999      -9999      -9999      7.038816   -9999      -9999      41.702     -4999.3837890625 -9999      0.2324258 
989        0.228      -9999      -9999      7.397226   12.014     9.413      0.298      0.425      0.9594874  5.08       0.1450603  0.1450603  0.3023669  1.361528992652893 0.7589191  7.140648   0.5223190188407898 0.6916581  41.265     0.4766868  0.7261634  0.2272102 
989.2000000000001 0.244      -9999      -9999      7.449223   11.76      12.391     0.768      0.972      0.9791582  4.8        0.1331042  0.1331042  0.2933518  0.8176575  0.6969947  6.817391   0.4738432  0.6678062  40.578     0.4855986  0.7518458  0.2193514 
989.4      0.257      -9999      -9999      7.446665   11.379     15.401     0.571      0.845      0.9993354  4.419      0.1251887  0.1251887  0.2841046  0.5833858  0.6999192  6.365844   0.4268449  0.6411272  39.954     0.4815634  0.7505615  0.2125652 
989.6      0.274      -9999      -9999      7.367261   12.039     25.552     3.048      3.956      1.020793   4.038      0.1226128  0.1226128  0.2742704  0.5226905  0.7970739  6.047581   0.4021549  0.6206539  39.455     0.4595684  0.7117633  0.2073735 
989.8      0.272      -9999      -9999      7.19522    13.766     17.386     2.102      3.956      1.045054   3.911      0.1251769  0.1251769  0.2631519  0.5830926  1.056354   6.091399   0.4148206  0.6151636  38.893     0.4181061  0.634442   0.2017702 
990        0.248      -9999      -9999      6.92791    16.001     13.544     0.965      0.876      1.07366    3.988      0.1301735  0.1301735  0.2500418  0.7215844  1.636249   6.38471    0.4467775  0.6178697  38.269     0.3632372  0.5306306  0.1958438 
990.2000000000001 0.221      6          6          6.578887   18.541     10.758     0.324      0.521      1.107522   4.851      0.1337112  0.1337112  0.2345228  0.8390999  2.897228   7.690013   0.5047236000000001 0.6417543  37.707     0.3054898  0.4202147  0.1907649 
990.4      0.218      6          6          6.173346   19.049     11.718     0.305      0.387      1.146177   7.417      0.1331714  0.1331714  0.2168073  0.8200034000000001 5.627263   10.67683   0.5739107  0.6807457  37.207     0.253442   0.3204371  0.1864469 
990.6      0.218      6          6          5.749562   18.16      26.513     0.368      0.483      1.187522   8.813      0.1280302  0.1280302  0.1978587  0.6585495  11.26109   11.86698   0.5803819  0.6750807  36.645     0.2116014  0.2413897  0.1818132 
990.8      0.218      6          6          5.345697   16.636     47.648     0.768      3.715      1.228081   9.982      0.1202077  0.1202077  0.1792704  0.4717327  21.81236   12.47731   0.5670075999999999 0.655304   35.584     0.178978   0.1842796  0.1736765 
991        0.218      6          6          4.994266   14.858     77.109     3.988      2.28       1.263648   11.506     0.1104966  0.1104966  0.1629702  0.3117623  38.7747    12.96891   0.5424199  0.629766   35.397     0.1590109  0.1456991  0.1723227 
991.2000000000001 0.219      6          6          4.717185   12.044     145.157    2.673      3.384      1.290293   12.649     0.1024241  0.1024241  0.1507588  0.2209536  61.02887   12.33909   0.4996108  0.5900298  35.334     0.1464687  0.1210655  0.1718719 
991.4      0.219      6          6          4.52364    10.734     108.171    1.524      2.654      1.305027   13.192     0.09824076 0.09824076 0.1440062  0.1848482  83.77867000000001 11.83674   0.4708827  0.5625324  35.21      0.1386831  0.1063738  0.1709923 
991.6      0.219      6          6          4.40862    9.423      87.996     1.511      2.4        1.306788   13.736     0.09821346 0.09821346 0.143199   0.1846331  101.1359   11.17789   0.4563382  0.5482771  35.647     0.1363199  0.09850188 0.1741379 
991.8      0.219      6          6          4.358046   8.509      120.339    1.657      2.457      1.295902   14.279     0.1031239  0.1031239  0.1481881  0.2276477  109.8653   10.66351   0.4673087  0.5557415  36.146     0.1365581  0.09522759 0.1778887 
992        0.219      6          6          4.351361   7.747      133.949    1.549      2.648      1.274242   14.823     0.1128817  0.1128817  0.1581151  0.3451445  111.0742   10.17579   0.4967086  0.5782391  36.333     0.1370709  0.09480300999999999 0.1793388 
992.2000000000001 0.219      6          6          4.366927   7.213      85.114     1.943      2.546      1.244775   15.366     0.1269297  0.1269297  0.1716198  0.6283547  108.2797   9.817526   0.5378767  0.6101491  35.771     0.1354243  0.09579456 0.175054  
992.4      0.219      6          6          4.38518    6.68       65.1       1.67       3.048      1.211269   16.128     0.1415448  0.1415448  0.1869754  1.171954   105.0921   9.447127   0.5720696  0.638738   36.208     0.1376686  0.09697053 0.1783667 
992.6      0.219      6          6          4.389865   6.35       34.358     1.581      2.324      1.177679   15.112     0.1571256  0.1571256  0.2023699  2.277744   104.2891   8.942429   0.5990761  0.6605399  36.021     0.1371038  0.09727471 0.176933  
992.8      0.219      1          3          4.369603   6.223      20.909     1.86       2.495      1.14795    14.731     0.1712761  0.1712761  0.2159944  4.164916   107.8063   8.749739   0.6242626  0.6813     35.771     0.13551    0.09596609 0.175054  
993        0.219      1          3          4.318375   6.121      18.988     2.565      2.749      1.125232   14.985     0.1827458  0.1827458  0.2264061  6.792888   117.2368   8.691669   0.6437758  0.6972113  35.334     0.1323037  0.09273557 0.1718719 
993.2000000000001 0.219      1          3          4.235784   5.943      20.429     2.756      3.067      1.111438   15.493     0.1906028  0.1906028  0.2327278  9.496957999999999 134.2089   8.590679   0.6547111  0.7055238  34.71      0.1276516  0.08775464 0.1675486 
