~Version
 VERS              .         2.0                           : CWLS LOG ASCII STANDARD - VERSION 2.0
 WRAP              .         NO                            : ONE LINE PER DEPTH STEP
 DLM               .         SPACE                         : DELIMITING CHARACTER(SPACE TAB OR COMMA)
~Well Information
#_______________________________________________________________________________
#
#PARAMETER_NAME    .UNIT     VALUE                         : DESCRIPTION
#_______________________________________________________________________________
STRT               .M        987                           : First reference value
STOP               .M        1321.2                        : Last reference value
STEP               .M        0.2                           : Step increment
NULL               .         -9999                         : Missing value
COMP               .                                       : Company
WELL               .         1253                          : Well name
FLD                .         УЗЕНЬ                         : Field
LOC                .                                       : Location
CNTY               .                                       : County
STAT               .                                       : State
CTRY               .                                       : Country
SRVC               .                                       : Service Company
DATE               .         03.01.1968                    : Date
UWI                .                                       : Unique Well ID
Block              .         4                             : 
Category           .         Нефтяная                      : 
Condition          .         Ликвидированная               : 
Date               .         30.05.1968                    : 
EREF               .m        223.3                         : 100.8
Gorizont           .         15                            : 14
Interpretator      .         Алпанова Н.К.                 : 
Kupol              .         основной                      : osnovnoi
Moii_15_vosst      .         15_vosst                      : 
Mud                .                                       : 
Mud_density        .                                       : 
Mud_resistivity    .                                       : 
Mud_density        .                                       : 
Mud_resistivity    .                                       : 
NGDU               .         НГДУ-1                        : 
ORIGINALWELLNAME   .         1253                          : 
Spud_date          .         1968                          : 1961
Spud_date          .         1968                          : 1961
Viscosity          .                                       : 
X                  .m        54076.2                       : 46154
Y                  .m        82250.8                       : 85761.93
YEAR               .         2018                          : 
~Parameter Information Block
#_______________________________________________________________________________
#
#PARAMETER_NAME    .UNIT     VALUE                         : DESCRIPTION
#_______________________________________________________________________________
SET                .         LQC_KAZNIPI_Petrel            : 
AVST               .DEGC     -999.25                       : Average Surface Temperature
BS                 .MM       -999.25                       : Диаметр долота
CABL               .         -999.25                       : Cable Tipe
CBD                .m        -999.25                       : 
CLEN               .KM       -999.25                       : Cable Length
DFD                .G/C3     -999.25                       : Drilling Fluid Density
DFV                .s        -999.25                       : Вязкость промывочной жидкости
DIRE               .         -999.25                       : Move Direction
EGL                .m        -999.25                       : Альтитуда поверхности земли
EKB                .m        -999.25                       : Альтитуда стола ротора
GSDD               .         CSAT                          : CSATкрив,0,DEPT,BOTTOM,,,,0
MT                 .         -999.25                       : Mud type
RMF                .OHMM     -999.25                       : Сопротивление фильтрата промывочной жидкости
SPEE               .M        -999.25                       : Speed
TDL                .m        -999.25                       : Полная глубина по каротажу
TLFamily_CALI      .         Caliper                       : 
TLFamily_COLL      .         Net Reservoir Flag            : 
TLFamily_CSAT      .         Fluid Code                    : 
TLFamily_DEPT      .         Measured Depth                : 
TLFamily_GR        .         Russian Gamma Ray             : 
TLFamily_GZ3       .         Gradient 225                  : 
TLFamily_LLS       .         Lateral Log Resistivity       : 
TLFamily_MINV      .         Micro Gradient Resistivity    : 
TLFamily_MNOR      .         Micro Resistivity             : 
TLFamily_NGLD      .         Neutron Far                   : 
TLFamily_OGZ       .         Gradient Inverted 225         : 
TLFamily_PHIE      .         Effective Porosity            : 
TLFamily_PHIEN     .         Effective Porosity            : 
TLFamily_PHIT      .         Porosity                      : 
TLFamily_PRMB      .         Permeability                  : 
TLFamily_PRMB_DGR  .         Permeability                  : 
TLFamily_RT        .         Formation Resistivity         : 
TLFamily_SOIL_ARCHIE .         Oil Saturation                : 
TLFamily_SOIL_DW   .         Oil Saturation                : 
TLFamily_SP        .         Spontaneous Potential         : 
TLFamily_VSH_FIN   .         Shale Volume                  : 
TLFamily_VSH_GR    .         Shale Volume                  : 
TLFamily_VSH_SP    .         Shale Volume                  : 
TOOL               .         -999.25                       : Tool Type
~Curve Information
#_______________________________________________________________________________
#
#LOGNAME           .UNIT     LOG_ID                        : DESCRIPTION
#_______________________________________________________________________________
DEPT               .M                                      : Колонка глубины 
CALI               .м                                      : Каверномер 
COLL               .unitless                               :  
CSAT               .unitless                               :  
GR                 .uR/h                                   : Гамма каротаж 
GZ3                .Ohmm                                   : Градиент-зонд  длиной 2.25м 
LLS                .Ohmm                                   : Боковой каротаж 
MINV               .Ohmm                                   : Микро-градиент зонд 
MNOR               .Ohmm                                   : Микро-потенциал зонд 
NGLD               .у.е.                                   : Показания зонда НГК-60 аппаратуры ДРСТ-3-90 
OGZ                .Ohmm                                   : Обращенный градиент-зонд 
PHIE               .м3/м3                                  : Описание 
PHIEN              .v/v                                    :  
PHIT               .м3/м3                                  : Описание 
PRMB               .mD                                     :  
PRMB_DGR           .mD                                     :  
RT                 .ohmm                                   : Description 
SOIL_ARCHIE        .v/v                                    :  
SOIL_DW            .v/v                                    :  
SP                 .мВ                                     : Потенциал самополяризации 
VSH_FIN            .unitless                               : Описание 
VSH_GR             .unitless                               : Shale volume 
VSH_SP             .unitless                               : Shale Volume 
~Ascii
# ...
1089.2     0.317      -9999      -9999      7.104862   1.905      1.215      0.413      0.476      0.8510957  2.007      0.2016862  0.2016862  0.3520429  15.23619   2.883471   1.95467    0.3415571  0.5275379  49.818     0.4556261  0.4210322  0.49022   
1089.4     0.31       -9999      -9999      7.176904   1.981      1.631      0.33       0.292      0.8457168000000001 2.032      0.2012446  0.2012446  0.354508   14.95191   2.657327   2.006176   0.3483016  0.535202   49.943     0.4644345  0.4353105  0.4935586 
1089.6     0.318      -9999      -9999      7.272206   2.057      1.183      0.502      0.457      0.8386705  2.032      0.2009685  0.2009685  0.3577373  14.77686   2.385183   2.044424   0.3532787  0.5418419  50.005     0.4750571  0.4549456  0.4951685 
1089.8     0.325      -9999      -9999      7.394048   2.083      0.799      0.254      0.235      0.8305615  2.032      0.2000627  0.2000627  0.3614537  14.2169    2.077456   2.057184   0.3526222  0.5453097  50.067     0.4890636  0.4813438  0.4967833 
1090       0.333      -9999      -9999      7.540247   2.083      0.991      0.311      0.21       0.822184   2.057      0.1980689  0.1980689  0.3652931  13.05796   1.760146   2.069918   0.3488388  0.5478387  50.13      0.5067397  0.5150488  0.4984307 
1090.2     0.327      -9999      -9999      7.70034    2.083      1.247      0.267      0.267      0.8144495000000001 2.083      0.1948082  0.1948082  0.3688378  11.36261   1.467997   2.083      0.3413064  0.5489947  50.192     0.5273625  0.55467    0.500055  
1090.4     0.291      -9999      -9999      7.858045   2.057      1.055      0.298      0.171      0.8085397  2.108      0.1906028  0.1906028  0.3715463  9.496957999999999 1.227658   2.082188   0.3285437  0.5471047  50.192     0.5483135  0.5966791  0.4999479 
1090.6     0.285      -9999      -9999      7.993342   2.032      0.895      0.286      0.375      0.8054159  2.057      0.1851102  0.1851102  0.3729779  7.513589   1.053082   2.044424   0.3052826  0.5388561  50.317     0.5692962  0.6352463  0.503346  
1090.8     0.293      -9999      -9999      8.088725   1.981      1.343      0.311      0.33       0.8059256  1.854      0.1804497  0.1804497  0.3727443  6.159206   0.9451466  1.915397   0.2676158  0.5187206  50.255     0.5827108  0.6639243  0.5014973 
1091       0.301      -9999      -9999      8.131598   1.88       1.631      0.419      0.476      0.8103752  1.6        0.1759451  0.1759451  0.3707051  5.082617   0.9003058  1.728736   0.2144069  0.4867649  50.317     0.5901818  0.6772331  0.5031306 
1091.2     0.309      -9999      -9999      8.114892   1.88       1.375      0.406      0.521      0.8184649000000001 1.372      0.1739795  0.1739795  0.3669975  4.673919   0.9175206  1.586322   0.174023   0.4585661  50.13      0.584903   0.6720157  0.4977903 
1091.4     0.321      -9999      -9999      8.037575   2.083      1.215      0.33       0.521      0.8293862  1.245      0.1731795  0.1731795  0.3619923  4.517122   1.001575   1.558495   0.1637845  0.4481175  50.067     0.5721601  0.648388   0.4959322 
1091.6     0.333      -9999      -9999      7.904479   2.362      0.895      0.317      0.343      0.8418813000000001 1.194      0.1744293  0.1744293  0.3562658  4.764433   1.164702   1.58618    0.1758434  0.4490456  49.943     0.5510197  0.6096441  0.4923954 
1091.8     0.328      -9999      -9999      7.725416   2.692      1.023      0.171      0.362      0.8545972  1.295      0.1769073  0.1769073  0.3504381  5.295553   1.426852   1.748753   0.2223427  0.4727829  49.88      0.5258508  0.5611463  0.4905554 
1092       0.297      -9999      -9999      7.512907   3.048      1.759      0.273      0.229      0.8662796  1.524      0.1805262  0.1805262  0.3450841  6.179339   1.815558   2.032      0.2879098  0.5101188  49.818     0.4986601  0.5085711000000001 0.488749  
1092.2     0.276      -9999      -9999      7.283473   3.378      1.503      0.254      0.21       0.8760659  1.829      0.1850773  0.1850773  0.340599   7.503067   2.354912   2.373099   0.3521225  0.5474735  49.693     0.4712779  0.4573245  0.4852313 
1092.4     0.258      -9999      -9999      7.05429    3.353      1.023      0.197      0.368      0.8833471000000001 2.134      0.1893532  0.1893532  0.337262   9.004084000000001 3.05362    2.608093   0.3924105  0.5696339  49.693     0.4482085  0.4112898  0.4851271 
1092.6     0.241      -9999      -9999      6.843476   3.175      3.681      0.4        0.273      0.8877589  2.489      0.1936585  0.1936585  0.3352401  10.81888   3.878035   2.790457   0.4227917  0.5861159  49.693     0.4290353  0.3730476  0.4850229 
1092.8     0.233      -9999      -9999      6.666289   2.845      7.043      0.33       0.273      0.8890615  2.769      0.197926   0.197926   0.3346431  12.97862   4.740803   2.806486   0.4351665  0.5904217  49.693     0.4142942  0.3436697  0.4849187 
1093       0.255      -9999      -9999      6.534501   2.565      10.245     1.314      1.308      0.8875277  2.388      0.2020023  0.2020023  0.335346   15.44295   5.504773   2.473337   0.4112072  0.567791   49.693     0.404072   0.3233297  0.4848144 
1093.2     0.276      -9999      -9999      6.454207   2.388      7.812      3.962      3.918      0.8839093  2.261      0.2059066  0.2059066  0.3370044  18.24096   6.029386   2.322765   0.4036215  0.5587164  49.63      0.397266   0.311532   0.4830001 
1093.4     0.297      -9999      -9999      6.424629   2.337      4.577      0.292      0.26       0.8793387  2.032      0.2089942  0.2089942  0.339099   20.80835   6.234997   2.173854   0.3927113  0.5482489  49.568     0.3942572  0.3072954  0.481219  
1093.6     0.297      -9999      -9999      6.442064   2.311      2.272      0.286      0.337      0.8753421  1.829      0.210432   0.210432   0.3409307  22.12432   6.112967   2.041942   0.3783303  0.5366634  49.568     0.3954506  0.3097856  0.4811155 
1093.8     0.278      -9999      -9999      6.498029   2.311      1.952      0.286      0.286      0.8733416000000001 1.676      0.2105795  0.2105795  0.3418475  22.26386   5.737159   1.942933   0.3640483  0.5259004  49.443     0.3977821  0.3179164  0.4776478 
1094       0.265      -9999      -9999      6.584489   2.311      3.681      0.235      0.311      0.8741922  1.524      0.2083384  0.2083384  0.3414577  20.23442   5.201483   1.836748   0.3409399  0.5099551  49.381     0.4033918  0.330899   0.4758846 
1094.2     0.272      -9999      -9999      6.695006   2.286      5.698      0.362      0.533      0.8780011  1.499      0.2040211  0.2040211  0.3397121  16.83156   4.588947   1.810681   0.3242926  0.5007522  49.318     0.4111848  0.3482689  0.4741007 
1094.4     0.28       -9999      -9999      6.826183   2.286      5.346      0.267      0.546      0.8841364  1.575      0.1981718  0.1981718  0.3369003  13.11536   3.954817   1.865035   0.3165071  0.499846   49.194     0.4203894  0.3700731  0.4707055 
1094.6     0.287      -9999      -9999      6.975718   2.21       3.489      0.343      0.584      0.8911366  1.702      0.1911478  0.1911478  0.3336921  9.720281999999999 3.338115   1.923016   0.3047441  0.4974439  49.069     0.4319524  0.3965985  0.4673064 
1094.8     0.285      -9999      -9999      7.139885   2.21       3.104      0.286      0.483      0.8975559  1.829      0.1835959  0.1835959  0.3307501  7.043673   2.771223   2.00153    0.2932977  0.4968094  48.944     0.445922   0.4279141  0.4639298 
1095       0.27       -9999      -9999      7.311913   2.261      4.481      0.286      0.756      0.9022496  2.007      0.1761454  0.1761454  0.328599   5.126242   2.280194   2.126442   0.2878546  0.5018489  48.819     0.4619805  0.4633853  0.4605757 
1095.2     0.279      -9999      -9999      7.48021    2.235      3.457      0.273      0.438      0.9044539  2.21       0.1689565  0.1689565  0.3275888  3.772614   1.88412    2.22243    0.2766775  0.5038347  48.819     0.4807038  0.5009313  0.4604764 
1095.4     0.289      -9999      -9999      7.630318   2.184      3.841      0.273      0.26       0.9041454  2.413      0.1629007  0.1629007  0.3277301  2.913899   1.589283   2.292796   0.2641562  0.5047175  48.881     0.4994832  0.5369786  0.4619877 
