~Version
 VERS              .         2.0                           : CWLS LOG ASCII STANDARD - VERSION 2.0
 WRAP              .         NO                            : ONE LINE PER DEPTH STEP
 DLM               .         SPACE                         : DELIMITING CHARACTER(SPACE TAB OR COMMA)
~Well Information
#_______________________________________________________________________________
#
#PARAMETER_NAME    .UNIT     VALUE                         : DESCRIPTION
#_______________________________________________________________________________
STRT               .M        987                           : First reference value
STOP               .M        1321.2                        : Last reference value
STEP               .M        0.2                           : Step increment
NULL               .         -9999                         : Missing value
COMP               .                                       : Company
WELL               .         1253                          : Well name
FLD                .         УЗЕНЬ                         : Field
LOC                .                                       : Location
CNTY               .                                       : County
STAT               .                                       : State
CTRY               .                                       : Country
SRVC               .                                       : Service Company
DATE               .         03.01.1968                    : Date
UWI                .                                       : Unique Well ID
Block              .         4                             : 
Category           .         Нефтяная                      : 
Condition          .         Ликвидированная               : 
Date               .         30.05.1968                    : 
EREF               .m        223.3                         : 100.8
Gorizont           .         15                            : 14
Interpretator      .         Алпанова Н.К.                 : 
Kupol              .         основной                      : osnovnoi
Moii_15_vosst      .         15_vosst                      : 
Mud                .                                       : 
Mud_density        .                                       : 
Mud_resistivity    .                                       : 
Mud_density        .                                       : 
Mud_resistivity    .                                       : 
NGDU               .         НГДУ-1                        : 
ORIGINALWELLNAME   .         1253                          : 
Spud_date          .         1968                          : 1961
Spud_date          .         1968                          : 1961
Viscosity          .                                       : 
X                  .m        54076.2                       : 46154
Y                  .m        82250.8                       : 85761.93
YEAR               .         2018                          : 
~Parameter Information Block
#_______________________________________________________________________________
#
#PARAMETER_NAME    .UNIT     VALUE                         : DESCRIPTION
#_______________________________________________________________________________
SET                .         LQC_KAZNIPI_Petrel            : 
AVST               .DEGC     -999.25                       : Average Surface Temperature
BS                 .MM       -999.25                       : Диаметр долота
CABL               .         -999.25                       : Cable Tipe
CBD                .m        -999.25                       : 
CLEN               .KM       -999.25                       : Cable Length
DFD                .G/C3     -999.25                       : Drilling Fluid Density
DFV                .s        -999.25                       : Вязкость промывочной жидкости
DIRE               .         -999.25                       : Move Direction
EGL                .m        -999.25                       : Альтитуда поверхности земли
EKB                .m        -999.25                       : Альтитуда стола ротора
GSDD               .         CSAT                          : CSATкрив,0,DEPT,BOTTOM,,,,0
MT                 .         -999.25                       : Mud type
RMF                .OHMM     -999.25                       : Сопротивление фильтрата промывочной жидкости
SPEE               .M        -999.25                       : Speed
TDL                .m        -999.25                       : Полная глубина по каротажу
TLFamily_CALI      .         Caliper                       : 
TLFamily_COLL      .         Net Reservoir Flag            : 
TLFamily_CSAT      .         Fluid Code                    : 
TLFamily_DEPT      .         Measured Depth                : 
TLFamily_GR        .         Russian Gamma Ray             : 
TLFamily_GZ3       .         Gradient 225                  : 
TLFamily_LLS       .         Lateral Log Resistivity       : 
TLFamily_MINV      .         Micro Gradient Resistivity    : 
TLFamily_MNOR      .         Micro Resistivity             : 
TLFamily_NGLD      .         Neutron Far                   : 
TLFamily_OGZ       .         Gradient Inverted 225         : 
TLFamily_PHIE      .         Effective Porosity            : 
TLFamily_PHIEN     .         Effective Porosity            : 
TLFamily_PHIT      .         Porosity                      : 
TLFamily_PRMB      .         Permeability                  : 
TLFamily_PRMB_DGR  .         Permeability                  : 
TLFamily_RT        .         Formation Resistivity         : 
TLFamily_SOIL_ARCHIE .         Oil Saturation                : 
TLFamily_SOIL_DW   .         Oil Saturation                : 
TLFamily_SP        .         Spontaneous Potential         : 
TLFamily_VSH_FIN   .         Shale Volume                  : 
TLFamily_VSH_GR    .         Shale Volume                  : 
TLFamily_VSH_SP    .         Shale Volume                  : 
TOOL               .         -999.25                       : Tool Type
~Curve Information
#_______________________________________________________________________________
#
#LOGNAME           .UNIT     LOG_ID                        : DESCRIPTION
#_______________________________________________________________________________
DEPT               .M                                      : Колонка глубины 
CALI               .м                                      : Каверномер 
COLL               .unitless                               :  
CSAT               .unitless                               :  
GR                 .uR/h                                   : Гамма каротаж 
GZ3                .Ohmm                                   : Градиент-зонд  длиной 2.25м 
LLS                .Ohmm                                   : Боковой каротаж 
MINV               .Ohmm                                   : Микро-градиент зонд 
MNOR               .Ohmm                                   : Микро-потенциал зонд 
NGLD               .у.е.                                   : Показания зонда НГК-60 аппаратуры ДРСТ-3-90 
OGZ                .Ohmm                                   : Обращенный градиент-зонд 
PHIE               .м3/м3                                  : Описание 
PHIEN              .v/v                                    :  
PHIT               .м3/м3                                  : Описание 
PRMB               .mD                                     :  
PRMB_DGR           .mD                                     :  
RT                 .ohmm                                   : Description 
SOIL_ARCHIE        .v/v                                    :  
SOIL_DW            .v/v                                    :  
SP                 .мВ                                     : Потенциал самополяризации 
VSH_FIN            .unitless                               : Описание 
VSH_GR             .unitless                               : Shale volume 
VSH_SP             .unitless                               : Shale Volume 
~Ascii
# ...
1191.6     0.212      1          2          6.893207   33.146     164.37     1.194      1.841      0.9491801  32.13      0.2425026  0.2425026  0.3070908  86.87506000000001 8.935040000000001 32.63009   0.850338   0.8837202  20.289     0.1957216  0.2653077  0.1261355 
1191.8     0.211      1          2          6.856345   31.876     188.387    0.965      1.772      0.9511989  34.543     0.2426471  0.2426471  0.3061655  87.41209000000001 9.490800999999999 33.15595   0.8515337  0.8844728  20.289     0.19248    0.2588504  0.1261096 
1192       0.211      1          2          6.823927   31.114     218.008    1.035      1.6        0.9546441  35.559     0.241988   0.241988   0.3045866  84.98916   10.00805   33.18833   0.8512497  0.8840501  20.289     0.1896927  0.2533017  0.1260837 
1192.2     0.211      1          2          6.793725   30.86      242.826    1.251      1.924      0.9595312  35.813     0.2405878  0.2405878  0.3023469  80.06236   10.51529   33.15253   0.8504202  0.8832057  20.289     0.1871486  0.2482392  0.1260579 
1192.4     0.211      1          2          6.765135   30.733     227.615    1.276      1.975      0.9656783  35.686     0.2385709  0.2385709  0.2995296  73.4633    11.01913   33.02482   0.8490463  0.8819262  20.227     0.1847233  0.2435403  0.1259064 
1192.6     0.211      1          2          6.741479   30.479     211.604    1.149      1.568      0.9726663  35.686     0.2360238  0.2360238  0.296327   65.901     11.4542    32.87761   0.8473087  0.880384   20.164     0.1827369  0.2397196  0.1257543 
1192.8     0.211      1          2          6.727811   29.844     206        1.162      1.911      0.9797574  36.321     0.2331787  0.2331787  0.2930772  58.37057   11.71336   32.76548   0.8454397  0.8787948  20.039     0.1815105  0.2375395  0.1254815 
1193       0.211      1          2          6.729911   28.193     197.193    1.016      1.797      0.9861466  42.163     0.2302196  0.2302196  0.290149   51.44973   11.67316   33.79105   0.845955   0.8793054  19.977     0.1816044  0.2378732  0.1253356 
1193.2     0.212      1          2          6.750702   25.145     200.396    1.346      1.765      0.9910523999999999 44.575     0.2274852  0.2274852  0.2879007  45.78627   11.28256   32.15257   0.8406703  0.8750834  19.79      0.1830773  0.2412021  0.1249526 
1193.4     0.212      1          2          6.790783   21.97      254.034    1.149      2.127      0.9941354  46.226     0.2250722  0.2250722  0.2864877  41.30866   10.56605   29.7843    0.8333048  0.869257   19.54      0.1861077  0.2477515  0.1244638 
1193.6     0.212      1          2          6.846744   19.303     222.011    0.997      1.753      0.9953784  47.623     0.2229668  0.2229668  0.2859181  37.76114   9.641142   27.47114   0.8254362  0.8631681  19.478     0.1907613  0.2571945  0.124328  
1193.8     0.212      1          2          6.912385   17.271     195.592    1.003      1.619      0.9952031  48.766     0.2211475  0.2211475  0.2859984  34.94185   8.658877   25.50805   0.8179616  0.8575355  19.478     0.196518   0.2687308  0.1243052 
1194       0.213      1          2          6.979464   15.239     198.795    1.13       1.829      0.9939967  49.655     0.2196707  0.2196707  0.2865513  32.80901   7.758417   23.32088   0.8090292  0.8507543  19.478     0.2026683  0.2810543  0.1242824 
1194.2     0.214      1          2          7.039004   13.208     189.988    1.206      1.784      0.9919748000000001 50.163     0.2186043  0.2186043  0.287478   31.35024   7.03791    20.91029   0.7981431  0.8423621  19.852     0.2087079  0.2924655  0.1249504 
1194.4     0.214      1          2          7.083547   12.039     175.578    1.099      1.556      0.9893497  50.798     0.2181286  0.2181286  0.2886811  30.72058   6.543003   19.46487   0.7908462000000001 0.836863   20.539     0.2137952  0.3013042  0.1262863 
1194.6     0.214      1          2          7.105724   10.82      166.772    0.984      1.714      0.9859645  51.306     0.2186964  0.2186964  0.2902324  31.47351   6.309722   17.87113   0.7827839  0.8304591  21.226     0.2167761  0.3058041  0.127748  
1194.8     0.214      1          2          7.103004   9.804      164.37     1.06       1.81       0.9817597  52.195     0.2205273  0.2205273  0.2921596  34.02969   6.337889   16.50736   0.7761711  0.8248839  21.725     0.2170675  0.3052484  0.1288866 
1195       0.214      1          2          7.077798   8.813      158.766    1.06       1.714      0.9767888  53.084     0.2218179  0.2218179  0.2944377  35.95541   6.604868   15.11638   0.7679142  0.8182738  25.346     0.2200599  0.3001486  0.1399712 
1195.2     0.215      1          2          7.038207   7.798      148.359    1.067      1.689      0.971371   53.846     0.2256801  0.2256801  0.2969207  42.39364   7.047108   13.6231    0.7599416  0.8108742  25.221     0.2158806  0.2923096  0.1394516 
1195.4     0.215      1          2          6.997678   6.655      139.553    1.187      1.708      0.9658881  54.862     0.2283875  0.2283875  0.2994335  47.5826    7.530501   11.8701    0.7465582  0.7993831  26.844     0.2152909  0.284497   0.1460847 
1195.6     0.215      1          2          6.972415   5.664      153.162    1.099      1.784      0.9606184  56.005     0.2298821  0.2298821  0.3018486  50.7145    7.848459   10.28758   0.7304921  0.7860939  28.904     0.2180803  0.2797331  0.1564274 
1195.8     0.215      1          2          6.976162   4.8        173.176    1.283      1.981      0.9558209  57.275     0.2298577  0.2298577  0.3040473  50.66183   7.800467   8.857673   0.7108583000000001 0.7704367  30.964     0.2248168  0.2804346  0.169199  
1196       0.215      1          2          7.018304   4.089      160.367    1.067      1.791      0.9514125  56.894     0.2282502  0.2282502  0.3060676  47.30487   7.280479   7.629653   0.6879814  0.7528837  32.837     0.2358104  0.2884466  0.1831742 
1196.2     0.216      1          2          7.100379   3.48       145.157    1.213      1.822      0.9474041  52.449     0.2245852  0.2245852  0.3079047  40.45946   6.365174   6.526937   0.6594998  0.7319605  34.773     0.2524834  0.3047134  0.2002534 
1196.4     0.216      1          2          7.218      2.972      100.325    1.143      1.848      0.9437308  34.162     0.2186238  0.2186238  0.3095882  31.37633   5.250367   5.468275   0.6212434  0.7048325  36.833     0.2756495  0.3296376  0.2216615 
1196.6     0.217      -9999      -9999      7.36097    2.515      58.375     1.245      1.816      0.940578   32.765     0.2055109  0.2055109  0.3110331  17.93572   4.154769   4.671427   0.5696178  0.6733503  41.015     0.3197641  0.3626944  0.2768339 
1196.8     0.217      -9999      -9999      7.515415   2.159      31.957     0.927      1.676      0.9381835  25.526     0.1815964  0.1815964  0.3121305  6.467906   3.226615   3.981263   0.4833113  0.6288932  47.071     0.3955579  0.4021385  0.3889773 
1197       0.217      -9999      -9999      7.667545   1.905      15.785     1.143      1.721      0.9368727  21.335     0.1577641  0.1577641  0.3127312  2.340623   2.515316   3.497691   0.3793676  0.5821526  51.316     0.4695975  0.4451832  0.4940117 
1197.2     0.217      -9999      -9999      7.801781   1.727      13.288     0.762      1.359      0.936742   17.652     0.144504   0.144504   0.3127911  1.329606   2.019109   3.14619    0.2959122  0.5444893  52.689     0.509961   0.4869756  0.5329464 
1197.4     0.217      -9999      -9999      7.907063   1.6        10.758     1.124      1.46       0.9377146  15.493     0.1351649  0.1351649  0.3123454  0.8927708  1.69946    2.900462   0.2246967  0.5131443  53.314     0.5369105  0.522481   0.5513401 
1197.6     0.218      -9999      -9999      7.974544   1.6        9.509      0.889      1.092      0.9395273  13.716     0.1288398  0.1288398  0.3115146  0.6816856  1.521726   2.865709   0.1870644  0.5006273  53.626     0.5535600000000001 0.546588   0.560532  
1197.8     0.22       -9999      -9999      8.003941   1.626      7.524      1.162      1.06       0.9418891  10.414     0.1252629  0.1252629  0.3104322  0.5852369  1.450231   2.812818   0.1595687  0.4896154  53.688     0.561119   0.5574345000000001 0.5648035 
