~Version
 VERS              .         2.0                           : CWLS LOG ASCII STANDARD - VERSION 2.0
 WRAP              .         NO                            : ONE LINE PER DEPTH STEP
 DLM               .         SPACE                         : DELIMITING CHARACTER(SPACE TAB OR COMMA)
~Well Information
#_______________________________________________________________________________
#
#PARAMETER_NAME    .UNIT     VALUE                         : DESCRIPTION
#_______________________________________________________________________________
STRT               .M        987                           : First reference value
STOP               .M        1321.2                        : Last reference value
STEP               .M        0.2                           : Step increment
NULL               .         -9999                         : Missing value
COMP               .                                       : Company
WELL               .         1253                          : Well name
FLD                .         УЗЕНЬ                         : Field
LOC                .                                       : Location
CNTY               .                                       : County
STAT               .                                       : State
CTRY               .                                       : Country
SRVC               .                                       : Service Company
DATE               .         03.01.1968                    : Date
UWI                .                                       : Unique Well ID
Block              .         4                             : 
Category           .         Нефтяная                      : 
Condition          .         Ликвидированная               : 
Date               .         30.05.1968                    : 
EREF               .m        223.3                         : 100.8
Gorizont           .         15                            : 14
Interpretator      .         Алпанова Н.К.                 : 
Kupol              .         основной                      : osnovnoi
Moii_15_vosst      .         15_vosst                      : 
Mud                .                                       : 
Mud_density        .                                       : 
Mud_resistivity    .                                       : 
Mud_density        .                                       : 
Mud_resistivity    .                                       : 
NGDU               .         НГДУ-1                        : 
ORIGINALWELLNAME   .         1253                          : 
Spud_date          .         1968                          : 1961
Spud_date          .         1968                          : 1961
Viscosity          .                                       : 
X                  .m        54076.2                       : 46154
Y                  .m        82250.8                       : 85761.93
YEAR               .         2018                          : 
~Parameter Information Block
#_______________________________________________________________________________
#
#PARAMETER_NAME    .UNIT     VALUE                         : DESCRIPTION
#_______________________________________________________________________________
SET                .         LQC_KAZNIPI_Petrel            : 
AVST               .DEGC     -999.25                       : Average Surface Temperature
BS                 .MM       -999.25                       : Диаметр долота
CABL               .         -999.25                       : Cable Tipe
CBD                .m        -999.25                       : 
CLEN               .KM       -999.25                       : Cable Length
DFD                .G/C3     -999.25                       : Drilling Fluid Density
DFV                .s        -999.25                       : Вязкость промывочной жидкости
DIRE               .         -999.25                       : Move Direction
EGL                .m        -999.25                       : Альтитуда поверхности земли
EKB                .m        -999.25                       : Альтитуда стола ротора
GSDD               .         CSAT                          : CSATкрив,0,DEPT,BOTTOM,,,,0
MT                 .         -999.25                       : Mud type
RMF                .OHMM     -999.25                       : Сопротивление фильтрата промывочной жидкости
SPEE               .M        -999.25                       : Speed
TDL                .m        -999.25                       : Полная глубина по каротажу
TLFamily_CALI      .         Caliper                       : 
TLFamily_COLL      .         Net Reservoir Flag            : 
TLFamily_CSAT      .         Fluid Code                    : 
TLFamily_DEPT      .         Measured Depth                : 
TLFamily_GR        .         Russian Gamma Ray             : 
TLFamily_GZ3       .         Gradient 225                  : 
TLFamily_LLS       .         Lateral Log Resistivity       : 
TLFamily_MINV      .         Micro Gradient Resistivity    : 
TLFamily_MNOR      .         Micro Resistivity             : 
TLFamily_NGLD      .         Neutron Far                   : 
TLFamily_OGZ       .         Gradient Inverted 225         : 
TLFamily_PHIE      .         Effective Porosity            : 
TLFamily_PHIEN     .         Effective Porosity            : 
TLFamily_PHIT      .         Porosity                      : 
TLFamily_PRMB      .         Permeability                  : 
TLFamily_PRMB_DGR  .         Permeability                  : 
TLFamily_RT        .         Formation Resistivity         : 
TLFamily_SOIL_ARCHIE .         Oil Saturation                : 
TLFamily_SOIL_DW   .         Oil Saturation                : 
TLFamily_SP        .         Spontaneous Potential         : 
TLFamily_VSH_FIN   .         Shale Volume                  : 
TLFamily_VSH_GR    .         Shale Volume                  : 
TLFamily_VSH_SP    .         Shale Volume                  : 
TOOL               .         -999.25                       : Tool Type
~Curve Information
#_______________________________________________________________________________
#
#LOGNAME           .UNIT     LOG_ID                        : DESCRIPTION
#_______________________________________________________________________________
DEPT               .M                                      : Колонка глубины 
CALI               .м                                      : Каверномер 
COLL               .unitless                               :  
CSAT               .unitless                               :  
GR                 .uR/h                                   : Гамма каротаж 
GZ3                .Ohmm                                   : Градиент-зонд  длиной 2.25м 
LLS                .Ohmm                                   : Боковой каротаж 
MINV               .Ohmm                                   : Микро-градиент зонд 
MNOR               .Ohmm                                   : Микро-потенциал зонд 
NGLD               .у.е.                                   : Показания зонда НГК-60 аппаратуры ДРСТ-3-90 
OGZ                .Ohmm                                   : Обращенный градиент-зонд 
PHIE               .м3/м3                                  : Описание 
PHIEN              .v/v                                    :  
PHIT               .м3/м3                                  : Описание 
PRMB               .mD                                     :  
PRMB_DGR           .mD                                     :  
RT                 .ohmm                                   : Description 
SOIL_ARCHIE        .v/v                                    :  
SOIL_DW            .v/v                                    :  
SP                 .мВ                                     : Потенциал самополяризации 
VSH_FIN            .unitless                               : Описание 
VSH_GR             .unitless                               : Shale volume 
VSH_SP             .unitless                               : Shale Volume 
~Ascii
# ...
1172.4     0.21       1          2          6.401782   35.94      249.23     1.232      1.867      0.9683607  24.383     0.2460841  0.2460841  0.2983003  101.2122   19.97409   29.05442   0.8439658  0.8754564  18.728     0.1582309  0.191025   0.1254368 
1172.6     0.21       1          2          6.337685   34.797     277.25     1.137      1.594      0.9635504  25.78      0.2495327  0.2495327  0.3005049  117.2488   22.18381   29.6174    0.8472277  0.8778898  18.978     0.1544612  0.1830133  0.125909  
1172.8     0.21       1          2          6.297153   33.781     262.039    1.194      1.791      0.9593383  27.304     0.2521023  0.2521023  0.3024352  130.829    23.70565   30.19911   0.8499605  0.8800387  19.478     0.1525241  0.1781215  0.1269268 
1173       0.211      1          2          6.278842   33.654     197.193    1.092      1.791      0.9564519  28.828     0.2535319  0.2535319  0.3037581  139.0544   24.42693   31.05462   0.8526421  0.8822821  20.164     0.1522005  0.1759547  0.1284463 
1173.2     0.211      1          2          6.278308   34.416     156.365    0.946      1.765      0.9558077  30.733     0.253563   0.253563   0.3040533  139.2388   24.44832   32.4704    0.8557082  0.8849475  20.851     0.1530009  0.1758919  0.1301099 
1173.4     0.211      1          2          6.28682    35.813     128.345    1.13       1.714      0.957836   32.638     0.2521096  0.2521096  0.3031238  130.8699   24.11002   34.15187   0.8583794  0.8873435  21.663     0.1545884  0.1768955  0.1322812 
1173.6     0.211      1          2          6.296854   37.337     103.901    1.054      1.962      0.9626783  33.781     0.2495195  0.2495195  0.3009045  117.1831   23.71725   35.4701    0.8596171  0.8885009  22.037     0.1557122  0.1780859  0.1333385 
1173.8     0.211      1          2          6.301892   39.115     79.991     1.308      1.918      0.9699703  35.051     0.2460226  0.2460226  0.2975626  100.9469   23.52242   36.97165   0.8606192  0.8894243  22.162     0.156182   0.1786867  0.1336773 
1174       0.211      1          2          6.29821    41.02      78.069     1.124      1.753      0.978828   34.67      0.2420728  0.2420728  0.2935031  85.29683   23.66466   37.57863   0.8597167  0.8886888  22.1       0.1558496  0.1782474  0.1334517 
1174.2     0.211      1          2          6.284682   42.925     93.921     1.206      1.702      0.988049   33.146     0.2381178  0.2381178  0.2892772  72.05725   24.19455   37.40695   0.8573834  0.8867095  22.1       0.1550283  0.1766429  0.1334138 
1174.4     0.211      1          2          6.264019   45.083     131.547    1.175      1.911      0.9964029  32.765     0.234847   0.234847   0.2854486  62.67509   25.0269    37.94945   0.856627   0.8859891  21.787     0.1533379  0.17422    0.1324559 
1174.6     0.211      1          2          6.239358   45.845     152.362    1.219      1.848      1.002699   33.273     0.232856   0.232856   0.2825631  57.57272   26.05793   38.56014   0.8566379  0.88582    20.851     0.1506274  0.1713715  0.1298833 
1174.8     0.211      1          2          6.213628   45.337     192.39     1.13       1.899      1.006058   33.908     0.2321271  0.2321271  0.2810234  55.81033   27.17891   38.79834   0.8566607000000001 0.88566    20.039     0.1481707  0.1684494  0.1278921 
1175       0.21       1          2          6.189709   44.194     234.82     1.149      1.822      1.006009   34.797     0.2327329  0.2327329  0.2810463  57.27126   28.26424   38.93655   0.8572242  0.8859943  19.665     0.1464041  0.1657775  0.1270308 
1175.2     0.21       1          2          6.170111   43.433     242.025    0.889      1.568      1.002607   35.305     0.2347833  0.2347833  0.2826054  62.505     29.1857    38.94948   0.8583328  0.8867974  19.29      0.1449153  0.16362    0.1262107 
1175.4     0.21       1          2          6.156311   42.671     245.227    0.813      1.429      0.9963171  35.94      0.2379389  0.2379389  0.2854879  71.50963   29.85253   39.01733   0.860085   0.8881896  19.228     0.1440876  0.1621176  0.1260576 
1175.6     0.21       1          2          6.150072   41.782     295.663    0.73       1.511      0.9881737  36.194     0.2417867  0.2417867  0.28922    84.26235   30.15896   38.78777   0.8616436  0.8894494  19.228     0.1437374  0.161443   0.1260319 
1175.8     0.21       1          2          6.153569   40.639     283.654    1.276      1.886      0.9795139000000001 36.448     0.2456764  0.2456764  0.2931888  99.46751   29.98679   38.42957   0.8629581  0.8905469  19.29      0.1439768  0.1618208  0.1261328 
1176       0.21       1          2          6.168108   40.004     226.814    1.213      1.867      0.9718536  36.448     0.2488664  0.2488664  0.2966995  113.9639   29.28154   38.1433    0.864013   0.8914828  19.478     0.1449489  0.1634011  0.1264967 
1176.2     0.21       1          2          6.191781   40.131     181.182    1.099      1.721      0.9664873000000001 37.083     0.2508785  0.2508785  0.2991589  124.1759   28.16854   38.54684   0.8656287  0.8929306  19.54      0.146304   0.1660073  0.1266007 
1176.4     0.211      1          2          6.221727   40.512     188.387    0.972      1.499      0.9641793  37.591     0.2513652  0.2513652  0.3002166  126.7803   26.82094   38.99688   0.8665839  0.8938537  19.602     0.1480346  0.1693638  0.1267054 
1176.6     0.211      1          2          6.251285   41.401     181.983    1.162      1.886      0.9649869  40.639     0.2504197  0.2504197  0.2998465  121.7697   25.55409   41.01646   0.8692796  0.8962608  19.665     0.1497781  0.1727433  0.1268129 
1176.8     0.211      1          2          6.275427   42.29      205.199    1.092      1.714      0.9680876000000001 42.036     0.2485175  0.2485175  0.2984255  112.2807   24.56388   42.16262   0.8700995  0.897068   19.727     0.1512363  0.1755535  0.126919  
1177       0.211      1          2          6.288028   43.052     219.609    1.378      1.981      0.9719693  42.163     0.2464532  0.2464532  0.2966465  102.8181   24.06239   42.60286   0.8697886  0.8968841  19.852     0.1521008  0.1770384  0.1271631 
1177.2     0.21       1          2          6.28621    43.56      193.191    1.124      1.994      0.9749208  41.782     0.2451406  0.2451406  0.2952938  97.22018   24.13411   42.65248   0.8692530000000001 0.8964382  19.852     0.1519794  0.1768234  0.1271355 
1177.4     0.21       1          2          6.271068   44.194     202.797    1.276      1.841      0.9753732000000001 41.528     0.2452088  0.2452088  0.2950865  97.50362   24.73981   42.81954   0.8695243  0.8966108  19.915     0.1511443  0.1750427  0.1272459 
1177.6     0.211      1          2          6.248082   44.067     193.191    1.162      2          0.9727743  41.274     0.2467996  0.2467996  0.2962776  104.3483   25.68844   42.62479   0.8699792  0.896898   20.039     0.1499332  0.1723738  0.1274927 
1177.8     0.211      1          2          6.222433   43.687     219.609    1.149      1.86       0.9675503  41.147     0.2496118  0.2496118  0.2986717  117.6454   26.78998   42.37897   0.8709061  0.8975707  20.227     0.1486662  0.1694437  0.1278888 
1178       0.211      1          2          6.201649   43.306     235.621    1.067      1.854      0.9611381  41.147     0.252941   0.252941   0.3016104  135.5938   27.71715   42.1989    0.872132   0.8985015  20.227     0.1474829  0.1671059  0.12786   
1178.2     0.211      1          2          6.188862   43.052     224.413    1.194      1.899      0.9555733  41.147     0.2557308  0.2557308  0.3041607  152.726    28.30345   42.07795   0.8731771  0.8993168  20.227     0.1467574  0.1656837  0.1278312 
1178.4     0.211      1          2          6.184793   43.433     208.401    0.965      1.727      0.9527854  41.02      0.2570875  0.2570875  0.3054384  161.8235   28.49257   42.19203   0.8739204  0.8999203  20.227     0.1465181  0.1652337  0.1278024 
1178.6     0.211      1          2          6.18595    44.448     212.404    1.206      1.892      0.9537807  40.893     0.256615   0.256615   0.3049823  158.5952   28.43866   42.59646   0.8742823  0.900233   20.227     0.1465676  0.1653616  0.1277737 
