~Version
 VERS              .         2.0                           : CWLS LOG ASCII STANDARD - VERSION 2.0
 WRAP              .         NO                            : ONE LINE PER DEPTH STEP
 DLM               .         SPACE                         : DELIMITING CHARACTER(SPACE TAB OR COMMA)
~Well Information
#_______________________________________________________________________________
#
#PARAMETER_NAME    .UNIT     VALUE                         : DESCRIPTION
#_______________________________________________________________________________
STRT               .M        987                           : First reference value
STOP               .M        1321.2                        : Last reference value
STEP               .M        0.2                           : Step increment
NULL               .         -9999                         : Missing value
COMP               .                                       : Company
WELL               .         1253                          : Well name
FLD                .         УЗЕНЬ                         : Field
LOC                .                                       : Location
CNTY               .                                       : County
STAT               .                                       : State
CTRY               .                                       : Country
SRVC               .                                       : Service Company
DATE               .         03.01.1968                    : Date
UWI                .                                       : Unique Well ID
Block              .         4                             : 
Category           .         Нефтяная                      : 
Condition          .         Ликвидированная               : 
Date               .         30.05.1968                    : 
EREF               .m        223.3                         : 100.8
Gorizont           .         15                            : 14
Interpretator      .         Алпанова Н.К.                 : 
Kupol              .         основной                      : osnovnoi
Moii_15_vosst      .         15_vosst                      : 
Mud                .                                       : 
Mud_density        .                                       : 
Mud_resistivity    .                                       : 
Mud_density        .                                       : 
Mud_resistivity    .                                       : 
NGDU               .         НГДУ-1                        : 
ORIGINALWELLNAME   .         1253                          : 
Spud_date          .         1968                          : 1961
Spud_date          .         1968                          : 1961
Viscosity          .                                       : 
X                  .m        54076.2                       : 46154
Y                  .m        82250.8                       : 85761.93
YEAR               .         2018                          : 
~Parameter Information Block
#_______________________________________________________________________________
#
#PARAMETER_NAME    .UNIT     VALUE                         : DESCRIPTION
#_______________________________________________________________________________
SET                .         LQC_KAZNIPI_Petrel            : 
AVST               .DEGC     -999.25                       : Average Surface Temperature
BS                 .MM       -999.25                       : Диаметр долота
CABL               .         -999.25                       : Cable Tipe
CBD                .m        -999.25                       : 
CLEN               .KM       -999.25                       : Cable Length
DFD                .G/C3     -999.25                       : Drilling Fluid Density
DFV                .s        -999.25                       : Вязкость промывочной жидкости
DIRE               .         -999.25                       : Move Direction
EGL                .m        -999.25                       : Альтитуда поверхности земли
EKB                .m        -999.25                       : Альтитуда стола ротора
GSDD               .         CSAT                          : CSATкрив,0,DEPT,BOTTOM,,,,0
MT                 .         -999.25                       : Mud type
RMF                .OHMM     -999.25                       : Сопротивление фильтрата промывочной жидкости
SPEE               .M        -999.25                       : Speed
TDL                .m        -999.25                       : Полная глубина по каротажу
TLFamily_CALI      .         Caliper                       : 
TLFamily_COLL      .         Net Reservoir Flag            : 
TLFamily_CSAT      .         Fluid Code                    : 
TLFamily_DEPT      .         Measured Depth                : 
TLFamily_GR        .         Russian Gamma Ray             : 
TLFamily_GZ3       .         Gradient 225                  : 
TLFamily_LLS       .         Lateral Log Resistivity       : 
TLFamily_MINV      .         Micro Gradient Resistivity    : 
TLFamily_MNOR      .         Micro Resistivity             : 
TLFamily_NGLD      .         Neutron Far                   : 
TLFamily_OGZ       .         Gradient Inverted 225         : 
TLFamily_PHIE      .         Effective Porosity            : 
TLFamily_PHIEN     .         Effective Porosity            : 
TLFamily_PHIT      .         Porosity                      : 
TLFamily_PRMB      .         Permeability                  : 
TLFamily_PRMB_DGR  .         Permeability                  : 
TLFamily_RT        .         Formation Resistivity         : 
TLFamily_SOIL_ARCHIE .         Oil Saturation                : 
TLFamily_SOIL_DW   .         Oil Saturation                : 
TLFamily_SP        .         Spontaneous Potential         : 
TLFamily_VSH_FIN   .         Shale Volume                  : 
TLFamily_VSH_GR    .         Shale Volume                  : 
TLFamily_VSH_SP    .         Shale Volume                  : 
TOOL               .         -999.25                       : Tool Type
~Curve Information
#_______________________________________________________________________________
#
#LOGNAME           .UNIT     LOG_ID                        : DESCRIPTION
#_______________________________________________________________________________
DEPT               .M                                      : Колонка глубины 
CALI               .м                                      : Каверномер 
COLL               .unitless                               :  
CSAT               .unitless                               :  
GR                 .uR/h                                   : Гамма каротаж 
GZ3                .Ohmm                                   : Градиент-зонд  длиной 2.25м 
LLS                .Ohmm                                   : Боковой каротаж 
MINV               .Ohmm                                   : Микро-градиент зонд 
MNOR               .Ohmm                                   : Микро-потенциал зонд 
NGLD               .у.е.                                   : Показания зонда НГК-60 аппаратуры ДРСТ-3-90 
OGZ                .Ohmm                                   : Обращенный градиент-зонд 
PHIE               .м3/м3                                  : Описание 
PHIEN              .v/v                                    :  
PHIT               .м3/м3                                  : Описание 
PRMB               .mD                                     :  
PRMB_DGR           .mD                                     :  
RT                 .ohmm                                   : Description 
SOIL_ARCHIE        .v/v                                    :  
SOIL_DW            .v/v                                    :  
SP                 .мВ                                     : Потенциал самополяризации 
VSH_FIN            .unitless                               : Описание 
VSH_GR             .unitless                               : Shale volume 
VSH_SP             .unitless                               : Shale Volume 
~Ascii
# ...
1108.4     0.285      -9999      -9999      8.222755   2.591      3.617      0.337      0.635      0.8817209  2.515      0.1271918  0.1271918  0.3380073  0.6354172  0.8119102  2.552434   0.1320015  0.4953738  52.939     0.6388348  0.7064234  0.5712462 
1108.6     0.264      -9999      -9999      8.210309   2.515      3.168      0.229      0.4        0.8858431  2.565      0.125342   0.125342   0.3361181  0.5872133000000001 0.8234475  2.539754   0.1187981  0.489628   53.064     0.6387155  0.7023649  0.5750661 
1108.8     0.247      -9999      -9999      8.183694   2.489      3.841      0.311      0.495      0.8912743  2.591      0.1233123  0.1233123  0.333629   0.5385188  0.8486727  2.538976   0.1060502  0.4841118  53.251     0.6373233  0.6937642000000001 0.5808824 
1109       0.258      -9999      -9999      8.133653   2.464      5.634      0.279      0.673      0.8972281  2.616      0.1228932  0.1228932  0.3309003  0.5289786  0.8982115000000001 2.537726   0.1031883  0.4806183  53.314     0.6303247  0.6778774  0.582772  
1109.2     0.265      -9999      -9999      8.056499   2.489      5.73       0.26       0.432      0.9027919  2.591      0.1236062  0.1236062  0.3283505  0.5453128  0.9803168  2.538976   0.1079021  0.4792304  53.439     0.6204371  0.654093   0.5867811000000001
1109.4     0.27       -9999      -9999      7.957794   2.565      4.225      0.292      0.514      0.9074703  2.489      0.1256226  0.1256226  0.3262064  0.5942823  1.09639    2.526429   0.1183387  0.4787713  53.563     0.6078297  0.6248779  0.5907815 
1109.6     0.273      -9999      -9999      7.849374   2.591      3.777      0.279      0.464      0.9110618  2.438      0.1286869  0.1286869  0.3245604  0.6772551  1.239785   2.512173   0.1343568  0.4801448  53.626     0.5935559  0.594289   0.5928228 
1109.8     0.262      -9999      -9999      7.743762   2.667      3.745      0.267      0.559      0.9137427  2.438      0.1318047  0.1318047  0.3233317  0.7735714  1.397481   2.547364   0.1577342  0.4869888  53.688     0.580385   0.5659323000000001 0.5948377 
1110       0.258      -9999      -9999      7.654146   2.718      3.841      0.26       0.743      0.9158468  2.438      0.1349675  0.1349675  0.3223674  0.8852845  1.546926   2.570397   0.1784285  0.4927531  53.626     0.5678787  0.5429345  0.5928228 
1110.2     0.257      -9999      -9999      7.590787   2.718      3.617      0.292      0.483      0.9176717  2.438      0.1377174  0.1377174  0.3215311  0.9954468  1.662129   2.570397   0.192735   0.4956877  53.439     0.5570112  0.5272413  0.5867811000000001
1110.4     0.258      -9999      -9999      7.559935   2.692      3.649      0.324      0.362      0.9193857  2.464      0.1391589  0.1391589  0.3207455  1.05857    1.721295   2.572959   0.2003972  0.4971068  53.251     0.5502623  0.5197644  0.5807602 
1110.6     0.257      -9999      -9999      7.561649   2.591      4.097      0.267      0.527      0.9209267  2.515      0.139687   0.139687   0.3200393  1.082678   1.717952   2.552434   0.2000293  0.4951001  53.002     0.5465223  0.5201771  0.5728674 
1110.8     0.259      -9999      -9999      7.593748   2.489      4.738      0.298      0.419      0.922304   2.54       0.1393862  0.1393862  0.3194081  1.06888    1.656559   2.514241   0.1928358  0.4902399  52.689     0.5455208  0.5279644  0.5630772000000001
1111       0.263      -9999      -9999      7.65135    2.388      5.41       0.311      0.641      0.9233286000000001 2.515      0.1381488  0.1381488  0.3189385  1.013934   1.551837   2.449855   0.1765795  0.481392   52.377     0.5478474  0.5422322000000001 0.5534626 
1111.2     0.271      -9999      -9999      7.726854   2.311      5.698      0.425      0.825      0.9241574  2.388      0.1361493  0.1361493  0.3185586  0.931051   1.424527   2.348869   0.1494198  0.4670928  52.065     0.5527556  0.56152    0.5439911 
1111.4     0.277      -9999      -9999      7.811126   2.337      4.706      0.444      0.749      0.9250135  2.286      0.1333064  0.1333064  0.3181663  0.8247369  1.294727   2.311219   0.1270481  0.4581506  51.815     0.5601817  0.583859   0.5365043000000001
1111.6     0.269      -9999      -9999      7.89329    2.565      3.745      0.349      0.343      0.9265232  2.261      0.1304003  0.1304003  0.3174744  0.7285994  1.179571   2.403425   0.1263155  0.4635925  51.503     0.5668911  0.6064945000000001 0.5272878 
1111.8     0.261      -9999      -9999      7.961451   3.022      3.841      0.286      0.559      0.9293098  2.337      0.126518   0.126518   0.3161973  0.6174178  1.091853   2.635721   0.1410177  0.4807706  51.378     0.5747856  0.6259367  0.5236346 
1112       0.267      -9999      -9999      8.004228   3.48       3.841      0.343      0.692      0.9339323000000001 2.616      0.122334   0.122334   0.3140788  0.5165114  1.040166   2.986772   0.1658914  0.5041411  51.378     0.581045   0.6384555  0.5236346 
1112.2     0.273      -9999      -9999      8.011301   3.759      3.393      0.292      0.546      0.9405771000000001 2.921      0.1180352  0.1180352  0.3110335  0.4299873  1.031858   3.287437   0.1773671  0.5182471  51.566     0.5848435  0.6405495  0.5291376 
1112.4     0.261      -9999      -9999      7.977029   3.81       2.88       0.292      0.324      0.9488137  3.226      0.1143985  0.1143985  0.3072587  0.3682109  1.07274    3.493763   0.1784432  0.5237128  51.878     0.5844247  0.6304669000000001 0.5383825 
1112.6     0.25       -9999      -9999      7.901629   3.632      3.04       0.286      0.546      0.9577589  3.149      0.1129419  0.1129419  0.3031591  0.3460319  1.168472   3.373298   0.1554297  0.5088363  52.065     0.5764157  0.6088403  0.5439911 
1112.8     0.243      -9999      -9999      7.793779   3.403      3.905      0.298      0.521      0.965932   2.819      0.1134654  0.1134654  0.2994134  0.3538439  1.320442   3.083593   0.1226215  0.483013   52.19      0.5634789  0.5791891  0.5477687 
1113       0.243      -9999      -9999      7.667359   3.2        6.659      0.292      0.508      0.9719812  2.642      0.1148674  0.1148674  0.296641   0.3756486  1.523925   2.894351   0.1057704  0.4655496  52.44      0.5508291  0.5462657  0.5553924 
1113.2     0.259      -9999      -9999      7.540762   3.073      11.943     0.375      3.772      0.9749813000000001 2.515      0.1195704  0.1195704  0.2952661  0.4590831  1.759119   2.76614    0.117926   0.4595966  52.252     0.5324112  0.5151716  0.5496508 
1113.4     0.264      -9999      -9999      7.42932    2.946      12.103     0.61       2.851      0.9748352  2.362      0.1235949  0.1235949  0.2953331  0.5450496  1.99602    2.621873   0.1211809  0.4516948  52.315     0.5204185  0.4892679  0.5515691 
1113.6     0.264      -9999      -9999      7.341761   2.896      5.57       0.343      1.956      0.9720845  2.362      0.12775    0.12775    0.2965937  0.6507248  2.204326   2.601884   0.1430564  0.4577297  52.377     0.5116476  0.4698326  0.5534626 
1113.8     0.259      -9999      -9999      7.280387   2.845      4.225      0.381      0.8        0.9680289  2.464      0.1320926  0.1320926  0.2984523  0.7831301000000001 2.363164   2.640829   0.1734292  0.4704745  52.315     0.5041204  0.4566717  0.5515691 
1114       0.244      -9999      -9999      7.240086   2.819      4.641      0.527      0.743      0.9638897  2.616      0.1363191  0.1363191  0.3003494  0.9378161  2.473642   2.713709   0.2060026  0.4857986  52.128     0.4970615  0.4482307  0.5458922000000001
1114.2     0.234      -9999      -9999      7.212058   2.794      6.691      0.533      1.029      0.9604686  2.819      0.1403893  0.1403893  0.3019172  1.115601   2.553504   2.806444   0.2381974  0.5015579  51.815     0.4894785  0.4424526  0.5365043000000001
1114.4     0.227      -9999      -9999      7.188997   2.769      7.94       0.483      0.883      0.9579716  3.048      0.1435245  0.1435245  0.3030616  1.275202   2.621143   2.901809   0.2643381  0.5150402  51.566     0.4834459  0.4377542  0.5291376 
1114.6     0.226      -9999      -9999      7.169123   2.743      6.979      0.514      0.972      0.9558963  3.276      0.1466393  0.1466393  0.3040127  1.456378   2.680872   2.985901   0.2875817  0.5267254  51.254     0.476889   0.4337452  0.5200329 
