~Version
 VERS              .         2.0                           : CWLS LOG ASCII STANDARD - VERSION 2.0
 WRAP              .         NO                            : ONE LINE PER DEPTH STEP
 DLM               .         SPACE                         : DELIMITING CHARACTER(SPACE TAB OR COMMA)
~Well Information
#_______________________________________________________________________________
#
#PARAMETER_NAME    .UNIT     VALUE                         : DESCRIPTION
#_______________________________________________________________________________
STRT               .M        987                           : First reference value
STOP               .M        1321.2                        : Last reference value
STEP               .M        0.2                           : Step increment
NULL               .         -9999                         : Missing value
COMP               .                                       : Company
WELL               .         1253                          : Well name
FLD                .         УЗЕНЬ                         : Field
LOC                .                                       : Location
CNTY               .                                       : County
STAT               .                                       : State
CTRY               .                                       : Country
SRVC               .                                       : Service Company
DATE               .         03.01.1968                    : Date
UWI                .                                       : Unique Well ID
Block              .         4                             : 
Category           .         Нефтяная                      : 
Condition          .         Ликвидированная               : 
Date               .         30.05.1968                    : 
EREF               .m        223.3                         : 100.8
Gorizont           .         15                            : 14
Interpretator      .         Алпанова Н.К.                 : 
Kupol              .         основной                      : osnovnoi
Moii_15_vosst      .         15_vosst                      : 
Mud                .                                       : 
Mud_density        .                                       : 
Mud_resistivity    .                                       : 
Mud_density        .                                       : 
Mud_resistivity    .                                       : 
NGDU               .         НГДУ-1                        : 
ORIGINALWELLNAME   .         1253                          : 
Spud_date          .         1968                          : 1961
Spud_date          .         1968                          : 1961
Viscosity          .                                       : 
X                  .m        54076.2                       : 46154
Y                  .m        82250.8                       : 85761.93
YEAR               .         2018                          : 
~Parameter Information Block
#_______________________________________________________________________________
#
#PARAMETER_NAME    .UNIT     VALUE                         : DESCRIPTION
#_______________________________________________________________________________
SET                .         LQC_KAZNIPI_Petrel            : 
AVST               .DEGC     -999.25                       : Average Surface Temperature
BS                 .MM       -999.25                       : Диаметр долота
CABL               .         -999.25                       : Cable Tipe
CBD                .m        -999.25                       : 
CLEN               .KM       -999.25                       : Cable Length
DFD                .G/C3     -999.25                       : Drilling Fluid Density
DFV                .s        -999.25                       : Вязкость промывочной жидкости
DIRE               .         -999.25                       : Move Direction
EGL                .m        -999.25                       : Альтитуда поверхности земли
EKB                .m        -999.25                       : Альтитуда стола ротора
GSDD               .         CSAT                          : CSATкрив,0,DEPT,BOTTOM,,,,0
MT                 .         -999.25                       : Mud type
RMF                .OHMM     -999.25                       : Сопротивление фильтрата промывочной жидкости
SPEE               .M        -999.25                       : Speed
TDL                .m        -999.25                       : Полная глубина по каротажу
TLFamily_CALI      .         Caliper                       : 
TLFamily_COLL      .         Net Reservoir Flag            : 
TLFamily_CSAT      .         Fluid Code                    : 
TLFamily_DEPT      .         Measured Depth                : 
TLFamily_GR        .         Russian Gamma Ray             : 
TLFamily_GZ3       .         Gradient 225                  : 
TLFamily_LLS       .         Lateral Log Resistivity       : 
TLFamily_MINV      .         Micro Gradient Resistivity    : 
TLFamily_MNOR      .         Micro Resistivity             : 
TLFamily_NGLD      .         Neutron Far                   : 
TLFamily_OGZ       .         Gradient Inverted 225         : 
TLFamily_PHIE      .         Effective Porosity            : 
TLFamily_PHIEN     .         Effective Porosity            : 
TLFamily_PHIT      .         Porosity                      : 
TLFamily_PRMB      .         Permeability                  : 
TLFamily_PRMB_DGR  .         Permeability                  : 
TLFamily_RT        .         Formation Resistivity         : 
TLFamily_SOIL_ARCHIE .         Oil Saturation                : 
TLFamily_SOIL_DW   .         Oil Saturation                : 
TLFamily_SP        .         Spontaneous Potential         : 
TLFamily_VSH_FIN   .         Shale Volume                  : 
TLFamily_VSH_GR    .         Shale Volume                  : 
TLFamily_VSH_SP    .         Shale Volume                  : 
TOOL               .         -999.25                       : Tool Type
~Curve Information
#_______________________________________________________________________________
#
#LOGNAME           .UNIT     LOG_ID                        : DESCRIPTION
#_______________________________________________________________________________
DEPT               .M                                      : Колонка глубины 
CALI               .м                                      : Каверномер 
COLL               .unitless                               :  
CSAT               .unitless                               :  
GR                 .uR/h                                   : Гамма каротаж 
GZ3                .Ohmm                                   : Градиент-зонд  длиной 2.25м 
LLS                .Ohmm                                   : Боковой каротаж 
MINV               .Ohmm                                   : Микро-градиент зонд 
MNOR               .Ohmm                                   : Микро-потенциал зонд 
NGLD               .у.е.                                   : Показания зонда НГК-60 аппаратуры ДРСТ-3-90 
OGZ                .Ohmm                                   : Обращенный градиент-зонд 
PHIE               .м3/м3                                  : Описание 
PHIEN              .v/v                                    :  
PHIT               .м3/м3                                  : Описание 
PRMB               .mD                                     :  
PRMB_DGR           .mD                                     :  
RT                 .ohmm                                   : Description 
SOIL_ARCHIE        .v/v                                    :  
SOIL_DW            .v/v                                    :  
SP                 .мВ                                     : Потенциал самополяризации 
VSH_FIN            .unitless                               : Описание 
VSH_GR             .unitless                               : Shale volume 
VSH_SP             .unitless                               : Shale Volume 
~Ascii
# ...
1255.6     0.229      -9999      -9999      7.737761   4.496      5.058      1.124      1.143      0.9487761  2.388      0.1606544  0.1606544  0.3072759  2.647686   3.474933   3.119247   0.364346   0.5617507  44.574     0.4443077  0.3901464  0.4984691 
1255.8     0.237      -9999      -9999      7.593683   4.953      3.937      1.016      0.908      0.9515119  2.362      0.1636608  0.1636608  0.3060221  3.009909   4.344837   3.198629   0.3818611  0.5692893  44.886     0.4313979  0.3561298  0.506666  
1256       0.243      -9999      -9999      7.441034   5.461      3.713      0.298      1.016      0.9549331  2.261      0.1748681  0.1748681  0.3044541  4.854445   5.505205   3.197959   0.4164541  0.5790946  43.263     0.392685   0.3233193  0.4620507 
1256.2     0.232      -9999      -9999      7.282538   5.943      3.745      0.362      0.921      0.9583635  2.261      0.1974486  0.1974486  0.302882   12.71703   7.038986   3.275749   0.4809133  0.6028101  38.206     0.3194951  0.2924472  0.346543  
1256.4     0.223      -9999      -9999      7.120297   6.401      4.161      1.105      0.857      0.9610759  2.489      0.2144249  0.2144249  0.3016389  26.2318    9.052517   3.584272   0.5368755  0.6320871  33.399     0.2642848  0.2638963  0.2646732 
1256.6     0.217      1          2          6.959356   6.832      5.506      0.705      0.895      0.9628182  2.616      0.22548    0.22548    0.3008404  42.03348   11.61858   3.783343   0.5678181  0.648783   29.778     0.2283648  0.2383289  0.2184007 
1256.8     0.216      1          2          6.803948   7.061      8.997      1.041      1.333      0.9634436  2.565      0.2342106  0.2342106  0.3005538  60.99677   14.78464   3.76303    0.580826   0.6532202  26.47      0.2010399  0.2159938  0.186086  
1257       0.215      1          2          6.660304   7.137      12.039     0.921      1.34       0.9631982  3.022      0.2411531  0.2411531  0.3006663  82.01600999999999 18.47336   4.24609    0.6138718  0.6776139  23.411     0.1803429  0.1972156  0.1634703 
1257.2     0.215      1          2          6.535119   6.934      13.352     0.857      1.492      0.9624787  3.276      0.2452072  0.2452072  0.300996   97.49669   22.43109   4.449713   0.6277116  0.6874912  22.162     0.1690571  0.1821868  0.1559274 
1257.4     0.215      1          2          6.434531   6.705      15.209     1.168      1.606      0.961612   3.454      0.2480316  0.2480316  0.3013932  109.9779   26.21744   4.559321   0.6355917  0.6930012  21.538     0.1617018  0.170945   0.1524587 
1257.6     0.214      1          2          6.360246   6.528      18.667     0.984      1.435      0.9609116  3.607      0.2499809  0.2499809  0.3017142  119.5116   29.41823   4.646571   0.641273   0.697093   21.163     0.1567677  0.1630906  0.1504449 
1257.8     0.215      1          2          6.310359   6.401      17.707     0.883      1.245      0.9605224  3.683      0.2512152  0.2512152  0.3018926  125.9715   31.78428   4.675701   0.6438546000000001 0.6987725  20.913     0.153568   0.1580195  0.1491165 
1258       0.215      1          2          6.280429   6.299      14.344     0.946      1.657      0.9605278  3.53       0.2517675  0.2517675  0.3018901  128.9742   33.29416   4.524462   0.639008   0.6940641  20.851     0.1518866  0.1550531  0.1487202 
1258.2     0.215      1          2          6.263662   6.299      14.729     1.01       1.441      0.9611173  3.835      0.2517835  0.2517835  0.3016199  129.0622   34.17117   4.767449   0.6477814  0.7018173  20.851     0.1510195  0.1534157  0.1486234 
1258.4     0.215      1          2          6.255668   6.324      13.608     0.876      1.486      0.9623919  3.962      0.2513431  0.2513431  0.3010358  126.6608   34.59739   4.871804   0.6508101  0.7044795  20.851     0.1505839  0.1526411  0.1485268 
1258.6     0.216      1          2          6.252391   6.401      13.384     1.048      1.118      0.9644405  4.292      0.2504723  0.2504723  0.3000969  122.043    34.77361   5.138519   0.6584047  0.7113082  20.851     0.1503776  0.1523248  0.1484304 
1258.8     0.216      1          2          6.254377   6.451      14.665     0.686      1.13       0.9671152  4.597      0.2492307  0.2492307  0.2988711  115.7487   34.66671   5.368437   0.6638982  0.7162936  20.851     0.1504253  0.1525164  0.1483342 
1259       0.216      1          2          6.263115   6.451      15.465     0.787      1.321      0.9702873  4.877      0.2476532  0.2476532  0.2974173  108.2171   34.20015   5.554648   0.667399   0.7195504  20.851     0.1508004  0.1533626  0.1482383 
1259.2     0.216      1          2          6.279912   6.35       18.027     1.041      1.422      0.9736683  5.08       0.2458489  0.2458489  0.2958678  100.2019   33.32084   5.644444   0.6677836  0.7200844  20.851     0.1515725  0.1550024  0.1481425 
1259.4     0.216      1          2          6.304084   6.096      18.027     1.111      1.733      0.976957   5.41       0.2440112  0.2440112  0.2943606  92.64846   32.09505   5.73255    0.6680273  0.7205368  20.789     0.1525739  0.1573929  0.1477549 
1259.6     0.216      1          2          6.333152   5.816      18.027     1.333      1.899      0.9800689  5.639      0.2422621  0.2422621  0.2929344  85.98828   30.68049   5.726132   0.6657650000000001 0.7187394  20.601     0.1535526  0.1603167  0.1467886 
1259.8     0.216      1          2          6.362799   5.435      20.269     1.194      1.6        0.9829425000000001 5.918      0.2405058  0.2405058  0.2916175  79.78265   29.302     5.666226   0.6619761  0.715645   20.539     0.1548839  0.1633545  0.1464133 
1260       0.216      1          2          6.38854    5.105      21.389     1.029      1.422      0.9855421  6.147      0.2389795  0.2389795  0.2904261  74.75471   28.15544   5.577752   0.6575772  0.7119449  20.414     0.1558987  0.1660388  0.1457585 
1260.2     0.216      1          2          6.405703   4.648      19.468     0.921      1.772      0.9877814  6.375      0.237805   0.237805   0.2893998  71.10236   27.416     5.376213   0.6501142  0.7053813  20.227     0.1563478  0.167853   0.1448425 
1260.4     0.216      1          2          6.41275    4.191      18.667     1.073      1.803      0.9893283000000001 6.604      0.2369868  0.2369868  0.2886909  68.66383   27.11803   5.127812   0.6411848  0.6974612  20.227     0.156679   0.1686037  0.1447544 
1260.6     0.216      1          2          6.412461   3.886      18.027     1.124      1.638      0.9897232  6.782      0.2368254  0.2368254  0.2885098  68.19280999999999 27.1302    4.940917   0.6346617  0.691592   20.227     0.1566196  0.1685728  0.1446665 
1260.8     0.216      1          2          6.409813   3.708      16.746     0.914      1.791      0.988449   7.112      0.2373351  0.2373351  0.2890938  69.69138   27.24183   4.874547   0.6330236  0.6901435  20.414     0.1568447  0.1682904  0.145399  
1261       0.216      1          2          6.413903   3.556      19.468     0.857      1.384      0.9853110000000001 7.366      0.2385781  0.2385781  0.290532   73.48563   27.06961   4.796465   0.6319107000000001 0.6892124  20.601     0.1574361  0.1687268  0.1461454 
1261.2     0.215      1          2          6.432837   3.454      18.988     0.889      1.518      0.9802623  7.62       0.2403826  0.2403826  0.2928458  79.36467   26.28637   4.753383   0.632767   0.6902215  20.851     0.1589793  0.1707618  0.1471967 
1261.4     0.214      1          2          6.474574   3.327      20.589     1.086      1.238      0.9736257  7.899      0.2418269  0.2418269  0.2958874  84.40723   24.63903   4.681983   0.6320742  0.6905069  21.912     0.1638195  0.1753347  0.1523042 
1261.6     0.214      1          2          6.544347   3.175      19.148     0.794      1.587      0.9660836  8.128      0.2425461  0.2425461  0.2993439  87.03632   22.11239   4.566292   0.6286904  0.6890914  23.473     0.1721145  0.1832545  0.1609745 
1261.8     0.214      1          2          6.645998   2.946      19.468     1.035      1.479      0.9583663  7.899      0.2411845  0.2411845  0.3028807  82.12581   18.88774   4.291462   0.6158364  0.6806951  26.033     0.1869583  0.1954372  0.1784793 
