~Version
 VERS              .         2.0                           : CWLS LOG ASCII STANDARD - VERSION 2.0
 WRAP              .         NO                            : ONE LINE PER DEPTH STEP
 DLM               .         SPACE                         : DELIMITING CHARACTER(SPACE TAB OR COMMA)
~Well Information
#_______________________________________________________________________________
#
#PARAMETER_NAME    .UNIT     VALUE                         : DESCRIPTION
#_______________________________________________________________________________
STRT               .M        987                           : First reference value
STOP               .M        1321.2                        : Last reference value
STEP               .M        0.2                           : Step increment
NULL               .         -9999                         : Missing value
COMP               .                                       : Company
WELL               .         1253                          : Well name
FLD                .         УЗЕНЬ                         : Field
LOC                .                                       : Location
CNTY               .                                       : County
STAT               .                                       : State
CTRY               .                                       : Country
SRVC               .                                       : Service Company
DATE               .         03.01.1968                    : Date
UWI                .                                       : Unique Well ID
Block              .         4                             : 
Category           .         Нефтяная                      : 
Condition          .         Ликвидированная               : 
Date               .         30.05.1968                    : 
EREF               .m        223.3                         : 100.8
Gorizont           .         15                            : 14
Interpretator      .         Алпанова Н.К.                 : 
Kupol              .         основной                      : osnovnoi
Moii_15_vosst      .         15_vosst                      : 
Mud                .                                       : 
Mud_density        .                                       : 
Mud_resistivity    .                                       : 
Mud_density        .                                       : 
Mud_resistivity    .                                       : 
NGDU               .         НГДУ-1                        : 
ORIGINALWELLNAME   .         1253                          : 
Spud_date          .         1968                          : 1961
Spud_date          .         1968                          : 1961
Viscosity          .                                       : 
X                  .m        54076.2                       : 46154
Y                  .m        82250.8                       : 85761.93
YEAR               .         2018                          : 
~Parameter Information Block
#_______________________________________________________________________________
#
#PARAMETER_NAME    .UNIT     VALUE                         : DESCRIPTION
#_______________________________________________________________________________
SET                .         LQC_KAZNIPI_Petrel            : 
AVST               .DEGC     -999.25                       : Average Surface Temperature
BS                 .MM       -999.25                       : Диаметр долота
CABL               .         -999.25                       : Cable Tipe
CBD                .m        -999.25                       : 
CLEN               .KM       -999.25                       : Cable Length
DFD                .G/C3     -999.25                       : Drilling Fluid Density
DFV                .s        -999.25                       : Вязкость промывочной жидкости
DIRE               .         -999.25                       : Move Direction
EGL                .m        -999.25                       : Альтитуда поверхности земли
EKB                .m        -999.25                       : Альтитуда стола ротора
GSDD               .         CSAT                          : CSATкрив,0,DEPT,BOTTOM,,,,0
MT                 .         -999.25                       : Mud type
RMF                .OHMM     -999.25                       : Сопротивление фильтрата промывочной жидкости
SPEE               .M        -999.25                       : Speed
TDL                .m        -999.25                       : Полная глубина по каротажу
TLFamily_CALI      .         Caliper                       : 
TLFamily_COLL      .         Net Reservoir Flag            : 
TLFamily_CSAT      .         Fluid Code                    : 
TLFamily_DEPT      .         Measured Depth                : 
TLFamily_GR        .         Russian Gamma Ray             : 
TLFamily_GZ3       .         Gradient 225                  : 
TLFamily_LLS       .         Lateral Log Resistivity       : 
TLFamily_MINV      .         Micro Gradient Resistivity    : 
TLFamily_MNOR      .         Micro Resistivity             : 
TLFamily_NGLD      .         Neutron Far                   : 
TLFamily_OGZ       .         Gradient Inverted 225         : 
TLFamily_PHIE      .         Effective Porosity            : 
TLFamily_PHIEN     .         Effective Porosity            : 
TLFamily_PHIT      .         Porosity                      : 
TLFamily_PRMB      .         Permeability                  : 
TLFamily_PRMB_DGR  .         Permeability                  : 
TLFamily_RT        .         Formation Resistivity         : 
TLFamily_SOIL_ARCHIE .         Oil Saturation                : 
TLFamily_SOIL_DW   .         Oil Saturation                : 
TLFamily_SP        .         Spontaneous Potential         : 
TLFamily_VSH_FIN   .         Shale Volume                  : 
TLFamily_VSH_GR    .         Shale Volume                  : 
TLFamily_VSH_SP    .         Shale Volume                  : 
TOOL               .         -999.25                       : Tool Type
~Curve Information
#_______________________________________________________________________________
#
#LOGNAME           .UNIT     LOG_ID                        : DESCRIPTION
#_______________________________________________________________________________
DEPT               .M                                      : Колонка глубины 
CALI               .м                                      : Каверномер 
COLL               .unitless                               :  
CSAT               .unitless                               :  
GR                 .uR/h                                   : Гамма каротаж 
GZ3                .Ohmm                                   : Градиент-зонд  длиной 2.25м 
LLS                .Ohmm                                   : Боковой каротаж 
MINV               .Ohmm                                   : Микро-градиент зонд 
MNOR               .Ohmm                                   : Микро-потенциал зонд 
NGLD               .у.е.                                   : Показания зонда НГК-60 аппаратуры ДРСТ-3-90 
OGZ                .Ohmm                                   : Обращенный градиент-зонд 
PHIE               .м3/м3                                  : Описание 
PHIEN              .v/v                                    :  
PHIT               .м3/м3                                  : Описание 
PRMB               .mD                                     :  
PRMB_DGR           .mD                                     :  
RT                 .ohmm                                   : Description 
SOIL_ARCHIE        .v/v                                    :  
SOIL_DW            .v/v                                    :  
SP                 .мВ                                     : Потенциал самополяризации 
VSH_FIN            .unitless                               : Описание 
VSH_GR             .unitless                               : Shale volume 
VSH_SP             .unitless                               : Shale Volume 
~Ascii
# ...
1294       0.205      -9999      -9999      -9999      2.565      6.371      0.991      1.257      -9999      6.426      -9999      -9999      -9999      -9999      -9999      3.666487   -9999      -9999      40.391     0.5746902  -9999      0.5746902 
1294.2     0.205      -9999      -9999      -9999      2.896      4.706      1.092      1.219      -9999      5.791      -9999      -9999      -9999      -9999      -9999      3.861111   -9999      -9999      40.891     0.5924506000000001 -9999      0.5924506000000001
1294.4     0.205      -9999      -9999      -9999      3.2        5.25       1.137      1.391      -9999      5.486      -9999      -9999      -9999      -9999      -9999      4.042183   -9999      -9999      40.766     0.5901764000000001 -9999      0.5901764000000001
1294.6     0.205      -9999      -9999      -9999      3.454      4.289      1.479      1.479      -9999      4.953      -9999      -9999      -9999      -9999      -9999      4.069861   -9999      -9999      38.206     0.5106232000000001 -9999      0.5106232000000001
1294.8     0.205      1          2          -9999      3.683      4.001      1.448      1.321      -9999      4.572      -9999      -9999      -9999      -9999      -9999      4.079631   -9999      -9999      30.34      0.326304   -9999      0.326304  
1295       0.205      1          2          -9999      3.734      4.193      1.238      1.289      -9999      4.216      -9999      -9999      -9999      -9999      -9999      3.960388   -9999      -9999      29.903     0.3173295  -9999      0.3173295 
1295.2     0.205      1          2          -9999      3.708      5.442      0.813      1.403      -9999      3.861      -9999      -9999      -9999      -9999      -9999      3.782954   -9999      -9999      31.152     0.3393994  -9999      0.3393994 
1295.4     0.205      1          2          -9999      3.607      7.107      1.079      1.353      -9999      3.505      -9999      -9999      -9999      -9999      -9999      3.555269   -9999      -9999      32.463     0.3643847  -9999      0.3643847 
1295.6     0.205      1          2          -9999      3.429      7.588      1.149      1.372      -9999      3.302      -9999      -9999      -9999      -9999      -9999      3.364302   -9999      -9999      32.65      0.3670651  -9999      0.3670651 
1295.8     0.204      1          2          -9999      3.327      5.602      1.041      1.499      -9999      3.302      -9999      -9999      -9999      -9999      -9999      3.314453   -9999      -9999      31.214     0.3372632  -9999      0.3372632 
1296       0.203      1          2          -9999      3.149      4.802      1.251      1.213      -9999      3.022      -9999      -9999      -9999      -9999      -9999      3.084193   -9999      -9999      28.53      0.289146   -9999      0.289146  
1296.2     0.202      1          2          -9999      3.302      5.89       1.022      1.321      -9999      2.794      -9999      -9999      -9999      -9999      -9999      3.026833   -9999      -9999      25.658     0.2464221  -9999      0.2464221 
1296.4     0.202      1          2          -9999      3.403      7.139      1.035      1.365      -9999      2.515      -9999      -9999      -9999      -9999      -9999      2.892378   -9999      -9999      23.91      0.2241725  -9999      0.2241725 
1296.6     0.201      1          2          -9999      3.53       7.011      0.978      1.429      -9999      2.413      -9999      -9999      -9999      -9999      -9999      2.866529   -9999      -9999      23.66      0.2206701  -9999      0.2206701 
1296.8     0.2        1          2          -9999      3.708      7.94       1.111      1.314      -9999      2.362      -9999      -9999      -9999      -9999      -9999      2.885765   -9999      -9999      23.66      0.220021   -9999      0.220021  
1297       0.2        1          2          -9999      3.886      8.58       0.914      1.492      -9999      2.743      -9999      -9999      -9999      -9999      -9999      3.21596    -9999      -9999      23.286     0.2152671  -9999      0.2152671 
1297.2     0.199      1          2          -9999      4.089      8.997      1.022      1.549      -9999      3.124      -9999      -9999      -9999      -9999      -9999      3.541948   -9999      -9999      22.786     0.2093595  -9999      0.2093595 
1297.4     0.199      1          2          -9999      4.191      9.221      1.016      1.27       -9999      3.251      -9999      -9999      -9999      -9999      -9999      3.661634   -9999      -9999      21.35      0.1947881  -9999      0.1947881 
1297.6     0.199      1          2          -9999      4.191      7.748      1.194      1.295      -9999      3.327      -9999      -9999      -9999      -9999      -9999      3.709353   -9999      -9999      20.913     0.1903466  -9999      0.1903466 
1297.8     0.199      1          2          -9999      4.267      7.812      1.111      1.041      -9999      3.708      -9999      -9999      -9999      -9999      -9999      3.967909   -9999      -9999      22.287     0.2025781  -9999      0.2025781 
1298       0.2        1          2          -9999      4.394      11.911     0.946      1.46       -9999      3.81       -9999      -9999      -9999      -9999      -9999      4.081214   -9999      -9999      25.034     0.2319747  -9999      0.2319747 
1298.2     0.201      1          2          -9999      4.546      13.8       1.022      1.467      -9999      3.81       -9999      -9999      -9999      -9999      -9999      4.145586   -9999      -9999      26.844     0.254584   -9999      0.254584  
1298.4     0.203      -9999      -9999      -9999      4.699      12.103     1.035      1.479      -9999      3.505      -9999      -9999      -9999      -9999      -9999      4.015113   -9999      -9999      28.717     0.2811284  -9999      0.2811284 
1298.6     0.205      -9999      -9999      -9999      4.648      9.445      1.13       1.41       -9999      3.276      -9999      -9999      -9999      -9999      -9999      3.843223   -9999      -9999      31.776     0.3325646  -9999      0.3325646 
1298.8     0.207      -9999      -9999      -9999      4.496      8.164      0.997      1.429      -9999      3.149      -9999      -9999      -9999      -9999      -9999      3.703834   -9999      -9999      32.588     0.3470645  -9999      0.3470645 
1299       0.208      -9999      -9999      -9999      4.216      9.221      1.251      1.34       -9999      3.149      -9999      -9999      -9999      -9999      -9999      3.60521    -9999      -9999      32.275     0.3398517  -9999      0.3398517 
1299.2     0.207      -9999      -9999      -9999      3.861      9.669      1.283      1.238      -9999      3.378      -9999      -9999      -9999      -9999      -9999      3.603387   -9999      -9999      31.152     0.3179338  -9999      0.3179338 
1299.4     0.206      1          2          -9999      3.556      8.228      1.041      0.908      -9999      3.378      -9999      -9999      -9999      -9999      -9999      3.464715   -9999      -9999      22.349     0.1987088  -9999      0.1987088 
1299.6     0.205      1          2          -9999      3.2        6.691      1.156      1.079      -9999      3.149      -9999      -9999      -9999      -9999      -9999      3.174295   -9999      -9999      21.6       0.191303   -9999      0.191303  
1299.8     0.204      1          2          -9999      2.819      7.876      0.965      1.181      -9999      2.819      -9999      -9999      -9999      -9999      -9999      2.819      -9999      -9999      21.912     0.1935815  -9999      0.1935815 
1300       0.204      1          2          -9999      2.642      10.053     1.029      1.067      -9999      2.591      -9999      -9999      -9999      -9999      -9999      2.616251   -9999      -9999      22.599     0.1994363  -9999      0.1994363 
1300.2     0.205      1          2          -9999      2.845      11.142     0.959      1.143      -9999      2.845      -9999      -9999      -9999      -9999      -9999      2.845      -9999      -9999      22.974     0.2025055  -9999      0.2025055 
