~Version
 VERS              .         2.0                           : CWLS LOG ASCII STANDARD - VERSION 2.0
 WRAP              .         NO                            : ONE LINE PER DEPTH STEP
 DLM               .         SPACE                         : DELIMITING CHARACTER(SPACE TAB OR COMMA)
~Well Information
#_______________________________________________________________________________
#
#PARAMETER_NAME    .UNIT     VALUE                         : DESCRIPTION
#_______________________________________________________________________________
STRT               .M        987                           : First reference value
STOP               .M        1321.2                        : Last reference value
STEP               .M        0.2                           : Step increment
NULL               .         -9999                         : Missing value
COMP               .                                       : Company
WELL               .         1253                          : Well name
FLD                .         УЗЕНЬ                         : Field
LOC                .                                       : Location
CNTY               .                                       : County
STAT               .                                       : State
CTRY               .                                       : Country
SRVC               .                                       : Service Company
DATE               .         03.01.1968                    : Date
UWI                .                                       : Unique Well ID
Block              .         4                             : 
Category           .         Нефтяная                      : 
Condition          .         Ликвидированная               : 
Date               .         30.05.1968                    : 
EREF               .m        223.3                         : 100.8
Gorizont           .         15                            : 14
Interpretator      .         Алпанова Н.К.                 : 
Kupol              .         основной                      : osnovnoi
Moii_15_vosst      .         15_vosst                      : 
Mud                .                                       : 
Mud_density        .                                       : 
Mud_resistivity    .                                       : 
Mud_density        .                                       : 
Mud_resistivity    .                                       : 
NGDU               .         НГДУ-1                        : 
ORIGINALWELLNAME   .         1253                          : 
Spud_date          .         1968                          : 1961
Spud_date          .         1968                          : 1961
Viscosity          .                                       : 
X                  .m        54076.2                       : 46154
Y                  .m        82250.8                       : 85761.93
YEAR               .         2018                          : 
~Parameter Information Block
#_______________________________________________________________________________
#
#PARAMETER_NAME    .UNIT     VALUE                         : DESCRIPTION
#_______________________________________________________________________________
SET                .         LQC_KAZNIPI_Petrel            : 
AVST               .DEGC     -999.25                       : Average Surface Temperature
BS                 .MM       -999.25                       : Диаметр долота
CABL               .         -999.25                       : Cable Tipe
CBD                .m        -999.25                       : 
CLEN               .KM       -999.25                       : Cable Length
DFD                .G/C3     -999.25                       : Drilling Fluid Density
DFV                .s        -999.25                       : Вязкость промывочной жидкости
DIRE               .         -999.25                       : Move Direction
EGL                .m        -999.25                       : Альтитуда поверхности земли
EKB                .m        -999.25                       : Альтитуда стола ротора
GSDD               .         CSAT                          : CSATкрив,0,DEPT,BOTTOM,,,,0
MT                 .         -999.25                       : Mud type
RMF                .OHMM     -999.25                       : Сопротивление фильтрата промывочной жидкости
SPEE               .M        -999.25                       : Speed
TDL                .m        -999.25                       : Полная глубина по каротажу
TLFamily_CALI      .         Caliper                       : 
TLFamily_COLL      .         Net Reservoir Flag            : 
TLFamily_CSAT      .         Fluid Code                    : 
TLFamily_DEPT      .         Measured Depth                : 
TLFamily_GR        .         Russian Gamma Ray             : 
TLFamily_GZ3       .         Gradient 225                  : 
TLFamily_LLS       .         Lateral Log Resistivity       : 
TLFamily_MINV      .         Micro Gradient Resistivity    : 
TLFamily_MNOR      .         Micro Resistivity             : 
TLFamily_NGLD      .         Neutron Far                   : 
TLFamily_OGZ       .         Gradient Inverted 225         : 
TLFamily_PHIE      .         Effective Porosity            : 
TLFamily_PHIEN     .         Effective Porosity            : 
TLFamily_PHIT      .         Porosity                      : 
TLFamily_PRMB      .         Permeability                  : 
TLFamily_PRMB_DGR  .         Permeability                  : 
TLFamily_RT        .         Formation Resistivity         : 
TLFamily_SOIL_ARCHIE .         Oil Saturation                : 
TLFamily_SOIL_DW   .         Oil Saturation                : 
TLFamily_SP        .         Spontaneous Potential         : 
TLFamily_VSH_FIN   .         Shale Volume                  : 
TLFamily_VSH_GR    .         Shale Volume                  : 
TLFamily_VSH_SP    .         Shale Volume                  : 
TOOL               .         -999.25                       : Tool Type
~Curve Information
#_______________________________________________________________________________
#
#LOGNAME           .UNIT     LOG_ID                        : DESCRIPTION
#_______________________________________________________________________________
DEPT               .M                                      : Колонка глубины 
CALI               .м                                      : Каверномер 
COLL               .unitless                               :  
CSAT               .unitless                               :  
GR                 .uR/h                                   : Гамма каротаж 
GZ3                .Ohmm                                   : Градиент-зонд  длиной 2.25м 
LLS                .Ohmm                                   : Боковой каротаж 
MINV               .Ohmm                                   : Микро-градиент зонд 
MNOR               .Ohmm                                   : Микро-потенциал зонд 
NGLD               .у.е.                                   : Показания зонда НГК-60 аппаратуры ДРСТ-3-90 
OGZ                .Ohmm                                   : Обращенный градиент-зонд 
PHIE               .м3/м3                                  : Описание 
PHIEN              .v/v                                    :  
PHIT               .м3/м3                                  : Описание 
PRMB               .mD                                     :  
PRMB_DGR           .mD                                     :  
RT                 .ohmm                                   : Description 
SOIL_ARCHIE        .v/v                                    :  
SOIL_DW            .v/v                                    :  
SP                 .мВ                                     : Потенциал самополяризации 
VSH_FIN            .unitless                               : Описание 
VSH_GR             .unitless                               : Shale volume 
VSH_SP             .unitless                               : Shale Volume 
~Ascii
# ...
1025.2     0.255      -9999      -9999      5.043904   3.226      8.9        0.571      0.635      0.9201006000000001 6.248      0.1776925  0.1776925  0.3204179  5.475888   6.78621    4.255024   0.489617   0.6436249  57.746     0.4325011  0.2968472  0.568155  
1025.4     0.259      -9999      -9999      5.102027   3.353      8.836      0.324      0.578      0.910111   6.045      0.1789605  0.1789605  0.3249961  5.780179   6.245975   4.313447   0.4960036  0.6500608  58.058     0.4425321  0.3070747  0.5779895 
1025.6     0.261      -9999      -9999      5.120023   3.48       9.221      0.387      0.622      0.9098321  5.308      0.1785542  0.1785542  0.325124   5.680871   6.087592   4.203878   0.4888705  0.6452981  58.058     0.4441508  0.3103122  0.5779895 
1025.8     0.265      -9999      -9999      5.117092   3.632      8.804      0.508      0.698      0.9172482  5.131      0.1752427  0.1752427  0.3217251  4.932629   6.11311    4.253291   0.4833097  0.6424898  58.058     0.4438861  0.3097827  0.5779895 
1026       0.242      -9999      -9999      5.109962   3.784      8.324      0.832      0.794      0.9299573  4.724      0.1696302  0.1696302  0.3159006  3.882577   6.175642   4.202072   0.4654209  0.6316336  58.058     0.4432437  0.308498   0.5779895 
1026.2     0.229      -9999      -9999      5.109255   3.835      8.933      0.305      0.591      0.9454695  4.394      0.1625418  0.1625418  0.3087913  2.869639   6.181867   4.095513   0.438445   0.6153063  58.058     0.4431803  0.308371   0.5779895 
1026.4     0.227      -9999      -9999      5.121305   3.835      8.9        0.451      0.692      0.9612806  4.318      0.1552614  0.1552614  0.3015451  2.10366    6.076458   4.062193   0.4133344  0.6010475  57.996     0.4432839  0.3105443  0.5760236 
1026.6     0.228      -9999      -9999      5.148622   3.861      10.854     0.635      0.73       0.9751837  4.369      0.147743   0.147743   0.2951733  1.52657    5.844114   4.099322   0.3900263  0.5898359  58.058     0.4467585  0.3155276  0.5779895 
1026.8     0.229      -9999      -9999      5.191611   3.81       16.906     1.384      0.902      0.9854336  4.343      0.1417246  0.1417246  0.2904758  1.180977   5.496317   4.059078   0.3645922  0.5770202  58.058     0.4507611  0.3235327  0.5779895 
1027       0.228      -9999      -9999      5.24792    3.784      20.429     2.508      1.765      0.9911086  4.394      0.1373429  0.1373429  0.2878749  0.9796732  5.071877   4.06625    0.3475131  0.5699171  58.058     0.4561577  0.334326   0.5779895 
1027.2     0.229      -9999      -9999      5.311865   3.784      14.985     2.235      1.664      0.992075   4.47       0.1348128  0.1348128  0.287432   0.8794637  4.629488   4.098493   0.339314   0.5681674  58.058     0.4624826  0.3470203  0.5779449 
1027.4     0.23       -9999      -9999      5.375757   3.835      13.736     1.962      1.873      0.9890582  4.47       0.1340307  0.1340307  0.2888146  0.850612   4.225998   4.128224   0.338206   0.5700626  58.058     0.4690422  0.3601856  0.5778989 
1027.6     0.232      -9999      -9999      5.428986   3.886      12.935     1.733      2.61       0.9832349  4.394      0.1348346  0.1348346  0.2914835  0.8802824  3.916837   4.124416   0.3413587  0.5732846  58.058     0.4746935  0.3715342  0.5778528000000001
1027.8     0.233      -9999      -9999      5.4627     3.835      12.263     1.886      2.102      0.9758539000000001 4.318      0.1370084  0.1370084  0.2948661  0.9657992  3.732828   4.062193   0.3458198  0.5756757  58.058     0.4783567  0.3789065  0.5778069 
1028       0.232      -9999      -9999      5.472189   3.632      11.366     0.787      1.613      0.9678851000000001 4.292      0.1403215  0.1403215  0.2985183  1.112377   3.682615   3.934514   0.3496186  0.5759826  58.058     0.4793842  0.3810076  0.5777609 
1028.2     0.23       -9999      -9999      5.458821   3.403      11.718     2.216      2.045      0.9601192  4.318      0.1440456  0.1440456  0.3020774  1.303862   3.753554   3.806283   0.3543264  0.5762906  58.121     0.4788842  0.3780507  0.5797176000000001
1028.4     0.231      -9999      -9999      5.429688   3.276      13.736     2.114      1.841      0.9529842  4.242      0.1477148  0.1477148  0.3053473  1.524738   3.912918   3.696939   0.3596183  0.5769977  58.246     0.4776742  0.3716861  0.5836623 
1028.6     0.238      -9999      -9999      5.394567   3.251      15.401     2.686      2.394      0.9467521  4.089      0.1514931  0.1514931  0.3082035  1.791343   4.114054   3.622163   0.3675155  0.579186   58.308     0.4748799  0.3641558  0.585604  
1028.8     0.248      -9999      -9999      5.364736   3.327      12.583     0.832      1.194      0.9416566  4.064      0.1545427  0.1545427  0.3105388  2.040159   4.293002   3.658755   0.3813246  0.5864123  58.37      0.4727153  0.3578794  0.5875512000000001
1029       0.258      -9999      -9999      5.348095   3.302      10.149     0.406      0.73       0.9378508  4.14       0.1565293  0.1565293  0.312283   2.22055    4.39618    3.673819   0.3893474  0.5906959  58.433     0.4719809  0.3544255  0.5895362 
1029.2     0.269      -9999      -9999      5.349522   3.2        8.74       0.337      0.864      0.935385   4.242      0.1572876  0.1572876  0.3134131  2.293538   4.387238   3.648052   0.3899005  0.5909261  58.495     0.4731075  0.3547204  0.5914946 
1029.4     0.27       -9999      -9999      5.368711   3.048      8.74       0.419      0.425      0.9341346  4.394      0.1578762  0.1578762  0.3139861  2.351842   4.26871    3.599278   0.3880289  0.5892171  58.37      0.4730604  0.3587096  0.5874112 
1029.6     0.269      -9999      -9999      5.405113   2.921      9.381      0.578      0.616      0.9335985  4.572      0.1571894  0.1571894  0.3142318  2.283956   4.052595   3.56461    0.3829045  0.5867306  58.308     0.475886   0.3664008  0.5853713 
1029.8     0.233      -9999      -9999      5.457803   2.819      11.526     0.622      0.845      0.9332566  4.597      0.1557964  0.1557964  0.3143885  2.152216   3.75901    3.494861   0.3723079  0.5813267  58.246     0.480582   0.3778266  0.5833375 
1030       0.228      -9999      -9999      5.527092   2.692      13.64      1.88       2.203      0.9324421000000001 4.47       0.1539406  0.1539406  0.3147618  1.988437   3.405059   3.360301   0.3539279  0.5713763  58.183     0.4873369  0.393396   0.5812778 
1030.2     0.227      -9999      -9999      5.613647   2.54       14.184     2.419      2.292      0.9306718000000001 4.267      0.1520574  0.1520574  0.3155731  1.834974   3.009358   3.184422   0.3302803  0.5583286  58.058     0.4955022  0.4137494  0.5772551 
1030.4     0.226      -9999      -9999      5.717022   2.413      14.216     2.337      2.14       0.9276458  4.089      0.1495364  0.1495364  0.3169599  1.647918   2.596552   3.034992   0.3049571  0.5459384  57.996     0.5073439  0.4394424  0.5752455 
1030.6     0.227      -9999      -9999      5.833917   2.286      13.256     2.261      2.026      0.9233779  4.038      0.1467164  0.1467164  0.3189159  1.461173   2.197558   2.919313   0.2803313  0.5354674  57.933     0.5218167  0.470423   0.5732105 
1030.8     0.236      -9999      -9999      5.956933   2.337      10.277     1.587      2.286      0.9179448  4.089      0.1440879  0.1440879  0.3214059  1.30622    1.843696   2.974165   0.2752691  0.5388803  57.809     0.5373272  0.5053873  0.569267  
1031       0.25       -9999      -9999      6.07432    2.489      8.036      0.273      0.756      0.9117061  4.165      0.1416946  0.1416946  0.3242651  1.179466   1.559292   3.115926   0.2805129  0.5491771  57.684     0.553244   0.5411721  0.5653158 
1031.2     0.264      -9999      -9999      6.172967   2.692      7.492      0.317      0.33       0.9048691  4.165      0.140192   0.140192   0.3273985  1.106251   1.354506   3.270287   0.2900928  0.5608659  57.559     0.5672925  0.5731965  0.5613884 
1031.4     0.271      -9999      -9999      6.242027   2.794      8.228      0.356      0.476      0.8977964000000001 4.038      0.1401934  0.1401934  0.3306399  1.106316   1.227367   3.302743   0.2933811  0.5657362  57.434     0.5771108  0.5967369  0.5574846 
