~Version
 VERS              .         2.0                           : CWLS LOG ASCII STANDARD - VERSION 2.0
 WRAP              .         NO                            : ONE LINE PER DEPTH STEP
 DLM               .         SPACE                         : DELIMITING CHARACTER(SPACE TAB OR COMMA)
~Well Information
#_______________________________________________________________________________
#
#PARAMETER_NAME    .UNIT     VALUE                         : DESCRIPTION
#_______________________________________________________________________________
STRT               .M        987                           : First reference value
STOP               .M        1321.2                        : Last reference value
STEP               .M        0.2                           : Step increment
NULL               .         -9999                         : Missing value
COMP               .                                       : Company
WELL               .         1253                          : Well name
FLD                .         УЗЕНЬ                         : Field
LOC                .                                       : Location
CNTY               .                                       : County
STAT               .                                       : State
CTRY               .                                       : Country
SRVC               .                                       : Service Company
DATE               .         03.01.1968                    : Date
UWI                .                                       : Unique Well ID
Block              .         4                             : 
Category           .         Нефтяная                      : 
Condition          .         Ликвидированная               : 
Date               .         30.05.1968                    : 
EREF               .m        223.3                         : 100.8
Gorizont           .         15                            : 14
Interpretator      .         Алпанова Н.К.                 : 
Kupol              .         основной                      : osnovnoi
Moii_15_vosst      .         15_vosst                      : 
Mud                .                                       : 
Mud_density        .                                       : 
Mud_resistivity    .                                       : 
Mud_density        .                                       : 
Mud_resistivity    .                                       : 
NGDU               .         НГДУ-1                        : 
ORIGINALWELLNAME   .         1253                          : 
Spud_date          .         1968                          : 1961
Spud_date          .         1968                          : 1961
Viscosity          .                                       : 
X                  .m        54076.2                       : 46154
Y                  .m        82250.8                       : 85761.93
YEAR               .         2018                          : 
~Parameter Information Block
#_______________________________________________________________________________
#
#PARAMETER_NAME    .UNIT     VALUE                         : DESCRIPTION
#_______________________________________________________________________________
SET                .         LQC_KAZNIPI_Petrel            : 
AVST               .DEGC     -999.25                       : Average Surface Temperature
BS                 .MM       -999.25                       : Диаметр долота
CABL               .         -999.25                       : Cable Tipe
CBD                .m        -999.25                       : 
CLEN               .KM       -999.25                       : Cable Length
DFD                .G/C3     -999.25                       : Drilling Fluid Density
DFV                .s        -999.25                       : Вязкость промывочной жидкости
DIRE               .         -999.25                       : Move Direction
EGL                .m        -999.25                       : Альтитуда поверхности земли
EKB                .m        -999.25                       : Альтитуда стола ротора
GSDD               .         CSAT                          : CSATкрив,0,DEPT,BOTTOM,,,,0
MT                 .         -999.25                       : Mud type
RMF                .OHMM     -999.25                       : Сопротивление фильтрата промывочной жидкости
SPEE               .M        -999.25                       : Speed
TDL                .m        -999.25                       : Полная глубина по каротажу
TLFamily_CALI      .         Caliper                       : 
TLFamily_COLL      .         Net Reservoir Flag            : 
TLFamily_CSAT      .         Fluid Code                    : 
TLFamily_DEPT      .         Measured Depth                : 
TLFamily_GR        .         Russian Gamma Ray             : 
TLFamily_GZ3       .         Gradient 225                  : 
TLFamily_LLS       .         Lateral Log Resistivity       : 
TLFamily_MINV      .         Micro Gradient Resistivity    : 
TLFamily_MNOR      .         Micro Resistivity             : 
TLFamily_NGLD      .         Neutron Far                   : 
TLFamily_OGZ       .         Gradient Inverted 225         : 
TLFamily_PHIE      .         Effective Porosity            : 
TLFamily_PHIEN     .         Effective Porosity            : 
TLFamily_PHIT      .         Porosity                      : 
TLFamily_PRMB      .         Permeability                  : 
TLFamily_PRMB_DGR  .         Permeability                  : 
TLFamily_RT        .         Formation Resistivity         : 
TLFamily_SOIL_ARCHIE .         Oil Saturation                : 
TLFamily_SOIL_DW   .         Oil Saturation                : 
TLFamily_SP        .         Spontaneous Potential         : 
TLFamily_VSH_FIN   .         Shale Volume                  : 
TLFamily_VSH_GR    .         Shale Volume                  : 
TLFamily_VSH_SP    .         Shale Volume                  : 
TOOL               .         -999.25                       : Tool Type
~Curve Information
#_______________________________________________________________________________
#
#LOGNAME           .UNIT     LOG_ID                        : DESCRIPTION
#_______________________________________________________________________________
DEPT               .M                                      : Колонка глубины 
CALI               .м                                      : Каверномер 
COLL               .unitless                               :  
CSAT               .unitless                               :  
GR                 .uR/h                                   : Гамма каротаж 
GZ3                .Ohmm                                   : Градиент-зонд  длиной 2.25м 
LLS                .Ohmm                                   : Боковой каротаж 
MINV               .Ohmm                                   : Микро-градиент зонд 
MNOR               .Ohmm                                   : Микро-потенциал зонд 
NGLD               .у.е.                                   : Показания зонда НГК-60 аппаратуры ДРСТ-3-90 
OGZ                .Ohmm                                   : Обращенный градиент-зонд 
PHIE               .м3/м3                                  : Описание 
PHIEN              .v/v                                    :  
PHIT               .м3/м3                                  : Описание 
PRMB               .mD                                     :  
PRMB_DGR           .mD                                     :  
RT                 .ohmm                                   : Description 
SOIL_ARCHIE        .v/v                                    :  
SOIL_DW            .v/v                                    :  
SP                 .мВ                                     : Потенциал самополяризации 
VSH_FIN            .unitless                               : Описание 
VSH_GR             .unitless                               : Shale volume 
VSH_SP             .unitless                               : Shale Volume 
~Ascii
# ...
1050.8     0.24       -9999      -9999      4.493243   2.286      12.423     2.686      2.235      0.9762302000000001 4.216      0.1955765  0.1955765  0.2946937  11.74114   14.89201   2.964557   0.4437497  0.5680022  51.004     0.300355   0.2153566  0.3853534 
1051       0.245      -9999      -9999      4.622059   2.159      9.669      2.584      1.886      0.9432259  3.81       0.2058763  0.2058763  0.3098195  18.21743   12.39102   2.75617    0.4495587  0.5740628  51.566     0.3149795  0.2321465  0.3978125 
1051.2     0.251      -9999      -9999      4.746564   2.032      7.043      1.289      0.946      0.9106365  3.454      0.2160502  0.2160502  0.3247553  28.11457   10.37368   2.558705   0.4534667  0.5784619  52.065     0.3294094  0.2496174  0.4092014 
1051.4     0.264      -9999      -9999      4.85986    2.083      5.09       0.356      0.502      0.8807243  3.302      0.2240263  0.2240263  0.3384641  39.5065    8.824837000000001 2.554528   0.4700474  0.5943637  52.814     0.3467812  0.2666555  0.4269068 
1051.6     0.283      -9999      -9999      4.955359   2.235      3.297      0.267      0.343      0.8548893  3.353      0.2323505  0.2323505  0.3503042  56.34469   7.700374   2.68216    0.4982343  0.6178398  53.064     0.3574356  0.2819173  0.4329539 
1051.8     0.307      -9999      -9999      5.030464   2.515      2.24       0.286      0.317      0.8337383  3.429      0.2392092  0.2392092  0.3599977  75.49055   6.91765    2.901728   0.5285220000000001 0.6427377  53.251     0.366026   0.294531   0.4375209 
1052       0.314      -9999      -9999      5.084825   2.667      2.016      0.216      0.273      0.8170538000000001 3.53       0.2442703  0.2442703  0.3676443  93.6776    6.40122    3.038409   0.5469337  0.658116   53.501     0.3738606  0.3040116  0.4437096 
1052.2     0.272      -9999      -9999      5.120015   2.642      2.272      0.286      0.197      0.8040352  3.505      0.2481626  0.2481626  0.3736106  110.5941   6.08766    3.01292    0.5513592000000001 0.6621158  53.751     0.3801455  0.3103108  0.4499802 
1052.4     0.263      -9999      -9999      5.139872   2.565      3.841      0.286      1.219      0.7938507  3.302      0.251453   0.251453   0.3782782  127.2557   5.917552   2.88721    0.5475169  0.6592023  53.938     0.3843189  0.3139228  0.4547151 
1052.6     0.244      -9999      -9999      5.14577    2.438      8.42       1.867      1.499      0.7860274  3.099      0.2535354  0.2535354  0.3818637  139.075    5.867951   2.729045   0.5387202  0.6525891  54.25      0.3888734  0.3150036  0.4627432 
1052.8     0.242      -9999      -9999      5.141332   2.311      7.043      0.425      0.508      0.7804766  2.921      0.2548674  0.2548674  0.3844076  147.2046   5.905236   2.58044    0.5285957  0.6448874  54.562     0.3925458  0.3141899  0.4709018 
1053       0.25       -9999      -9999      5.127989   2.261      4.674      0.267      0.368      0.777562   2.743      0.2543982  0.2543982  0.3857433  144.2879   6.018767   2.478786   0.518849   0.6381516  55.062     0.3980156  0.3117563  0.484275  
1053.2     0.296      -9999      -9999      5.108643   2.286      3.297      0.305      0.305      0.7778056  2.591      0.2528892  0.2528892  0.3856317  135.2943   6.187272   2.428963   0.511719   0.6335105  55.499     0.4022501  0.308261   0.4962392 
1053.4     0.314      -9999      -9999      5.085536   2.286      3.777      0.279      0.298      0.7813721  2.667      0.2505007  0.2505007  0.3839971  122.1909   6.394733   2.461846   0.5107636  0.6336369  55.811     0.4045346  0.3041375  0.5049317 
1053.6     0.304      -9999      -9999      5.062143   2.311      3.681      0.279      0.254      0.7879744  2.692      0.2464042  0.2464042  0.3809713  102.6035   6.61184    2.486993   0.5060485  0.6313172  56.185     0.4077792  0.3000193  0.515539  
1053.8     0.302      -9999      -9999      5.041119   2.362      3.297      0.26       0.159      0.7967502  2.667      0.2411975  0.2411975  0.3769494  82.17128   6.81324    2.505251   0.4984987  0.6271238  56.56      0.4113694  0.2963657  0.526373  
1054       0.314      -9999      -9999      5.024259   2.388      4.866      0.273      0.14       0.8064353  2.667      0.2360292  0.2360292  0.3725107  65.91607999999999 6.97918    2.519801   0.4903349  0.6222752  56.81      0.4135803  0.2934679  0.5336927 
1054.2     0.272      -9999      -9999      5.010082   2.413      4.225      0.267      0.127      0.8155896  2.845      0.2307025  0.2307025  0.3683153  52.52035   7.121833   2.611253   0.4887262  0.6229761  57.122     0.4170085  0.2910533  0.5429638 
1054.4     0.262      -9999      -9999      4.995682   2.413      4.193      0.298      0.4        0.823052   2.819      0.2270688  0.2270688  0.3648953  44.98035   7.269725   2.600247   0.4805791  0.6176305  57.247     0.417656   0.2886208  0.5466912 
1054.6     0.285      -9999      -9999      4.976283   2.413      4.802      0.292      0.286      0.8281323  2.87       0.2243453  0.2243453  0.362567   40.04767   7.473818   2.621734   0.4771146  0.6158805  57.434     0.4188536  0.2853761  0.552331  
1054.8     0.296      -9999      -9999      4.94852    2.413      4.225      0.317      0.368      0.8305392  2.921      0.2236925  0.2236925  0.3614639  38.948     7.775905   2.64281    0.4777517  0.6162682  57.496     0.4174892  0.280796   0.5541825 
1055       0.277      -9999      -9999      4.911155   2.413      5.25       0.368      0.438      0.8303077  2.87       0.2241705  0.2241705  0.36157    39.75018   8.201851   2.621734   0.4767595  0.6151271  57.621     0.4163621  0.2747473  0.5579768000000001
1055.2     0.272      -9999      -9999      4.867629   2.413      5.922      0.292      0.438      0.8278599  2.794      0.225798   0.225798   0.3626918  42.6074    8.727525999999999 2.589561   0.4770243  0.6145836  57.746     0.4148297  0.2678656  0.5617938 
1055.4     0.284      -9999      -9999      4.82275    2.413      5.026      0.305      0.406      0.8236671  2.743      0.228227   0.228227   0.3646134  47.25815   9.304846   2.56744    0.4797853  0.615806   57.871     0.4132918  0.2609504  0.5656334 
1055.6     0.294      -9999      -9999      4.785456   2.388      3.905      0.305      0.298      0.8183746  2.718      0.2315858  0.2315858  0.3670389  54.53661   9.813539000000001 2.542336   0.4839888  0.6176978  57.871     0.4104641  0.2553399  0.5655883 
1055.8     0.297      -9999      -9999      4.764928   2.413      2.976      0.343      0.4        0.8125986  2.591      0.2347414  0.2347414  0.369686   62.39328   10.10532   2.498834   0.4858886  0.6181262  57.871     0.4089232  0.2523033  0.5655431 
1056       0.279      -9999      -9999      4.766534   2.413      3.873      0.698      0.698      0.8068782  2.565      0.2357154  0.2357154  0.3723077  65.03972   10.08217   2.48668    0.4865659  0.61944    58.183     0.4139162  0.2525396  0.5752928000000001
1056.2     0.265      -9999      -9999      4.790893   2.413      6.243      0.394      0.464      0.8017223  2.565      0.2371609  0.2371609  0.3746707  69.17564   9.737681   2.48668    0.4892926  0.6218076  58.246     0.4166963  0.2561502  0.5772423 
1056.4     0.282      -9999      -9999      4.834752   2.438      4.834      0.349      0.298      0.7977257  2.591      0.2382351  0.2382351  0.3765023  72.41865   9.146819000000001 2.512173   0.4937278  0.6255077  58.183     0.4189915  0.2627819  0.5752012 
1056.6     0.29       -9999      -9999      4.888784   2.464      3.457      0.267      0.413      0.7953654  2.642      0.2382603  0.2382603  0.377584   72.49647   8.467943   2.549897   0.4973028  0.6289393  58.121     0.4221932  0.2711886  0.5731977 
1056.8     0.306      -9999      -9999      4.941298   2.464      4.289      0.298      0.305      0.7951146  2.667      0.2373194  0.2373194  0.377699   69.64481000000001 7.856467   2.561484   0.4966394  0.6292552  58.058     0.4253927  0.2796166  0.5711689 
1057       0.293      -9999      -9999      4.981121   2.438      4.641      0.356      0.406      0.7974135  2.642      0.2355111  0.2355111  0.3766454  64.47548999999999 7.422383   2.535904   0.4908827  0.6256154  57.996     0.4276798  0.286182   0.5691776 
