~Version
 VERS              .         2.0                           : CWLS LOG ASCII STANDARD - VERSION 2.0
 WRAP              .         NO                            : ONE LINE PER DEPTH STEP
 DLM               .         SPACE                         : DELIMITING CHARACTER(SPACE TAB OR COMMA)
~Well Information
#_______________________________________________________________________________
#
#PARAMETER_NAME    .UNIT     VALUE                         : DESCRIPTION
#_______________________________________________________________________________
STRT               .M        987                           : First reference value
STOP               .M        1321.2                        : Last reference value
STEP               .M        0.2                           : Step increment
NULL               .         -9999                         : Missing value
COMP               .                                       : Company
WELL               .         1253                          : Well name
FLD                .         УЗЕНЬ                         : Field
LOC                .                                       : Location
CNTY               .                                       : County
STAT               .                                       : State
CTRY               .                                       : Country
SRVC               .                                       : Service Company
DATE               .         03.01.1968                    : Date
UWI                .                                       : Unique Well ID
Block              .         4                             : 
Category           .         Нефтяная                      : 
Condition          .         Ликвидированная               : 
Date               .         30.05.1968                    : 
EREF               .m        223.3                         : 100.8
Gorizont           .         15                            : 14
Interpretator      .         Алпанова Н.К.                 : 
Kupol              .         основной                      : osnovnoi
Moii_15_vosst      .         15_vosst                      : 
Mud                .                                       : 
Mud_density        .                                       : 
Mud_resistivity    .                                       : 
Mud_density        .                                       : 
Mud_resistivity    .                                       : 
NGDU               .         НГДУ-1                        : 
ORIGINALWELLNAME   .         1253                          : 
Spud_date          .         1968                          : 1961
Spud_date          .         1968                          : 1961
Viscosity          .                                       : 
X                  .m        54076.2                       : 46154
Y                  .m        82250.8                       : 85761.93
YEAR               .         2018                          : 
~Parameter Information Block
#_______________________________________________________________________________
#
#PARAMETER_NAME    .UNIT     VALUE                         : DESCRIPTION
#_______________________________________________________________________________
SET                .         LQC_KAZNIPI_Petrel            : 
AVST               .DEGC     -999.25                       : Average Surface Temperature
BS                 .MM       -999.25                       : Диаметр долота
CABL               .         -999.25                       : Cable Tipe
CBD                .m        -999.25                       : 
CLEN               .KM       -999.25                       : Cable Length
DFD                .G/C3     -999.25                       : Drilling Fluid Density
DFV                .s        -999.25                       : Вязкость промывочной жидкости
DIRE               .         -999.25                       : Move Direction
EGL                .m        -999.25                       : Альтитуда поверхности земли
EKB                .m        -999.25                       : Альтитуда стола ротора
GSDD               .         CSAT                          : CSATкрив,0,DEPT,BOTTOM,,,,0
MT                 .         -999.25                       : Mud type
RMF                .OHMM     -999.25                       : Сопротивление фильтрата промывочной жидкости
SPEE               .M        -999.25                       : Speed
TDL                .m        -999.25                       : Полная глубина по каротажу
TLFamily_CALI      .         Caliper                       : 
TLFamily_COLL      .         Net Reservoir Flag            : 
TLFamily_CSAT      .         Fluid Code                    : 
TLFamily_DEPT      .         Measured Depth                : 
TLFamily_GR        .         Russian Gamma Ray             : 
TLFamily_GZ3       .         Gradient 225                  : 
TLFamily_LLS       .         Lateral Log Resistivity       : 
TLFamily_MINV      .         Micro Gradient Resistivity    : 
TLFamily_MNOR      .         Micro Resistivity             : 
TLFamily_NGLD      .         Neutron Far                   : 
TLFamily_OGZ       .         Gradient Inverted 225         : 
TLFamily_PHIE      .         Effective Porosity            : 
TLFamily_PHIEN     .         Effective Porosity            : 
TLFamily_PHIT      .         Porosity                      : 
TLFamily_PRMB      .         Permeability                  : 
TLFamily_PRMB_DGR  .         Permeability                  : 
TLFamily_RT        .         Formation Resistivity         : 
TLFamily_SOIL_ARCHIE .         Oil Saturation                : 
TLFamily_SOIL_DW   .         Oil Saturation                : 
TLFamily_SP        .         Spontaneous Potential         : 
TLFamily_VSH_FIN   .         Shale Volume                  : 
TLFamily_VSH_GR    .         Shale Volume                  : 
TLFamily_VSH_SP    .         Shale Volume                  : 
TOOL               .         -999.25                       : Tool Type
~Curve Information
#_______________________________________________________________________________
#
#LOGNAME           .UNIT     LOG_ID                        : DESCRIPTION
#_______________________________________________________________________________
DEPT               .M                                      : Колонка глубины 
CALI               .м                                      : Каверномер 
COLL               .unitless                               :  
CSAT               .unitless                               :  
GR                 .uR/h                                   : Гамма каротаж 
GZ3                .Ohmm                                   : Градиент-зонд  длиной 2.25м 
LLS                .Ohmm                                   : Боковой каротаж 
MINV               .Ohmm                                   : Микро-градиент зонд 
MNOR               .Ohmm                                   : Микро-потенциал зонд 
NGLD               .у.е.                                   : Показания зонда НГК-60 аппаратуры ДРСТ-3-90 
OGZ                .Ohmm                                   : Обращенный градиент-зонд 
PHIE               .м3/м3                                  : Описание 
PHIEN              .v/v                                    :  
PHIT               .м3/м3                                  : Описание 
PRMB               .mD                                     :  
PRMB_DGR           .mD                                     :  
RT                 .ohmm                                   : Description 
SOIL_ARCHIE        .v/v                                    :  
SOIL_DW            .v/v                                    :  
SP                 .мВ                                     : Потенциал самополяризации 
VSH_FIN            .unitless                               : Описание 
VSH_GR             .unitless                               : Shale volume 
VSH_SP             .unitless                               : Shale Volume 
~Ascii
# ...
1153.2     0.259      -9999      -9999      8.115079   2.286      2.112      0.26       0.565      0.9278774  3.276      0.1140617  0.1140617  0.3168538  0.3629583  1.208998   2.692893   0.06928914 0.4676005  59.557     0.6145216  0.6004227  0.6286204 
1153.4     0.264      -9999      -9999      8.130949   2.413      3.841      0.292      0.47       0.9319639  3.124      0.1107414  0.1107414  0.3149809  0.315034   1.177993   2.722851   0.04997692 0.4629514  59.307     0.6189077  0.606826   0.6309893 
1153.6     0.266      -9999      -9999      8.121288   2.489      5.506      0.54       1.105      0.9367765  3.022      0.1126179  0.1126179  0.3127753  0.3412828  1.196771   2.729725   0.06488586 0.46435    58.37      0.6065377  0.60292    0.6101553 
1153.8     0.27       -9999      -9999      8.09568    2.464      4.417      0.381      0.591      0.9416229  2.997      0.1180506  0.1180506  0.3105542  0.4302703  1.248006   2.704489   0.09855945000000001 0.4683571  56.935     0.5833443  0.5926874  0.5740013000000001
1154       0.281      -9999      -9999      8.063237   2.464      3.425      0.267      0.565      0.945915   2.997      0.123226   0.123226   0.3085871  0.5365406  1.316077   2.704489   0.1316244  0.4743911  55.624     0.5617004  0.5799727  0.5434281 
1154.2     0.29       -9999      -9999      8.030191   2.464      3.617      0.743      0.616      0.9494972  3.073      0.1260928  0.1260928  0.3069454  0.6063204  1.389232   2.735009   0.1533153  0.4799362  54.812     0.5480384  0.5673022  0.5287747 
1154.4     0.3        -9999      -9999      7.999043   2.489      4.065      0.406      0.559      0.9522429  2.997      0.130877   0.130877   0.3056871  0.7435642  1.461906   2.71948    0.1781435  0.4842146  53.626     0.5297273  0.5556124  0.5038422 
1154.6     0.314      -9999      -9999      7.972834   2.515      4.481      0.254      0.311      0.9543702  3.022      0.1362654  0.1362654  0.3047121  0.9356741  1.525993   2.745288   0.2100311  0.493278   52.252     0.5104445  0.5459635000000001 0.4749255 
1154.8     0.28       -9999      -9999      7.951896   2.54       4.385      0.33       0.33       0.9559281  2.896      0.1394763  0.1394763  0.3039982  1.072994   1.579203   2.706343   0.2206861  0.4933452  51.316     0.4985511  0.5383756  0.4587267 
1155       0.273      -9999      -9999      7.939639   2.565      4.161      0.305      0.394      0.9570305  2.845      0.1412491  0.1412491  0.3034929  1.15727    1.611209   2.697754   0.2280615  0.4944277  50.629     0.4916478  0.5339826  0.449313  
1155.2     0.268      -9999      -9999      7.937777   2.616      4.385      0.324      0.406      0.9578353  2.667      0.1388385  0.1388385  0.3031241  1.044203   1.616127   2.641254   0.2085795  0.4853315  50.817     0.497835   0.5333186  0.4623515 
1155.4     0.261      -9999      -9999      7.950398   2.616      4.834      0.337      0.533      0.9586304  2.743      0.1346955  0.1346955  0.3027597  0.8750749  1.583078   2.677995   0.1926702  0.4826454  51.191     0.5092854  0.537837   0.4807338 
1155.6     0.258      -9999      -9999      7.9827     2.591      5.442      0.375      0.679      0.9597857  2.769      0.1290821  0.1290821  0.3022302  0.6887673  1.501543   2.677044   0.1620376  0.4737224  51.566     0.5246911  0.5495761  0.4998061 
1155.8     0.256      -9999      -9999      8.038692   2.54       5.058      0.375      0.66       0.9616105  2.769      0.1221288  0.1221288  0.3013939  0.512011   1.370033   2.649561   0.116366   0.4591864  51.815     0.5432277  0.570535   0.5159203 
1156       0.252      -9999      -9999      8.120786   2.515      4.481      0.381      0.521      0.9644001  2.769      0.1134086  0.1134086  0.3001155  0.3529891  1.197755   2.635895   0.05518574 0.4415702  51.94      0.5657782  0.6027175  0.5288389 
1156.2     0.247      -9999      -9999      8.230898   2.489      5.186      0.311      0.591      0.9680803  2.769      0.1034822  0.1034822  0.2984288  0.2311534  1.000197   2.621545   0          0.41952    51.753     0.5907471  0.6487527  0.5327415 
1156.4     0.244      -9999      -9999      8.369864   2.489      6.211      0.546      0.527      0.9723778  2.718      0.09075377 0.09075377 0.2964592  0.1343192  0.7966904  2.598464   0          0.3875145  51.503     0.6233499  0.7119032  0.5347966 
1156.6     0.246      -9999      -9999      8.534852   2.54       6.211      0.33       0.743      0.9765894000000001 2.642      0.07780779 0.07780779 0.2945291  0.07732984 0.6081269  2.589996   0          0.3520085  50.629     0.6567312  0.7949073  0.518555  
1156.8     0.257      -9999      -9999      8.725042   2.515      4.994      0.864      0.813      0.9799345  2.515      0.08004596999999999 0.08004596999999999 0.292996   0.08507532 0.4454322  2.515      0          0.3460532  49.318     0.6453032  0.8        0.4906065 
1157       0.26       -9999      -9999      8.935726   2.515      4.641      0.381      0.857      0.9814803  2.489      0.08070863 0.08070863 0.2922876  0.08751403000000001 0.3154998  2.501933   0          0.3450192  48.694     0.6411483  0.8        0.4822966 
1157.2     0.261      -9999      -9999      9.164145   2.489      4.385      0.33       0.698      0.9809018000000001 2.591      0.07868312 0.07868312 0.2925527  0.08027129 0.2170741  2.538976   0          0.3448718  48.881     0.6480897  0.8        0.4961794 
1157.4     0.257      -9999      -9999      9.405262   2.464      3.553      0.375      0.571      0.9782156  2.743      0.07765356 0.07765356 0.2937838  0.07682283 0.1462816  2.596025   0          0.3512329  49.381     0.6549401  0.8        0.5098803 
1157.6     0.259      -9999      -9999      9.647936   2.362      3.553      0.317      0.718      0.9740412000000001 2.743      0.07574327 0.07574327 0.2956969  0.07081206 0.09832515 2.538282   0          0.341623   50.192     0.6665263  0.8        0.5330526 
1157.8     0.26       -9999      -9999      9.877249   2.235      3.585      0.394      0.845      0.96924    2.769      0.07553513000000001 0.07553513000000001 0.2978973  0.07018624 0.06755201 2.473507   0          0.3358652  50.692     0.6738248  0.8        0.5476497 
1158       0.262      -9999      -9999      10.07343   2.083      3.809      0.413      0.686      0.9646192  2.769      0.08018462 0.08018462 0.300015   0.08557988 0.04899657 2.377505   0          0.3384995  50.192     0.6661527  0.8        0.5323055 
1158.2     0.259      -9999      -9999      10.21485   2.007      5.41       0.317      0.571      0.9605965  2.921      0.08419733 0.08419733 0.3018586  0.1015539  0.03887129 2.37924    0          0.3517653  49.755     0.6595797  0.8        0.5191594000000001
1158.4     0.256      -9999      -9999      10.28263   2.007      4.866      0.356      0.597      0.9569492000000001 3.099      0.08885875 0.08885875 0.3035302  0.1238904  0.03478863 2.436229   0          0.3729325  49.131     0.6505194  0.8        0.5010388 
1158.6     0.253      -9999      -9999      10.26547   2.159      4.129      0.337      0.489      0.9530804000000001 3.175      0.09380933 0.09380933 0.3053032  0.1530151  0.03578004 2.570238   0          0.4027456  48.444     0.6408907  0.8        0.4817813 
1158.8     0.249      -9999      -9999      10.16048   3.327      5.41       0.317      0.559      0.9481611  4.496      0.1048314  0.1048314  0.3075578  0.2448445  0.0424894  3.824157   0.1503167  0.5308554  46.384     0.6143223  0.8        0.4286446 
1159       0.247      -9999      -9999      9.974732   4.877      5.506      0.349      0.54       0.9417178000000001 5.613      0.1121931  0.1121931  0.3105107  0.3351561  0.05758822 5.21918    0.3078438  0.6102727  45.261     0.6009624  0.8        0.4019248 
1159.2     0.246      -9999      -9999      9.719921   5.969      4.674      0.413      0.762      0.9336741  6.172      0.1163954  0.1163954  0.3141972  0.4009443  0.0873953  6.068803   0.375463   0.6459679  45.136     0.5993991  0.8        0.3987983 
1159.4     0.25       -9999      -9999      9.413216   5.969      3.841      0.451      0.775      0.924602   5.791      0.1165234  0.1165234  0.3183549  0.4031377  0.1443894  5.878653   0.3666695  0.6434641  46.197     0.6116108  0.8        0.4232215 
