~Version
 VERS              .         2.0                           : CWLS LOG ASCII STANDARD - VERSION 2.0
 WRAP              .         NO                            : ONE LINE PER DEPTH STEP
 DLM               .         SPACE                         : DELIMITING CHARACTER(SPACE TAB OR COMMA)
~Well Information
#_______________________________________________________________________________
#
#PARAMETER_NAME    .UNIT     VALUE                         : DESCRIPTION
#_______________________________________________________________________________
STRT               .M        987                           : First reference value
STOP               .M        1321.2                        : Last reference value
STEP               .M        0.2                           : Step increment
NULL               .         -9999                         : Missing value
COMP               .                                       : Company
WELL               .         1253                          : Well name
FLD                .         УЗЕНЬ                         : Field
LOC                .                                       : Location
CNTY               .                                       : County
STAT               .                                       : State
CTRY               .                                       : Country
SRVC               .                                       : Service Company
DATE               .         03.01.1968                    : Date
UWI                .                                       : Unique Well ID
Block              .         4                             : 
Category           .         Нефтяная                      : 
Condition          .         Ликвидированная               : 
Date               .         30.05.1968                    : 
EREF               .m        223.3                         : 100.8
Gorizont           .         15                            : 14
Interpretator      .         Алпанова Н.К.                 : 
Kupol              .         основной                      : osnovnoi
Moii_15_vosst      .         15_vosst                      : 
Mud                .                                       : 
Mud_density        .                                       : 
Mud_resistivity    .                                       : 
Mud_density        .                                       : 
Mud_resistivity    .                                       : 
NGDU               .         НГДУ-1                        : 
ORIGINALWELLNAME   .         1253                          : 
Spud_date          .         1968                          : 1961
Spud_date          .         1968                          : 1961
Viscosity          .                                       : 
X                  .m        54076.2                       : 46154
Y                  .m        82250.8                       : 85761.93
YEAR               .         2018                          : 
~Parameter Information Block
#_______________________________________________________________________________
#
#PARAMETER_NAME    .UNIT     VALUE                         : DESCRIPTION
#_______________________________________________________________________________
SET                .         LQC_KAZNIPI_Petrel            : 
AVST               .DEGC     -999.25                       : Average Surface Temperature
BS                 .MM       -999.25                       : Диаметр долота
CABL               .         -999.25                       : Cable Tipe
CBD                .m        -999.25                       : 
CLEN               .KM       -999.25                       : Cable Length
DFD                .G/C3     -999.25                       : Drilling Fluid Density
DFV                .s        -999.25                       : Вязкость промывочной жидкости
DIRE               .         -999.25                       : Move Direction
EGL                .m        -999.25                       : Альтитуда поверхности земли
EKB                .m        -999.25                       : Альтитуда стола ротора
GSDD               .         CSAT                          : CSATкрив,0,DEPT,BOTTOM,,,,0
MT                 .         -999.25                       : Mud type
RMF                .OHMM     -999.25                       : Сопротивление фильтрата промывочной жидкости
SPEE               .M        -999.25                       : Speed
TDL                .m        -999.25                       : Полная глубина по каротажу
TLFamily_CALI      .         Caliper                       : 
TLFamily_COLL      .         Net Reservoir Flag            : 
TLFamily_CSAT      .         Fluid Code                    : 
TLFamily_DEPT      .         Measured Depth                : 
TLFamily_GR        .         Russian Gamma Ray             : 
TLFamily_GZ3       .         Gradient 225                  : 
TLFamily_LLS       .         Lateral Log Resistivity       : 
TLFamily_MINV      .         Micro Gradient Resistivity    : 
TLFamily_MNOR      .         Micro Resistivity             : 
TLFamily_NGLD      .         Neutron Far                   : 
TLFamily_OGZ       .         Gradient Inverted 225         : 
TLFamily_PHIE      .         Effective Porosity            : 
TLFamily_PHIEN     .         Effective Porosity            : 
TLFamily_PHIT      .         Porosity                      : 
TLFamily_PRMB      .         Permeability                  : 
TLFamily_PRMB_DGR  .         Permeability                  : 
TLFamily_RT        .         Formation Resistivity         : 
TLFamily_SOIL_ARCHIE .         Oil Saturation                : 
TLFamily_SOIL_DW   .         Oil Saturation                : 
TLFamily_SP        .         Spontaneous Potential         : 
TLFamily_VSH_FIN   .         Shale Volume                  : 
TLFamily_VSH_GR    .         Shale Volume                  : 
TLFamily_VSH_SP    .         Shale Volume                  : 
TOOL               .         -999.25                       : Tool Type
~Curve Information
#_______________________________________________________________________________
#
#LOGNAME           .UNIT     LOG_ID                        : DESCRIPTION
#_______________________________________________________________________________
DEPT               .M                                      : Колонка глубины 
CALI               .м                                      : Каверномер 
COLL               .unitless                               :  
CSAT               .unitless                               :  
GR                 .uR/h                                   : Гамма каротаж 
GZ3                .Ohmm                                   : Градиент-зонд  длиной 2.25м 
LLS                .Ohmm                                   : Боковой каротаж 
MINV               .Ohmm                                   : Микро-градиент зонд 
MNOR               .Ohmm                                   : Микро-потенциал зонд 
NGLD               .у.е.                                   : Показания зонда НГК-60 аппаратуры ДРСТ-3-90 
OGZ                .Ohmm                                   : Обращенный градиент-зонд 
PHIE               .м3/м3                                  : Описание 
PHIEN              .v/v                                    :  
PHIT               .м3/м3                                  : Описание 
PRMB               .mD                                     :  
PRMB_DGR           .mD                                     :  
RT                 .ohmm                                   : Description 
SOIL_ARCHIE        .v/v                                    :  
SOIL_DW            .v/v                                    :  
SP                 .мВ                                     : Потенциал самополяризации 
VSH_FIN            .unitless                               : Описание 
VSH_GR             .unitless                               : Shale volume 
VSH_SP             .unitless                               : Shale Volume 
~Ascii
# ...
1127.6     0.253      -9999      -9999      7.164455   3.022      2.976      0.806      1.016      0.871902   2.997      0.1919097  0.1919097  0.3425073  10.04134   2.695096   3.009448   0.4384784  0.6051793  49.818     0.4563564  0.432809   0.4799038 
1127.8     0.246      -9999      -9999      7.206256   3.073      3.585      0.959      0.857      0.8743058  3.124      0.1880145  0.1880145  0.3414056  8.504368   2.570354   3.09829    0.436111   0.6069617  50.13      0.4648217  0.4412659  0.4883775 
1128       0.246      -9999      -9999      7.235847   2.997      3.809      1.187      1.187      0.8785174  3.022      0.1842314  0.1842314  0.3394755  7.237205   2.485557   3.009448   0.4181497  0.5966235  50.317     0.4704366  0.4473521  0.4935211 
1128.2     0.254      -9999      -9999      7.248214   2.87       3.745      0.781      0.851      0.8846966000000001 2.819      0.180688   0.180688   0.3366435  6.222107   2.450951   2.844271   0.3923386  0.5797748  50.38      0.4725927  0.4499205  0.4952649 
1128.4     0.261      -9999      -9999      7.24399    2.667      5.218      1.403      0.997      0.8926474  2.667      0.178045   0.178045   0.3329997  5.558835   2.462716   2.667      0.3656189  0.5606248  50.192     0.4695596  0.4490416  0.4900775 
1128.6     0.256      -9999      -9999      7.227481   2.489      7.492      1.949      1.359      0.9019445  2.489      0.1765809  0.1765809  0.3287389  5.222333   2.509242   2.489      0.3399899  0.5401206  49.693     0.4610847  0.445623   0.4765464 
1128.8     0.252      -9999      -9999      7.203562   2.388      5.826      2.184      1.88       0.9120229  2.413      0.1744123  0.1744123  0.3241199  4.760983   2.578217   2.400435   0.3214084  0.5253729  49.318     0.4536594  0.4407159  0.4666029 
1129       0.255      -9999      -9999      7.177496   2.515      6.243      2.038      1.378      0.9221938  2.489      0.1708914  0.1708914  0.3194586  4.097144   2.655544   2.501933   0.3225419  0.5272269  49.256     0.4502036  0.4354298  0.4649773 
1129.2     0.251      -9999      -9999      7.152931   2.743      6.115      1.067      1.422      0.9319049  2.667      0.1664416  0.1664416  0.315008   3.388911   2.730537   2.704466   0.3316588  0.5366237  49.443     0.4502012  0.4305063  0.4698961 
1129.4     0.254      -9999      -9999      7.132531   2.997      5.154      0.724      1.13       0.9406778  2.87       0.1625418  0.1625418  0.3109874  2.869631   2.794424   2.932125   0.343107   0.547315   49.568     0.4498352  0.4264598  0.4732106 
1129.6     0.258      -9999      -9999      7.117018   3.226      5.634      1.2        1.327      0.9481785  3.022      0.158783   0.158783   0.3075498  2.44458    2.844006   3.12067    0.348906   0.5541809  49.755     0.4508085  0.4234081  0.478209  
1129.8     0.26       -9999      -9999      7.106019   3.175      5.602      1.505      1.34       0.9543119  3.226      0.1560472  0.1560472  0.3047388  2.175359   2.879692   3.200297   0.346745   0.55429    49.818     0.4505807  0.4212577  0.4799038 
1130       0.245      -9999      -9999      7.098131   3.073      4.834      1.314      1.321      0.9590684  3.099      0.1535632  0.1535632  0.302559   1.956683   2.905559   3.085945   0.3261431  0.5412691  49.943     0.4515024  0.4197223  0.4832825 
1130.2     0.237      -9999      -9999      7.092436   2.921      4.321      1.46       1.187      0.9625974000000001 2.972      0.1515716  0.1515716  0.3009416  1.797347   2.924378   2.946279   0.303463   0.5265975  50.067     0.4526365  0.4186172  0.4866557 
1130.4     0.233      -9999      -9999      7.08614    2.845      5.378      1.232      1.257      0.965005   2.87       0.1509479  0.1509479  0.2998382  1.75017    2.945326   2.857445   0.2908419  0.5174425  50.005     0.4511827  0.4173989  0.4849664 
1130.6     0.241      -9999      -9999      7.079888   2.87       9.669      1.492      1.397      0.9661899000000001 2.819      0.1517189  0.1517189  0.2992952  1.808674   2.966276   2.844271   0.2924488  0.5167364  49.755     0.4472008  0.4161926  0.478209  
1130.8     0.265      -9999      -9999      7.075649   2.87       8.228      3.791      2.991      0.9658102  2.743      0.1542108  0.1542108  0.2994692  2.011482   2.980566   2.805063   0.2978584  0.5165958  49.256     0.440177   0.4153767  0.4649773 
1131       0.279      -9999      -9999      7.078225   2.845      4.225      3.569      1.892      0.9635078  2.692      0.1573117  0.1573117  0.3005244  2.295901   2.971877   2.766386   0.3054177  0.5180099  48.757     0.4339777  0.4158722  0.4520833 
1131.2     0.275      -9999      -9999      7.091555   2.769      3.777      1.511      1.149      0.9589425  2.54       0.1605419  0.1605419  0.3026166  2.635015   2.927302   2.649561   0.3036476  0.5134438  48.382     0.4305296  0.4184464  0.4426128 
1131.4     0.268      -9999      -9999      7.118664   2.692      3.809      1.245      1.175      0.9520745000000001 2.591      0.1633316  0.1633316  0.3057643  2.967939   2.838703   2.640535   0.3129185  0.5189223  48.257     0.4316142  0.4237309  0.4394974 
1131.6     0.273      -9999      -9999      7.15622    2.667      4.033      1.397      1.156      0.9431633  2.667      0.1654191  0.1654191  0.3098482  3.244305   2.720374   2.667      0.3236492  0.5275196  48.444     0.437664   0.4311623  0.4441657 
1131.8     0.265      -9999      -9999      7.198367   2.692      4.481      1.257      1.213      0.9329321  2.794      0.1684452  0.1684452  0.3145372  3.691236   2.593446   2.742052   0.342858   0.5415335  48.507     0.442703   0.4396573  0.4457488 
1132       0.261      -9999      -9999      7.235736   2.819      4.193      1.289      1.295      0.9220614  2.972      0.1703254  0.1703254  0.3195193  3.999426   2.485868   2.893479   0.3653917  0.5598587  48.944     0.4521026  0.4473292  0.456876  
1132.2     0.259      -9999      -9999      7.259361   3.022      3.809      0.781      0.972      0.9114997  3.276      0.1724758  0.1724758  0.3243597  4.383579   2.420171   3.143878   0.3962664  0.5836475  49.381     0.4602542  0.4522483  0.46826   
1132.4     0.254      -9999      -9999      7.261784   3.226      4.065      1.086      0.698      0.9020507  3.454      0.1753553  0.1753553  0.3286902  4.956366   2.413533   3.336109   0.4212545  0.6016579  49.693     0.4646512  0.4527559  0.4765464 
1132.6     0.247      -9999      -9999      7.239556   3.403      4.449      0.4        0.425      0.8943321  3.556      0.1791036  0.1791036  0.3322276  5.815548   2.475128   3.477818   0.442802   0.615583   49.818     0.4640123  0.4481208  0.4799038 
1132.8     0.241      -9999      -9999      7.194439   3.505      4.674      0.857      0.584      0.8889087  3.581      0.1831174  0.1831174  0.3347131  6.901378   2.605021   3.542593   0.4581669  0.6241132  49.818     0.4593811  0.4388585  0.4799038 
1133       0.237      -9999      -9999      7.132641   3.505      5.634      1.378      1.378      0.8860528  3.581      0.1864684  0.1864684  0.336022   7.961702   2.794075   3.542593   0.4666576  0.6276644  49.818     0.4531927  0.4264815  0.4799038 
1133.2     0.237      -9999      -9999      7.060886   3.403      7.94       0.718      0.756      0.8858429  3.581      0.1885876  0.1885876  0.3361182  8.714824   3.030871   3.489732   0.4681423  0.6265857  49.88      0.4470623  0.4125476  0.4815769 
1133.4     0.242      -9999      -9999      6.988987   3.276      9.957      1.378      1.054      0.8880618  3.53       0.1889611  0.1889611  0.3351013  8.854753000000001 3.288275   3.39826    0.4623988  0.6211942  50.067     0.442849   0.3990422  0.4866557 
1133.6     0.248      -9999      -9999      6.926911   3.124      9.061      1.384      1.372      0.8923491  3.429      0.1877286  0.1877286  0.3331364  8.401319000000001 3.528028   3.269402   0.4494286  0.6114219  50.317     0.4406296  0.3877382  0.4935211 
1133.8     0.253      -9999      -9999      6.882032   3.048      7.267      1.721      1.721      0.8983656  3.302      0.18543    0.18543    0.3303791  7.616784   3.712177   3.16992    0.4353606  0.6014483  50.504     0.4392396  0.3797657  0.4987133 
