~Version
 VERS              .         2.0                           : CWLS LOG ASCII STANDARD - VERSION 2.0
 WRAP              .         YES                            : ONE LINE PER DEPTH STEP
 DLM               .         SPACE                         : DELIMITING CHARACTER(SPACE TAB OR COMMA)
~Well Information
#_______________________________________________________________________________
#
#PARAMETER_NAME    .UNIT     VALUE                         : DESCRIPTION
#_______________________________________________________________________________
STRT               .M        980                           : First reference value
STOP               .M        1306.4                        : Last reference value
STEP               .M        0.2                           : Step increment
NULL               .         -9999                         : Missing value
COMP               .                                       : Company
WELL               .         1631                          : Well name
FLD                .         Узень                         : Field
LOC                .                                       : Location
CNTY               .                                       : County
STAT               .                                       : State
CTRY               .                                       : Country
SRVC               .                                       : Service Company
DATE               .         01.06.1971                    : Date
UWI                .                                       : Unique Well ID
Block              .         4                             : 
Cartographic_reference_system .         GCS_WGS_1984                  : ESRI,PE_10_3_1- <?xml version="1.0" encoding="utf-16"?><ILateBoundCoordinateReferenceSystem name="GCS_WGS_1984"><AuthorityCode>EPSG,4326</AuthorityCode></ILateBoundCoordinateReferenceSystem>
Category           .         Нефтяная                      : 
Condition          .         Ликвидированная               : 
EREF               .m        228.2                         : 100.8
Gorizont           .         15                            : 14
HZCS               .GCS_WGS_1984 WGS_1984_EASE-Grid_2.0_Global : ESRI,PE_10_3_1- <?xml version="1.0" encoding="utf-16"?><ILateBoundCoordinateReferenceSystem name="WGS_1984_EASE-Grid_2.0_Global"><AuthorityCode>EPSG,6933</AuthorityCode></ILateBoundCoordinateReferenceSystem>
Interpretator      .         Сагынбаева А.Н.               : 
Kupol              .         основной                      : osnovnoi
LATI               .dega     0.6416371796                  : GCS_WGS_1984
LONG               .dega     0.5621338066                  : GCS_WGS_1984
Mud                .         глинистый                     : 
Mud_density        .         1,22                          : 
Mud_resistivity    .         0                             : 
NGDU               .         НГДУ-1                        : 
ORIGINALWELLNAME   .         1631                          : 
Spud_date          .         1971                          : 1961
Viscosity          .         35                            : 
X                  .m        54238.2                       : 46154
Y                  .m        81854.1                       : 85761.93
YEAR               .         2018                          : 
~Parameter Information Block
#_______________________________________________________________________________
#
#PARAMETER_NAME    .UNIT     VALUE                         : DESCRIPTION
#_______________________________________________________________________________
SET                .         LQC_KAZNIPI_Petrel            : 
TLFamily_CALI      .         Caliper                       : 
TLFamily_COLL      .         Net Reservoir Flag            : 
TLFamily_CSAT      .         Fluid Code                    : 
TLFamily_DEPT      .         Measured Depth                : 
TLFamily_GR        .         Russian Gamma Ray             : 
TLFamily_LLS       .         Lateral Log Resistivity       : 
TLFamily_MINV      .         Micro Gradient Resistivity    : 
TLFamily_NGLD      .         Neutron Gamma                 : 
TLFamily_PHIE      .         Effective Porosity            : 
TLFamily_PHIEN     .         Effective Porosity            : 
TLFamily_PHIT      .         Porosity                      : 
TLFamily_PRMB      .         Permeability                  : 
TLFamily_PRMB_DGR  .         Permeability                  : 
TLFamily_RT        .         Formation Resistivity         : 
TLFamily_SOIL_ARCHIE .         Oil Saturation                : 
TLFamily_SOIL_DW   .         Oil Saturation                : 
TLFamily_SP        .         Spontaneous Potential         : 
TLFamily_VSH_FIN   .         Shale Volume                  : 
TLFamily_VSH_GR    .         Shale Volume                  : 
TLFamily_VSH_SP    .         Shale Volume                  : 
~Curve Information
#_______________________________________________________________________________
#
#LOGNAME           .UNIT     LOG_ID                        : DESCRIPTION
#_______________________________________________________________________________
DEPT               .M                                      : Колонка глубины 
CALI               .м                                      : Каверномер 
COLL               .unitless                               : Описание 
CSAT               .unitless                               :  
GR                 .uR/h                                   : Гамма каротаж 
LLS                .Ohmm                                   : Боковой каротаж 
MINV               .Ohmm                                   : Микро-градиент зонд 
NGLD               .u.e.                                   : Показания зонда НГК-60 аппаратуры ДРСТ-3-90 
PHIE               .v/v                                    : Описание 
PHIEN              .v/v                                    :  
PHIT               .v/v                                    : Описание 
PRMB               .mD                                     :  
PRMB_DGR           .mD                                     :  
RT                 .ohmm                                   : УЭС пласта 
SOIL_ARCHIE        .v/v                                    :  
SOIL_DW            .v/v                                    :  
SP                 .мВ                                     : Потенциал самополяризации 
VSH_FIN            .v/v                                    : Описание 
VSH_GR             .v/v                                    : Shale volume 
VSH_SP             .v/v                                    : Shale Volume 
~Ascii
# ...
1008       
  0.215      1          3          2.497394   1.213      1.171      
  1.259704   0.238784   0.238784   0.2655778  74.13399   549.0529   
  1.213      0.2889677  0.3399948  28.28133   0.08119335 0.04936718 
  0.1130195 
1008.2     
  0.215      1          3          2.484303   1.13       1.312      
  1.249328   0.2435842  0.2435842  0.2703329  90.97627   557.187    
  1.13       0.277553   0.3288337  28.29683   0.08105677 0.04907162 
  0.1130419 
1008.4     
  0.215      1          3          2.478217   1.13       1.762      
  1.246053   0.2451043  0.2451043  0.2718337  97.07002   561.0098   
  1.13       0.281457   0.3327352  28.31048   0.0809982  0.0489348  
  0.1130616 
1008.6     
  0.215      1          3          2.494742   1.187      1.539      
  1.24858    0.2438825  0.2438825  0.2706758  92.14101   550.6909   
  1.187      0.2947975  0.345964   28.32093   0.08119191 0.04930717 
  0.1130767 
1008.8     
  0.215      1          3          2.538363   1.194      1.493      
  1.25157    0.242345   0.242345   0.2693053  86.29305   524.3551   
  1.194      0.2928564  0.3442148  28.33131   0.08169767 0.05030375 
  0.1130916 
1009       
  0.215      1          3          2.599533   1.118      1.576      
  1.2514     0.2421836  0.2421836  0.2693833  85.70115   489.5323   
  1.118      0.2702688  0.3222105  28.34478   0.08242311 0.05173527 
  0.113111  
1009.2     
  0.215      1          3          2.659459   1.06       1.458      
  1.249371   0.2428719  0.2428719  0.2703131  88.25403   457.6606   
  1.06       0.2536434  0.3061278  28.36021   0.08315516 0.0531772  
  0.1131331 
1009.4     
  0.215      1          3          2.700822   1.099      1.437      
  1.248643   0.2430345  0.2430345  0.270647   88.86841   436.8807   
  1.099      0.2666192  0.3192267  28.37368   0.08367413 0.05419584 
  0.1131524 
1009.6     
  0.215      1          3          2.716758   1.143      1.395      
  1.249346   0.2426444  0.2426444  0.2703249  87.40176   429.129    
  1.143      0.2789971  0.3315441  28.38406   0.08388037 0.05459348 
  0.1131673 
1009.8     
  0.215      1          3          2.711174   1.08       1.175      
  1.248577   0.2430171  0.2430171  0.270677   88.80219   431.8295   
  1.08       0.2605465  0.3132869  28.39451   0.083818   0.05445382 
  0.1131822 
1010       
  0.215      1          3          2.693161   1.06       1.419      
  1.244819   0.2448103  0.2448103  0.2723995  95.86017   440.6567   
  1.06       0.258793   0.3115193  28.40816   0.08360371 0.05400572 
  0.1132017 
1010.2     
  0.215      1          3          2.672679   1.121      1.271      
  1.240327   0.2469485  0.2469485  0.274458   105.0129   450.914    
  1.121      0.2834488  0.335867   28.42383   0.08336235 0.05350067 
  0.113224  
1010.4     
  0.216      1          3          2.660009   1.067      1.272      
  1.238671   0.2477553  0.2477553  0.2752169  108.6895   457.3779   
  1.067      0.2687348  0.3212915  28.43749   0.08321705 0.05319062 
  0.1132435 
1010.6     
  0.216      1          3          2.664937   1.048      1.08       
  1.24079    0.2467622  0.2467622  0.2742461  104.1818   454.8528   
  1.048      0.2599587  0.3126002  28.44794   0.08328467 0.05331101 
  0.1132583 
1010.8     
  0.216      1          3          2.691767   1.06       1.261      
  1.243914   0.2452189  0.2452189  0.2728142  97.54528   441.3479   
  1.06       0.2598688  0.3126089  28.45832   0.08362213 0.05397118 
  0.1132731 
1011       
  0.216      1          3          2.734037   1.092      1.101      
  1.244487   0.2447789  0.2447789  0.2725517  95.73189   420.8794   
  1.092      0.2689844  0.3218613  28.47178   0.08416005 0.05502792 
  0.1132922 
1011.2     
  0.216      1          3          2.776615   1.118      1.342      
  1.241967   0.2457508  0.2457508  0.2737063  99.78365   401.2214   
  1.118      0.279503   0.3325446  28.48722   0.08471367 0.05611327 
  0.1133141 
1011.4     
  0.216      1          3          2.803994   1.118      1.32       
  1.239157   0.2469187  0.2469187  0.2749944  104.8799   389.0683   
  1.118      0.282472   0.3356842  28.50068   0.0850778  0.05682249 
  0.1133331 
1011.6     
  0.216      1          3          2.807408   1.086      1.124      
  1.238428   0.2472355  0.2472355  0.2753283  106.3064   387.5791   
  1.086      0.2734387  0.326805   28.51106   0.08512966 0.05691154 
  0.1133478 
1011.8     
  0.216      1          3          2.786907   1.048      1.215      
  1.238955   0.2470797  0.2470797  0.2750871  105.6025   396.6089   
  1.048      0.2607872  0.3141803  28.52151   0.08487069 0.05637885 
  0.1133625 
1012       
  0.216      1          3          2.749316   1.022      1.108      
  1.238283   0.2475433  0.2475433  0.2753947  107.7109   413.7168   
  1.022      0.2532412  0.3065118  28.53517   0.08439837 0.05541496 
  0.1133818 
1012.2     
  0.216      1          3          2.704253   1.01       1.208      
  1.235122   0.2491754  0.2491754  0.2768434  115.4757   435.2002   
  1.01       0.2533764  0.3064485  28.55067   0.0838424  0.0542812  
  0.1134036 
1012.4     
  0.216      1          3          2.661003   1.003      1.154      
  1.229583   0.2518869  0.2518869  0.2793819  129.6326   456.8675   
  1.003      0.2579635  0.310857   28.56364   0.08331838 0.05321489 
  0.1134219 
1012.6     
  0.216      1          3          2.626867   1.022      1.118      
  1.22212    0.255442   0.255442   0.2828026  150.8563   474.7282   
  1.022      0.2733931  0.326084   28.57212   0.08291092 0.05238807 
  0.1134338 
1012.8     
  0.216      1          3          2.605068   0.997      1.113      
  1.213632   0.2594164  0.2594164  0.2866926  178.7227   486.4973   
  0.997      0.274718   0.3274577  28.57882   0.082655   0.05186682 
  0.1134432 
1013       
  0.216      1          3          2.592718   0.933      1.139      
  1.205647   0.2631215  0.2631215  0.2903518  209.3182   493.2941   
  0.933      0.2609668  0.3139762  28.58933   0.08251587 0.05157381 
  0.1134579 
1013.2     
  0.216      1          3          2.581762   0.927      1.222      
  1.199767   0.265855   0.265855   0.2930467  235.2      499.4033   
  0.927      0.2653685  0.3184093  28.60715   0.08239906 0.05131525 
  0.1134829 
1013.4     
  0.216      1          3          2.56379    0.981      1.198      
  1.197389   0.2670094  0.2670094  0.2941368  247.0704   509.5889   
  0.981      0.2873246  0.3400653  28.62981   0.08220425 0.05089393 
  0.1135146 
1013.6     
  0.216      1          3          2.534697   0.959      1.088      
  1.1995     0.2661484  0.2661484  0.2931691  238.1614   526.519    
  0.959      0.2776695  0.3303541  28.6501    0.08188106 0.05021923 
  0.1135429 
1013.8     
  0.217      1          3          2.495518   0.933      0.953      
  1.205399   0.2635894  0.2635894  0.2904655  213.5366   550.2109   
  0.933      0.2621094  0.3146519  28.66321   0.08144294 0.04932473 
  0.1135611 
1014       
  0.217      1          3          2.450246   0.927      1.082      
  1.211901   0.260775   0.260775   0.2874856  189.3842   578.9182   
  0.927      0.2529199  0.3051848  28.67077   0.0809413  0.04831093 
  0.1135717 
1014.2     
  0.217      1          3          2.403207   0.933      1.115      
  1.215506   0.2592918  0.2592918  0.2858338  177.7752   610.3339   
  0.933      0.251469   0.3034376  28.67738   0.08043025 0.04727963 
  0.1135809 
1014.4     
  0.217      1          3          2.357575   0.959      1.05       
  1.215476   0.2594654  0.2594654  0.2858475  179.0963   642.4376   
  0.959      0.2614922  0.313161   28.68507   0.0799459  0.04630023 
  0.1135916 
1014.6     
  0.217      1          3          2.315058   0.984      1.166      
  1.214064   0.2602584  0.2602584  0.2864946  185.2575   673.868    
  0.984      0.2722939  0.3237031  28.69179   0.07950342 0.04540595 
  0.1136009 
1014.8     
  0.217      1          3          2.276715   0.997      1.19       
  1.214092   0.2603757  0.2603757  0.2864817  186.1864   703.5293   
  0.997      0.2770458  0.3282392  28.69384   0.07910901 0.04461429 
  0.1136037 
