~Version
 VERS              .         2.0                           : CWLS LOG ASCII STANDARD - VERSION 2.0
 WRAP              .         YES                            : ONE LINE PER DEPTH STEP
 DLM               .         SPACE                         : DELIMITING CHARACTER(SPACE TAB OR COMMA)
~Well Information
#_______________________________________________________________________________
#
#PARAMETER_NAME    .UNIT     VALUE                         : DESCRIPTION
#_______________________________________________________________________________
STRT               .M        980                           : First reference value
STOP               .M        1306.4                        : Last reference value
STEP               .M        0.2                           : Step increment
NULL               .         -9999                         : Missing value
COMP               .                                       : Company
WELL               .         1631                          : Well name
FLD                .         Узень                         : Field
LOC                .                                       : Location
CNTY               .                                       : County
STAT               .                                       : State
CTRY               .                                       : Country
SRVC               .                                       : Service Company
DATE               .         01.06.1971                    : Date
UWI                .                                       : Unique Well ID
Block              .         4                             : 
Cartographic_reference_system .         GCS_WGS_1984                  : ESRI,PE_10_3_1- <?xml version="1.0" encoding="utf-16"?><ILateBoundCoordinateReferenceSystem name="GCS_WGS_1984"><AuthorityCode>EPSG,4326</AuthorityCode></ILateBoundCoordinateReferenceSystem>
Category           .         Нефтяная                      : 
Condition          .         Ликвидированная               : 
EREF               .m        228.2                         : 100.8
Gorizont           .         15                            : 14
HZCS               .GCS_WGS_1984 WGS_1984_EASE-Grid_2.0_Global : ESRI,PE_10_3_1- <?xml version="1.0" encoding="utf-16"?><ILateBoundCoordinateReferenceSystem name="WGS_1984_EASE-Grid_2.0_Global"><AuthorityCode>EPSG,6933</AuthorityCode></ILateBoundCoordinateReferenceSystem>
Interpretator      .         Сагынбаева А.Н.               : 
Kupol              .         основной                      : osnovnoi
LATI               .dega     0.6416371796                  : GCS_WGS_1984
LONG               .dega     0.5621338066                  : GCS_WGS_1984
Mud                .         глинистый                     : 
Mud_density        .         1,22                          : 
Mud_resistivity    .         0                             : 
NGDU               .         НГДУ-1                        : 
ORIGINALWELLNAME   .         1631                          : 
Spud_date          .         1971                          : 1961
Viscosity          .         35                            : 
X                  .m        54238.2                       : 46154
Y                  .m        81854.1                       : 85761.93
YEAR               .         2018                          : 
~Parameter Information Block
#_______________________________________________________________________________
#
#PARAMETER_NAME    .UNIT     VALUE                         : DESCRIPTION
#_______________________________________________________________________________
SET                .         LQC_KAZNIPI_Petrel            : 
TLFamily_CALI      .         Caliper                       : 
TLFamily_COLL      .         Net Reservoir Flag            : 
TLFamily_CSAT      .         Fluid Code                    : 
TLFamily_DEPT      .         Measured Depth                : 
TLFamily_GR        .         Russian Gamma Ray             : 
TLFamily_LLS       .         Lateral Log Resistivity       : 
TLFamily_MINV      .         Micro Gradient Resistivity    : 
TLFamily_NGLD      .         Neutron Gamma                 : 
TLFamily_PHIE      .         Effective Porosity            : 
TLFamily_PHIEN     .         Effective Porosity            : 
TLFamily_PHIT      .         Porosity                      : 
TLFamily_PRMB      .         Permeability                  : 
TLFamily_PRMB_DGR  .         Permeability                  : 
TLFamily_RT        .         Formation Resistivity         : 
TLFamily_SOIL_ARCHIE .         Oil Saturation                : 
TLFamily_SOIL_DW   .         Oil Saturation                : 
TLFamily_SP        .         Spontaneous Potential         : 
TLFamily_VSH_FIN   .         Shale Volume                  : 
TLFamily_VSH_GR    .         Shale Volume                  : 
TLFamily_VSH_SP    .         Shale Volume                  : 
~Curve Information
#_______________________________________________________________________________
#
#LOGNAME           .UNIT     LOG_ID                        : DESCRIPTION
#_______________________________________________________________________________
DEPT               .M                                      : Колонка глубины 
CALI               .м                                      : Каверномер 
COLL               .unitless                               : Описание 
CSAT               .unitless                               :  
GR                 .uR/h                                   : Гамма каротаж 
LLS                .Ohmm                                   : Боковой каротаж 
MINV               .Ohmm                                   : Микро-градиент зонд 
NGLD               .u.e.                                   : Показания зонда НГК-60 аппаратуры ДРСТ-3-90 
PHIE               .v/v                                    : Описание 
PHIEN              .v/v                                    :  
PHIT               .v/v                                    : Описание 
PRMB               .mD                                     :  
PRMB_DGR           .mD                                     :  
RT                 .ohmm                                   : УЭС пласта 
SOIL_ARCHIE        .v/v                                    :  
SOIL_DW            .v/v                                    :  
SP                 .мВ                                     : Потенциал самополяризации 
VSH_FIN            .v/v                                    : Описание 
VSH_GR             .v/v                                    : Shale volume 
VSH_SP             .v/v                                    : Shale Volume 
~Ascii
# ...
1267       
  0.213      1          2          9.761476   2.305      1.456      
  1.173621   0.2305892  0.2305892  0.3050293  52.26729   8.900854   
  2.305      0.4652152  0.5578076  29.40587   0.225576   0.2657232  
  0.1854288 
1267.2     
  0.215      1          2          9.880296   2.464      1.459      
  1.171898   0.2233403  0.2233403  0.305819   38.36744   7.394374   
  2.464      0.4670747  0.5672132  32.33804   0.2499353  0.2866241  
  0.2132465 
1267.4     
  0.216      1          2          9.992753   2.28       1.089      
  1.172796   0.2128458  0.2128458  0.3054076  24.52329   6.204171   
  2.28       0.4236478  0.5406428  35.62565   0.2804903  0.3079179  
  0.2530627 
1267.6     
  0.217      1          2          10.08782   1.645      1.017      
  1.174219   0.2007627  0.2007627  0.3047555  14.64771   5.348764   
  1.645      0.2931592  0.4453358  38.90516   0.3151299  0.3271478  
  0.3031121 
1267.8     
  0.219      -9999      -9999      10.17171   1.232      0.872      
  1.173845   0.1420523  0.1420523  0.3049267  1.197599   2.096203   
  1.232      0          0.2652713  41.82267   0.4935588  0.4795813  
  0.5075364 
1268       
  0.224      -9999      -9999      10.26826   1.168      0.739      
  1.169825   0.1291149  0.1291149  0.306769   0.6897314  1.902785   
  1.168      0          0.2207273  44.16197   0.5383458  0.498919   
  0.5777727 
1268.2     
  0.231      -9999      -9999      10.39622   1.264      1.441      
  1.161906   0.1190281  0.1190281  0.3103983  0.4485873  1.673679   
  1.264      0          0.2339196  45.86589   0.5799096  0.5257525  
  0.6340668 
1268.4     
  0.24       -9999      -9999      10.54992   1.168      1.174      
  1.152157   0.1113969  0.1113969  0.3148664  0.3239659  1.434636   
  1.168      0          0.1913499  46.97818   0.6165742  0.559901   
  0.6732475 
1268.6     
  0.249      -9999      -9999      10.7035    1.13       1.109      
  1.143983   0.1054745  0.1054745  0.3186126  0.2516531  1.229878   
  1.13       0          0.1683614  47.5864    0.6458729  0.5962391  
  0.6955066 
1268.8     
  0.26       -9999      -9999      10.82807   1.111      1.066      
  1.140007   0.1008624  0.1008624  0.3204346  0.2067162  1.085472   
  1.111      0          0.1514286  47.79566   0.6653702  0.6274366  
  0.7033038 
1269       
  0.256      -9999      -9999      10.90597   1.054      0.684      
  1.14059    0.09764647 0.09764647 0.3201676  0.1802219  1.003914   
  1.054      0          0.1186404  47.7298    0.6743065  0.6477709  
  0.7008421 
1269.2     
  0.267      -9999      -9999      10.93898   1.308      0.864      
  1.144386   0.09570542 0.09570542 0.3184277  0.1659031  0.971222   
  1.308      0          0.2005665  47.52533   0.674916   0.6565872  
  0.6932448 
1269.4     
  0.271      -9999      -9999      10.94818   1.416      1.16       
  1.149866   0.09411819 0.09411819 0.3159163  0.1550441  0.9623113  
  1.416      0          0.2232518  47.30592   0.6721155  0.659063   
  0.685168  
1269.6     
  0.248      -9999      -9999      10.96099   1.27       0.762      
  1.155534   0.09187243 0.09187243 0.3133189  0.1408829  0.95003    
  1.27       0          0.1686019  47.15264   0.67105    0.6625287  
  0.6795713 
1269.8     
  0.254      -9999      -9999      10.99153   1.156      0.622      
  1.159397   0.08905824 0.08905824 0.3115486  0.124949   0.92138    
  1.156      0          0.1161654  47.09734   0.6742131  0.6708648  
  0.6775614 
1270       
  0.252      -9999      -9999      11.03249   1.086      0.565      
  1.159703   0.08680356 0.08680356 0.3114082  0.1134934  0.8843019  
  1.086      0          0.08009809 47.13773   0.6806202  0.6822113  
  0.6790291 
1270.2     
  0.264      -9999      -9999      11.0707    1.041      0.563      
  1.156377   0.08585802 0.08585802 0.3129322  0.1090076  0.8510604  
  1.041      0          0.06013701 47.2532    0.6881036  0.6929687  
  0.6832386 
1270.4     
  0.264      -9999      -9999      11.10818   1.022      0.668      
  1.151133   0.08555309 0.08555309 0.3153357  0.1075991  0.8196757  
  1.022      0          0.05522253 47.40863   0.696311   0.7036827  
  0.6889393 
1270.6     
  0.256      -9999      -9999      11.15647   1.016      0.74       
  1.146319   0.08451729 0.08451729 0.317542   0.1029493  0.7809299  
  1.016      0          0.0531547  47.56021   0.7061356  0.7177351  
  0.6945362 
1270.8     
  0.257      -9999      -9999      11.20916   1.01       0.859      
  1.144072   0.08230413 0.08230413 0.3185717  0.0936764  0.740745   
  1.01       0          0.04430703 47.668     0.7159624  0.7333861  
  0.6985387 
1271       
  0.252      -9999      -9999      11.23944   1.01       0.634      
  1.145868   0.07971109 0.07971109 0.3177487  0.08386886 0.7185906  
  1.01       0          0.03281613 47.71033   0.721326   0.7425361  
  0.7001159 
1271.2     
  0.249      -9999      -9999      11.2318    1.01       0.72       
  1.151819   0.07749563 0.07749563 0.3150215  0.07630712 0.7241185  
  1.01       0          0.01840352 47.68938   0.7197754  0.7402162  
  0.6993347 
1271.4     
  0.25       -9999      -9999      11.19722   1.016      0.606      
  1.160096   0.07582581 0.07582581 0.3112279  0.07106177 0.7496666  
  1.016      0          0.006367938 47.62312   0.7133397  0.7298096  
  0.6968698 
1271.6     
  0.255      -9999      -9999      11.15332   1.022      0.699      
  1.167556   0.07511685 0.07511685 0.3078091  0.06894525 0.7834021  
  1.022      0          0          47.53078   0.7051281  0.7168095  
  0.6934466 
1271.8     
  0.258      -9999      -9999      11.10731   1.029      0.981      
  1.171854   0.07599588 0.07599588 0.3058395  0.0715791  0.8203896  
  1.029      0          0.001472594 47.42546   0.6964957  0.7034327  
  0.6895586 
1272       
  0.262      -9999      -9999      11.06762   1.035      0.693      
  1.173605   0.07772557 0.07772557 0.3050369  0.07705913 0.8536932  
  1.035      0          0.009670679 47.31633   0.6888222  0.6920953  
  0.6855491 
1272.2     
  0.262      -9999      -9999      11.05649   1.041      0.446      
  1.176      0.07777561 0.07777561 0.3039392  0.07722376 0.8632774  
  1.041      0          0.01030307 47.21218   0.6853442  0.6889474  
  0.6817409 
1272.4     
  0.251      -9999      -9999      11.09695   1.048      0.571      
  1.181412   0.07394902 0.07394902 0.3014587  0.06559538 0.8289543  
  1.048      0          0          47.12016   0.6894232  0.700456   
  0.6783904 
1272.6     
  0.249      -9999      -9999      11.1849    1.041      0.48       
  1.188716   0.06682134 0.06682134 0.2981116  0.04840066 0.7589866  
  1.041      0          0          47.04385   0.7008796  0.7261369  
  0.6756222 
1272.8     
  0.255      -9999      -9999      11.27666   1.041      0.614      
  1.194389   0.06000014 0.06000014 0.2955113  0.03618314 0.6922697  
  1.041      0          0          46.9825    0.7136702  0.7539369  
  0.6734034 
1273       
  0.25       -9999      -9999      11.31096   1.022      0.468      
  1.195594   0.05798516 0.05798516 0.2949591  0.0332035  0.6688649  
  1.022      0          0          46.93267   0.7181029  0.7646     
  0.6716059 
1273.2     
  0.247      -9999      -9999      11.25112   1.041      0.77       
  1.192102   0.06289581 0.06289581 0.2965595  0.04093936 0.7102284  
  1.041      0          0          46.88945   0.7080716  0.7460936  
  0.6700498 
1273.4     
  0.249      -9999      -9999      11.11321   1.054      0.532      
  1.186135   0.07265446 0.07265446 0.2992945  0.06207187 0.8155512  
  1.054      0          0          46.84471   0.6867881  0.7051339  
  0.6684422 
1273.6     
  0.25       -9999      -9999      10.95484   1.073      0.425      
  1.180783   0.08275606 0.08275606 0.301747   0.09549951 0.9559069  
  1.073      0          0.03981671 46.7865    0.663609   0.6608625  
  0.6663554 
1273.8     
  0.251      -9999      -9999      10.8371    1.086      0.524      
  1.17835    0.08946994 0.08946994 0.302862   0.1271623  1.075687   
  1.086      0          0.07219758 46.70728   0.6466426  0.6297609  
  0.6635242 
