~Version
 VERS              .         2.0                           : CWLS LOG ASCII STANDARD - VERSION 2.0
 WRAP              .         YES                            : ONE LINE PER DEPTH STEP
 DLM               .         SPACE                         : DELIMITING CHARACTER(SPACE TAB OR COMMA)
~Well Information
#_______________________________________________________________________________
#
#PARAMETER_NAME    .UNIT     VALUE                         : DESCRIPTION
#_______________________________________________________________________________
STRT               .M        980                           : First reference value
STOP               .M        1306.4                        : Last reference value
STEP               .M        0.2                           : Step increment
NULL               .         -9999                         : Missing value
COMP               .                                       : Company
WELL               .         1631                          : Well name
FLD                .         Узень                         : Field
LOC                .                                       : Location
CNTY               .                                       : County
STAT               .                                       : State
CTRY               .                                       : Country
SRVC               .                                       : Service Company
DATE               .         01.06.1971                    : Date
UWI                .                                       : Unique Well ID
Block              .         4                             : 
Cartographic_reference_system .         GCS_WGS_1984                  : ESRI,PE_10_3_1- <?xml version="1.0" encoding="utf-16"?><ILateBoundCoordinateReferenceSystem name="GCS_WGS_1984"><AuthorityCode>EPSG,4326</AuthorityCode></ILateBoundCoordinateReferenceSystem>
Category           .         Нефтяная                      : 
Condition          .         Ликвидированная               : 
EREF               .m        228.2                         : 100.8
Gorizont           .         15                            : 14
HZCS               .GCS_WGS_1984 WGS_1984_EASE-Grid_2.0_Global : ESRI,PE_10_3_1- <?xml version="1.0" encoding="utf-16"?><ILateBoundCoordinateReferenceSystem name="WGS_1984_EASE-Grid_2.0_Global"><AuthorityCode>EPSG,6933</AuthorityCode></ILateBoundCoordinateReferenceSystem>
Interpretator      .         Сагынбаева А.Н.               : 
Kupol              .         основной                      : osnovnoi
LATI               .dega     0.6416371796                  : GCS_WGS_1984
LONG               .dega     0.5621338066                  : GCS_WGS_1984
Mud                .         глинистый                     : 
Mud_density        .         1,22                          : 
Mud_resistivity    .         0                             : 
NGDU               .         НГДУ-1                        : 
ORIGINALWELLNAME   .         1631                          : 
Spud_date          .         1971                          : 1961
Viscosity          .         35                            : 
X                  .m        54238.2                       : 46154
Y                  .m        81854.1                       : 85761.93
YEAR               .         2018                          : 
~Parameter Information Block
#_______________________________________________________________________________
#
#PARAMETER_NAME    .UNIT     VALUE                         : DESCRIPTION
#_______________________________________________________________________________
SET                .         LQC_KAZNIPI_Petrel            : 
TLFamily_CALI      .         Caliper                       : 
TLFamily_COLL      .         Net Reservoir Flag            : 
TLFamily_CSAT      .         Fluid Code                    : 
TLFamily_DEPT      .         Measured Depth                : 
TLFamily_GR        .         Russian Gamma Ray             : 
TLFamily_LLS       .         Lateral Log Resistivity       : 
TLFamily_MINV      .         Micro Gradient Resistivity    : 
TLFamily_NGLD      .         Neutron Gamma                 : 
TLFamily_PHIE      .         Effective Porosity            : 
TLFamily_PHIEN     .         Effective Porosity            : 
TLFamily_PHIT      .         Porosity                      : 
TLFamily_PRMB      .         Permeability                  : 
TLFamily_PRMB_DGR  .         Permeability                  : 
TLFamily_RT        .         Formation Resistivity         : 
TLFamily_SOIL_ARCHIE .         Oil Saturation                : 
TLFamily_SOIL_DW   .         Oil Saturation                : 
TLFamily_SP        .         Spontaneous Potential         : 
TLFamily_VSH_FIN   .         Shale Volume                  : 
TLFamily_VSH_GR    .         Shale Volume                  : 
TLFamily_VSH_SP    .         Shale Volume                  : 
~Curve Information
#_______________________________________________________________________________
#
#LOGNAME           .UNIT     LOG_ID                        : DESCRIPTION
#_______________________________________________________________________________
DEPT               .M                                      : Колонка глубины 
CALI               .м                                      : Каверномер 
COLL               .unitless                               : Описание 
CSAT               .unitless                               :  
GR                 .uR/h                                   : Гамма каротаж 
LLS                .Ohmm                                   : Боковой каротаж 
MINV               .Ohmm                                   : Микро-градиент зонд 
NGLD               .u.e.                                   : Показания зонда НГК-60 аппаратуры ДРСТ-3-90 
PHIE               .v/v                                    : Описание 
PHIEN              .v/v                                    :  
PHIT               .v/v                                    : Описание 
PRMB               .mD                                     :  
PRMB_DGR           .mD                                     :  
RT                 .ohmm                                   : УЭС пласта 
SOIL_ARCHIE        .v/v                                    :  
SOIL_DW            .v/v                                    :  
SP                 .мВ                                     : Потенциал самополяризации 
VSH_FIN            .v/v                                    : Описание 
VSH_GR             .v/v                                    : Shale volume 
VSH_SP             .v/v                                    : Shale Volume 
~Ascii
# ...
1169       
  0.21       1          2          8.858505   8.001      1.361      
  1.230051   0.2095836  0.2095836  0.2791677  21.33802   16.971     
  8.001      0.6713244  0.7361682  31.14897   0.2108611  0.2041661  
  0.217556  
1169.2     
  0.217      1          2          8.69275    9.239      1.542      
  1.248695   0.2067031  0.2067031  0.2706232  18.87124   20.37842   
  9.239      0.689056   0.7485436  28.84039   0.1936975  0.1894681  
  0.1979268 
1169.4     
  0.226      1          2          8.568525   9.08       1.449      
  1.25852    0.2061628  0.2061628  0.2661205  18.44136   23.3735    
  9.08       0.6857972  0.7435828  26.97977   0.1816901  0.1791507  
  0.1842294 
1169.6     
  0.224      1          2          8.520398   8.033      0.909      
  1.25777    0.2088128  0.2088128  0.266464   20.64802   24.64882   
  8.033      0.6708851  0.7290426  25.41929   0.1747004  0.1753062  
  0.1740946 
1169.8     
  0.218      1          2          8.553082   9.049      1.283      
  1.249102   0.2136537  0.2136537  0.2704365  25.38303   23.77539   
  9.049      0.6949247  0.7493125  24.06444   0.172069   0.1779079  
  0.1662301 
1170       
  0.217      1          2          8.622809   10.668     1.458      
  1.237147   0.2192347  0.2192347  0.2759154  32.20451   22.01406   
  10.668     0.7238727  0.7742462  22.86159   0.1717598  0.1835883  
  0.1599313 
1170.2     
  0.217      1          2          8.666681   10.033     1.534      
  1.225923   0.2246185  0.2246185  0.2810593  40.5171    20.97336   
  10.033     0.7217472  0.7720279  21.78565   0.1710326  0.1872549  
  0.1548103 
1170.4     
  0.217      1          2          8.647977   10.033     1.399      
  1.217481   0.2294339  0.2294339  0.2849284  49.75431   21.4109    
  10.033     0.7268404  0.7758362  20.83033   0.1681651  0.1856828  
  0.1506474 
1170.6     
  0.217      1          2          8.575098   12.827     1.582      
  1.211312   0.2338079  0.2338079  0.2877558  59.95808   23.20454   
  12.827     0.7605551  0.80444    19.99154   0.1634786  0.1796823  
  0.147275  
1170.8     
  0.217      1          2          8.48614    17.78      1.079      
  1.206086   0.2378217  0.2378217  0.2901506  71.15281   25.59879   
  17.78      0.7975944  0.8358744  19.25608   0.1585726  0.17262    
  0.1445251 
1171       
  0.217      1          2          8.420493   21.177     1.353      
  1.202178   0.2408189  0.2408189  0.2919416  80.85533   27.52268   
  21.177     0.8155609  0.8509377  18.60567   0.1549172  0.167587   
  0.1422474 
1171.2     
  0.217      1          2          8.398155   17.557     1.049      
  1.201443   0.2417461  0.2417461  0.2922786  84.11666   28.20977   
  17.557     0.7992738  0.8366647  18.03078   0.153129   0.1659081  
  0.1403498 
1171.4     
  0.217      1          2          8.412794   16.224     1.424      
  1.204897   0.2402377  0.2402377  0.2906955  78.87552   27.75759   
  16.224     0.790558   0.829102   17.53551   0.1529026  0.1670065  
  0.1387988 
1171.6     
  0.218      1          2          8.443978   16.891     1.525      
  1.211779   0.2368941  0.2368941  0.2875415  68.39298   26.81833   
  16.891     0.7919565  0.8304505  17.12961   0.153477   0.1693705  
  0.1375835 
1171.8     
  0.219      1          2          8.478122   18.605     1.527      
  1.220338   0.2326867  0.2326867  0.2836192  57.15831   25.82637   
  18.605     0.7980538  0.8359249  16.81826   0.1543409  0.1719973  
  0.1366846 
1172       
  0.222      1          2          8.515056   21.272     1.526      
  1.228231   0.2286958  0.2286958  0.2800018  48.21249   24.79461   
  21.272     0.807479   0.8442791  16.59614   0.1554725  0.1748846  
  0.1360604 
1172.2     
  0.222      1          2          8.552723   22.352     1.476      
  1.232637   0.2262509  0.2262509  0.2779827  43.4383    23.7848    
  22.352     0.8101324  0.8467573  16.4461    0.156763   0.1778792  
  0.1356468 
1172.4     
  0.219      1          2          8.573633   21.875     1.432      
  1.231372   0.2265973  0.2265973  0.278562   44.08488   23.24209   
  21.875     0.8084561  0.8453817  16.34595   0.157469   0.1795637  
  0.1353743 
1172.6     
  0.217      1          2          8.553405   22.098     1.362      
  1.225156   0.2297454  0.2297454  0.2814111  50.41974   23.76691   
  22.098     0.8116427  0.8479539  16.27827   0.1565628  0.1779339  
  0.1351917 
1172.8     
  0.216      1          2          8.481423   21.209     1.546      
  1.218256   0.2338641  0.2338641  0.284573   60.10187   25.73242   
  21.209     0.8109269  0.8469514  16.2343    0.1536636  0.1722534  
  0.1350738 
1173       
  0.216      1          2          8.370417   19.716     1.486      
  1.215519   0.2365165  0.2365165  0.2858277  67.30048   29.08689   
  19.716     0.8062506  0.8424182  16.20993   0.1494277  0.1638467  
  0.1350086 
1173.2     
  0.217      1          2          8.250539   20.669     1.512      
  1.218149   0.2367367  0.2367367  0.2846221  67.93552   33.20221   
  20.669     0.8106488  0.845779   16.20148   0.1451072  0.1552283  
  0.1349861 
1173.4     
  0.217      1          2          8.156865   24.606     1.585      
  1.222817   0.2356545  0.2356545  0.2824828  64.87113   36.81919   
  24.606     0.8248268  0.8577624  16.20557   0.1419038  0.1488106  
  0.134997  
1173.6     
  0.218      1          2          8.114807   23.812     1.486      
  1.224864   0.2351714  0.2351714  0.2815449  63.54826   38.56886   
  23.812     0.8217914  0.8550071  16.21983   0.1405256  0.1460161  
  0.1350351 
1173.8     
  0.218      1          2          8.123188   19.907     1.532      
  1.221945   0.2364084  0.2364084  0.2828825  66.99075   38.21368   
  19.907     0.8070484  0.8422061  16.2414    0.1408308  0.1465687  
  0.1350928 
1174       
  0.217      1          2          8.149894   17.653     1.498      
  1.215433   0.2390882  0.2390882  0.2858671  75.10209   37.10363   
  17.653     0.7978497  0.8342388  16.2682    0.1417542  0.1483437  
  0.1351647 
1174.2     
  0.217      1          2          8.152778   14.795     1.543      
  1.209338   0.241833   0.241833   0.2886604  84.42917   36.98569   
  14.795     0.7825543  0.8208154  16.30563   0.141901   0.1485367  
  0.1352654 
1174.4     
  0.217      1          2          8.112965   14.732     1.642      
  1.207111   0.2432594  0.2432594  0.2896812  89.72471   38.64738   
  14.732     0.7832315  0.8212438  16.37366   0.1406721  0.1458949  
  0.1354494 
1174.6     
  0.218      1          2          8.048817   16.764     1.515      
  1.208305   0.2433386  0.2433386  0.2891339  90.0283    41.48324   
  16.764     0.7960424  0.8322679  16.5058    0.1387738  0.1417369  
  0.1358107 
1174.8     
  0.217      1          2          7.99765    20.415     1.529      
  1.209222   0.2433452  0.2433452  0.2887135  90.05382   43.89368   
  20.415     0.8140596  0.847879   16.73676   0.1374796  0.1385054  
  0.1364539 
1175       
  0.216      1          2          7.981797   23.114     1.4        
  1.207954   0.2439243  0.2439243  0.2892946  92.30541   44.66857   
  23.114     0.824947   0.8573454  17.08487   0.1374859  0.1375192  
  0.1374526 
1175.2     
  0.216      1          2          7.990784   19.589     1.482      
  1.207013   0.2440382  0.2440382  0.2897259  92.75515   44.22762   
  19.589     0.8108896  0.8452044  17.54165   0.1384475  0.1380774  
  0.1388175 
1175.4     
  0.216      1          2          7.998914   16.256     1.473      
  1.2098     0.2423996  0.2423996  0.2884489  86.49411   43.83249   
  16.256     0.7923779  0.8291544  18.0782    0.1395433  0.1385843  
  0.1405023 
1175.6     
  0.217      1          2          7.997224   14.986     1.483      
  1.216487   0.2390361  0.2390361  0.2853842  74.93522   43.91432   
  14.986     0.7816582  0.8199005  18.6561    0.1404489  0.1384788  
  0.142419  
1175.8     
  0.216      6          6          7.998728   11.874     2.427      
  1.224581   0.2349892  0.2349892  0.2816747  63.0562    43.84147   
  11.874     0.7528089  0.79466    19.21299   0.1414713  0.1385727  
  0.1443698 
