~Version
 VERS              .         2.0                           : CWLS LOG ASCII STANDARD - VERSION 2.0
 WRAP              .         YES                            : ONE LINE PER DEPTH STEP
 DLM               .         SPACE                         : DELIMITING CHARACTER(SPACE TAB OR COMMA)
~Well Information
#_______________________________________________________________________________
#
#PARAMETER_NAME    .UNIT     VALUE                         : DESCRIPTION
#_______________________________________________________________________________
STRT               .M        980                           : First reference value
STOP               .M        1306.4                        : Last reference value
STEP               .M        0.2                           : Step increment
NULL               .         -9999                         : Missing value
COMP               .                                       : Company
WELL               .         1631                          : Well name
FLD                .         Узень                         : Field
LOC                .                                       : Location
CNTY               .                                       : County
STAT               .                                       : State
CTRY               .                                       : Country
SRVC               .                                       : Service Company
DATE               .         01.06.1971                    : Date
UWI                .                                       : Unique Well ID
Block              .         4                             : 
Cartographic_reference_system .         GCS_WGS_1984                  : ESRI,PE_10_3_1- <?xml version="1.0" encoding="utf-16"?><ILateBoundCoordinateReferenceSystem name="GCS_WGS_1984"><AuthorityCode>EPSG,4326</AuthorityCode></ILateBoundCoordinateReferenceSystem>
Category           .         Нефтяная                      : 
Condition          .         Ликвидированная               : 
EREF               .m        228.2                         : 100.8
Gorizont           .         15                            : 14
HZCS               .GCS_WGS_1984 WGS_1984_EASE-Grid_2.0_Global : ESRI,PE_10_3_1- <?xml version="1.0" encoding="utf-16"?><ILateBoundCoordinateReferenceSystem name="WGS_1984_EASE-Grid_2.0_Global"><AuthorityCode>EPSG,6933</AuthorityCode></ILateBoundCoordinateReferenceSystem>
Interpretator      .         Сагынбаева А.Н.               : 
Kupol              .         основной                      : osnovnoi
LATI               .dega     0.6416371796                  : GCS_WGS_1984
LONG               .dega     0.5621338066                  : GCS_WGS_1984
Mud                .         глинистый                     : 
Mud_density        .         1,22                          : 
Mud_resistivity    .         0                             : 
NGDU               .         НГДУ-1                        : 
ORIGINALWELLNAME   .         1631                          : 
Spud_date          .         1971                          : 1961
Viscosity          .         35                            : 
X                  .m        54238.2                       : 46154
Y                  .m        81854.1                       : 85761.93
YEAR               .         2018                          : 
~Parameter Information Block
#_______________________________________________________________________________
#
#PARAMETER_NAME    .UNIT     VALUE                         : DESCRIPTION
#_______________________________________________________________________________
SET                .         LQC_KAZNIPI_Petrel            : 
TLFamily_CALI      .         Caliper                       : 
TLFamily_COLL      .         Net Reservoir Flag            : 
TLFamily_CSAT      .         Fluid Code                    : 
TLFamily_DEPT      .         Measured Depth                : 
TLFamily_GR        .         Russian Gamma Ray             : 
TLFamily_LLS       .         Lateral Log Resistivity       : 
TLFamily_MINV      .         Micro Gradient Resistivity    : 
TLFamily_NGLD      .         Neutron Gamma                 : 
TLFamily_PHIE      .         Effective Porosity            : 
TLFamily_PHIEN     .         Effective Porosity            : 
TLFamily_PHIT      .         Porosity                      : 
TLFamily_PRMB      .         Permeability                  : 
TLFamily_PRMB_DGR  .         Permeability                  : 
TLFamily_RT        .         Formation Resistivity         : 
TLFamily_SOIL_ARCHIE .         Oil Saturation                : 
TLFamily_SOIL_DW   .         Oil Saturation                : 
TLFamily_SP        .         Spontaneous Potential         : 
TLFamily_VSH_FIN   .         Shale Volume                  : 
TLFamily_VSH_GR    .         Shale Volume                  : 
TLFamily_VSH_SP    .         Shale Volume                  : 
~Curve Information
#_______________________________________________________________________________
#
#LOGNAME           .UNIT     LOG_ID                        : DESCRIPTION
#_______________________________________________________________________________
DEPT               .M                                      : Колонка глубины 
CALI               .м                                      : Каверномер 
COLL               .unitless                               : Описание 
CSAT               .unitless                               :  
GR                 .uR/h                                   : Гамма каротаж 
LLS                .Ohmm                                   : Боковой каротаж 
MINV               .Ohmm                                   : Микро-градиент зонд 
NGLD               .u.e.                                   : Показания зонда НГК-60 аппаратуры ДРСТ-3-90 
PHIE               .v/v                                    : Описание 
PHIEN              .v/v                                    :  
PHIT               .v/v                                    : Описание 
PRMB               .mD                                     :  
PRMB_DGR           .mD                                     :  
RT                 .ohmm                                   : УЭС пласта 
SOIL_ARCHIE        .v/v                                    :  
SOIL_DW            .v/v                                    :  
SP                 .мВ                                     : Потенциал самополяризации 
VSH_FIN            .v/v                                    : Описание 
VSH_GR             .v/v                                    : Shale volume 
VSH_SP             .v/v                                    : Shale Volume 
~Ascii
# ...
1148       
  0.216      1          2          7.799078   5.302      1.525      
  1.266686   0.2001111  0.2001111  0.2623776  14.24628   32.8616    
  5.302      0.5849304  0.6574216  38.90505   0.1886863  0.1558833  
  0.2214893 
1148.2     
  0.216      1          2          7.68942    5.747      1.634      
  1.269418   0.2009923  0.2009923  0.2611257  14.79186   36.60839   
  5.747      0.6018616  0.6706402  38.23218   0.1822226  0.1491599  
  0.2152852 
1148.4     
  0.216      1          2          7.573861   5.461      1.792      
  1.278775   0.1988646  0.1988646  0.2568372  13.50868   41.02      
  5.461      0.588412   0.6573336  37.51448   0.1756746  0.1423883  
  0.2089609 
1148.6     
  0.217      1          2          7.416656   3.937      1.829      
  1.294625   0.1940441  0.1940441  0.2495733  10.99828   47.88715   
  3.937      0.5097361  0.5853995  36.78973   0.1682704  0.1336672  
  0.2028737 
1148.8     
  0.216      1          2          7.193317   4.635      1.712      
  1.31447    0.1877296  0.1877296  0.2404783  8.401666   59.66539   
  4.635      0.5326093  0.60411    36.11907   0.1598447  0.1221877  
  0.1975017 
1149       
  0.216      1          2          6.90894    8.128      1.79       
  1.335811   0.180827   0.180827   0.2306979  6.259111   78.9455    
  8.128      0.6289942  0.6888996  35.56681   0.151124   0.1089863  
  0.1932617 
1149.2     
  0.218      1          2          6.595538   12.763     1.73       
  1.35741    0.1735526  0.1735526  0.2207991  4.589581   107.4839   
  12.763     0.6888637  0.7409086  35.16231   0.1431713  0.09608351 
  0.1902592 
1149.4     
  0.221      1          2          6.294866   9.842      1.73       
  1.379288   0.1656588  0.1656588  0.2107725  3.277642   144.5161   
  9.842      0.6339641  0.69091    34.8882    0.1367081  0.08514289 
  0.1882732 
1149.6     
  0.217      1          2          6.041679   5.556      1.77       
  1.401975   0.1568305  0.1568305  0.2003751  2.24926    185.4314   
  5.556      0.4979275  0.5665124  34.71014   0.1319532  0.07690229 
  0.187004  
1149.8     
  0.218      6          6          5.863607   5.651      2.033      
  1.425057   0.1472407  0.1472407  0.1897965  1.494217   220.9684   
  5.651      0.4737675  0.5445268  34.61391   0.1289569  0.07158895 
  0.1863249 
1150       
  0.221      6          6          5.795783   6.096      3.571      
  1.444845   0.1384853  0.1384853  0.1807277  1.028591   236.2288   
  6.096      0.4643045  0.5370765  34.61766   0.1280072  0.06966317 
  0.1863513 
1150.2     
  0.222      6          6          5.881882   6.318      4.108      
  1.451908   0.1346723  0.1346723  0.1774906  0.8742117  217.0279   
  6.318      0.4602548  0.5350813  34.76419   0.1297522  0.07211688 
  0.1873875 
1150.4     
  0.222      6          6          6.141227   6.318      3.091      
  1.434018   0.1411369  0.1411369  0.1856893  1.151744   168.1183   
  6.318      0.4818514  0.5559292  35.12301   0.1350073  0.08004262 
  0.189972  
1150.6     
  0.222      6          6          6.537614   7.08       4.147      
  1.386947   0.1595835  0.1595835  0.2072623  2.52948    113.7923   
  7.08       0.5586486  0.6261939  35.80767   0.1444812  0.0938717  
  0.1950908 
1150.8     
  0.223      1          2          6.999338   9.811      2.974      
  1.323611   0.1838893  0.1838893  0.2362891  7.132364   72.22234   
  9.811      0.6652843  0.7227074  36.99342   0.1587874  0.1130203  
  0.2045545 
1151       
  0.222      1          2          7.466605   13.049     1.672      
  1.267011   0.2032018  0.2032018  0.2622291  16.25354   45.58901   
  13.049     0.7316033  0.7829545  38.89159   0.1788706  0.1363786  
  0.2213625 
1151.2     
  0.222      1          2          7.910944   14.637     1.85       
  1.232339   0.2100306  0.2100306  0.2781192  21.74878   29.43423   
  14.637     0.7529016  0.8046827  41.64216   0.206329   0.1630544  
  0.2496035 
1151.4     
  0.222      1          2          8.31512    12.636     1.653      
  1.218612   0.2044332  0.2044332  0.2844101  17.12995   19.77062   
  12.636     0.7289519  0.7901773  45.14723   0.2423543  0.1918253  
  0.2928833 
1151.6     
  0.222      1          2          8.650578   7.652      1.71       
  1.215377   0.1917667  0.1917667  0.2858925  9.980268   14.2093    
  7.652      0.6373717  0.7240342  49.00254   0.2852298  0.2195231  
  0.3509364 
1151.8     
  0.223      1          2          8.892316   4.413      1.503      
  1.212981   0.1781716  0.1781716  0.2869908  5.588923   11.19956   
  4.413      0.4994489  0.6264627  52.67952   0.329755   0.2419304  
  0.4175797 
1152       
  0.224      -9999      -9999      9.053045   2.572      1.885      
  1.207346   0.1670301  0.1670301  0.2895734  3.475051   9.560273   
  2.572      0.3178216  0.5006169  55.84584   0.3713433  0.2580806  
  0.4846059 
1152.2     
  0.226      -9999      -9999      9.186687   1.588      1.835      
  1.198727   0.158105   0.158105   0.2935233  2.37491    8.381514   
  1.588      0.1026896  0.3558802  58.50834   0.4103585  0.272327   
  0.54839   
1152.4     
  0.23       -9999      -9999      9.349496   1.308      2.129      
  1.188489   0.149586   0.149586   0.2982156  1.651404   7.140076   
  1.308      0          0.2818774  60.83576   0.4503927  0.2907494  
  0.610036  
1152.6     
  0.247      -9999      -9999      9.563377   1.175      1.672      
  1.177424   0.1405766  0.1405766  0.3032867  1.124546   5.784201   
  1.175      0          0.2322284  62.89101   0.493061   0.3168581  
  0.669264  
1152.8     
  0.251      -9999      -9999      9.816029   0.94       1.63       
  1.167193   0.1311732  0.1311732  0.3079754  0.7530144  4.510299   
  0.94       0          0.1275435  64.55978   0.5357643  0.350736   
  0.7207926 
1153       
  0.258      -9999      -9999      10.08326   0.806      1.363      
  1.161028   0.121442   0.121442   0.3108007  0.4972318  3.46684    
  0.806      0          0.03650191 65.67835   0.5738142  0.3905181  
  0.7571103 
1153.2     
  0.27       -9999      -9999      10.34614   0.851      0.489      
  1.161418   0.1113378  0.1113378  0.310622   0.3231504  2.676221   
  0.851      0          0.03246155 66.17583   0.6038916  0.4340529  
  0.7737302 
1153.4     
  0.28       -9999      -9999      10.59421   1.13       0.422      
  1.167729   0.1013769  0.1013769  0.3077297  0.2113025  2.096246   
  1.13       0          0.1272334  66.09607   0.6253116  0.4795772  
  0.7710459 
1153.6     
  0.273      -9999      -9999      10.82156   1.48       0.566      
  1.177237   0.0925103  0.0925103  0.3033725  0.1447682  1.675804   
  1.48       0          0.2058969  65.53796   0.6389763  0.5254802  
  0.7524726 
1153.8     
  0.264      -9999      -9999      11.0188    1.314      0.359      
  1.187744   0.08547847 0.08547847 0.2985568  0.1072573  1.38       
  1.314      0          0.1255565  64.61448   0.6456919  0.5688487  
  0.7225351 
1154       
  0.244      -9999      -9999      11.16542   1.238      0.349      
  1.19864    0.0807146  0.0807146  0.2935632  0.08753631 1.194489   
  1.238      0          0.07164074 63.46394   0.6449959  0.6033899  
  0.6866019 
1154.2     
  0.247      -9999      -9999      11.23358   1.416      0.57       
  1.210283   0.07848088 0.07848088 0.2882273  0.07958192 1.116953   
  1.416      0          0.1131029  62.27525   0.6355953  0.6201546  
  0.651036  
1154.4     
  0.254      -9999      -9999      11.20911   1.397      2.062      
  1.22275    0.07863791 0.07863791 0.2825138  0.08011666 1.144188   
  1.397      0          0.09549668 61.24723   0.6178056  0.6140838  
  0.6215274 
1154.6     
  0.253      -9999      -9999      11.10928   1.626      0.359      
  1.235006   0.08047538 0.08047538 0.2768966  0.08664776 1.262373   
  1.626      0          0.1565926  60.48958   0.5952158  0.5899237  
  0.6005079 
1154.8     
  0.255      -9999      -9999      10.97956   1.905      0.503      
  1.245281   0.08305876 0.08305876 0.2721877  0.09674038 1.434359   
  1.905      0          0.2200505  59.96425   0.5731179  0.5599451  
  0.5862907 
