~Version
 VERS              .         2.0                           : CWLS LOG ASCII STANDARD - VERSION 2.0
 WRAP              .         YES                            : ONE LINE PER DEPTH STEP
 DLM               .         SPACE                         : DELIMITING CHARACTER(SPACE TAB OR COMMA)
~Well Information
#_______________________________________________________________________________
#
#PARAMETER_NAME    .UNIT     VALUE                         : DESCRIPTION
#_______________________________________________________________________________
STRT               .M        980                           : First reference value
STOP               .M        1306.4                        : Last reference value
STEP               .M        0.2                           : Step increment
NULL               .         -9999                         : Missing value
COMP               .                                       : Company
WELL               .         1631                          : Well name
FLD                .         Узень                         : Field
LOC                .                                       : Location
CNTY               .                                       : County
STAT               .                                       : State
CTRY               .                                       : Country
SRVC               .                                       : Service Company
DATE               .         01.06.1971                    : Date
UWI                .                                       : Unique Well ID
Block              .         4                             : 
Cartographic_reference_system .         GCS_WGS_1984                  : ESRI,PE_10_3_1- <?xml version="1.0" encoding="utf-16"?><ILateBoundCoordinateReferenceSystem name="GCS_WGS_1984"><AuthorityCode>EPSG,4326</AuthorityCode></ILateBoundCoordinateReferenceSystem>
Category           .         Нефтяная                      : 
Condition          .         Ликвидированная               : 
EREF               .m        228.2                         : 100.8
Gorizont           .         15                            : 14
HZCS               .GCS_WGS_1984 WGS_1984_EASE-Grid_2.0_Global : ESRI,PE_10_3_1- <?xml version="1.0" encoding="utf-16"?><ILateBoundCoordinateReferenceSystem name="WGS_1984_EASE-Grid_2.0_Global"><AuthorityCode>EPSG,6933</AuthorityCode></ILateBoundCoordinateReferenceSystem>
Interpretator      .         Сагынбаева А.Н.               : 
Kupol              .         основной                      : osnovnoi
LATI               .dega     0.6416371796                  : GCS_WGS_1984
LONG               .dega     0.5621338066                  : GCS_WGS_1984
Mud                .         глинистый                     : 
Mud_density        .         1,22                          : 
Mud_resistivity    .         0                             : 
NGDU               .         НГДУ-1                        : 
ORIGINALWELLNAME   .         1631                          : 
Spud_date          .         1971                          : 1961
Viscosity          .         35                            : 
X                  .m        54238.2                       : 46154
Y                  .m        81854.1                       : 85761.93
YEAR               .         2018                          : 
~Parameter Information Block
#_______________________________________________________________________________
#
#PARAMETER_NAME    .UNIT     VALUE                         : DESCRIPTION
#_______________________________________________________________________________
SET                .         LQC_KAZNIPI_Petrel            : 
TLFamily_CALI      .         Caliper                       : 
TLFamily_COLL      .         Net Reservoir Flag            : 
TLFamily_CSAT      .         Fluid Code                    : 
TLFamily_DEPT      .         Measured Depth                : 
TLFamily_GR        .         Russian Gamma Ray             : 
TLFamily_LLS       .         Lateral Log Resistivity       : 
TLFamily_MINV      .         Micro Gradient Resistivity    : 
TLFamily_NGLD      .         Neutron Gamma                 : 
TLFamily_PHIE      .         Effective Porosity            : 
TLFamily_PHIEN     .         Effective Porosity            : 
TLFamily_PHIT      .         Porosity                      : 
TLFamily_PRMB      .         Permeability                  : 
TLFamily_PRMB_DGR  .         Permeability                  : 
TLFamily_RT        .         Formation Resistivity         : 
TLFamily_SOIL_ARCHIE .         Oil Saturation                : 
TLFamily_SOIL_DW   .         Oil Saturation                : 
TLFamily_SP        .         Spontaneous Potential         : 
TLFamily_VSH_FIN   .         Shale Volume                  : 
TLFamily_VSH_GR    .         Shale Volume                  : 
TLFamily_VSH_SP    .         Shale Volume                  : 
~Curve Information
#_______________________________________________________________________________
#
#LOGNAME           .UNIT     LOG_ID                        : DESCRIPTION
#_______________________________________________________________________________
DEPT               .M                                      : Колонка глубины 
CALI               .м                                      : Каверномер 
COLL               .unitless                               : Описание 
CSAT               .unitless                               :  
GR                 .uR/h                                   : Гамма каротаж 
LLS                .Ohmm                                   : Боковой каротаж 
MINV               .Ohmm                                   : Микро-градиент зонд 
NGLD               .u.e.                                   : Показания зонда НГК-60 аппаратуры ДРСТ-3-90 
PHIE               .v/v                                    : Описание 
PHIEN              .v/v                                    :  
PHIT               .v/v                                    : Описание 
PRMB               .mD                                     :  
PRMB_DGR           .mD                                     :  
RT                 .ohmm                                   : УЭС пласта 
SOIL_ARCHIE        .v/v                                    :  
SOIL_DW            .v/v                                    :  
SP                 .мВ                                     : Потенциал самополяризации 
VSH_FIN            .v/v                                    : Описание 
VSH_GR             .v/v                                    : Shale volume 
VSH_SP             .v/v                                    : Shale Volume 
~Ascii
# ...
1029       
  0.287      -9999      -9999      7.967079   1.499      0.265      
  1.089935   0.1273271  0.1273271  0.343383   0.6390942  1.036546   
  1.499      0          0.3484142  64.63056   0.6547148  0.6393648  
  0.6700647 
1029.2     
  0.301      -9999      -9999      7.951282   1.499      0.404      
  1.087009   0.1301814  0.1301814  0.344724   0.7218271  1.053256   
  1.499      0          0.3551645  64.49084   0.650129   0.6352032  
  0.6650548 
1029.4     
  0.311      -9999      -9999      7.88699    1.422      0.35       
  1.083957   0.1349499  0.1349499  0.3461226  0.884622   1.12409    
  1.422      0          0.3481294  64.38529   0.6399174  0.6185437  
  0.6612911 
1029.6     
  0.259      -9999      -9999      7.798824   1.283      0.258      
  1.08118    0.1400117  0.1400117  0.3473954  1.09778    1.229035   
  1.283      0          0.3244066  64.36205   0.6284353  0.5964061  
  0.6604645 
1029.8     
  0.262      -9999      -9999      7.708861   1.162      0.251      
  1.079825   0.1439975  0.1439975  0.3480164  1.301193   1.346225   
  1.162      0          0.2981421  64.40083   0.6182388  0.5746338  
  0.6618439 
1030       
  0.252      -9999      -9999      7.627972   1.099      0.343      
  1.081356   0.1461342  0.1461342  0.3473146  1.425337   1.461105   
  1.099      0          0.2812844  64.44838   0.6096377  0.5557368  
  0.6635386 
1030.2     
  0.266      -9999      -9999      7.564136   1.073      0.298      
  1.086822   0.1459031  0.1459031  0.3448096  1.41136    1.558647   
  1.073      0          0.2688704  64.46775   0.6027468  0.5412635  
  0.66423   
1030.4     
  0.291      -9999      -9999      7.531747   1.073      0.193      
  1.096022   0.1429352  0.1429352  0.3405931  1.243553   1.6106     
  1.073      0          0.2575663  64.45744   0.5989634  0.534065   
  0.6638618 
1030.6     
  0.317      -9999      -9999      7.545502   1.257      0.282      
  1.106444   0.13773    0.13773    0.3358168  0.9959834  1.588329   
  1.257      0          0.2984086  64.44494   0.6002631  0.5371103  
  0.6634159 
1030.8     
  0.324      -9999      -9999      7.60824    1.562      0.396      
  1.11353    0.1320381  0.1320381  0.3325692  0.7813112  1.490585   
  1.562      0          0.356912   64.4646    0.6076699  0.5512223  
  0.6641175 
1031       
  0.311      -9999      -9999      7.709068   2.172      0.304      
  1.113652   0.1277445  0.1277445  0.3325133  0.6505726  1.345942   
  2.172      0.06723578 0.448037   64.52678   0.6205117  0.5746829  
  0.6663405 
1031.2     
  0.298      -9999      -9999      7.831581   2.546      0.547      
  1.106898   0.12544    0.12544    0.3356088  0.5896741  1.188946   
  2.546      0.1204124  0.4898989  64.60687   0.6368751  0.6045371  
  0.6692131 
1031.4     
  0.298      -9999      -9999      7.959671   2          0.295      
  1.096358   0.1245165  0.1245165  0.3404393  0.5669     1.04435    
  2          0.008560487 0.4282445  64.66246   0.6543113  0.6374097  
  0.6712128 
1031.6     
  0.291      -9999      -9999      8.078692   1.429      0.348      
  1.085981   0.1239781  0.1239781  0.3451951  0.55403    0.9257986  
  1.429      0          0.3286051  64.66082   0.6703546  0.6695555  
  0.6711537 
1031.8     
  0.291      -9999      -9999      8.174747   1.194      0.174      
  1.079546   0.1228318  0.1228318  0.3481439  0.5275945  0.8400116  
  1.194      0          0.2671516  64.59682   0.6827641  0.6966763  
  0.6688519 
1032       
  0.291      -9999      -9999      8.231963   1.257      0.27       
  1.079885   0.1205551  0.1205551  0.3479888  0.4787753  0.7927372  
  1.257      0          0.2808577  64.49028   0.6891928  0.7133507  
  0.6650349 
1032.2     
  0.293      -9999      -9999      8.235357   1.353      0.342      
  1.08689    0.1179145  0.1179145  0.3447783  0.4277795  0.7900176  
  1.353      0          0.2972433  64.3653    0.6874661  0.7143523  
  0.66058   
1032.4     
  0.288      -9999      -9999      8.189558   1.359      0.263      
  1.096589   0.1164351  0.1164351  0.3403331  0.4016223  0.8275098  
  1.359      0          0.2897243  64.23615   0.678479   0.700955   
  0.6560029 
1032.6     
  0.295      -9999      -9999      8.132407   1.378      0.258      
  1.103645   0.1166155  0.1166155  0.3370996  0.4047246  0.8767993  
  1.378      0          0.2906152  64.11344   0.6681336  0.684589   
  0.6516783 
1032.8     
  0.314      -9999      -9999      8.11263    1.416      0.35       
  1.104989   0.11751    0.11751    0.3364836  0.4204643  0.8945314  
  1.416      0          0.3012306  64.01132   0.6635562  0.6790149  
  0.6480975 
1033       
  0.302      -9999      -9999      8.149813   1.391      0.271      
  1.10148    0.1177873  0.1177873  0.3380919  0.4254651  0.8614846  
  1.391      0          0.2977416  63.94117   0.6675897  0.6895324  
  0.645647  
1033.2     
  0.309      -9999      -9999      8.223013   1.416      0.179      
  1.096886   0.1166158  0.1166158  0.3401972  0.4047296  0.7999526  
  1.416      0          0.3043604  63.90316   0.6775194  0.7107162  
  0.6443226 
1033.4     
  0.302      -9999      -9999      8.297218   1.53       0.24       
  1.095418   0.113719   0.113719   0.3408697  0.3576924  0.7420597  
  1.53       0          0.3257986  63.8886    0.6883355  0.7328553  
  0.6438158 
1033.6     
  0.298      -9999      -9999      8.355692   1.568      0.289      
  1.09871    0.1092445  0.1092445  0.3393613  0.29555    0.6994076  
  1.568      0          0.3228225  63.88992   0.6973238  0.7507856  
  0.6438619 
1033.8     
  0.295      -9999      -9999      8.40787    1.467      0.382      
  1.104189   0.1039383  0.1039383  0.3368502  0.2356939  0.6634212  
  1.467      0          0.2844948  63.90628   0.7057934  0.7671556  
  0.6444312 
1034       
  0.291      -9999      -9999      8.47032    1.346      0.394      
  1.107531   0.09889249 0.09889249 0.3353184  0.1900583  0.6227773  
  1.346      0          0.2382111  63.94173   0.7164422  0.7872179  
  0.6456665 
1034.2     
  0.289      -9999      -9999      8.539474   1.213      0.211      
  1.106826   0.09677529 0.09677529 0.3356414  0.1736486  0.5806682  
  1.213      0          0.1923066  63.99921   0.7238368  0.8        
  0.6476737 
1034.4     
  0.288      -9999      -9999      8.585319   1.226      0.4        
  1.103523   0.09783985 0.09783985 0.3371555  0.1817144  0.5543347  
  1.226      0          0.2019002  64.07697   0.7251988  0.8        
  0.6503976 
1034.6     
  0.285      -9999      -9999      8.574185   1.289      0.341      
  1.099369   0.09921595 0.09921595 0.3390591  0.1926984  0.5606178  
  1.289      0          0.2281429  64.1679    0.7267973  0.8        
  0.6535946 
1034.8     
  0.289      -9999      -9999      8.498393   1.346      0.247      
  1.094481   0.1015123  0.1015123  0.3412993  0.2125264  0.6053269  
  1.346      0          0.253659   64.26003   0.726627   0.7964067  
  0.6568472 
1035       
  0.284      -9999      -9999      8.380524   1.416      0.231      
  1.088874   0.1098664  0.1098664  0.343869   0.3034935  0.6820443  
  1.416      0          0.2949423  64.33956   0.7090989  0.7585321  
  0.6596658 
1035.2     
  0.278      -9999      -9999      8.249      1.467      0.332      
  1.083906   0.1184349  0.1184349  0.3461457  0.4373815  0.7791817  
  1.467      0          0.3278712  64.39603   0.6900326  0.7183922  
  0.6616731 
1035.4     
  0.283      -9999      -9999      8.121324   1.362      0.35       
  1.081583   0.125417   0.125417   0.3472103  0.5890939  0.8866928  
  1.362      0          0.3176584  64.42605   0.672101   0.6814595  
  0.6627423 
1035.6     
  0.293      -9999      -9999      8.011724   1.416      0.238      
  1.083049   0.1296845  0.1296845  0.3465386  0.7066918  0.9907412  
  1.416      0          0.337867   64.43309   0.6571336  0.651274   
  0.6629934 
1035.8     
  0.275      -9999      -9999      7.936338   1.511      0.416      
  1.087948   0.130795   0.130795   0.3442935  0.7409674  1.069312   
  1.511      0          0.3582954  64.42314   0.6469651  0.6312914  
  0.6626387 
