~Version
 VERS              .         2.0                           : CWLS LOG ASCII STANDARD - VERSION 2.0
 WRAP              .         YES                            : ONE LINE PER DEPTH STEP
 DLM               .         SPACE                         : DELIMITING CHARACTER(SPACE TAB OR COMMA)
~Well Information
#_______________________________________________________________________________
#
#PARAMETER_NAME    .UNIT     VALUE                         : DESCRIPTION
#_______________________________________________________________________________
STRT               .M        980                           : First reference value
STOP               .M        1306.4                        : Last reference value
STEP               .M        0.2                           : Step increment
NULL               .         -9999                         : Missing value
COMP               .                                       : Company
WELL               .         1631                          : Well name
FLD                .         Узень                         : Field
LOC                .                                       : Location
CNTY               .                                       : County
STAT               .                                       : State
CTRY               .                                       : Country
SRVC               .                                       : Service Company
DATE               .         01.06.1971                    : Date
UWI                .                                       : Unique Well ID
Block              .         4                             : 
Cartographic_reference_system .         GCS_WGS_1984                  : ESRI,PE_10_3_1- <?xml version="1.0" encoding="utf-16"?><ILateBoundCoordinateReferenceSystem name="GCS_WGS_1984"><AuthorityCode>EPSG,4326</AuthorityCode></ILateBoundCoordinateReferenceSystem>
Category           .         Нефтяная                      : 
Condition          .         Ликвидированная               : 
EREF               .m        228.2                         : 100.8
Gorizont           .         15                            : 14
HZCS               .GCS_WGS_1984 WGS_1984_EASE-Grid_2.0_Global : ESRI,PE_10_3_1- <?xml version="1.0" encoding="utf-16"?><ILateBoundCoordinateReferenceSystem name="WGS_1984_EASE-Grid_2.0_Global"><AuthorityCode>EPSG,6933</AuthorityCode></ILateBoundCoordinateReferenceSystem>
Interpretator      .         Сагынбаева А.Н.               : 
Kupol              .         основной                      : osnovnoi
LATI               .dega     0.6416371796                  : GCS_WGS_1984
LONG               .dega     0.5621338066                  : GCS_WGS_1984
Mud                .         глинистый                     : 
Mud_density        .         1,22                          : 
Mud_resistivity    .         0                             : 
NGDU               .         НГДУ-1                        : 
ORIGINALWELLNAME   .         1631                          : 
Spud_date          .         1971                          : 1961
Viscosity          .         35                            : 
X                  .m        54238.2                       : 46154
Y                  .m        81854.1                       : 85761.93
YEAR               .         2018                          : 
~Parameter Information Block
#_______________________________________________________________________________
#
#PARAMETER_NAME    .UNIT     VALUE                         : DESCRIPTION
#_______________________________________________________________________________
SET                .         LQC_KAZNIPI_Petrel            : 
TLFamily_CALI      .         Caliper                       : 
TLFamily_COLL      .         Net Reservoir Flag            : 
TLFamily_CSAT      .         Fluid Code                    : 
TLFamily_DEPT      .         Measured Depth                : 
TLFamily_GR        .         Russian Gamma Ray             : 
TLFamily_LLS       .         Lateral Log Resistivity       : 
TLFamily_MINV      .         Micro Gradient Resistivity    : 
TLFamily_NGLD      .         Neutron Gamma                 : 
TLFamily_PHIE      .         Effective Porosity            : 
TLFamily_PHIEN     .         Effective Porosity            : 
TLFamily_PHIT      .         Porosity                      : 
TLFamily_PRMB      .         Permeability                  : 
TLFamily_PRMB_DGR  .         Permeability                  : 
TLFamily_RT        .         Formation Resistivity         : 
TLFamily_SOIL_ARCHIE .         Oil Saturation                : 
TLFamily_SOIL_DW   .         Oil Saturation                : 
TLFamily_SP        .         Spontaneous Potential         : 
TLFamily_VSH_FIN   .         Shale Volume                  : 
TLFamily_VSH_GR    .         Shale Volume                  : 
TLFamily_VSH_SP    .         Shale Volume                  : 
~Curve Information
#_______________________________________________________________________________
#
#LOGNAME           .UNIT     LOG_ID                        : DESCRIPTION
#_______________________________________________________________________________
DEPT               .M                                      : Колонка глубины 
CALI               .м                                      : Каверномер 
COLL               .unitless                               : Описание 
CSAT               .unitless                               :  
GR                 .uR/h                                   : Гамма каротаж 
LLS                .Ohmm                                   : Боковой каротаж 
MINV               .Ohmm                                   : Микро-градиент зонд 
NGLD               .u.e.                                   : Показания зонда НГК-60 аппаратуры ДРСТ-3-90 
PHIE               .v/v                                    : Описание 
PHIEN              .v/v                                    :  
PHIT               .v/v                                    : Описание 
PRMB               .mD                                     :  
PRMB_DGR           .mD                                     :  
RT                 .ohmm                                   : УЭС пласта 
SOIL_ARCHIE        .v/v                                    :  
SOIL_DW            .v/v                                    :  
SP                 .мВ                                     : Потенциал самополяризации 
VSH_FIN            .v/v                                    : Описание 
VSH_GR             .v/v                                    : Shale volume 
VSH_SP             .v/v                                    : Shale Volume 
~Ascii
# ...
1190       
  0.213      1          2          8.165303   27.971     1.123      
  1.21522    0.2377265  0.2377265  0.2859648  70.86462   36.47782   
  27.971     0.8363055  0.8680214  18.81816   0.1461768  0.1493777  
  0.142976  
1190.2     
  0.213      1          2          8.172311   28.162     1.116      
  1.219597   0.235843   0.235843   0.2839585  65.39484   36.19674   
  28.162     0.8356931  0.8674892  18.46059   0.1458043  0.1498502  
  0.1417585 
1190.4     
  0.213      1          2          8.236712   26.32      1.106      
  1.228219   0.231365   0.231365   0.2800071  54.02554   33.71288   
  26.32      0.8275383  0.8606927  18.0889    0.1474003  0.1542639  
  0.1405368 
1190.6     
  0.214      1          2          8.330679   22.542     1.162      
  1.238088   0.2259344  0.2259344  0.2754845  42.856     30.3912    
  22.542     0.8106544  0.8465158  17.71928   0.1501517  0.1609381  
  0.1393654 
1190.8     
  0.213      1          2          8.412249   19.177     1.116      
  1.245032   0.2219312  0.2219312  0.272302   36.12956   27.7743    
  19.177     0.7925253  0.8312035  17.37487   0.1526386  0.1669654  
  0.1383119 
1191       
  0.214      1          2          8.448701   18.415     1.169      
  1.246048   0.2211531  0.2211531  0.271836   34.95015   26.6789    
  18.415     0.787892   0.8273202  17.07998   0.1535849  0.1697314  
  0.1374383 
1191.2     
  0.212      1          2          8.430484   19.875     1.142      
  1.241311   0.2236647  0.2236647  0.274007   38.90184   27.22082   
  19.875     0.7973549  0.8353328  16.84541   0.1525526  0.1683434  
  0.1367618 
1191.4     
  0.212      1          2          8.370306   23.399     1.116      
  1.234368   0.2276743  0.2276743  0.277189   46.15714   29.09045   
  23.399     0.8151799  0.8503742  16.66417   0.1500443  0.1638385  
  0.1362501 
1191.6     
  0.212      1          2          8.295387   26.13      1.136      
  1.229894   0.230687   0.230687   0.2792396  52.48568   31.59851   
  26.13      0.826508   0.8597916  16.52376   0.1471292  0.1583982  
  0.1358601 
1191.8     
  0.212      1          2          8.2335     24.479     1.162      
  1.23061    0.2311245  0.2311245  0.2789116  53.47424   33.83258   
  24.479     0.821407   0.8551584  16.42091   0.1448094  0.1540408  
  0.135578  
1192       
  0.213      1          2          8.193365   20.605     1.17       
  1.235666   0.2292878  0.2292878  0.2765941  49.44514   35.36519   
  20.605     0.8050187  0.8408304  16.36514   0.1433527  0.1512791  
  0.1354263 
1192.2     
  0.212      1          2          8.165419   16.922     1.149      
  1.24143    0.226955   0.226955   0.2739527  44.76268   36.47319   
  16.922     0.7842292  0.8226203  16.3735    0.1424172  0.1493854  
  0.135449  
1192.4     
  0.212      1          2          8.142138   16.7       1.129      
  1.244215   0.2258954  0.2258954  0.2726761  42.78467   37.42263   
  16.7       0.7820011  0.8206086  16.46302   0.1417596  0.1478261  
  0.1356932 
1192.6     
  0.213      1          2          8.123449   17.78      1.123      
  1.243099   0.2265315  0.2265315  0.2731877  43.96139   38.20268   
  17.78      0.7888362  0.8265367  16.63872   0.1413825  0.146586   
  0.136179  
1192.8     
  0.214      1          2          8.108696   22.923     1.107      
  1.239734   0.2281158  0.2281158  0.2747298  47.03439   38.82993   
  22.923     0.8137034  0.8481738  16.89206   0.1412548  0.1456144  
  0.1368951 
1193       
  0.214      1          2          8.097742   21.018     1.12       
  1.23535    0.2300875  0.2300875  0.2767391  51.16078   39.30229   
  21.018     0.807411   0.8426816  17.2165    0.1413684  0.1448973  
  0.1378395 
1193.2     
  0.214      1          2          8.097635   17.43      1.212      
  1.229837   0.2324156  0.2324156  0.2792659  56.50125   39.30692   
  17.43      0.7915644  0.8288806  17.6178    0.1419707  0.1448903  
  0.1390512 
1193.4     
  0.214      1          2          8.118462   13.748     1.169      
  1.224162   0.2345372  0.2345372  0.2818666  61.85232   38.41358   
  13.748     0.7688489  0.8090868  18.10478   0.1434225  0.1462568  
  0.1405881 
1193.6     
  0.214      1          2          8.170422   14.319     1.112      
  1.220913   0.2351353  0.2351353  0.2833554  63.45039   36.2723    
  14.319     0.7737237  0.8137004  18.68584   0.1461216  0.1497227  
  0.1425205 
1193.8     
  0.214      1          2          8.263214   15.462     1.191      
  1.221697   0.2333094  0.2333094  0.2829961  58.69674   32.74089   
  15.462     0.7802461  0.8199946  19.3905    0.1505657  0.1561177  
  0.1450137 
1194       
  0.214      1          2          8.394333   16.002     1.121      
  1.225482   0.2294464  0.2294464  0.2812617  49.78091   28.32904   
  16.002     0.7805904  0.8211715  20.28082   0.1570158  0.1656225  
  0.1484091 
1194.2     
  0.215      1          2          8.541301   17.081     1.157      
  1.229844   0.2247864  0.2247864  0.2792624  40.80813   24.08659   
  17.081     0.78337    0.8246859  21.4238    0.1650789  0.1769657  
  0.1531921 
1194.4     
  0.216      1          2          8.679075   16.859     1.137      
  1.232769   0.2204624  0.2204624  0.2779219  33.93574   20.68836   
  16.859     0.7783175  0.8215908  22.86239   0.1741196  0.1883039  
  0.1599353 
1194.6     
  0.217      1          2          8.805378   16.319     1.242      
  1.233171   0.2168949  0.2168949  0.2777377  29.14597   17.99603   
  16.319     0.7716837  0.8173467  24.62965   0.1843721  0.1993351  
  0.1694091 
1194.8     
  0.22       1          2          8.939895   17.811     1.215      
  1.2303     0.2139159  0.2139159  0.2790533  25.66847   15.51276   
  17.811     0.7782117  0.8246316  26.79649   0.197386   0.2117952  
  0.1829768 
1195       
  0.224      1          2          9.099778   15.272     1.218      
  1.223397   0.2111442  0.2111442  0.2822173  22.80663   13.00292   
  15.272     0.7588902  0.8108283  29.48733   0.2153729  0.2276219  
  0.2031238 
1195.2     
  0.23       1          2          9.284257   13.462     1.442      
  1.212866   0.2076501  0.2076501  0.2870437  19.64904   10.60722   
  13.462     0.7404411  0.7991138  32.8292    0.2405867  0.2473585  
  0.233815  
1195.4     
  0.238      1          2          9.482169   14.224     1.656      
  1.200897   0.201798   0.201798   0.292529   15.30902   8.525545   
  14.224     0.7406849  0.8044402  36.79796   0.2749422  0.2704389  
  0.2794455 
1195.6     
  0.246      -9999      -9999      9.685987   9.017      1.436      
  1.18999    0.1923311  0.1923311  0.2975278  10.22343   6.807881   
  9.017      0.6651135  0.7520188  41.06707   0.3187778  0.296461   
  0.3410946 
1195.8     
  0.257      -9999      -9999      9.895711   3.899      1.089      
  1.18147    0.1796528  0.1796528  0.3014323  5.953393   5.400947   
  3.899      0.4733112  0.615401   45.0723    0.3690286  0.3258534  
  0.4122039 
1196       
  0.269      -9999      -9999      10.11321   1.651      1.169      
  1.176125   0.1652828  0.1652828  0.303882   3.225498   4.248137   
  1.651      0.1523431  0.3921379  48.33442   0.4199975  0.3594179  
  0.4805771 
1196.2     
  0.267      -9999      -9999      10.33514   1.124      1.227      
  1.17489    0.1503075  0.1503075  0.304448   1.70301    3.325115   
  1.124      0          0.2365458  50.71898   0.4670925  0.397231   
  0.5369541 
1196.4     
  0.246      -9999      -9999      10.54451   1.08       1.278      
  1.177705   0.1175991  0.1175991  0.3031579  0.4220636  2.083352   
  1.08       0          0.1444284  52.35698   0.5622995  0.4807871  
  0.6438119 
1196.6     
  0.23       -9999      -9999      10.70567   1.08       1.424      
  1.182677   0.102421   0.102421   0.3008793  0.2209247  1.705498   
  1.08       0          0.09719475 53.40251   0.6013888  0.5217249  
  0.6810526 
1196.8     
  0.223      -9999      -9999      10.77736   1.048      1.514      
  1.186966   0.09405887 0.09405887 0.2989134  0.1546524  1.560247   
  1.048      0          0.05230809 53.93      0.6207715  0.5410367  
  0.7005062 
