~Version
 VERS              .         2.0                           : CWLS LOG ASCII STANDARD - VERSION 2.0
 WRAP              .         YES                            : ONE LINE PER DEPTH STEP
 DLM               .         SPACE                         : DELIMITING CHARACTER(SPACE TAB OR COMMA)
~Well Information
#_______________________________________________________________________________
#
#PARAMETER_NAME    .UNIT     VALUE                         : DESCRIPTION
#_______________________________________________________________________________
STRT               .M        980                           : First reference value
STOP               .M        1306.4                        : Last reference value
STEP               .M        0.2                           : Step increment
NULL               .         -9999                         : Missing value
COMP               .                                       : Company
WELL               .         1631                          : Well name
FLD                .         Узень                         : Field
LOC                .                                       : Location
CNTY               .                                       : County
STAT               .                                       : State
CTRY               .                                       : Country
SRVC               .                                       : Service Company
DATE               .         01.06.1971                    : Date
UWI                .                                       : Unique Well ID
Block              .         4                             : 
Cartographic_reference_system .         GCS_WGS_1984                  : ESRI,PE_10_3_1- <?xml version="1.0" encoding="utf-16"?><ILateBoundCoordinateReferenceSystem name="GCS_WGS_1984"><AuthorityCode>EPSG,4326</AuthorityCode></ILateBoundCoordinateReferenceSystem>
Category           .         Нефтяная                      : 
Condition          .         Ликвидированная               : 
EREF               .m        228.2                         : 100.8
Gorizont           .         15                            : 14
HZCS               .GCS_WGS_1984 WGS_1984_EASE-Grid_2.0_Global : ESRI,PE_10_3_1- <?xml version="1.0" encoding="utf-16"?><ILateBoundCoordinateReferenceSystem name="WGS_1984_EASE-Grid_2.0_Global"><AuthorityCode>EPSG,6933</AuthorityCode></ILateBoundCoordinateReferenceSystem>
Interpretator      .         Сагынбаева А.Н.               : 
Kupol              .         основной                      : osnovnoi
LATI               .dega     0.6416371796                  : GCS_WGS_1984
LONG               .dega     0.5621338066                  : GCS_WGS_1984
Mud                .         глинистый                     : 
Mud_density        .         1,22                          : 
Mud_resistivity    .         0                             : 
NGDU               .         НГДУ-1                        : 
ORIGINALWELLNAME   .         1631                          : 
Spud_date          .         1971                          : 1961
Viscosity          .         35                            : 
X                  .m        54238.2                       : 46154
Y                  .m        81854.1                       : 85761.93
YEAR               .         2018                          : 
~Parameter Information Block
#_______________________________________________________________________________
#
#PARAMETER_NAME    .UNIT     VALUE                         : DESCRIPTION
#_______________________________________________________________________________
SET                .         LQC_KAZNIPI_Petrel            : 
TLFamily_CALI      .         Caliper                       : 
TLFamily_COLL      .         Net Reservoir Flag            : 
TLFamily_CSAT      .         Fluid Code                    : 
TLFamily_DEPT      .         Measured Depth                : 
TLFamily_GR        .         Russian Gamma Ray             : 
TLFamily_LLS       .         Lateral Log Resistivity       : 
TLFamily_MINV      .         Micro Gradient Resistivity    : 
TLFamily_NGLD      .         Neutron Gamma                 : 
TLFamily_PHIE      .         Effective Porosity            : 
TLFamily_PHIEN     .         Effective Porosity            : 
TLFamily_PHIT      .         Porosity                      : 
TLFamily_PRMB      .         Permeability                  : 
TLFamily_PRMB_DGR  .         Permeability                  : 
TLFamily_RT        .         Formation Resistivity         : 
TLFamily_SOIL_ARCHIE .         Oil Saturation                : 
TLFamily_SOIL_DW   .         Oil Saturation                : 
TLFamily_SP        .         Spontaneous Potential         : 
TLFamily_VSH_FIN   .         Shale Volume                  : 
TLFamily_VSH_GR    .         Shale Volume                  : 
TLFamily_VSH_SP    .         Shale Volume                  : 
~Curve Information
#_______________________________________________________________________________
#
#LOGNAME           .UNIT     LOG_ID                        : DESCRIPTION
#_______________________________________________________________________________
DEPT               .M                                      : Колонка глубины 
CALI               .м                                      : Каверномер 
COLL               .unitless                               : Описание 
CSAT               .unitless                               :  
GR                 .uR/h                                   : Гамма каротаж 
LLS                .Ohmm                                   : Боковой каротаж 
MINV               .Ohmm                                   : Микро-градиент зонд 
NGLD               .u.e.                                   : Показания зонда НГК-60 аппаратуры ДРСТ-3-90 
PHIE               .v/v                                    : Описание 
PHIEN              .v/v                                    :  
PHIT               .v/v                                    : Описание 
PRMB               .mD                                     :  
PRMB_DGR           .mD                                     :  
RT                 .ohmm                                   : УЭС пласта 
SOIL_ARCHIE        .v/v                                    :  
SOIL_DW            .v/v                                    :  
SP                 .мВ                                     : Потенциал самополяризации 
VSH_FIN            .v/v                                    : Описание 
VSH_GR             .v/v                                    : Shale volume 
VSH_SP             .v/v                                    : Shale Volume 
~Ascii
# ...
1211       
  0.221      -9999      -9999      10.33346   1.276      1.091      
  1.258588   0.1231417  0.1231417  0.266089   0.5346151  2.707525   
  1.276      0          0.1705884  45.26273   0.4331737  0.4319967  
  0.4343507 
1211.2     
  0.22       1          2          10.20453   1.308      1.352      
  1.270608   0.1277773  0.1277773  0.2605805  0.6514845  3.177585   
  1.308      0          0.181821   43.81788   0.4024338  0.4046608  
  0.4002069 
1211.4     
  0.221      1          2          10.04843   1.962      1.934      
  1.280516   0.1337028  0.1337028  0.2560394  0.8387992  3.857277   
  1.962      0.07281254 0.3365231  42.31928   0.370717   0.3738661  
  0.3675679 
1211.6     
  0.223      1          2          9.911593   3.162      1.389      
  1.285353   0.1399606  0.1399606  0.2538229  1.095387   4.571614   
  3.162      0.2877951  0.4839763  41.00985   0.3450372  0.3488074  
  0.341267  
1211.8     
  0.222      1          2          9.811      3.518      1.38       
  1.283386   0.1466804  0.1466804  0.2547244  1.458929   5.179838   
  3.518      0.3496844  0.5208404  40.05538   0.3274063  0.3314629  
  0.3233496 
1212       
  0.222      1          2          9.735792   2.051      1.515      
  1.274917   0.1541639  0.1541639  0.2586053  2.007465   5.686869   
  2.051      0.1978332  0.3903904  39.52953   0.3164891  0.3190614  
  0.3139167 
1212.2     
  0.221      1          2          9.669339   1.467      1.656      
  1.262127   0.1619855  0.1619855  0.2644671  2.802351   6.176021   
  1.467      0.1008349  0.3028182  39.45532   0.3105502  0.3084902  
  0.3126103 
1212.4     
  0.221      1          2          9.601841   1.473      1.418      
  1.247959   0.1689968  0.1689968  0.2709604  3.77911    6.715962   
  1.473      0.135072   0.3258748  39.86226   0.3089804  0.2981112  
  0.3198497 
1212.6     
  0.221      1          2          9.531997   1.511      1.669      
  1.23473    0.173914   0.173914   0.2770235  4.66087    7.324415   
  1.511      0.1664328  0.3507013  40.79626   0.3124529  0.2877389  
  0.337167  
1212.8     
  0.22       1          2          9.469064   1.441      1.688      
  1.223416   0.1757301  0.1757301  0.2822085  5.036235   7.919733   
  1.441      0.1553472  0.3451707  42.27383   0.3226617  0.2787024  
  0.366621  
1213       
  0.221      1          2          9.43127    1.454      1.507      
  1.21369    0.174011   0.174011   0.286666   4.680187   8.300256   
  1.454      0.1516668  0.3515887  44.21587   0.3413788  0.2734126  
  0.409345  
1213.2     
  0.221      -9999      -9999      9.434923   1.48       1.528      
  1.204654   0.1691584  0.1691584  0.2908071  3.805242   8.262687   
  1.48       0.1377121  0.3555197  46.40762   0.3686323  0.2739195  
  0.4633452 
1213.4     
  0.221      -9999      -9999      9.485353   1.429      1.222      
  1.195841   0.1623584  0.1623584  0.2948463  2.84728    7.761156   
  1.429      0.091514   0.3388419  48.53392   0.4014782  0.2810137  
  0.5219428 
1213.6     
  0.221      -9999      -9999      9.576105   1.257      1.217      
  1.18776    0.1549674  0.1549674  0.2985498  2.077452   6.934047   
  1.257      0          0.2874459  50.31366   0.4350981  0.2942464  
  0.5759497 
1213.8     
  0.221      -9999      -9999      9.687266   1.105      1.874      
  1.181493   0.1478763  0.1478763  0.3014217  1.535276   6.040062   
  1.105      0          0.2305924  51.64008   0.4652891  0.311307   
  0.6192712 
1214       
  0.222      -9999      -9999      9.783117   1.473      2.331      
  1.177575   0.1418795  0.1418795  0.3032173  1.188805   5.362315   
  1.473      0          0.325405   52.56248   0.4889023  0.3268099  
  0.6509947 
1214.2     
  0.222      -9999      -9999      9.823226   2.47       2.166      
  1.175313   0.1387493  0.1387493  0.3042542  1.040238   5.101798   
  2.47       0.1941984  0.4757216  53.08435   0.5015299  0.3335241  
  0.6695358 
1214.4     
  0.222      -9999      -9999      9.790616   2.184      2          
  1.173859   0.1410231  0.1410231  0.3049204  1.146167   5.312616   
  2.184      0.1582963  0.446632   52.96513   0.4966584  0.3280549  
  0.6652619 
1214.6     
  0.222      -9999      -9999      9.709692   1.467      1.607      
  1.173919   0.1499808  0.1499808  0.3048927  1.679445   5.87419    
  1.467      0.03846608 0.3405212  51.77986   0.4694301  0.3148669  
  0.6239934 
1214.8     
  0.222      -9999      -9999      9.631496   1.34       1.683      
  1.177698   0.1632738  0.1632738  0.3031609  2.960639   6.473157   
  1.34       0.06825529 0.3301243  49.31826   0.4239002  0.3026275  
  0.5451729 
1215       
  0.22       8          2          9.601397   1.581      1.585      
  1.186815   0.1749168  0.1749168  0.2989825  4.864535   6.719671   
  1.581      0.1880362  0.3948901  46.04098   0.3759567  0.298044   
  0.4538694 
1215.2     
  0.216      8          2          9.638712   1.34       1.228      
  1.200619   0.1793423  0.1793423  0.2926564  5.875074   6.415421   
  1.34       0.1413989  0.3409273  43.04438   0.3433758  0.3037367  
  0.383015  
1215.4     
  0.215      8          2          9.728199   1.168      1.422      
  1.21655    0.1754575  0.1754575  0.285355   4.978018   5.74074    
  1.168      0.06659058 0.2769873  41.36545   0.3330227  0.3178354  
  0.34821   
1215.6     
  0.216      8          2          9.819791   1.588      1.494      
  1.231351   0.1664851  0.1664851  0.2785718  3.395212   5.123606   
  1.588      0.1540913  0.3575043  41.2719    0.3396564  0.3329437  
  0.3463692 
1215.8     
  0.22       8          2          9.853274   2.267      1.565      
  1.241746   0.157645   0.157645   0.2738078  2.328762   4.91495    
  2.267      0.2493932  0.4446664  42.21375   0.3520086  0.3386444  
  0.3653727 
1216       
  0.222      8          2          9.81489    2.61       1.782      
  1.244946   0.1533521  0.1533521  0.2723411  1.939147   5.154878   
  2.61       0.2803161  0.4750248  43.31875   0.3605727  0.3321174  
  0.3890281 
1216.2     
  0.222      8          2          9.762788   2.235      2.079      
  1.239639   0.1550607  0.1550607  0.2747734  2.085732   5.4994     
  2.235      0.2334126  0.438201   43.89986   0.3627656  0.3234586  
  0.4020727 
1216.4     
  0.219      8          2          9.775371   1.842      1.617      
  1.226905   0.1610771  0.1610771  0.2806095  2.695851   5.414145   
  1.842      0.1879634  0.3981361  43.7607    0.3622195  0.3255288  
  0.3989103 
1216.6     
  0.217      8          2          9.87725    1.327      1.156      
  1.209779   0.1678729  0.1678729  0.2884584  3.602231   4.770786   
  1.327      0.086357   0.3139698  43.27374   0.3654107  0.3427861  
  0.3880353 
1216.8     
  0.218      8          2          10.02448   1.632      1.272      
  1.191472   0.1725022  0.1725022  0.2968485  4.388513   3.973708   
  1.632      0.1903     0.3985188  43.10154   0.3768069  0.3693537  
  0.38426   
1217       
  0.22       8          2          10.14851   1.886      1.273      
  1.173808   0.1745838  0.1745838  0.3049437  4.795934   3.406519   
  1.886      0.251301   0.4520859  43.66427   0.3950302  0.3933271  
  0.3967333 
1217.2     
  0.225      -9999      -9999      10.20183   2.521      1.054      
  1.157793   0.1756957  0.1756957  0.3122835  5.028851   3.18829    
  2.521      0.3502234  0.5340046  44.82403   0.4139023  0.4041054  
  0.4236991 
1217.4     
  0.231      -9999      -9999      10.17176   2.032      0.917      
  1.145534   0.1770646  0.1770646  0.3179018  5.331184   3.309551   
  2.032      0.2858745  0.4880847  46.10714   0.4267793  0.3979927  
  0.4555659 
1217.6     
  0.231      -9999      -9999      10.0767    1.422      0.796      
  1.14044    0.177919   0.177919   0.3202363  5.529035   3.724212   
  1.422      0.1591842  0.3919162  47.15643   0.4312646  0.3792641  
  0.483265  
1217.8     
  0.234      -9999      -9999      9.952876   1.194      1.343      
  1.144239   0.1764929  0.1764929  0.3184953  5.202778   4.343176   
  1.194      0.0809065  0.3320787  47.92213   0.4303102  0.3561854  
  0.5044349 
