~Version
 VERS              .         2.0                           : CWLS LOG ASCII STANDARD - VERSION 2.0
 WRAP              .         YES                            : ONE LINE PER DEPTH STEP
 DLM               .         SPACE                         : DELIMITING CHARACTER(SPACE TAB OR COMMA)
~Well Information
#_______________________________________________________________________________
#
#PARAMETER_NAME    .UNIT     VALUE                         : DESCRIPTION
#_______________________________________________________________________________
STRT               .M        980                           : First reference value
STOP               .M        1306.4                        : Last reference value
STEP               .M        0.2                           : Step increment
NULL               .         -9999                         : Missing value
COMP               .                                       : Company
WELL               .         1631                          : Well name
FLD                .         Узень                         : Field
LOC                .                                       : Location
CNTY               .                                       : County
STAT               .                                       : State
CTRY               .                                       : Country
SRVC               .                                       : Service Company
DATE               .         01.06.1971                    : Date
UWI                .                                       : Unique Well ID
Block              .         4                             : 
Cartographic_reference_system .         GCS_WGS_1984                  : ESRI,PE_10_3_1- <?xml version="1.0" encoding="utf-16"?><ILateBoundCoordinateReferenceSystem name="GCS_WGS_1984"><AuthorityCode>EPSG,4326</AuthorityCode></ILateBoundCoordinateReferenceSystem>
Category           .         Нефтяная                      : 
Condition          .         Ликвидированная               : 
EREF               .m        228.2                         : 100.8
Gorizont           .         15                            : 14
HZCS               .GCS_WGS_1984 WGS_1984_EASE-Grid_2.0_Global : ESRI,PE_10_3_1- <?xml version="1.0" encoding="utf-16"?><ILateBoundCoordinateReferenceSystem name="WGS_1984_EASE-Grid_2.0_Global"><AuthorityCode>EPSG,6933</AuthorityCode></ILateBoundCoordinateReferenceSystem>
Interpretator      .         Сагынбаева А.Н.               : 
Kupol              .         основной                      : osnovnoi
LATI               .dega     0.6416371796                  : GCS_WGS_1984
LONG               .dega     0.5621338066                  : GCS_WGS_1984
Mud                .         глинистый                     : 
Mud_density        .         1,22                          : 
Mud_resistivity    .         0                             : 
NGDU               .         НГДУ-1                        : 
ORIGINALWELLNAME   .         1631                          : 
Spud_date          .         1971                          : 1961
Viscosity          .         35                            : 
X                  .m        54238.2                       : 46154
Y                  .m        81854.1                       : 85761.93
YEAR               .         2018                          : 
~Parameter Information Block
#_______________________________________________________________________________
#
#PARAMETER_NAME    .UNIT     VALUE                         : DESCRIPTION
#_______________________________________________________________________________
SET                .         LQC_KAZNIPI_Petrel            : 
TLFamily_CALI      .         Caliper                       : 
TLFamily_COLL      .         Net Reservoir Flag            : 
TLFamily_CSAT      .         Fluid Code                    : 
TLFamily_DEPT      .         Measured Depth                : 
TLFamily_GR        .         Russian Gamma Ray             : 
TLFamily_LLS       .         Lateral Log Resistivity       : 
TLFamily_MINV      .         Micro Gradient Resistivity    : 
TLFamily_NGLD      .         Neutron Gamma                 : 
TLFamily_PHIE      .         Effective Porosity            : 
TLFamily_PHIEN     .         Effective Porosity            : 
TLFamily_PHIT      .         Porosity                      : 
TLFamily_PRMB      .         Permeability                  : 
TLFamily_PRMB_DGR  .         Permeability                  : 
TLFamily_RT        .         Formation Resistivity         : 
TLFamily_SOIL_ARCHIE .         Oil Saturation                : 
TLFamily_SOIL_DW   .         Oil Saturation                : 
TLFamily_SP        .         Spontaneous Potential         : 
TLFamily_VSH_FIN   .         Shale Volume                  : 
TLFamily_VSH_GR    .         Shale Volume                  : 
TLFamily_VSH_SP    .         Shale Volume                  : 
~Curve Information
#_______________________________________________________________________________
#
#LOGNAME           .UNIT     LOG_ID                        : DESCRIPTION
#_______________________________________________________________________________
DEPT               .M                                      : Колонка глубины 
CALI               .м                                      : Каверномер 
COLL               .unitless                               : Описание 
CSAT               .unitless                               :  
GR                 .uR/h                                   : Гамма каротаж 
LLS                .Ohmm                                   : Боковой каротаж 
MINV               .Ohmm                                   : Микро-градиент зонд 
NGLD               .u.e.                                   : Показания зонда НГК-60 аппаратуры ДРСТ-3-90 
PHIE               .v/v                                    : Описание 
PHIEN              .v/v                                    :  
PHIT               .v/v                                    : Описание 
PRMB               .mD                                     :  
PRMB_DGR           .mD                                     :  
RT                 .ohmm                                   : УЭС пласта 
SOIL_ARCHIE        .v/v                                    :  
SOIL_DW            .v/v                                    :  
SP                 .мВ                                     : Потенциал самополяризации 
VSH_FIN            .v/v                                    : Описание 
VSH_GR             .v/v                                    : Shale volume 
VSH_SP             .v/v                                    : Shale Volume 
~Ascii
# ...
1225       
  0.214      1          2          8.922967   4.477      1.142      
  1.195827   0.2406939  0.2406939  0.2948523  80.42541   32.94045   
  4.477      0.6227229  0.6822292  27.7419    0.1641162  0.1557308  
  0.1725016 
1225.2     
  0.214      1          2          9.075928   3.111      1.133      
  1.189428   0.2368859  0.2368859  0.2977853  68.36917   25.94542   
  3.111      0.546187   0.6183956  30.75736   0.1845436  0.1716746  
  0.1974126 
1225.4     
  0.214      -9999      -9999      9.218945   2.007      1.179      
  1.184264   0.2319741  0.2319741  0.3001519  55.44739   20.75541   
  2.007      0.4322882  0.5228662  33.40778   0.2065994  0.1880553  
  0.2251435 
1225.6     
  0.214      -9999      -9999      9.322124   2.35       1.043      
  1.18194    0.228047   0.228047   0.3012169  46.89661   17.66857   
  2.35       0.4649036  0.5567962  34.83728   0.2217269  0.2008354  
  0.2426184 
1225.8     
  0.214      -9999      -9999      9.366328   1.708      1.085      
  1.184466   0.2262121  0.2262121  0.300059   43.3665    16.49082   
  1.708      0.3740807  0.4771996  34.70979   0.2237786  0.206573   
  0.2409842 
1226       
  0.214      -9999      -9999      9.353605   1.626      1.161      
  1.192442   0.2258162  0.2258162  0.2964039  42.6404    16.82152   
  1.626      0.3584835  0.4599569  33.21264   0.2139023  0.204905   
  0.2228996 
1226.2     
  0.214      1          2          9.304193   2.292      1.038      
  1.204261   0.2255322  0.2255322  0.290987   42.12708   18.16998   
  2.292      0.4533373  0.5400046  30.83489   0.198348   0.1985535  
  0.1981425 
1226.4     
  0.214      1          2          9.23712    3.061      0.977      
  1.217038   0.2248297  0.2248297  0.2851315  40.88372   20.17498   
  3.061      0.5214393  0.59672    28.11319   0.1827325  0.190246   
  0.175219  
1226.6     
  0.214      1          2          9.156539   4.127      1.09       
  1.227808   0.2243518  0.2243518  0.2801954  40.05877   22.87845   
  4.127      0.5832792  0.6488519  25.45298   0.169223   0.1807236  
  0.1577223 
1226.8     
  0.214      1          2          9.060612   4.191      1.004      
  1.234273   0.2251488  0.2251488  0.2772326  41.44382   26.57303   
  4.191      0.5875534  0.649928   23.08143   0.1578297  0.1700072  
  0.1456522 
1227       
  0.215      1          2          8.957781   3.81       1.036      
  1.235536   0.2276261  0.2276261  0.276654   46.06228   31.19857   
  3.81       0.572779   0.6341034  21.14661   0.1485695  0.1592242  
  0.1379148 
1227.2     
  0.215      1          2          8.869685   3.778      1.064      
  1.232812   0.2310325  0.2310325  0.2779024  53.26487   35.79656   
  3.778      0.576598   0.6358144  19.81045   0.14203    0.150532   
  0.1335279 
1227.4     
  0.215      1          2          8.819159   3.969      1.062      
  1.228642   0.2340104  0.2340104  0.2798133  60.47821   38.73341   
  3.969      0.5908737  0.6480054  19.2269    0.1387967  0.1457625  
  0.1318308 
1227.6     
  0.214      1          2          8.81747    4.191      1.103      
  1.22486    0.2356472  0.2356472  0.2815466  64.85098   38.83563   
  4.191      0.6036041  0.6596789  19.48715   0.1390889  0.1456057  
  0.1325721 
1227.8     
  0.214      1          2          8.860991   4.254      1.076      
  1.221826   0.2357716  0.2357716  0.282937   65.19599   36.28558   
  4.254      0.6065508  0.6632381  20.63539   0.1429253  0.1497003  
  0.1361503 
1228       
  0.214      1          2          8.940997   4.223      1.094      
  1.219385   0.2343112  0.2343112  0.2840561  61.25891   32.02652   
  4.223      0.6030557  0.6618775  22.6923    0.1507421  0.1575304  
  0.1439539 
1228.2     
  0.215      1          2          9.055231   3.969      1.106      
  1.21734    0.2308834  0.2308834  0.2849932  52.92726   26.7971    
  3.969      0.5860519  0.6497019  25.58941   0.163969   0.1694253  
  0.1585126 
1228.4     
  0.212      1          2          9.207087   3.429      1.04       
  1.215157   0.225053   0.225053   0.2859936  41.2748    21.14307   
  3.429      0.5466589  0.6197974  29.07442   0.1846686  0.1866396  
  0.1826975 
1228.6     
  0.212      1          2          9.394817   2.667      1.079      
  1.212235   0.2167742  0.2167742  0.2873328  28.99625   15.7737    
  2.667      0.4729896  0.5632243  32.70985   0.2138139  0.2103574  
  0.2172704 
1228.8     
  0.212      -9999      -9999      9.604592   1.568      1.083      
  1.209127   0.2066443  0.2066443  0.2887569  18.82399   11.36997   
  1.568      0.295032   0.4205425  35.92682   0.2488261  0.2404432  
  0.2572089 
1229       
  0.212      -9999      -9999      9.808901   1.245      1.083      
  1.20779    0.1962978  0.1962978  0.2893696  12.10791   8.265884   
  1.245      0.1784994  0.3365647  38.12461   0.2820359  0.2738762  
  0.2901956 
1229.2     
  0.213      -9999      -9999      9.966587   1.054      1.004      
  1.210049   0.1884927  0.1884927  0.2883345  8.679609   6.462756   
  1.054      0.07977074 0.2652963  38.85576   0.3025508  0.3028263  
  0.3022754 
1229.4     
  0.213      -9999      -9999      10.0326    1.295      0.997      
  1.215681   0.185955   0.185955   0.2857534  7.789259   5.830118   
  1.295      0.1546098  0.3299411  38.05046   0.3024194  0.3158367  
  0.2890021 
1229.6     
  0.213      -9999      -9999      9.983782   1.537      1.189      
  1.222168   0.1895084  0.1895084  0.2827803  9.063862   6.291641   
  1.537      0.2326696  0.3859226  36.06365   0.2826422  0.3061626  
  0.2591218 
1229.8     
  0.213      1          2          9.837025   2.578      1.089      
  1.22644    0.1976033  0.1976033  0.2808226  12.80118   7.910946   
  2.578      0.4195562  0.532055   33.44119   0.2521799  0.2788287  
  0.225531  
1230       
  0.213      1          2          9.634864   3.588      0.871      
  1.227107   0.2076645  0.2076645  0.2805169  19.66116   10.84533   
  3.588      0.5240039  0.6112143  30.64929   0.2207647  0.2451264  
  0.1964031 
1230.2     
  0.213      1          2          9.415199   4.762      0.963      
  1.225616   0.217291   0.217291   0.2812002  29.64252   15.27988   
  4.762      0.5993421  0.6693451  27.97829   0.1936641  0.2131074  
  0.1742209 
1230.4     
  0.213      1          2          9.199162   6.096      0.985      
  1.225237   0.2245967  0.2245967  0.281374   40.4794    21.40615   
  6.096      0.6533155  0.7119069  25.57097   0.1720524  0.1856996  
  0.1584052 
1230.6     
  0.212      1          2          8.998308   7.017      0.892      
  1.227866   0.2288704  0.2288704  0.280169   48.57272   29.28648   
  7.017      0.680751   0.7329546  23.48874   0.1554505  0.1633898  
  0.1475112 
1230.8     
  0.212      1          2          8.827174   8.128      0.997      
  1.231764   0.2310702  0.2310702  0.2783825  53.35048   38.25191   
  8.128      0.7045002  0.7519718  21.77353   0.1433707  0.1465089  
  0.1402326 
1231       
  0.212      1          2          8.710917   8.795      0.947      
  1.233026   0.2329697  0.2329697  0.277804   57.85261   45.86133   
  8.795      0.7172601  0.762108   20.49216   0.1358614  0.1360474  
  0.1356754 
1231.2     
  0.212      1          2          8.681318   8.699      0.981      
  1.229661   0.2353282  0.2353282  0.2793461  63.97467   48.02935   
  8.699      0.7182825  0.7625791  19.72446   0.1333876  0.1335054  
  0.1332698 
1231.4     
  0.212      1          2          8.756216   7.271      1.113      
  1.223872   0.237007   0.237007   0.2819993  68.72316   42.73118   
  7.271      0.6954427  0.7424952  19.51349   0.1363401  0.1400318  
  0.1326485 
1231.6     
  0.212      1          2          8.922814   5.747      1.142      
  1.219994   0.2360507  0.2360507  0.2837769  65.97647   32.9483    
  5.747      0.6587009  0.7109033  19.81253   0.1446249  0.1557157  
  0.1335341 
1231.8     
  0.212      1          2          9.145815   4.223      1.099      
  1.220112   0.2317275  0.2317275  0.2837227  54.86736   23.26456   
  4.223      0.5992038  0.6600517  20.47812   0.1575611  0.1794928  
  0.1356294 
