~Version
 VERS              .         2.0                           : CWLS LOG ASCII STANDARD - VERSION 2.0
 WRAP              .         YES                            : ONE LINE PER DEPTH STEP
 DLM               .         SPACE                         : DELIMITING CHARACTER(SPACE TAB OR COMMA)
~Well Information
#_______________________________________________________________________________
#
#PARAMETER_NAME    .UNIT     VALUE                         : DESCRIPTION
#_______________________________________________________________________________
STRT               .M        980                           : First reference value
STOP               .M        1306.4                        : Last reference value
STEP               .M        0.2                           : Step increment
NULL               .         -9999                         : Missing value
COMP               .                                       : Company
WELL               .         1631                          : Well name
FLD                .         Узень                         : Field
LOC                .                                       : Location
CNTY               .                                       : County
STAT               .                                       : State
CTRY               .                                       : Country
SRVC               .                                       : Service Company
DATE               .         01.06.1971                    : Date
UWI                .                                       : Unique Well ID
Block              .         4                             : 
Cartographic_reference_system .         GCS_WGS_1984                  : ESRI,PE_10_3_1- <?xml version="1.0" encoding="utf-16"?><ILateBoundCoordinateReferenceSystem name="GCS_WGS_1984"><AuthorityCode>EPSG,4326</AuthorityCode></ILateBoundCoordinateReferenceSystem>
Category           .         Нефтяная                      : 
Condition          .         Ликвидированная               : 
EREF               .m        228.2                         : 100.8
Gorizont           .         15                            : 14
HZCS               .GCS_WGS_1984 WGS_1984_EASE-Grid_2.0_Global : ESRI,PE_10_3_1- <?xml version="1.0" encoding="utf-16"?><ILateBoundCoordinateReferenceSystem name="WGS_1984_EASE-Grid_2.0_Global"><AuthorityCode>EPSG,6933</AuthorityCode></ILateBoundCoordinateReferenceSystem>
Interpretator      .         Сагынбаева А.Н.               : 
Kupol              .         основной                      : osnovnoi
LATI               .dega     0.6416371796                  : GCS_WGS_1984
LONG               .dega     0.5621338066                  : GCS_WGS_1984
Mud                .         глинистый                     : 
Mud_density        .         1,22                          : 
Mud_resistivity    .         0                             : 
NGDU               .         НГДУ-1                        : 
ORIGINALWELLNAME   .         1631                          : 
Spud_date          .         1971                          : 1961
Viscosity          .         35                            : 
X                  .m        54238.2                       : 46154
Y                  .m        81854.1                       : 85761.93
YEAR               .         2018                          : 
~Parameter Information Block
#_______________________________________________________________________________
#
#PARAMETER_NAME    .UNIT     VALUE                         : DESCRIPTION
#_______________________________________________________________________________
SET                .         LQC_KAZNIPI_Petrel            : 
TLFamily_CALI      .         Caliper                       : 
TLFamily_COLL      .         Net Reservoir Flag            : 
TLFamily_CSAT      .         Fluid Code                    : 
TLFamily_DEPT      .         Measured Depth                : 
TLFamily_GR        .         Russian Gamma Ray             : 
TLFamily_LLS       .         Lateral Log Resistivity       : 
TLFamily_MINV      .         Micro Gradient Resistivity    : 
TLFamily_NGLD      .         Neutron Gamma                 : 
TLFamily_PHIE      .         Effective Porosity            : 
TLFamily_PHIEN     .         Effective Porosity            : 
TLFamily_PHIT      .         Porosity                      : 
TLFamily_PRMB      .         Permeability                  : 
TLFamily_PRMB_DGR  .         Permeability                  : 
TLFamily_RT        .         Formation Resistivity         : 
TLFamily_SOIL_ARCHIE .         Oil Saturation                : 
TLFamily_SOIL_DW   .         Oil Saturation                : 
TLFamily_SP        .         Spontaneous Potential         : 
TLFamily_VSH_FIN   .         Shale Volume                  : 
TLFamily_VSH_GR    .         Shale Volume                  : 
TLFamily_VSH_SP    .         Shale Volume                  : 
~Curve Information
#_______________________________________________________________________________
#
#LOGNAME           .UNIT     LOG_ID                        : DESCRIPTION
#_______________________________________________________________________________
DEPT               .M                                      : Колонка глубины 
CALI               .м                                      : Каверномер 
COLL               .unitless                               : Описание 
CSAT               .unitless                               :  
GR                 .uR/h                                   : Гамма каротаж 
LLS                .Ohmm                                   : Боковой каротаж 
MINV               .Ohmm                                   : Микро-градиент зонд 
NGLD               .u.e.                                   : Показания зонда НГК-60 аппаратуры ДРСТ-3-90 
PHIE               .v/v                                    : Описание 
PHIEN              .v/v                                    :  
PHIT               .v/v                                    : Описание 
PRMB               .mD                                     :  
PRMB_DGR           .mD                                     :  
RT                 .ohmm                                   : УЭС пласта 
SOIL_ARCHIE        .v/v                                    :  
SOIL_DW            .v/v                                    :  
SP                 .мВ                                     : Потенциал самополяризации 
VSH_FIN            .v/v                                    : Описание 
VSH_GR             .v/v                                    : Shale volume 
VSH_SP             .v/v                                    : Shale Volume 
~Ascii
# ...
1127       
  0.268      -9999      -9999      9.320934   1.53       1.381      
  1.14379    0.1426732  0.1426732  0.3187008  1.229735   1.255931   
  1.53       0.001442637 0.3512892  52.64447   0.5334171  0.5911573  
  0.4756769 
1127.2     
  0.278      -9999      -9999      9.317669   1.41       2.383      
  1.142719   0.1436465  0.1436465  0.3191919  1.281857   1.259467   
  1.41       0          0.3266152  52.56032   0.5319558  0.590479   
  0.4734326 
1127.4     
  0.282      -9999      -9999      9.253957   1.422      1.954      
  1.145881   0.144861   0.144861   0.3177429  1.350005   1.330484   
  1.422      0          0.3296757  52.44485   0.5238844  0.5774001  
  0.4703687 
1127.6     
  0.28       -9999      -9999      9.150672   1.276      1.154      
  1.14969    0.1469687  0.1469687  0.3159973  1.476982   1.454216   
  1.276      0          0.2937865  52.3401    0.5122077  0.5568104  
  0.4676051 
1127.8     
  0.259      -9999      -9999      9.049263   1.149      0.802      
  1.150091   0.1502462  0.1502462  0.3158132  1.698569   1.58689    
  1.149      0          0.2617053  52.28385   0.5017181  0.5373091  
  0.4661271 
1128       
  0.254      -9999      -9999      8.9731     1.118      0.631      
  1.144279   0.1551803  0.1551803  0.3184772  2.096394   1.694436   
  1.118      0          0.2645305  52.30054   0.4948391  0.523113   
  0.4665651 
1128.2     
  0.258      -9999      -9999      8.92037    1.619      0.755      
  1.133235   0.1614265  0.1614265  0.3235382  2.736333   1.773133   
  1.619      0.1267499  0.4038271  52.39267   0.4912476  0.5135051  
  0.4689901 
1128.4     
  0.268      -9999      -9999      8.897346   2.019      1.198      
  1.121753   0.1667612  0.1667612  0.3288004  3.435422   1.808633   
  2.019      0.2346796  0.4779851  52.53241   0.4910278  0.5093653  
  0.4726903 
1128.6     
  0.283      -9999      -9999      8.927237   1.524      1.071      
  1.11454    0.16858    0.16858    0.3321065  3.712525   1.762682   
  1.524      0.1349101  0.4053351  52.66864   0.4955347  0.5147462  
  0.4763232 
1128.8     
  0.297      -9999      -9999      9.014059   1.219      0.829      
  1.112596   0.1664793  0.1664793  0.3329973  3.394368   1.635724   
  1.219      0.02878791 0.3329717  52.7498    0.5045999  0.5307001  
  0.4784997 
1129       
  0.29       -9999      -9999      9.12244    1.08       0.368      
  1.113619   0.1626324  0.1626324  0.3325285  2.880748   1.489995   
  1.08       0          0.2843448  52.74467   0.5148367  0.5513113  
  0.4783621 
1129.2     
  0.29       -9999      -9999      9.206988   1.086      0.215      
  1.114699   0.1597785  0.1597785  0.3320333  2.550611   1.385389   
  1.086      0          0.2808235  52.65745   0.5219841  0.5679443  
  0.476024  
1129.4     
  0.287      -9999      -9999      9.254065   1.111      0.46       
  1.114426   0.158856   0.158856   0.3321587  2.452208   1.33036    
  1.111      0          0.2875589  52.54018   0.5251595  0.577422   
  0.4728969 
1129.6     
  0.296      -9999      -9999      9.287638   1.086      0.277      
  1.113322   0.158496   0.158496   0.3326645  2.414839   1.292456   
  1.086      0          0.2794633  52.47961   0.5277835  0.5842777  
  0.4712892 
1129.8     
  0.292      -9999      -9999      9.33384    1.029      0.311      
  1.113086   0.1567422  0.1567422  0.3327726  2.240804   1.242053   
  1.029      0          0.2567934  52.54427   0.5334256  0.5938456  
  0.4730055 
1130       
  0.294      -9999      -9999      9.389033   1.01       0.343      
  1.115219   0.1529828  0.1529828  0.3317951  1.908848   1.184413   
  1.01       0          0.2415335  52.73975   0.5418553  0.6054808  
  0.4782298 
1130.2     
  0.284      -9999      -9999      9.4338     1.029      0.351      
  1.120009   0.1479395  0.1479395  0.3295997  1.53942    1.139632   
  1.029      0          0.2358838  53.02273   0.5504853  0.6150853  
  0.4858853 
1130.4     
  0.274      -9999      -9999      9.471244   1.08       0.342      
  1.12639    0.1421961  0.1421961  0.3266756  1.204969   1.103478   
  1.08       0          0.238804   53.34797   0.5590286  0.6232357  
  0.4948214 
1130.6     
  0.28       -9999      -9999      9.5271     1.143      0.619      
  1.132596   0.1357385  0.1357385  0.323831   0.9148808  1.051668   
  1.143      0          0.2430928  53.68936   0.5699773  0.6355949  
  0.5043597 
1130.8     
  0.271      -9999      -9999      9.604925   1.143      0.502      
  1.137316   0.1290641  0.1290641  0.3216679  0.6882365  0.98351    
  1.143      0          0.2257185  54.03104   0.583648   0.6532251  
  0.5140709 
1131       
  0.26       -9999      -9999      9.668488   1.2        0.513      
  1.14061    0.1235454  0.1235454  0.3201587  0.5438984  0.9311336  
  1.2        0          0.2299839  54.36111   0.5957979  0.6679863  
  0.5236095 
1131.2     
  0.257      -9999      -9999      9.683814   1.378      0.511      
  1.143629   0.1200596  0.1200596  0.3187747  0.4687625  0.9189274  
  1.378      0          0.2720041  54.67208   0.6021671  0.6715953  
  0.532739  
1131.4     
  0.271      -9999      -9999      9.652905   1.581      0.301      
  1.147394   0.1181333  0.1181333  0.3170494  0.4317904  0.9437101  
  1.581      0          0.3140228  54.95664   0.6027762  0.6643369  
  0.5412155 
1131.6     
  0.272      -9999      -9999      9.593291   1.848      0.585      
  1.151617   0.1172724  0.1172724  0.3151139  0.4162242  0.9934105  
  1.848      0          0.3613423  55.19745   0.5995197  0.6505588  
  0.5484806 
1131.8     
  0.278      -9999      -9999      9.510892   1.886      0.407      
  1.154815   0.1180265  0.1180265  0.3136481  0.4298288  1.066446   
  1.886      0          0.3673576  55.36552   0.5927926  0.6319836  
  0.5536017 
1132       
  0.266      -9999      -9999      9.411698   1.626      0.273      
  1.155855   0.1207752  0.1207752  0.3131718  0.4832903  1.161524   
  1.626      0          0.3235925  55.4345    0.5830201  0.6103246  
  0.5557155 
1132.2     
  0.284      -9999      -9999      9.317584   1.48       0.334      
  1.155548   0.1243585  0.1243585  0.3133124  0.5630924  1.259559   
  1.48       0          0.2986613  55.40182   0.5725874  0.5904614  
  0.5547133 
1132.4     
  0.285      -9999      -9999      9.249475   1.588      0.405      
  1.156082   0.1269453  0.1269453  0.3130677  0.6287705  1.335627   
  1.588      0          0.3276459  55.29749   0.5640075  0.5764912  
  0.5515237 
1132.6     
  0.28       -9999      -9999      9.202642   1.638      0.421      
  1.158553   0.1280191  0.1280191  0.3119353  0.6582382  1.390582   
  1.638      0          0.3385015  55.1673    0.5573218  0.5670772  
  0.5475664 
1132.8     
  0.271      -9999      -9999      9.152398   1.511      0.31       
  1.161611   0.1288531  0.1288531  0.3105336  0.682073   1.452056   
  1.511      0          0.3109361  55.04745   0.5505468  0.5571484  
  0.5439453 
1133       
  0.281      -9999      -9999      9.089866   1.403      0.291      
  1.1625     0.1309104  0.1309104  0.3101262  0.7446231  1.532375   
  1.403      0          0.28847    54.95355   0.5430782  0.5450338  
  0.5411227 
1133.2     
  0.275      -9999      -9999      9.04039    1.543      0.383      
  1.159077   0.1343586  0.1343586  0.3116948  0.8625906  1.599059   
  1.543      0          0.3301396  54.88698   0.5373826  0.5356356  
  0.5391296 
1133.4     
  0.282      -9999      -9999      9.03418    1.543      0.337      
  1.151679   0.1381403  0.1381403  0.3150854  1.013564   1.607632   
  1.543      0          0.3415041  54.84672   0.5361972  0.5344674  
  0.5379271 
1133.6     
  0.29       -9999      -9999      9.062942   1.403      0.291      
  1.143413   0.1410976  0.1410976  0.3188737  1.149814   1.568312   
  1.403      0          0.3199783  54.83347   0.5387155  0.5398991  
  0.5375319 
1133.8     
  0.28       -9999      -9999      9.081982   1.549      0.271      
  1.138135   0.1428459  0.1428459  0.3212927  1.238828   1.542812   
  1.549      0.008254824 0.3588313  54.84817   0.5407478  0.5435252  
  0.5379705 
