~Version
 VERS              .         2.0                           : CWLS LOG ASCII STANDARD - VERSION 2.0
 WRAP              .         YES                            : ONE LINE PER DEPTH STEP
 DLM               .         SPACE                         : DELIMITING CHARACTER(SPACE TAB OR COMMA)
~Well Information
#_______________________________________________________________________________
#
#PARAMETER_NAME    .UNIT     VALUE                         : DESCRIPTION
#_______________________________________________________________________________
STRT               .M        980                           : First reference value
STOP               .M        1306.4                        : Last reference value
STEP               .M        0.2                           : Step increment
NULL               .         -9999                         : Missing value
COMP               .                                       : Company
WELL               .         1631                          : Well name
FLD                .         Узень                         : Field
LOC                .                                       : Location
CNTY               .                                       : County
STAT               .                                       : State
CTRY               .                                       : Country
SRVC               .                                       : Service Company
DATE               .         01.06.1971                    : Date
UWI                .                                       : Unique Well ID
Block              .         4                             : 
Cartographic_reference_system .         GCS_WGS_1984                  : ESRI,PE_10_3_1- <?xml version="1.0" encoding="utf-16"?><ILateBoundCoordinateReferenceSystem name="GCS_WGS_1984"><AuthorityCode>EPSG,4326</AuthorityCode></ILateBoundCoordinateReferenceSystem>
Category           .         Нефтяная                      : 
Condition          .         Ликвидированная               : 
EREF               .m        228.2                         : 100.8
Gorizont           .         15                            : 14
HZCS               .GCS_WGS_1984 WGS_1984_EASE-Grid_2.0_Global : ESRI,PE_10_3_1- <?xml version="1.0" encoding="utf-16"?><ILateBoundCoordinateReferenceSystem name="WGS_1984_EASE-Grid_2.0_Global"><AuthorityCode>EPSG,6933</AuthorityCode></ILateBoundCoordinateReferenceSystem>
Interpretator      .         Сагынбаева А.Н.               : 
Kupol              .         основной                      : osnovnoi
LATI               .dega     0.6416371796                  : GCS_WGS_1984
LONG               .dega     0.5621338066                  : GCS_WGS_1984
Mud                .         глинистый                     : 
Mud_density        .         1,22                          : 
Mud_resistivity    .         0                             : 
NGDU               .         НГДУ-1                        : 
ORIGINALWELLNAME   .         1631                          : 
Spud_date          .         1971                          : 1961
Viscosity          .         35                            : 
X                  .m        54238.2                       : 46154
Y                  .m        81854.1                       : 85761.93
YEAR               .         2018                          : 
~Parameter Information Block
#_______________________________________________________________________________
#
#PARAMETER_NAME    .UNIT     VALUE                         : DESCRIPTION
#_______________________________________________________________________________
SET                .         LQC_KAZNIPI_Petrel            : 
TLFamily_CALI      .         Caliper                       : 
TLFamily_COLL      .         Net Reservoir Flag            : 
TLFamily_CSAT      .         Fluid Code                    : 
TLFamily_DEPT      .         Measured Depth                : 
TLFamily_GR        .         Russian Gamma Ray             : 
TLFamily_LLS       .         Lateral Log Resistivity       : 
TLFamily_MINV      .         Micro Gradient Resistivity    : 
TLFamily_NGLD      .         Neutron Gamma                 : 
TLFamily_PHIE      .         Effective Porosity            : 
TLFamily_PHIEN     .         Effective Porosity            : 
TLFamily_PHIT      .         Porosity                      : 
TLFamily_PRMB      .         Permeability                  : 
TLFamily_PRMB_DGR  .         Permeability                  : 
TLFamily_RT        .         Formation Resistivity         : 
TLFamily_SOIL_ARCHIE .         Oil Saturation                : 
TLFamily_SOIL_DW   .         Oil Saturation                : 
TLFamily_SP        .         Spontaneous Potential         : 
TLFamily_VSH_FIN   .         Shale Volume                  : 
TLFamily_VSH_GR    .         Shale Volume                  : 
TLFamily_VSH_SP    .         Shale Volume                  : 
~Curve Information
#_______________________________________________________________________________
#
#LOGNAME           .UNIT     LOG_ID                        : DESCRIPTION
#_______________________________________________________________________________
DEPT               .M                                      : Колонка глубины 
CALI               .м                                      : Каверномер 
COLL               .unitless                               : Описание 
CSAT               .unitless                               :  
GR                 .uR/h                                   : Гамма каротаж 
LLS                .Ohmm                                   : Боковой каротаж 
MINV               .Ohmm                                   : Микро-градиент зонд 
NGLD               .u.e.                                   : Показания зонда НГК-60 аппаратуры ДРСТ-3-90 
PHIE               .v/v                                    : Описание 
PHIEN              .v/v                                    :  
PHIT               .v/v                                    : Описание 
PRMB               .mD                                     :  
PRMB_DGR           .mD                                     :  
RT                 .ohmm                                   : УЭС пласта 
SOIL_ARCHIE        .v/v                                    :  
SOIL_DW            .v/v                                    :  
SP                 .мВ                                     : Потенциал самополяризации 
VSH_FIN            .v/v                                    : Описание 
VSH_GR             .v/v                                    : Shale volume 
VSH_SP             .v/v                                    : Shale Volume 
~Ascii
# ...
1246       
  0.213      1          2          9.707476   1.422      0.997      
  1.19262    0.2144348  0.2144348  0.2963222  26.24284   9.683448   
  1.422      0.2853554  0.4097993  34.59709   0.2481436  0.2567351  
  0.2395521 
1246.2     
  0.213      1          2          9.743126   1.353      1.082      
  1.19884    0.2094216  0.2094216  0.2934715  21.19111   9.159422   
  1.353      0.2532502  0.3854949  35.15516   0.2546966  0.2626342  
  0.246759  
1246.4     
  0.213      1          2          9.789447   1.295      1.174      
  1.203454   0.2053743  0.2053743  0.2913571  17.83154   8.52068    
  1.295      0.2246713  0.3640931  35.44415   0.260554   0.270502   
  0.2506059 
1246.6     
  0.214      1          2          9.828574   1.441      1.125      
  1.204887   0.2029953  0.2029953  0.2907002  16.11103   8.015963   
  1.441      0.2550589  0.3934501  35.70987   0.2657723  0.2773313  
  0.2542134 
1246.8     
  0.214      1          2          9.86242    1.6        1.02       
  1.205054   0.2008527  0.2008527  0.2906237  14.70405   7.603555   
  1.6        0.2841785  0.4217561  36.17479   0.2720333  0.2833777  
  0.260689  
1247       
  0.214      1          2          9.904741   1.594      1.079      
  1.20659    0.1972299  0.1972299  0.2899197  12.59897   7.117602   
  1.594      0.2714571  0.4154703  36.86084   0.2808781  0.2911239  
  0.2706323 
1247.2     
  0.214      1          2          9.95939    1.384      1.06       
  1.210218   0.1920064  0.1920064  0.2882571  10.08282   6.535756   
  1.384      0.2031101  0.3635757  37.60143   0.2916689  0.3014406  
  0.2818972 
1247.4     
  0.214      -9999      -9999      10.01645   1.334      1.158      
  1.214722   0.1864041  0.1864041  0.2861928  7.939878   5.978893   
  1.334      0.1680487  0.3410579  38.24692   0.3023902  0.3126037  
  0.2921767 
1247.6     
  0.214      -9999      -9999      10.07113   1.295      1.125      
  1.218262   0.1813637  0.1813637  0.2845707  6.404037   5.489879   
  1.295      0.1360003  0.3214085  38.82819   0.3127485  0.3236876  
  0.3018094 
1247.8     
  0.214      -9999      -9999      10.13402   1.556      1.104      
  1.219439   0.1767591  0.1767591  0.2840311  5.262179   4.976695   
  1.556      0.1893714  0.3737252  39.48948   0.3250666  0.3369224  
  0.3132109 
1248       
  0.214      -9999      -9999      10.21127   1.403      1.174      
  1.217872   0.1722848  0.1722848  0.2847492  4.348018   4.411484   
  1.403      0.1298101  0.3345911  40.29113   0.3408009  0.353923   
  0.3276789 
1248.2     
  0.214      -9999      -9999      10.28155   1.213      1.103      
  1.214188   0.1687227  0.1687227  0.2864375  3.735178   3.953222   
  1.213      0.05120436 0.2808818  41.11421   0.3567117  0.3701341  
  0.3432894 
1248.4     
  0.214      -9999      -9999      10.3071    1.124      1.189      
  1.209616   0.1679301  0.1679301  0.2885331  3.611023   3.798697   
  1.124      0.01262116 0.2548067  41.6921    0.3654638  0.3762096  
  0.354718  
1248.6     
  0.214      -9999      -9999      10.26978   1.054      1.149      
  1.20578    0.1712568  0.1712568  0.2902911  4.1615     4.026496   
  1.054      0          0.2392576  41.65891   0.3607098  0.3673688  
  0.3540509 
1248.8     
  0.213      -9999      -9999      10.18974   1.067      1.208      
  1.204302   0.17822    0.17822    0.2909684  5.600486   4.562246   
  1.067      0.03928407 0.2569772  40.64121   0.3416617  0.3490998  
  0.3342237 
1249       
  0.214      -9999      -9999      10.10751   1.238      1.157      
  1.205364   0.1869975  0.1869975  0.2904815  8.1434     5.18689    
  1.238      0.1407565  0.322859   38.47399   0.3135879  0.3312789  
  0.2958969 
1249.2     
  0.215      1          2          10.05328   1.53       1.2        
  1.206706   0.1957024  0.1957024  0.2898666  11.80435   5.644965   
  1.53       0.2522655  0.4013928  35.44859   0.285346   0.3200264  
  0.2506656 
1249.4     
  0.215      1          2          10.02737   1.822      1.177      
  1.205205   0.2034828  0.2034828  0.2905545  16.44949   5.877929   
  1.822      0.3341076  0.4609604  32.30762   0.2638538  0.3147851  
  0.2129225 
1249.6     
  0.215      1          2          10.00315   2.019      1.202      
  1.200088   0.2104865  0.2104865  0.2928999  22.1758    6.104312   
  2.019      0.3838585  0.4974428  29.88388   0.2497374  0.3099649  
  0.1895099 
1249.8     
  0.215      1          2          9.955419   1.924      1.219      
  1.193836   0.2165666  0.2165666  0.2957649  28.7407    6.576382   
  1.924      0.3852034  0.4941367  28.64944   0.2399948  0.3006787  
  0.1793109 
1250       
  0.214      1          2          9.889605   1.784      1.198      
  1.189589   0.2206645  0.2206645  0.2977114  34.22952   7.287733   
  1.784      0.3733318  0.4807464  28.56087   0.2334753  0.2883294  
  0.1786213 
1250.2     
  0.214      1          2          9.83818    1.768      1.116      
  1.188158   0.221917   0.221917   0.2983671  36.10766   7.896699   
  1.768      0.3737714  0.4803007  29.27002   0.2316668  0.279034   
  0.1842997 
1250.4     
  0.214      1          2          9.827371   1.753      1.204      
  1.187952   0.2206915  0.2206915  0.2984615  34.26889   8.031032   
  1.753      0.3682228  0.4769686  30.4116    0.2356666  0.2771187  
  0.1942144 
1250.6     
  0.214      1          2          9.854343   1.734      1.154      
  1.187521   0.2179969  0.2179969  0.298659   30.54843   7.7        
  1.734      0.3581527  0.4716111  31.73228   0.2444308  0.281923   
  0.2069386 
1250.8     
  0.214      1          2          9.89483    1.645      1.105      
  1.18726    0.2145307  0.2145307  0.2987786  26.35042   7.228551   
  1.645      0.3328362  0.4540006  33.07194   0.2552967  0.289291   
  0.2213023 
1251       
  0.214      1          2          9.921403   1.511      1.161      
  1.188501   0.2107761  0.2107761  0.2982101  22.45137   6.934916   
  1.511      0.2949377  0.4254724  34.28693   0.2649513  0.2942314  
  0.2356713 
1251.2     
  0.214      1          2          9.918864   1.384      1.13       
  1.191419   0.2076269  0.2076269  0.2968728  19.62963   6.962444   
  1.384      0.2555872  0.3943426  35.18319   0.2704422  0.2937558  
  0.2471287 
1251.4     
  0.213      -9999      -9999      9.894428   1.27       1.149      
  1.194165   0.2063776  0.2063776  0.2956143  18.61108   7.233081   
  1.27       0.2208602  0.3645822  35.51873   0.2704143  0.289217   
  0.2516116 
1251.6     
  0.214      -9999      -9999      9.872461   1.194      1.096      
  1.194103   0.2079321  0.2079321  0.2956424  19.88679   7.485334   
  1.194      0.2031934  0.346741   35.12643   0.2657888  0.2851967  
  0.2463808 
1251.8     
  0.214      -9999      -9999      9.869901   1.213      1.044      
  1.1904     0.2119112  0.2119112  0.2973397  23.56504   7.515307   
  1.213      0.2220255  0.3591044  34.07061   0.2588741  0.2847317  
  0.2330165 
1252       
  0.214      1          2          9.876538   1.499      1.076      
  1.18549    0.2166328  0.2166328  0.2995898  28.82189   7.437864   
  1.499      0.3089878  0.4312455  32.66981   0.251385   0.2859386  
  0.2168314 
1252.2     
  0.213      1          2          9.863892   1.842      1.148      
  1.183314   0.2203159  0.2203159  0.3005873  33.72431   7.586117   
  1.842      0.3818193  0.4915041  31.32328   0.2432466  0.2836435  
  0.2028496 
1252.4     
  0.212      1          2          9.810596   1.899      0.984      
  1.185867   0.2223103  0.2223103  0.2994172  36.71842   8.24404    
  1.899      0.3953613  0.4999408  30.29343   0.2336574  0.2741723  
  0.1931425 
1252.6     
  0.212      1          2          9.717612   1.822      1.068      
  1.191726   0.2231896  0.2231896  0.296732   38.12152   9.53147    
  1.822      0.3856179  0.4876499  29.62906   0.222856   0.2583988  
  0.1873132 
1252.8     
  0.212      1          2          9.606386   1.88       1.039      
  1.197512   0.2239873  0.2239873  0.2940801  39.4409    11.33818   
  1.88       0.3964649  0.4937376  29.24421   0.2124024  0.2407182  
  0.1840867 
