~Version
 VERS              .         2.0                           : CWLS LOG ASCII STANDARD - VERSION 2.0
 WRAP              .         YES                            : ONE LINE PER DEPTH STEP
 DLM               .         SPACE                         : DELIMITING CHARACTER(SPACE TAB OR COMMA)
~Well Information
#_______________________________________________________________________________
#
#PARAMETER_NAME    .UNIT     VALUE                         : DESCRIPTION
#_______________________________________________________________________________
STRT               .M        980                           : First reference value
STOP               .M        1306.4                        : Last reference value
STEP               .M        0.2                           : Step increment
NULL               .         -9999                         : Missing value
COMP               .                                       : Company
WELL               .         1631                          : Well name
FLD                .         Узень                         : Field
LOC                .                                       : Location
CNTY               .                                       : County
STAT               .                                       : State
CTRY               .                                       : Country
SRVC               .                                       : Service Company
DATE               .         01.06.1971                    : Date
UWI                .                                       : Unique Well ID
Block              .         4                             : 
Cartographic_reference_system .         GCS_WGS_1984                  : ESRI,PE_10_3_1- <?xml version="1.0" encoding="utf-16"?><ILateBoundCoordinateReferenceSystem name="GCS_WGS_1984"><AuthorityCode>EPSG,4326</AuthorityCode></ILateBoundCoordinateReferenceSystem>
Category           .         Нефтяная                      : 
Condition          .         Ликвидированная               : 
EREF               .m        228.2                         : 100.8
Gorizont           .         15                            : 14
HZCS               .GCS_WGS_1984 WGS_1984_EASE-Grid_2.0_Global : ESRI,PE_10_3_1- <?xml version="1.0" encoding="utf-16"?><ILateBoundCoordinateReferenceSystem name="WGS_1984_EASE-Grid_2.0_Global"><AuthorityCode>EPSG,6933</AuthorityCode></ILateBoundCoordinateReferenceSystem>
Interpretator      .         Сагынбаева А.Н.               : 
Kupol              .         основной                      : osnovnoi
LATI               .dega     0.6416371796                  : GCS_WGS_1984
LONG               .dega     0.5621338066                  : GCS_WGS_1984
Mud                .         глинистый                     : 
Mud_density        .         1,22                          : 
Mud_resistivity    .         0                             : 
NGDU               .         НГДУ-1                        : 
ORIGINALWELLNAME   .         1631                          : 
Spud_date          .         1971                          : 1961
Viscosity          .         35                            : 
X                  .m        54238.2                       : 46154
Y                  .m        81854.1                       : 85761.93
YEAR               .         2018                          : 
~Parameter Information Block
#_______________________________________________________________________________
#
#PARAMETER_NAME    .UNIT     VALUE                         : DESCRIPTION
#_______________________________________________________________________________
SET                .         LQC_KAZNIPI_Petrel            : 
TLFamily_CALI      .         Caliper                       : 
TLFamily_COLL      .         Net Reservoir Flag            : 
TLFamily_CSAT      .         Fluid Code                    : 
TLFamily_DEPT      .         Measured Depth                : 
TLFamily_GR        .         Russian Gamma Ray             : 
TLFamily_LLS       .         Lateral Log Resistivity       : 
TLFamily_MINV      .         Micro Gradient Resistivity    : 
TLFamily_NGLD      .         Neutron Gamma                 : 
TLFamily_PHIE      .         Effective Porosity            : 
TLFamily_PHIEN     .         Effective Porosity            : 
TLFamily_PHIT      .         Porosity                      : 
TLFamily_PRMB      .         Permeability                  : 
TLFamily_PRMB_DGR  .         Permeability                  : 
TLFamily_RT        .         Formation Resistivity         : 
TLFamily_SOIL_ARCHIE .         Oil Saturation                : 
TLFamily_SOIL_DW   .         Oil Saturation                : 
TLFamily_SP        .         Spontaneous Potential         : 
TLFamily_VSH_FIN   .         Shale Volume                  : 
TLFamily_VSH_GR    .         Shale Volume                  : 
TLFamily_VSH_SP    .         Shale Volume                  : 
~Curve Information
#_______________________________________________________________________________
#
#LOGNAME           .UNIT     LOG_ID                        : DESCRIPTION
#_______________________________________________________________________________
DEPT               .M                                      : Колонка глубины 
CALI               .м                                      : Каверномер 
COLL               .unitless                               : Описание 
CSAT               .unitless                               :  
GR                 .uR/h                                   : Гамма каротаж 
LLS                .Ohmm                                   : Боковой каротаж 
MINV               .Ohmm                                   : Микро-градиент зонд 
NGLD               .u.e.                                   : Показания зонда НГК-60 аппаратуры ДРСТ-3-90 
PHIE               .v/v                                    : Описание 
PHIEN              .v/v                                    :  
PHIT               .v/v                                    : Описание 
PRMB               .mD                                     :  
PRMB_DGR           .mD                                     :  
RT                 .ohmm                                   : УЭС пласта 
SOIL_ARCHIE        .v/v                                    :  
SOIL_DW            .v/v                                    :  
SP                 .мВ                                     : Потенциал самополяризации 
VSH_FIN            .v/v                                    : Описание 
VSH_GR             .v/v                                    : Shale volume 
VSH_SP             .v/v                                    : Shale Volume 
~Ascii
# ...
1050       
  0.305      -9999      -9999      6.926548   1.08       0.572      
  1.070445   0.1875106  0.1875106  0.352315   8.323551   2.972153   
  1.08       0.07319205 0.3462307  62.06541   0.4994075  0.4158564  
  0.5829586 
1050.2     
  0.297      -9999      -9999      6.927386   1.073      1.253      
  1.071883   0.184925   0.184925   0.3516561  7.454478   2.969633   
  1.073      0.05904907 0.3397923  62.42292   0.5052458  0.4160005  
  0.5944912 
1050.4     
  0.296      -9999      -9999      6.914467   1.105      0.879      
  1.072103   0.1837418  0.1837418  0.3515553  7.087656   3.008727   
  1.105      0.06673332 0.3476834  62.69102   0.5085256  0.4137848  
  0.6032664 
1050.6     
  0.277      -9999      -9999      6.868815   1.153      0.876      
  1.07409    0.1830959  0.1830959  0.3506448  6.895078   3.151041   
  1.153      0.08236106 0.3595169  62.87639   0.5077237  0.4060492  
  0.6093981 
1050.8     
  0.278      -9999      -9999      6.789729   1.2        1.235      
  1.078455   0.1826238  0.1826238  0.3486439  6.757627   3.4137     
  1.2        0.09737822 0.3693516  62.99033   0.5030912  0.3929891  
  0.6131933 
1051       
  0.276      -9999      -9999      6.690188   1.359      0.988      
  1.083478   0.1826268  0.1826268  0.3463421  6.758473   3.77563    
  1.359      0.1485844  0.4049903  63.04638   0.496107   0.3771465  
  0.6150674 
1051.2     
  0.283      -9999      -9999      6.586698   1.276      0.91       
  1.087528   0.1832907  0.1832907  0.3444859  6.95259    4.192667   
  1.276      0.1257974  0.3847952  63.06194   0.4884704  0.3613521  
  0.6155887 
1051.4     
  0.3        -9999      -9999      6.494077   1.06       0.613      
  1.090765   0.1840639  0.1840639  0.3430023  7.185687   4.604817   
  1.06       0.04979668 0.3243497  63.05885   0.4816316  0.3477782  
  0.615485  
1051.6     
  0.314      -9999      -9999      6.425149   0.991      1.153      
  1.094416   0.1840139  0.1840139  0.3413291  7.170386   4.937615   
  0.991      0.01907262 0.2990644  63.0568    0.4767126  0.3380087  
  0.6154164 
1051.8     
  0.272      -9999      -9999      6.390021   1.181      1.428      
  1.099124   0.1826091  0.1826091  0.3391714  6.753373   5.11637    
  1.181      0.09052864 0.3535     63.06607   0.4744315  0.3331358  
  0.6157271 
1052       
  0.286      -9999      -9999      6.392856   1.359      0.63       
  1.104518   0.1799527  0.1799527  0.3366993  6.030029   5.101708   
  1.359      0.137576   0.3911572  63.08772   0.4749896  0.3335264  
  0.6164528 
1052.2     
  0.302      -9999      -9999      6.426367   1.181      0.707      
  1.109543   0.1767205  0.1767205  0.3343966  5.253518   4.931531   
  1.181      0.06419062 0.3394946  63.11694   0.4778063  0.338179   
  0.6174337 
1052.4     
  0.295      -9999      -9999      6.470129   1.111      0.79       
  1.11236    0.1742532  0.1742532  0.3331054  4.728786   4.71782    
  1.111      0.02510489 0.3136508  63.14534   0.4813704  0.3443524  
  0.6183884 
1052.6     
  0.294      -9999      -9999      6.499419   1.111      0.455      
  1.110701   0.1742128  0.1742128  0.3338658  4.72064    4.57998    
  1.111      0.02490786 0.3145457  63.16491   0.483797   0.3485471  
  0.6190467 
1052.8     
  0.294      -9999      -9999      6.501366   1.022      0.602      
  1.103904   0.1772458  0.1772458  0.336981   5.372547   4.570961   
  1.022      0.001072508 0.2941189  63.17136   0.4840459  0.3488277  
  0.6192641 
1053       
  0.281      -9999      -9999      6.479288   0.959      1.409      
  1.094587   0.1820982  0.1820982  0.3412507  6.607815   4.674278   
  0.959      0          0.284448   63.16061   0.4822803  0.3456586  
  0.618902  
1053.2     
  0.271      -9999      -9999      6.439667   1.359      1.876      
  1.087107   0.1866617  0.1866617  0.3446791  8.027605   4.865576   
  1.359      0.1646365  0.4083077  63.123     0.4788404  0.3400434  
  0.6176375 
1053.4     
  0.28       -9999      -9999      6.387112   1.511      0.726      
  1.08375    0.1898087  0.1898087  0.3462173  9.180702   5.131461   
  1.511      0.2166707  0.4440288  63.05019   0.4739653  0.3327354  
  0.6151951 
1053.6     
  0.287      -9999      -9999      6.339663   1.022      0.598      
  1.082571   0.1919587  0.1919587  0.3467577  10.06232   5.383969   
  1.022      0.06809562 0.3276016  62.95166   0.4690878  0.3262726  
  0.6119031 
1053.8     
  0.294      -9999      -9999      6.333105   1.118      0.681      
  1.079639   0.1939666  0.1939666  0.3481014  10.962     5.419831   
  1.118      0.1146025  0.361245   62.8572    0.4670752  0.3253894  
  0.6087611 
1054       
  0.297      -9999      -9999      6.392645   1.105      0.57       
  1.073887   0.1955953  0.1955953  0.3507375  11.75055   5.102795   
  1.105      0.1161898  0.3625328  62.79677   0.4701277  0.3334975  
  0.606758  
1054.2     
  0.298      -9999      -9999      6.505107   1.105      1.283      
  1.068643   0.1954612  0.1954612  0.3531408  11.6835    4.553683   
  1.105      0.1156614  0.3649962  62.78191   0.477817   0.3493676  
  0.6062664 
1054.4     
  0.304      -9999      -9999      6.625128   1.143      0.773      
  1.067727   0.1928069  0.1928069  0.3535608  10.43303   4.032684   
  1.143      0.119155   0.3727345  62.80793   0.487133   0.3671385  
  0.6071275 
1054.6     
  0.287      -9999      -9999      6.699749   1.13       0.544      
  1.071177   0.1890299  0.1890299  0.3519797  8.880767   3.739264   
  1.13       0.09902228 0.3624977  62.86244   0.4937874  0.37864    
  0.6089348 
1054.8     
  0.309      -9999      -9999      6.697577   1.111      0.864      
  1.075511   0.1867212  0.1867212  0.3499933  8.047987   3.747494   
  1.111      0.08205193 0.3517454  62.93139   0.4947639  0.3783002  
  0.6112275 
1055       
  0.295      -9999      -9999      6.633399   1.01       0.608      
  1.077446   0.1870598  0.1870598  0.3491065  8.165062   3.999057   
  1.01       0.04157791 0.3195335  63.00566   0.4910506  0.3683959  
  0.6137054 
1055.2     
  0.307      -9999      -9999      6.562241   0.895      0.531      
  1.07672    0.1887121  0.1887121  0.3494391  8.761215   4.297772   
  0.895      0          0.2800346  63.08572   0.4870515  0.3577171  
  0.6163859 
1055.4     
  0.295      -9999      -9999      6.528494   0.832      0.704      
  1.075248   0.189712   0.189712   0.350114   9.142908   4.447136   
  0.832      0          0.2556906  63.17457   0.4860669  0.3527616  
  0.6193721 
1055.6     
  0.304      -9999      -9999      6.523593   0.889      0.678      
  1.07426    0.189748   0.189748   0.3505665  9.156968   4.469255   
  0.889      0          0.2805666  63.27049   0.4873286  0.3520477  
  0.6226096 
1055.8     
  0.299      -9999      -9999      6.507459   0.921      0.378      
  1.074056   0.1896378  0.1896378  0.35066    9.114023   4.542854   
  0.921      0.01103936 0.2931294  63.37591   0.4879459  0.3497075  
  0.6261844 
1056       
  0.317      -9999      -9999      6.464291   1.092      3.008      
  1.076365   0.1888638  0.1888638  0.349602   8.818092   4.745785   
  1.092      0.08374204 0.3485936  63.50685   0.4870854  0.3435223  
  0.6306485 
1056.2     
  0.293      -9999      -9999      6.422606   1.568      1.776      
  1.084094   0.18533    0.18533    0.3460596  7.584353   4.950345   
  1.568      0.2139863  0.4489508  63.67631   0.4870595  0.3376535  
  0.6364654 
1056.4     
  0.269      -9999      -9999      6.420867   1.962      0.695      
  1.097922   0.1779214  0.1779214  0.3397225  5.529611   4.959067   
  1.962      0.2668768  0.4938095  63.87093   0.4903062  0.3374109  
  0.6432015 
1056.6     
  0.267      -9999      -9999      6.461115   1.314      0.392      
  1.114268   0.1684155  0.1684155  0.332231   3.686571   4.761068   
  1.314      0.07179013 0.359483   64.05848   0.4964103  0.3430717  
  0.649749  
1056.8     
  0.291      -9999      -9999      6.499063   0.959      0.393      
  1.1271     0.1606908  0.1606908  0.3263503  2.651801   4.581632   
  0.959      0          0.2281542  64.22195   0.5019985  0.3484958  
  0.6555013 
