~Version
 VERS              .         2.0                           : CWLS LOG ASCII STANDARD - VERSION 2.0
 WRAP              .         YES                            : ONE LINE PER DEPTH STEP
 DLM               .         SPACE                         : DELIMITING CHARACTER(SPACE TAB OR COMMA)
~Well Information
#_______________________________________________________________________________
#
#PARAMETER_NAME    .UNIT     VALUE                         : DESCRIPTION
#_______________________________________________________________________________
STRT               .M        980                           : First reference value
STOP               .M        1306.4                        : Last reference value
STEP               .M        0.2                           : Step increment
NULL               .         -9999                         : Missing value
COMP               .                                       : Company
WELL               .         1631                          : Well name
FLD                .         Узень                         : Field
LOC                .                                       : Location
CNTY               .                                       : County
STAT               .                                       : State
CTRY               .                                       : Country
SRVC               .                                       : Service Company
DATE               .         01.06.1971                    : Date
UWI                .                                       : Unique Well ID
Block              .         4                             : 
Cartographic_reference_system .         GCS_WGS_1984                  : ESRI,PE_10_3_1- <?xml version="1.0" encoding="utf-16"?><ILateBoundCoordinateReferenceSystem name="GCS_WGS_1984"><AuthorityCode>EPSG,4326</AuthorityCode></ILateBoundCoordinateReferenceSystem>
Category           .         Нефтяная                      : 
Condition          .         Ликвидированная               : 
EREF               .m        228.2                         : 100.8
Gorizont           .         15                            : 14
HZCS               .GCS_WGS_1984 WGS_1984_EASE-Grid_2.0_Global : ESRI,PE_10_3_1- <?xml version="1.0" encoding="utf-16"?><ILateBoundCoordinateReferenceSystem name="WGS_1984_EASE-Grid_2.0_Global"><AuthorityCode>EPSG,6933</AuthorityCode></ILateBoundCoordinateReferenceSystem>
Interpretator      .         Сагынбаева А.Н.               : 
Kupol              .         основной                      : osnovnoi
LATI               .dega     0.6416371796                  : GCS_WGS_1984
LONG               .dega     0.5621338066                  : GCS_WGS_1984
Mud                .         глинистый                     : 
Mud_density        .         1,22                          : 
Mud_resistivity    .         0                             : 
NGDU               .         НГДУ-1                        : 
ORIGINALWELLNAME   .         1631                          : 
Spud_date          .         1971                          : 1961
Viscosity          .         35                            : 
X                  .m        54238.2                       : 46154
Y                  .m        81854.1                       : 85761.93
YEAR               .         2018                          : 
~Parameter Information Block
#_______________________________________________________________________________
#
#PARAMETER_NAME    .UNIT     VALUE                         : DESCRIPTION
#_______________________________________________________________________________
SET                .         LQC_KAZNIPI_Petrel            : 
TLFamily_CALI      .         Caliper                       : 
TLFamily_COLL      .         Net Reservoir Flag            : 
TLFamily_CSAT      .         Fluid Code                    : 
TLFamily_DEPT      .         Measured Depth                : 
TLFamily_GR        .         Russian Gamma Ray             : 
TLFamily_LLS       .         Lateral Log Resistivity       : 
TLFamily_MINV      .         Micro Gradient Resistivity    : 
TLFamily_NGLD      .         Neutron Gamma                 : 
TLFamily_PHIE      .         Effective Porosity            : 
TLFamily_PHIEN     .         Effective Porosity            : 
TLFamily_PHIT      .         Porosity                      : 
TLFamily_PRMB      .         Permeability                  : 
TLFamily_PRMB_DGR  .         Permeability                  : 
TLFamily_RT        .         Formation Resistivity         : 
TLFamily_SOIL_ARCHIE .         Oil Saturation                : 
TLFamily_SOIL_DW   .         Oil Saturation                : 
TLFamily_SP        .         Spontaneous Potential         : 
TLFamily_VSH_FIN   .         Shale Volume                  : 
TLFamily_VSH_GR    .         Shale Volume                  : 
TLFamily_VSH_SP    .         Shale Volume                  : 
~Curve Information
#_______________________________________________________________________________
#
#LOGNAME           .UNIT     LOG_ID                        : DESCRIPTION
#_______________________________________________________________________________
DEPT               .M                                      : Колонка глубины 
CALI               .м                                      : Каверномер 
COLL               .unitless                               : Описание 
CSAT               .unitless                               :  
GR                 .uR/h                                   : Гамма каротаж 
LLS                .Ohmm                                   : Боковой каротаж 
MINV               .Ohmm                                   : Микро-градиент зонд 
NGLD               .u.e.                                   : Показания зонда НГК-60 аппаратуры ДРСТ-3-90 
PHIE               .v/v                                    : Описание 
PHIEN              .v/v                                    :  
PHIT               .v/v                                    : Описание 
PRMB               .mD                                     :  
PRMB_DGR           .mD                                     :  
RT                 .ohmm                                   : УЭС пласта 
SOIL_ARCHIE        .v/v                                    :  
SOIL_DW            .v/v                                    :  
SP                 .мВ                                     : Потенциал самополяризации 
VSH_FIN            .v/v                                    : Описание 
VSH_GR             .v/v                                    : Shale volume 
VSH_SP             .v/v                                    : Shale Volume 
~Ascii
# ...
1085       
  0.287      -9999      -9999      9.0108     0.873      0.357      
  1.063428   0.2066747  0.2066747  0.3555308  18.84839   2.733076   
  0.873      0.0590937  0.3040074  52.49945   0.4510791  0.430343   
  0.4718152 
1085.2     
  0.282      -9999      -9999      9.11588    0.883      0.348      
  1.063598   0.2042096  0.2042096  0.3554531  16.96737   2.510085   
  0.883      0.05427714 0.3045658  52.47117   0.4583137  0.4455619  
  0.4710656 
1085.4     
  0.279      -9999      -9999      9.25491    0.851      0.31       
  1.063615   0.2008666  0.2008666  0.3554451  14.7128    2.242762   
  0.851      0.02381993 0.2869616  52.44269   0.4684198  0.466528   
  0.4703115 
1085.6     
  0.282      -9999      -9999      9.43274    0.826      0.448      
  1.062428   0.196844   0.196844   0.355989   12.39331   1.941909   
  0.826      0          0.271136   52.42052   0.4822575  0.4947897  
  0.4697254 
1085.8     
  0.277      -9999      -9999      9.638492   0.826      0.358      
  1.060135   0.1922042  0.1922042  0.3570403  10.16826   1.643816   
  0.826      0          0.265608   52.40724   0.4995032  0.5296318  
  0.4693747 
1086       
  0.291      -9999      -9999      9.858404   0.781      0.322      
  1.058614   0.1863171  0.1863171  0.3577374  7.910464   1.375613   
  0.781      0          0.2364533  52.40526   0.5194556  0.5695888  
  0.4693224 
1086.2     
  0.291      -9999      -9999      10.07986   0.794      0.381      
  1.05981    0.1785422  0.1785422  0.3571891  5.677976   1.149732   
  0.794      0          0.2294374  52.42466   0.541354   0.6128731  
  0.4698349 
1086.4     
  0.276      -9999      -9999      10.2898    0.819      0.4        
  1.063632   0.1692673  0.1692673  0.3554373  3.822951   0.9699435  
  0.819      0          0.2233074  52.4824    0.5641517  0.6569404  
  0.4713629 
1086.6     
  0.289      -9999      -9999      10.47141   0.775      0.279      
  1.068334   0.1599424  0.1599424  0.3532824  2.568497   0.83727    
  0.775      0          0.1812008  52.5873    0.5858789  0.6976068  
  0.474151  
1086.8     
  0.288      -9999      -9999      10.60132   0.749      0.458      
  1.07221    0.1525013  0.1525013  0.3515061  1.870044   0.7536441  
  0.749      0          0.1494838  52.72581   0.603045   0.7282345  
  0.4778555 
1087       
  0.294      -9999      -9999      10.65716   0.895      0.44       
  1.074456   0.1486193  0.1486193  0.3504767  1.584706   0.7203154  
  0.895      0          0.2130278  52.86367   0.611689   0.7418095  
  0.4815685 
1087.2     
  0.273      -9999      -9999      10.63825   1.149      0.346      
  1.07512    0.148639   0.148639   0.3501725  1.586034   0.7314366  
  1.149      0          0.3050914  52.96196   0.6107075  0.7371831  
  0.484232  
1087.4     
  0.251      -9999      -9999      10.57505   1.168      0.322      
  1.075085   0.1510326  0.1510326  0.3501885  1.756499   0.7698503  
  1.168      0          0.3148476  52.99279   0.6035027  0.7219352  
  0.4850702 
1087.6     
  0.267      -9999      -9999      10.50793   0.819      0.493      
  1.076226   0.1533331  0.1533331  0.3496657  1.93758    0.8128638  
  0.819      0          0.1856043  52.94641   0.5949473  0.7060848  
  0.4838098 
1087.8     
  0.28       -9999      -9999      10.45733   0.895      0.307      
  1.080792   0.1536522  0.1536522  0.3475731  1.96413    0.8468726  
  0.895      0          0.2186154  52.83936   0.587639   0.694366   
  0.480912  
1088       
  0.284      -9999      -9999      10.42051   1.022      0.607      
  1.089687   0.1514778  0.1514778  0.3434966  1.790168   0.8725089  
  1.022      0          0.2594194  52.72332   0.5818751  0.6859616  
  0.4777887 
1088.2     
  0.261      -9999      -9999      10.39125   1.175      0.345      
  1.100905   0.1476675  0.1476675  0.3383553  1.521665   0.8934323  
  1.175      0          0.2961031  52.66881   0.5778418  0.6793559  
  0.4763278 
1088.4     
  0.237      -9999      -9999      10.3714    2.159      0.367      
  1.110017   0.1440169  0.1440169  0.334179   1.302268   0.907908   
  2.159      0.1573568  0.4717628  52.71577   0.5762489  0.6749118  
  0.477586  
1088.6     
  0.235      -9999      -9999      10.36123   1.568      0.361      
  1.112776   0.1425835  0.1425835  0.3329148  1.225038   0.9154227  
  1.568      0.01233166 0.3763692  52.83815   0.5767616  0.672644   
  0.4808792 
1088.8     
  0.273      -9999      -9999      10.35013   1.226      0.264      
  1.108269   0.1444786  0.1444786  0.3349802  1.328168   0.9236904  
  1.226      0          0.3008984  52.96726   0.5772775  0.670179   
  0.4843761 
1089       
  0.293      -9999      -9999      10.32519   1.035      0.37       
  1.100162   0.1487344  0.1487344  0.3386957  1.5925     0.9425374  
  1.035      0          0.2524844  53.04917   0.5756403  0.6646742  
  0.4866064 
1089.2     
  0.31       -9999      -9999      10.28447   0.838      0.429      
  1.094407   0.1527225  0.1527225  0.3413333  1.887773   0.9741398  
  0.838      0          0.1814086  53.07504   0.5715479  0.6557834  
  0.4873126 
1089.4     
  0.287      -9999      -9999      10.23497   0.902      0.504      
  1.095121   0.1541958  0.1541958  0.3410061  2.010198   1.013994   
  0.902      0          0.2133453  53.06542   0.5660918  0.6451338  
  0.4870499 
1089.6     
  0.284      -9999      -9999      10.17816   1.124      0.382      
  1.101456   0.1533825  0.1533825  0.3381028  1.941666   1.061738   
  1.124      0          0.2901184  53.04127   0.5597586  0.6331264  
  0.4863909 
1089.8     
  0.266      -9999      -9999      10.10217   1.397      0.384      
  1.108075   0.1530755  0.1530755  0.3350691  1.916404   1.129141   
  1.397      0.01986155 0.3591723  53.0115    0.5514959  0.6174123  
  0.4855794 
1090       
  0.274      -9999      -9999      9.990513   1.283      0.388      
  1.109316   0.1563513  0.1563513  0.3345005  2.203757   1.23602    
  1.283      0          0.3359254  52.97788   0.5398461  0.5950276  
  0.4846646 
1090.2     
  0.289      -9999      -9999      9.834665   1.105      0.299      
  1.10398    0.163878   0.163878   0.3369458  3.037918   1.402318   
  1.105      0          0.3002752  52.94463   0.524448   0.5651343  
  0.4837615 
1090.4     
  0.288      -9999      -9999      9.638723   1.016      0.393      
  1.096322   0.1733483  0.1733483  0.3404558  4.549771   1.643508   
  1.016      0          0.2903873  52.92025   0.5063863  0.5296724  
  0.4831003 
1090.6     
  0.289      -9999      -9999      9.417846   1.124      0.321      
  1.092109   0.1814722  0.1814722  0.3423866  6.433726   1.965478   
  1.124      0.0640928  0.339505   52.91215   0.4876195  0.4923583  
  0.4828806 
1090.8     
  0.281      -9999      -9999      9.201365   1.232      0.466      
  1.093861   0.1862295  0.1862295  0.3415833  7.880979   2.342169   
  1.232      0.1235098  0.3745704  52.92392   0.4707693  0.4583389  
  0.4831997 
1091       
  0.28       -9999      -9999      9.034338   1.187      0.349      
  1.099522   0.1875604  0.1875604  0.3389889  8.341259   2.681464   
  1.187      0.1135856  0.361654   52.95498   0.4588743  0.4337062  
  0.4840423 
1091.2     
  0.274      -9999      -9999      8.959834   1.175      0.231      
  1.104996   0.1866021  0.1866021  0.3364803  8.007224   2.84826    
  1.175      0.1053666  0.3542049  52.99767   0.4541763  0.4231498  
  0.4852028 
1091.4     
  0.29       -9999      -9999      8.97971    0.984      0.363      
  1.108227   0.1844768  0.1844768  0.3349998  7.313332   2.802775   
  0.984      0.01795514 0.2892224  53.03868   0.4561303  0.4259405  
  0.4863201 
1091.6     
  0.296      -9999      -9999      9.036666   1.003      0.568      
  1.110798   0.1818236  0.1818236  0.3338211  6.530891   2.676412   
  1.003      0.0143716  0.2904567  53.06933   0.4605985  0.4340402  
  0.4871567 
1091.8     
  0.282      -9999      -9999      9.054914   1.194      0.329      
  1.115648   0.1790488  0.1790488  0.3315987  5.801985   2.637145   
  1.194      0.07953915 0.3430884  53.09568   0.4622723  0.4366678  
  0.4878768 
