~Version
 VERS              .         2.0                           : CWLS LOG ASCII STANDARD - VERSION 2.0
 WRAP              .         YES                            : ONE LINE PER DEPTH STEP
 DLM               .         SPACE                         : DELIMITING CHARACTER(SPACE TAB OR COMMA)
~Well Information
#_______________________________________________________________________________
#
#PARAMETER_NAME    .UNIT     VALUE                         : DESCRIPTION
#_______________________________________________________________________________
STRT               .M        980                           : First reference value
STOP               .M        1306.4                        : Last reference value
STEP               .M        0.2                           : Step increment
NULL               .         -9999                         : Missing value
COMP               .                                       : Company
WELL               .         1631                          : Well name
FLD                .         Узень                         : Field
LOC                .                                       : Location
CNTY               .                                       : County
STAT               .                                       : State
CTRY               .                                       : Country
SRVC               .                                       : Service Company
DATE               .         01.06.1971                    : Date
UWI                .                                       : Unique Well ID
Block              .         4                             : 
Cartographic_reference_system .         GCS_WGS_1984                  : ESRI,PE_10_3_1- <?xml version="1.0" encoding="utf-16"?><ILateBoundCoordinateReferenceSystem name="GCS_WGS_1984"><AuthorityCode>EPSG,4326</AuthorityCode></ILateBoundCoordinateReferenceSystem>
Category           .         Нефтяная                      : 
Condition          .         Ликвидированная               : 
EREF               .m        228.2                         : 100.8
Gorizont           .         15                            : 14
HZCS               .GCS_WGS_1984 WGS_1984_EASE-Grid_2.0_Global : ESRI,PE_10_3_1- <?xml version="1.0" encoding="utf-16"?><ILateBoundCoordinateReferenceSystem name="WGS_1984_EASE-Grid_2.0_Global"><AuthorityCode>EPSG,6933</AuthorityCode></ILateBoundCoordinateReferenceSystem>
Interpretator      .         Сагынбаева А.Н.               : 
Kupol              .         основной                      : osnovnoi
LATI               .dega     0.6416371796                  : GCS_WGS_1984
LONG               .dega     0.5621338066                  : GCS_WGS_1984
Mud                .         глинистый                     : 
Mud_density        .         1,22                          : 
Mud_resistivity    .         0                             : 
NGDU               .         НГДУ-1                        : 
ORIGINALWELLNAME   .         1631                          : 
Spud_date          .         1971                          : 1961
Viscosity          .         35                            : 
X                  .m        54238.2                       : 46154
Y                  .m        81854.1                       : 85761.93
YEAR               .         2018                          : 
~Parameter Information Block
#_______________________________________________________________________________
#
#PARAMETER_NAME    .UNIT     VALUE                         : DESCRIPTION
#_______________________________________________________________________________
SET                .         LQC_KAZNIPI_Petrel            : 
TLFamily_CALI      .         Caliper                       : 
TLFamily_COLL      .         Net Reservoir Flag            : 
TLFamily_CSAT      .         Fluid Code                    : 
TLFamily_DEPT      .         Measured Depth                : 
TLFamily_GR        .         Russian Gamma Ray             : 
TLFamily_LLS       .         Lateral Log Resistivity       : 
TLFamily_MINV      .         Micro Gradient Resistivity    : 
TLFamily_NGLD      .         Neutron Gamma                 : 
TLFamily_PHIE      .         Effective Porosity            : 
TLFamily_PHIEN     .         Effective Porosity            : 
TLFamily_PHIT      .         Porosity                      : 
TLFamily_PRMB      .         Permeability                  : 
TLFamily_PRMB_DGR  .         Permeability                  : 
TLFamily_RT        .         Formation Resistivity         : 
TLFamily_SOIL_ARCHIE .         Oil Saturation                : 
TLFamily_SOIL_DW   .         Oil Saturation                : 
TLFamily_SP        .         Spontaneous Potential         : 
TLFamily_VSH_FIN   .         Shale Volume                  : 
TLFamily_VSH_GR    .         Shale Volume                  : 
TLFamily_VSH_SP    .         Shale Volume                  : 
~Curve Information
#_______________________________________________________________________________
#
#LOGNAME           .UNIT     LOG_ID                        : DESCRIPTION
#_______________________________________________________________________________
DEPT               .M                                      : Колонка глубины 
CALI               .м                                      : Каверномер 
COLL               .unitless                               : Описание 
CSAT               .unitless                               :  
GR                 .uR/h                                   : Гамма каротаж 
LLS                .Ohmm                                   : Боковой каротаж 
MINV               .Ohmm                                   : Микро-градиент зонд 
NGLD               .u.e.                                   : Показания зонда НГК-60 аппаратуры ДРСТ-3-90 
PHIE               .v/v                                    : Описание 
PHIEN              .v/v                                    :  
PHIT               .v/v                                    : Описание 
PRMB               .mD                                     :  
PRMB_DGR           .mD                                     :  
RT                 .ohmm                                   : УЭС пласта 
SOIL_ARCHIE        .v/v                                    :  
SOIL_DW            .v/v                                    :  
SP                 .мВ                                     : Потенциал самополяризации 
VSH_FIN            .v/v                                    : Описание 
VSH_GR             .v/v                                    : Shale volume 
VSH_SP             .v/v                                    : Shale Volume 
~Ascii
# ...
1064       
  0.228      -9999      -9999      4.065774   1.918      3.742      
  1.304486   0.1791878  0.1791878  0.2450542  5.836468   53.80815   
  1.918      0.2635949  0.3793667  45.32391   0.1995951  0.1274533  
  0.271737  
1064.2     
  0.228      -9999      -9999      4.015815   1.835      2.737      
  1.306338   0.1787404  0.1787404  0.2442054  5.726172   56.59956   
  1.835      0.2465092  0.3635366  45.33547   0.1983788  0.1248481  
  0.2719094 
1064.4     
  0.228      -9999      -9999      3.978456   1.949      3.146      
  1.30972    0.1769402  0.1769402  0.2426554  5.302972   58.78119   
  1.949      0.2610354  0.3775174  45.56355   0.1991369  0.1229349  
  0.2753389 
1064.6     
  0.228      -9999      -9999      3.990682   1.924      3.381      
  1.314131   0.1737197  0.1737197  0.240634   4.622418   58.05812   
  1.924      0.2445556  0.3656008  45.99572   0.2027704  0.1235578  
  0.281983  
1064.8     
  0.228      -9999      -9999      4.081442   1.899      2.986      
  1.319474   0.1688357  0.1688357  0.2381851  3.753225   52.9614    
  1.899      0.2207897  0.3499807  46.62597   0.2101498  0.1282815  
  0.2920181 
1065       
  0.229      -9999      -9999      4.246021   1.81       2.983      
  1.324784   0.1626629  0.1626629  0.2357517  2.884495   44.83328   
  1.81       0.176762   0.3198102  47.44283   0.2214812  0.1373127  
  0.3056497 
1065.2     
  0.228      -9999      -9999      4.443299   2.343      3.202      
  1.327804   0.156513   0.156513   0.2343673  2.21901    36.7168    
  2.343      0.2457732  0.3905405  48.41752   0.2359219  0.1489799  
  0.3228639 
1065.4     
  0.227      -9999      -9999      4.639574   2.737      2.443      
  1.325907   0.1519114  0.1519114  0.235237   1.823586   30.10027   
  2.737      0.2803636  0.4304767  49.51036   0.2525019  0.1615714  
  0.3434323 
1065.6     
  0.226      -9999      -9999      4.846287   2.445      2.37       
  1.316942   0.1497603  0.1497603  0.2393454  1.663728   24.41665   
  2.445      0.2317553  0.4001613  50.67868   0.27147    0.175985   
  0.366955  
1065.8     
  0.226      -9999      -9999      5.092504   1.969      2.234      
  1.300311   0.1500416  0.1500416  0.2469674  1.683806   19.0298    
  1.969      0.1509836  0.3444874  51.86806   0.2937145  0.1948402  
  0.3925889 
1066       
  0.228      -9999      -9999      5.377246   1.943      2.231      
  1.278083   0.1519346  0.1519346  0.2571547  1.825392   14.26407   
  1.943      0.1549495  0.3591562  52.99566   0.3188486  0.2191785  
  0.4185187 
1066.2     
  0.229      -9999      -9999      5.672231   2.07       2.466      
  1.253893   0.1543855  0.1543855  0.2682406  2.026527   10.58157   
  2.07       0.1910417  0.3985541  53.97747   0.3450154  0.2476031  
  0.4424277 
1066.4     
  0.231      -9999      -9999      5.959904   2          2.038      
  1.229768   0.1568944  0.1568944  0.2792973  2.2554     7.908085   
  2          0.1893384  0.4066754  54.78187   0.3709178  0.27887    
  0.4629656 
1066.6     
  0.234      -9999      -9999      6.245878   1.486      1.347      
  1.204331   0.1599197  0.1599197  0.2909551  2.566011   5.920241   
  1.486      0.0834508  0.3335572  55.43518   0.397077   0.3138645  
  0.4802894 
1066.8     
  0.251      -9999      -9999      6.536288   1.111      0.802      
  1.174301   0.1646321  0.1646321  0.304718   3.137212   4.41222    
  1.111      0          0.2590891  55.97717   0.4245027  0.3538988  
  0.4951067 
1067       
  0.277      -9999      -9999      6.824122   0.876      0.463      
  1.13825    0.1717035  0.1717035  0.3212399  4.241531   3.296912   
  0.876      0          0.2051912  56.42525   0.4531406  0.398615   
  0.5076663 
1067.2     
  0.284      -9999      -9999      7.102865   0.743      0.528      
  1.099378   0.1798321  0.1798321  0.3390551  5.999075   2.486308   
  0.743      0          0.1798628  56.77584   0.4824939  0.447297   
  0.5176908 
1067.4     
  0.291      -9999      -9999      7.376043   0.711      0.437      
  1.06465    0.1857172  0.1857172  0.3549708  7.710642   1.885598   
  0.711      0          0.1949313  57.02798   0.5128899  0.500771   
  0.5250087 
1067.6     
  0.277      -9999      -9999      7.642998   0.749      0.489      
  1.04061    0.1862781  0.1862781  0.3659883  7.897319   1.43906    
  0.749      0          0.2310744  57.19667   0.5445765  0.5591975  
  0.5299554 
1067.8     
  0.276      -9999      -9999      7.887888   0.8        0.656      
  1.02929    0.1810737  0.1810737  0.3711762  6.325315   1.123078   
  0.8        0          0.2543395  57.31215   0.5760683  0.6187712  
  0.5333654 
1068       
  0.275      -9999      -9999      8.092417   0.851      0.635      
  1.027791   0.1722986  0.1722986  0.3718636  4.350564   0.9130329  
  0.851      0          0.2641032  57.40505   0.6047425  0.6733623  
  0.5361228 
1068.2     
  0.276      -9999      -9999      8.247627   0.914      0.746      
  1.031306   0.1628899  0.1628899  0.3702525  2.912549   0.7802727  
  0.914      0          0.2728347  57.49355   0.6283715  0.7179819  
  0.538761  
1068.4     
  0.277      -9999      -9999      8.348523   0.94       0.463      
  1.035481   0.155491   0.155491   0.3683392  2.124362   0.7045087  
  0.94       0          0.2681186  57.58263   0.6449945  0.748561   
  0.541428  
1068.6     
  0.293      -9999      -9999      8.391862   0.914      0.449      
  1.036765   0.1522126  0.1522126  0.3677508  1.847158   0.6742672  
  0.914      0          0.2511871  57.67479   0.6531461  0.7620926  
  0.5441995 
1068.8     
  0.304      -9999      -9999      8.385624   0.876      0.672      
  1.033062   0.1537293  0.1537293  0.3694478  1.970593   0.6785387  
  0.876      0          0.240114   57.77592   0.6536925  0.76013    
  0.5472552 
1069       
  0.294      -9999      -9999      8.348965   0.883      0.675      
  1.025307   0.1585959  0.1585959  0.3730018  2.425149   0.7041937  
  0.883      0          0.2562813  57.89042   0.649715   0.7486977  
  0.5507323 
1069.2     
  0.292      -9999      -9999      8.29948    0.902      0.602      
  1.017423   0.1640705  0.1640705  0.3766152  3.062965   0.7403696  
  0.902      0          0.2777466  58.0174    0.6440747  0.733538   
  0.5546115 
1069.4     
  0.28       -9999      -9999      8.245953   0.883      0.586      
  1.013579   0.1677924  0.1677924  0.3783769  3.589878   0.7815967  
  0.883      0          0.2782082  58.15316   0.638135   0.7174851  
  0.5587848 
1069.6     
  0.259      -9999      -9999      8.193943   0.876      0.715      
  1.015176   0.1688582  0.1688582  0.3776447  3.756828   0.8238521  
  0.876      0          0.2761654  58.29417   0.6326863  0.702224   
  0.5631486 
1069.8     
  0.256      -9999      -9999      8.155473   0.902      0.681      
  1.020065   0.1677135  0.1677135  0.3754041  3.577825   0.8565708  
  0.902      0          0.2821878  58.43659   0.6293653  0.6911449  
  0.5675856 
1070       
  0.27       -9999      -9999      8.149124   0.889      0.579      
  1.02454    0.1652418  0.1652418  0.3733531  3.21986    0.8620936  
  0.889      0          0.2704374  58.57565   0.6306404  0.6893335  
  0.5719472 
1070.2     
  0.285      -9999      -9999      8.186747   0.864      0.601      
  1.026056   0.1620819  0.1620819  0.3726584  2.813898   0.8298764  
  0.864      0          0.2537465  58.70668   0.6381106  0.7001381  
  0.5760831 
1070.4     
  0.294      -9999      -9999      8.255165   0.87       0.581      
  1.024824   0.1587015  0.1587015  0.3732231  2.4361     0.774341   
  0.87       0          0.2512096  58.82714   0.6500654  0.7202227  
  0.5799083 
1070.6     
  0.289      -9999      -9999      8.317211   0.902      0.483      
  1.02346    0.1556744  0.1556744  0.3738482  2.141047   0.7271985  
  0.902      0          0.2601596  58.93434   0.6611325  0.7389343  
  0.5833308 
1070.8     
  0.29       -9999      -9999      8.339422   0.914      0.542      
  1.024958   0.1533919  0.1533919  0.3731618  1.942442   0.7110297  
  0.914      0          0.2601804  59.02345   0.6659694  0.7457501  
  0.5861887 
