~Version
 VERS              .         2.0                           : CWLS LOG ASCII STANDARD - VERSION 2.0
 WRAP              .         YES                            : ONE LINE PER DEPTH STEP
 DLM               .         SPACE                         : DELIMITING CHARACTER(SPACE TAB OR COMMA)
~Well Information
#_______________________________________________________________________________
#
#PARAMETER_NAME    .UNIT     VALUE                         : DESCRIPTION
#_______________________________________________________________________________
STRT               .M        980                           : First reference value
STOP               .M        1306.4                        : Last reference value
STEP               .M        0.2                           : Step increment
NULL               .         -9999                         : Missing value
COMP               .                                       : Company
WELL               .         1631                          : Well name
FLD                .         Узень                         : Field
LOC                .                                       : Location
CNTY               .                                       : County
STAT               .                                       : State
CTRY               .                                       : Country
SRVC               .                                       : Service Company
DATE               .         01.06.1971                    : Date
UWI                .                                       : Unique Well ID
Block              .         4                             : 
Cartographic_reference_system .         GCS_WGS_1984                  : ESRI,PE_10_3_1- <?xml version="1.0" encoding="utf-16"?><ILateBoundCoordinateReferenceSystem name="GCS_WGS_1984"><AuthorityCode>EPSG,4326</AuthorityCode></ILateBoundCoordinateReferenceSystem>
Category           .         Нефтяная                      : 
Condition          .         Ликвидированная               : 
EREF               .m        228.2                         : 100.8
Gorizont           .         15                            : 14
HZCS               .GCS_WGS_1984 WGS_1984_EASE-Grid_2.0_Global : ESRI,PE_10_3_1- <?xml version="1.0" encoding="utf-16"?><ILateBoundCoordinateReferenceSystem name="WGS_1984_EASE-Grid_2.0_Global"><AuthorityCode>EPSG,6933</AuthorityCode></ILateBoundCoordinateReferenceSystem>
Interpretator      .         Сагынбаева А.Н.               : 
Kupol              .         основной                      : osnovnoi
LATI               .dega     0.6416371796                  : GCS_WGS_1984
LONG               .dega     0.5621338066                  : GCS_WGS_1984
Mud                .         глинистый                     : 
Mud_density        .         1,22                          : 
Mud_resistivity    .         0                             : 
NGDU               .         НГДУ-1                        : 
ORIGINALWELLNAME   .         1631                          : 
Spud_date          .         1971                          : 1961
Viscosity          .         35                            : 
X                  .m        54238.2                       : 46154
Y                  .m        81854.1                       : 85761.93
YEAR               .         2018                          : 
~Parameter Information Block
#_______________________________________________________________________________
#
#PARAMETER_NAME    .UNIT     VALUE                         : DESCRIPTION
#_______________________________________________________________________________
SET                .         LQC_KAZNIPI_Petrel            : 
TLFamily_CALI      .         Caliper                       : 
TLFamily_COLL      .         Net Reservoir Flag            : 
TLFamily_CSAT      .         Fluid Code                    : 
TLFamily_DEPT      .         Measured Depth                : 
TLFamily_GR        .         Russian Gamma Ray             : 
TLFamily_LLS       .         Lateral Log Resistivity       : 
TLFamily_MINV      .         Micro Gradient Resistivity    : 
TLFamily_NGLD      .         Neutron Gamma                 : 
TLFamily_PHIE      .         Effective Porosity            : 
TLFamily_PHIEN     .         Effective Porosity            : 
TLFamily_PHIT      .         Porosity                      : 
TLFamily_PRMB      .         Permeability                  : 
TLFamily_PRMB_DGR  .         Permeability                  : 
TLFamily_RT        .         Formation Resistivity         : 
TLFamily_SOIL_ARCHIE .         Oil Saturation                : 
TLFamily_SOIL_DW   .         Oil Saturation                : 
TLFamily_SP        .         Spontaneous Potential         : 
TLFamily_VSH_FIN   .         Shale Volume                  : 
TLFamily_VSH_GR    .         Shale Volume                  : 
TLFamily_VSH_SP    .         Shale Volume                  : 
~Curve Information
#_______________________________________________________________________________
#
#LOGNAME           .UNIT     LOG_ID                        : DESCRIPTION
#_______________________________________________________________________________
DEPT               .M                                      : Колонка глубины 
CALI               .м                                      : Каверномер 
COLL               .unitless                               : Описание 
CSAT               .unitless                               :  
GR                 .uR/h                                   : Гамма каротаж 
LLS                .Ohmm                                   : Боковой каротаж 
MINV               .Ohmm                                   : Микро-градиент зонд 
NGLD               .u.e.                                   : Показания зонда НГК-60 аппаратуры ДРСТ-3-90 
PHIE               .v/v                                    : Описание 
PHIEN              .v/v                                    :  
PHIT               .v/v                                    : Описание 
PRMB               .mD                                     :  
PRMB_DGR           .mD                                     :  
RT                 .ohmm                                   : УЭС пласта 
SOIL_ARCHIE        .v/v                                    :  
SOIL_DW            .v/v                                    :  
SP                 .мВ                                     : Потенциал самополяризации 
VSH_FIN            .v/v                                    : Описание 
VSH_GR             .v/v                                    : Shale volume 
VSH_SP             .v/v                                    : Shale Volume 
~Ascii
# ...
1288       
  0.227      1          5          9.064219   1.226      -9999      
  1.251781   0.1630478  0.1630478  0.2692086  2.932231   6.363583   
  1.226      0.04132788 0.2580259  34.66485   0.3216994  0.3047446  
  0.3386542 
1288.2     
  0.231      1          5          9.08911    1.2        -9999      
  1.242091   0.1622177  0.1622177  0.2736498  2.830244   6.206722   
  1.2        0.02732207 0.2557587  36.10586   0.337673   0.3078662  
  0.3674799 
1288.4     
  0.231      1          5          9.114971   1.105      -9999      
  1.235745   0.1598144  0.1598144  0.2765579  2.554519   6.04785    
  1.105      0          0.2246495  37.43995   0.3537681  0.3111432  
  0.396393  
1288.6     
  0.231      -9999      -9999      9.161696   1.054      -9999      
  1.234309   0.1541589  0.1541589  0.2772161  2.007033   5.77104    
  1.054      0          0.1957125  38.81998   0.3729008  0.3171529  
  0.4286488 
1288.8     
  0.23       -9999      -9999      9.234784   1.105      -9999      
  1.238482   0.1446783  0.1446783  0.2753038  1.339525   5.363241   
  1.105      0          0.1910807  40.25726   0.3958348  0.3267869  
  0.4648827 
1289       
  0.237      -9999      -9999      9.319483   1.149      -9999      
  1.247933   0.1323517  0.1323517  0.2709723  0.7918306  4.926571   
  1.149      0          0.17061    41.61946   0.4200625  0.338318   
  0.5018069 
1289.2     
  0.228      -9999      -9999      9.386275   1.175      -9999      
  1.261602   0.1196036  0.1196036  0.264708   0.4597341  4.607435   
  1.175      0          0.1348722  42.65862   0.4397103  0.3476975  
  0.5317231 
1289.4     
  0.229      -9999      -9999      9.403799   1.162      -9999      
  1.278274   0.1095182  0.1095182  0.2570668  0.2990201  4.527187   
  1.162      0          0.08400977 43.07127   0.4471171  0.3502011  
  0.5440332 
1289.6     
  0.223      -9999      -9999      9.353114   1.245      -9999      
  1.296919   0.1042985  0.1042985  0.2485219  0.2393425  4.763209   
  1.245      0          0.07946408 42.63656   0.4370404  0.3430087  
  0.5310721 
1289.8     
  0.223      -9999      -9999      9.232625   1.422      -9999      
  1.316599   0.1040671  0.1040671  0.2395028  0.2369918  5.374865   
  1.422      0          0.1178321  41.35093   0.4104113  0.3264981  
  0.4943245 
1290       
  0.223      -9999      -9999      9.048717   1.715      -9999      
  1.336336   0.1073063  0.1073063  0.230457   0.272102   6.463266   
  1.715      0          0.1868983  39.42437   0.3731839  0.3028165  
  0.4435514 
1290.2     
  0.223      -9999      -9999      8.80831    2.318      -9999      
  1.355163   0.1122658  0.1122658  0.2218289  0.3361963  8.225066   
  2.318      0.01595695 0.2965157  37.1349    0.3320093  0.2744304  
  0.3895882 
1290.4     
  0.224      -9999      -9999      8.527253   2.857      -9999      
  1.371778   0.1334962  0.1334962  0.2142143  0.83144    10.90255   
  2.857      0.2328288  0.3962257  34.68946   0.2446003  0.2446003  
  0.3391262 
1290.6     
  0.224      6          6          8.243712   4.54       -9999      
  1.383955   0.1367624  0.1367624  0.2086334  0.9557172  14.48766   
  4.54       0.3955521  0.5183158  32.19282   0.217791   0.217791   
  0.2947118 
1290.8     
  0.224      6          6          8.011909   10.446     -9999      
  1.388867   0.1410187  0.1410187  0.2063823  1.145952   18.27842   
  10.446     0.6019452  0.6844428  29.68546   0.1980717  0.1980717  
  0.2567621 
1291       
  0.218      6          6          7.874768   15.97      -9999      
  1.384566   0.1465586  0.1465586  0.2083533  1.451372   20.97289   
  15.97      0.6846035  0.7502355  27.14076   0.1872565  0.1872565  
  0.2244751 
1291.2     
  0.214      6          6          7.842328   10.573     -9999      
  1.370936   0.1536206  0.1536206  0.2145999  1.961479   21.6663    
  10.573     0.6326294  0.7041452  -9999      0.1847859  0.1847859  
  -9999     
1291.4     
  0.216      6          6          7.892696   6.445      -9999      
  1.349215   0.1623049  0.1623049  0.2245548  2.840784   20.59924   
  6.445      0.5582423  0.639321   -9999      0.1886361  0.1886361  
  -9999     
1291.6     
  0.218      6          6          7.991181   4.413      -9999      
  1.321581   0.1724081  0.1724081  0.2372194  4.370933   18.6623    
  4.413      0.4993536  0.5883455  -9999      0.1963978  0.1963978  
  -9999     
1291.8     
  0.222      6          6          8.111658   3.778      -9999      
  1.291198   0.1830556  0.1830556  0.251144   6.883218   16.53874   
  3.778      0.4888758  0.5802689  -9999      0.2063284  0.2063284  
  -9999     
1292       
  0.219      6          6          8.244682   3.08       -9999      
  1.261529   0.1928415  0.1928415  0.2647411  10.44841   14.47357   
  3.08       0.4624033  0.5588908  -9999      0.2178775  0.2178775  
  -9999     
1292.2     
  0.213      6          6          8.392863   2.953      -9999      
  1.235242   0.200392   0.200392   0.2767887  14.41796   12.47524   
  2.953      0.4697133  0.5680118  -9999      0.2315052  0.2315052  
  -9999     
1292.4     
  0.213      6          6          8.563735   2.642      -9999      
  1.213712   0.2047228  0.2047228  0.2866556  17.34285   10.51094   
  2.642      0.451593   0.5564891  -9999      0.2482812  0.2482812  
  -9999     
1292.6     
  0.212      6          6          8.763613   2.273      -9999      
  1.19731    0.2052529  0.2052529  0.2941727  17.73946   8.602071   
  2.273      0.4128037  0.5295112  -9999      0.2694539  0.2694539  
  -9999     
1292.8     
  0.212      6          6          8.98737    1.911      -9999      
  1.185995   0.2019077  0.2019077  0.2993585  15.38079   6.87331    
  1.911      0.3538214  0.4886223  -9999      0.2953054  0.2953054  
  -9999     
1293       
  0.212      -9999      -9999      9.213347   1.724      -9999      
  1.179803   0.1952989  0.1952989  0.3021962  11.60292   5.479767   
  1.724      0.301884   0.4571808  -9999      0.3239313  0.3239313  
  -9999     
1293.2     
  0.212      -9999      -9999      9.413654   1.537      -9999      
  1.178746   0.1866469  0.1866469  0.3026806  8.02254    4.482672   
  1.537      0.2335813  0.4149061  -9999      0.3516171  0.3516171  
  -9999     
1293.4     
  0.211      -9999      -9999      9.566097   1.207      -9999      
  1.182102   0.1776362  0.1776362  0.3011428  5.462753   3.847284   
  1.207      0.1037292  0.3243218  -9999      0.3742624  0.3742624  
  -9999     
1293.6     
  0.211      -9999      -9999      9.656359   1.251      -9999      
  1.188026   0.1702715  0.1702715  0.2984278  3.990251   3.514383   
  1.251      0.0855531  0.321237   -9999      0.3883522  0.3883522  
  -9999     
1293.8     
  0.211      -9999      -9999      9.680101   1.276      -9999      
  1.194073   0.1662483  0.1662483  0.2956564  3.361091   3.431706   
  1.276      0.07493847 0.3176439  -9999      0.3921457  0.3921457  
  -9999     
1294       
  0.213      -9999      -9999      9.651051   1.207      -9999      
  1.198162   0.1659043  0.1659043  0.2937823  3.312138   3.533137   
  1.207      0.04877395 0.2951463  -9999      0.3875091  0.3875091  
  -9999     
1294.2     
  0.214      -9999      -9999      9.601141   1.187      -9999      
  1.199488   0.1678834  0.1678834  0.2931748  3.603841   3.714446   
  1.187      0.05113695 0.2917273  -9999      0.3796709  0.3796709  
  -9999     
1294.4     
  0.215      -9999      -9999      9.561701   1.105      -9999      
  1.198896   0.1701615  0.1701615  0.2934459  3.971564   3.864281   
  1.105      0.03017355 0.2702886  -9999      0.3735893  0.3735893  
  -9999     
1294.6     
  0.215      -9999      -9999      9.540821   1.003      -9999      
  1.198298   0.1714849  0.1714849  0.2937199  4.202176   3.946035   
  1.003      0          0.2368948  -9999      0.3704092  0.3704092  
  -9999     
1294.8     
  0.215      -9999      -9999      9.523083   1.2        -9999      
  1.199378   0.1718747  0.1718747  0.2932252  4.272614   4.016848   
  1.2        0.07509666 0.3022762  -9999      0.3677288  0.3677288  
  -9999     
