~Version
 VERS              .         2.0                           : CWLS LOG ASCII STANDARD - VERSION 2.0
 WRAP              .         YES                            : ONE LINE PER DEPTH STEP
 DLM               .         SPACE                         : DELIMITING CHARACTER(SPACE TAB OR COMMA)
~Well Information
#_______________________________________________________________________________
#
#PARAMETER_NAME    .UNIT     VALUE                         : DESCRIPTION
#_______________________________________________________________________________
STRT               .M        980                           : First reference value
STOP               .M        1306.4                        : Last reference value
STEP               .M        0.2                           : Step increment
NULL               .         -9999                         : Missing value
COMP               .                                       : Company
WELL               .         1631                          : Well name
FLD                .         Узень                         : Field
LOC                .                                       : Location
CNTY               .                                       : County
STAT               .                                       : State
CTRY               .                                       : Country
SRVC               .                                       : Service Company
DATE               .         01.06.1971                    : Date
UWI                .                                       : Unique Well ID
Block              .         4                             : 
Cartographic_reference_system .         GCS_WGS_1984                  : ESRI,PE_10_3_1- <?xml version="1.0" encoding="utf-16"?><ILateBoundCoordinateReferenceSystem name="GCS_WGS_1984"><AuthorityCode>EPSG,4326</AuthorityCode></ILateBoundCoordinateReferenceSystem>
Category           .         Нефтяная                      : 
Condition          .         Ликвидированная               : 
EREF               .m        228.2                         : 100.8
Gorizont           .         15                            : 14
HZCS               .GCS_WGS_1984 WGS_1984_EASE-Grid_2.0_Global : ESRI,PE_10_3_1- <?xml version="1.0" encoding="utf-16"?><ILateBoundCoordinateReferenceSystem name="WGS_1984_EASE-Grid_2.0_Global"><AuthorityCode>EPSG,6933</AuthorityCode></ILateBoundCoordinateReferenceSystem>
Interpretator      .         Сагынбаева А.Н.               : 
Kupol              .         основной                      : osnovnoi
LATI               .dega     0.6416371796                  : GCS_WGS_1984
LONG               .dega     0.5621338066                  : GCS_WGS_1984
Mud                .         глинистый                     : 
Mud_density        .         1,22                          : 
Mud_resistivity    .         0                             : 
NGDU               .         НГДУ-1                        : 
ORIGINALWELLNAME   .         1631                          : 
Spud_date          .         1971                          : 1961
Viscosity          .         35                            : 
X                  .m        54238.2                       : 46154
Y                  .m        81854.1                       : 85761.93
YEAR               .         2018                          : 
~Parameter Information Block
#_______________________________________________________________________________
#
#PARAMETER_NAME    .UNIT     VALUE                         : DESCRIPTION
#_______________________________________________________________________________
SET                .         LQC_KAZNIPI_Petrel            : 
TLFamily_CALI      .         Caliper                       : 
TLFamily_COLL      .         Net Reservoir Flag            : 
TLFamily_CSAT      .         Fluid Code                    : 
TLFamily_DEPT      .         Measured Depth                : 
TLFamily_GR        .         Russian Gamma Ray             : 
TLFamily_LLS       .         Lateral Log Resistivity       : 
TLFamily_MINV      .         Micro Gradient Resistivity    : 
TLFamily_NGLD      .         Neutron Gamma                 : 
TLFamily_PHIE      .         Effective Porosity            : 
TLFamily_PHIEN     .         Effective Porosity            : 
TLFamily_PHIT      .         Porosity                      : 
TLFamily_PRMB      .         Permeability                  : 
TLFamily_PRMB_DGR  .         Permeability                  : 
TLFamily_RT        .         Formation Resistivity         : 
TLFamily_SOIL_ARCHIE .         Oil Saturation                : 
TLFamily_SOIL_DW   .         Oil Saturation                : 
TLFamily_SP        .         Spontaneous Potential         : 
TLFamily_VSH_FIN   .         Shale Volume                  : 
TLFamily_VSH_GR    .         Shale Volume                  : 
TLFamily_VSH_SP    .         Shale Volume                  : 
~Curve Information
#_______________________________________________________________________________
#
#LOGNAME           .UNIT     LOG_ID                        : DESCRIPTION
#_______________________________________________________________________________
DEPT               .M                                      : Колонка глубины 
CALI               .м                                      : Каверномер 
COLL               .unitless                               : Описание 
CSAT               .unitless                               :  
GR                 .uR/h                                   : Гамма каротаж 
LLS                .Ohmm                                   : Боковой каротаж 
MINV               .Ohmm                                   : Микро-градиент зонд 
NGLD               .u.e.                                   : Показания зонда НГК-60 аппаратуры ДРСТ-3-90 
PHIE               .v/v                                    : Описание 
PHIEN              .v/v                                    :  
PHIT               .v/v                                    : Описание 
PRMB               .mD                                     :  
PRMB_DGR           .mD                                     :  
RT                 .ohmm                                   : УЭС пласта 
SOIL_ARCHIE        .v/v                                    :  
SOIL_DW            .v/v                                    :  
SP                 .мВ                                     : Потенциал самополяризации 
VSH_FIN            .v/v                                    : Описание 
VSH_GR             .v/v                                    : Shale volume 
VSH_SP             .v/v                                    : Shale Volume 
~Ascii
# ...
1106       
  0.289      -9999      -9999      10.25028   1.105      0.538      
  1.133033   0.1154533  0.1154533  0.3236309  0.3851531  1.001495   
  1.105      0          0.1836864  57.23112   0.6308412  0.6484094  
  0.613273  
1106.2     
  0.287      -9999      -9999      10.35447   1.099      0.759      
  1.12961    0.1140719  0.1140719  0.3251998  0.363117   0.9204462  
  1.099      0          0.180574   57.08534   0.6397815  0.6711425  
  0.6084206 
1106.4     
  0.281      -9999      -9999      10.45742   1.13       1.146      
  1.130318   0.1108034  0.1108034  0.3248754  0.3158676  0.8468052  
  1.13       0          0.1831334  56.92187   0.6487032  0.6943886  
  0.6030177 
1106.6     
  0.278      -9999      -9999      10.56559   1.13       0.961      
  1.135283   0.1053393  0.1053393  0.3226     0.2502054  0.7757757  
  1.13       0          0.1649341  56.73994   0.6583658  0.7196785  
  0.5970531 
1106.8     
  0.277      -9999      -9999      10.66398   1.086      1.499      
  1.141576   0.09969276 0.09969276 0.3197156  0.1966572  0.7163514  
  1.086      0          0.1269277  56.52247   0.666736   0.7434829  
  0.5899891 
1107       
  0.266      -9999      -9999      10.7207    1.149      1.666      
  1.145273   0.09705428 0.09705428 0.3180214  0.1757271  0.6841834  
  1.149      0          0.1404874  56.26228   0.6695971  0.7575629  
  0.5816314 
1107.2     
  0.279      -9999      -9999      10.71324   1.276      1.526      
  1.144209   0.09930459 0.09930459 0.3185092  0.1934283  0.6883287  
  1.276      0          0.191464   55.98435   0.6642565  0.7556967  
  0.5728163 
1107.4     
  0.268      -9999      -9999      10.64811   1.384      1.041      
  1.139153   0.1055684  0.1055684  0.320826   0.2526621  0.7256187  
  1.384      0          0.243267   55.73484   0.6522958  0.7395908  
  0.5650008 
1107.6     
  0.257      -9999      -9999      10.55388   1.295      0.527      
  1.133406   0.1128696  0.1128696  0.3234602  0.3449664  0.7831678  
  1.295      0          0.2396778  55.5545    0.6381533  0.7168971  
  0.5594095 
1107.8     
  0.27       -9999      -9999      10.46505   1.162      0.603      
  1.131057   0.1177989  0.1177989  0.3245365  0.4256767  0.8415917  
  1.162      0          0.2110134  55.47024   0.6264775  0.6961418  
  0.5568133 
1108       
  0.281      -9999      -9999      10.41365   1.118      0.648      
  1.134593   0.1179705  0.1179705  0.3229162  0.4288025  0.8773687  
  1.118      0          0.1934474  55.49867   0.6210478  0.6844075  
  0.5576881 
1108.2     
  0.259      -9999      -9999      10.4163    1.099      1.02       
  1.143556   0.1130381  0.1130381  0.3188082  0.347454   0.8754847  
  1.099      0          0.1672879  55.64094   0.6235459  0.6850086  
  0.5620833 
1108.4     
  0.27       -9999      -9999      10.4557    1.099      0.806      
  1.155546   0.1048733  0.1048733  0.3133133  0.2452826  0.8479884  
  1.099      0          0.1355318  55.87183   0.6316364  0.6939927  
  0.5692801 
1108.6     
  0.263      -9999      -9999      10.48443   1.092      1.011      
  1.168171   0.09658684 0.09658684 0.3075271  0.1722585  0.8284813  
  1.092      0          0.0970249  56.14214   0.6392129  0.7006192  
  0.5778067 
1108.8     
  0.28       -9999      -9999      10.4647    1.048      0.688      
  1.180173   0.09051365 0.09051365 0.3020265  0.1329507  0.8418262  
  1.048      0          0.04659576 56.3935    0.6409481  0.6960626  
  0.5858337 
1109       
  0.275      -9999      -9999      10.40551   1.01       1.855      
  1.191365   0.08667141 0.08667141 0.2968975  0.1128555  0.8831679  
  1.01       0          0.00341633 56.57005   0.6370487  0.6825688  
  0.5915285 
1109.2     
  0.278      -9999      -9999      10.35172   0.997      1.824      
  1.201723   0.08359644 0.08359644 0.2921503  0.09898444 0.9225005  
  0.997      0          0          56.6287    0.6319813  0.6705319  
  0.5934306 
1109.4     
  0.282      -9999      -9999      10.33383   1.048      4.087      
  1.21008    0.08080766 0.08080766 0.2883205  0.08788442 0.9359671  
  1.048      0          0          56.55614   0.6288269  0.6665756  
  0.5910782 
1109.6     
  0.277      -9999      -9999      10.3387    1.549      1.824      
  1.213707   0.07982245 0.07982245 0.2866581  0.08426815 0.9322779  
  1.549      0          0.1535461  56.39551   0.6267748  0.6676514  
  0.5858983 
1109.8     
  0.25       -9999      -9999      10.33341   2.445      1.035      
  1.21007    0.08245796 0.08245796 0.2883249  0.09429301 0.9362795  
  2.445      0          0.3359635  56.24857   0.6238393  0.6664847  
  0.5811938 
1110       
  0.253      -9999      -9999      10.30259   2.146      0.784      
  1.199534   0.08857524 0.08857524 0.2931536  0.1224014  0.9599498  
  2.146      0          0.3154423  56.21564   0.6199343  0.6597245  
  0.5801439 
1110.2     
  0.267      -9999      -9999      10.25153   1.727      1.204      
  1.186229   0.095985   0.095985   0.2992514  0.1678932  1.000484   
  1.727      0          0.2673607  56.31263   0.6159587  0.6486768  
  0.5832406 
1110.4     
  0.288      -9999      -9999      10.18396   1.238      1.408      
  1.175724   0.1023678  0.1023678  0.3040657  0.220424   1.056768   
  1.238      0          0.1624083  56.46303   0.6112057  0.6343405  
  0.5880709 
1110.6     
  0.277      -9999      -9999      10.09295   1.086      1.026      
  1.171596   0.1067754  0.1067754  0.3059576  0.2660101  1.137604   
  1.086      0          0.1222753  56.57325   0.6035824  0.6155326  
  0.5916322 
1110.8     
  0.289      -9999      -9999      9.980699   1.168      2.081      
  1.17343    0.1095383  0.1095383  0.3051172  0.2992767  1.245884   
  1.168      0          0.1596997  56.59162   0.5926634  0.5930993  
  0.5922275 
1111       
  0.279      -9999      -9999      9.876265   1.334      2.142      
  1.177508   0.1114839  0.1114839  0.303248   0.3251701  1.355857   
  1.334      0          0.2154879  56.49937   0.5811032  0.5729634  
  0.589243  
1111.2     
  0.282      -9999      -9999      9.82098    1.556      2.491      
  1.180044   0.1131514  0.1131514  0.302086   0.3491381  1.417949   
  1.556      0          0.2756425  56.2887    0.5725289  0.5625823  
  0.5824755 
1111.4     
  0.271      -9999      -9999      9.8313     1.594      3.257      
  1.180126   0.1144687  0.1144687  0.3020483  0.3693148  1.406147   
  1.594      0          0.2872254  55.96924   0.568423   0.5645057  
  0.5723404 
1111.6     
  0.257      -9999      -9999      9.885325   1.48       2.498      
  1.179305   0.1151383  0.1151383  0.3024243  0.3800127  1.345942   
  1.48       0          0.2624158  55.58605   0.5675335  0.574683   
  0.560384  
1111.8     
  0.238      -9999      -9999      9.950185   2.461      1.884      
  1.178348   0.1154143  0.1154143  0.3028629  0.3845125  1.27706    
  2.461      0.03903544 0.4290341  55.21154   0.5680262  0.5871438  
  0.5489085 
1112       
  0.229      -9999      -9999      10.01075   2.007      1.294      
  1.175701   0.116146   0.116146   0.3040764  0.3967006  1.21593    
  2.007      0          0.3707921  54.91441   0.5694863  0.5990226  
  0.5399501 
1112.2     
  0.231      -9999      -9999      10.06843   1.689      1.036      
  1.169674   0.1178631  0.1178631  0.3068383  0.4268435  1.160429   
  1.689      0          0.3216594  54.73976   0.572652   0.6105597  
  0.5347444 
1112.4     
  0.238      -9999      -9999      10.11709   1.473      0.966      
  1.160937   0.1203575  0.1203575  0.3108425  0.4747561  1.115583   
  1.473      0          0.2850358  54.71432   0.5772275  0.6204653  
  0.5339897 
1112.6     
  0.25       -9999      -9999      10.12507   1.346      1.114      
  1.152441   0.1232976  0.1232976  0.3147363  0.5381812  1.108389   
  1.346      0          0.2644262  54.85346   0.5801174  0.6221066  
  0.5381283 
1112.8     
  0.255      -9999      -9999      10.04481   1.238      0.599      
  1.147465   0.1267663  0.1267663  0.3170167  0.6239908  1.182836   
  1.238      0          0.2441708  55.15594   0.5765162  0.6058102  
  0.5472222 
