~Version
 VERS              .         2.0                           : CWLS LOG ASCII STANDARD - VERSION 2.0
 WRAP              .         YES                            : ONE LINE PER DEPTH STEP
 DLM               .         SPACE                         : DELIMITING CHARACTER(SPACE TAB OR COMMA)
~Well Information
#_______________________________________________________________________________
#
#PARAMETER_NAME    .UNIT     VALUE                         : DESCRIPTION
#_______________________________________________________________________________
STRT               .M        980                           : First reference value
STOP               .M        1306.4                        : Last reference value
STEP               .M        0.2                           : Step increment
NULL               .         -9999                         : Missing value
COMP               .                                       : Company
WELL               .         1631                          : Well name
FLD                .         Узень                         : Field
LOC                .                                       : Location
CNTY               .                                       : County
STAT               .                                       : State
CTRY               .                                       : Country
SRVC               .                                       : Service Company
DATE               .         01.06.1971                    : Date
UWI                .                                       : Unique Well ID
Block              .         4                             : 
Cartographic_reference_system .         GCS_WGS_1984                  : ESRI,PE_10_3_1- <?xml version="1.0" encoding="utf-16"?><ILateBoundCoordinateReferenceSystem name="GCS_WGS_1984"><AuthorityCode>EPSG,4326</AuthorityCode></ILateBoundCoordinateReferenceSystem>
Category           .         Нефтяная                      : 
Condition          .         Ликвидированная               : 
EREF               .m        228.2                         : 100.8
Gorizont           .         15                            : 14
HZCS               .GCS_WGS_1984 WGS_1984_EASE-Grid_2.0_Global : ESRI,PE_10_3_1- <?xml version="1.0" encoding="utf-16"?><ILateBoundCoordinateReferenceSystem name="WGS_1984_EASE-Grid_2.0_Global"><AuthorityCode>EPSG,6933</AuthorityCode></ILateBoundCoordinateReferenceSystem>
Interpretator      .         Сагынбаева А.Н.               : 
Kupol              .         основной                      : osnovnoi
LATI               .dega     0.6416371796                  : GCS_WGS_1984
LONG               .dega     0.5621338066                  : GCS_WGS_1984
Mud                .         глинистый                     : 
Mud_density        .         1,22                          : 
Mud_resistivity    .         0                             : 
NGDU               .         НГДУ-1                        : 
ORIGINALWELLNAME   .         1631                          : 
Spud_date          .         1971                          : 1961
Viscosity          .         35                            : 
X                  .m        54238.2                       : 46154
Y                  .m        81854.1                       : 85761.93
YEAR               .         2018                          : 
~Parameter Information Block
#_______________________________________________________________________________
#
#PARAMETER_NAME    .UNIT     VALUE                         : DESCRIPTION
#_______________________________________________________________________________
SET                .         LQC_KAZNIPI_Petrel            : 
TLFamily_CALI      .         Caliper                       : 
TLFamily_COLL      .         Net Reservoir Flag            : 
TLFamily_CSAT      .         Fluid Code                    : 
TLFamily_DEPT      .         Measured Depth                : 
TLFamily_GR        .         Russian Gamma Ray             : 
TLFamily_LLS       .         Lateral Log Resistivity       : 
TLFamily_MINV      .         Micro Gradient Resistivity    : 
TLFamily_NGLD      .         Neutron Gamma                 : 
TLFamily_PHIE      .         Effective Porosity            : 
TLFamily_PHIEN     .         Effective Porosity            : 
TLFamily_PHIT      .         Porosity                      : 
TLFamily_PRMB      .         Permeability                  : 
TLFamily_PRMB_DGR  .         Permeability                  : 
TLFamily_RT        .         Formation Resistivity         : 
TLFamily_SOIL_ARCHIE .         Oil Saturation                : 
TLFamily_SOIL_DW   .         Oil Saturation                : 
TLFamily_SP        .         Spontaneous Potential         : 
TLFamily_VSH_FIN   .         Shale Volume                  : 
TLFamily_VSH_GR    .         Shale Volume                  : 
TLFamily_VSH_SP    .         Shale Volume                  : 
~Curve Information
#_______________________________________________________________________________
#
#LOGNAME           .UNIT     LOG_ID                        : DESCRIPTION
#_______________________________________________________________________________
DEPT               .M                                      : Колонка глубины 
CALI               .м                                      : Каверномер 
COLL               .unitless                               : Описание 
CSAT               .unitless                               :  
GR                 .uR/h                                   : Гамма каротаж 
LLS                .Ohmm                                   : Боковой каротаж 
MINV               .Ohmm                                   : Микро-градиент зонд 
NGLD               .u.e.                                   : Показания зонда НГК-60 аппаратуры ДРСТ-3-90 
PHIE               .v/v                                    : Описание 
PHIEN              .v/v                                    :  
PHIT               .v/v                                    : Описание 
PRMB               .mD                                     :  
PRMB_DGR           .mD                                     :  
RT                 .ohmm                                   : УЭС пласта 
SOIL_ARCHIE        .v/v                                    :  
SOIL_DW            .v/v                                    :  
SP                 .мВ                                     : Потенциал самополяризации 
VSH_FIN            .v/v                                    : Описание 
VSH_GR             .v/v                                    : Shale volume 
VSH_SP             .v/v                                    : Shale Volume 
~Ascii
# ...
987        
  0.292      -9999      -9999      8.230251   1.854      1.259      
  1.197979   -9999      -9999      -9999      -9999      -9999      
  1.854      -9999      -9999      47.21573   -9999      0.276791   
  0.7225614 
987.2000000000001 
  0.261      -9999      -9999      7.969312   1.912      1.049      
  1.197206   -9999      -9999      -9999      -9999      -9999      
  1.912      -9999      -9999      46.6296    -9999      0.2237881  
  0.7057341 
987.4      
  0.23       -9999      -9999      7.705406   2          1.005      
  1.193613   -9999      -9999      -9999      -9999      -9999      
  2          -9999      -9999      45.73259   -9999      0.1841068  
  0.6776037 
987.6      
  0.23       -9999      -9999      7.458224   1.988      0.831      
  1.189037   -9999      -9999      -9999      -9999      -9999      
  1.988      -9999      -9999      44.45384   -9999      0.1489516  
  0.6349469 
987.8      
  0.231      -9999      -9999      7.236327   1.854      0.685      
  1.186722   -9999      -9999      -9999      -9999      -9999      
  1.854      -9999      -9999      42.77541   -9999      0.1322428  
  0.5843288 
988        
  0.235      1          3          7.021708   1.838      3.528      
  1.189524   0.2093449  0.2093449  0.2977412  21.12193   3.405891   
  1.838      0.3439103  0.4696714  40.78687   0.2678675  0.3933568  
  0.1423783 
988.2000000000001 
  0.252      1          3          6.775351   1.816      3.448      
  1.198267   0.2137961  0.2137961  0.2937344  25.53762   4.491869   
  1.816      0.3521729  0.4668636  38.6826    0.2422373  0.3513229  
  0.1331518 
988.4      
  0.233      1          3          6.462046   1.988      2.787      
  1.211784   0.2164109  0.2164109  0.2875396  28.55048   6.386843   
  1.988      0.385646   0.4866604  36.67575   0.2155415  0.3042909  
  0.1267921 
988.6      
  0.228      1          3          6.076431   3.207      0.976      
  1.228284   0.2176652  0.2176652  0.2799776  30.11939   9.849749   
  3.207      0.5116009  0.5905008  34.90723   0.1888256  0.2549562  
  0.122695  
988.8      
  0.222      1          3          5.64488    3.268      0.937      
  1.24694    0.2171079  0.2171079  0.2714276  29.41185   15.9947    
  3.268      0.514818   0.5865312  33.42333   0.1646053  0.2091657  
  0.1200448 
989        
  0.218      1          3          5.202285   3.334      0.901      
  1.26823    0.2139904  0.2139904  0.2616703  25.75017   26.29756   
  3.334      0.5132563  0.579326   32.20884   0.1444843  0.1707322  
  0.1182365 
989.2000000000001 
  0.217      1          3          4.771167   2.819      1.058      
  1.292601   0.208093   0.208093   0.2505011  20.02373   42.683     
  2.819      0.4604067  0.5252694  31.23075   0.1285094  0.1400963  
  0.1169224 
989.4      
  0.217      1          3          4.361929   2.318      1.044      
  1.31956    0.1998565  0.1998565  0.2381455  14.09241   67.59579   
  2.318      0.3873378  0.4516861  30.46675   0.1160274  0.1161173  
  0.1159374 
989.6      
  0.216      1          3          3.985896   2.104      2.773      
  1.349122   0.1894613  0.1894613  0.2245973  9.045677   103.1297   
  2.104      0.3283144  0.3910933  29.91253   0.1064727  0.09771977 
  0.1152257 
989.8      
  0.216      1          3          3.662665   1.911      2.998      
  1.38292    0.1762692  0.1762692  0.209108   5.153364   148.2812   
  1.911      0.2517038  0.3135501  29.5614    0.09951153 0.08425338 
  0.1147697 
990        
  0.215      1          3          3.415615   1.759      2.708      
  1.422077   0.1598523  0.1598523  0.1911621  2.558647   195.7131   
  1.759      0.1528837  0.214666   29.37908   0.09487816 0.07522624 
  0.1145301 
990.2000000000001 
  0.215      6          6          3.260836   2.413      2.422      
  1.463933   0.1415358  0.1415358  0.1719794  1.171504   232.882    
  2.413      0.1880124  0.2496465  29.30845   0.09225344 0.07007025 
  0.1144366 
990.4      
  0.215      6          6          3.1969     2.9        2.931      
  1.502047   0.1244045  0.1244045  0.1545118  0.564198   250.2243   
  2.9        0.1665442  0.2310893  29.29836   0.09123412 0.06804501 
  0.1144232 
990.6      
  0.215      6          6          3.202453   3.27       2.652      
  1.529133   0.1119574  0.1119574  0.1420981  0.3318033  248.6682   
  3.27       0.1364534  0.2054307  29.32051   0.09133558 0.06821856 
  0.1144526 
990.8      
  0.215      6          6          3.244601   9.16       2.533      
  1.539789   0.1068456  0.1068456  0.1372148  0.2668079  237.1684   
  9.16       0.4453248  0.5059305  29.36033   0.09202782 0.06955034 
  0.1145053 
991        
  0.215      6          6          3.292259   10.033     2.246      
  1.531982   0.1101606  0.1101606  0.1407928  0.307326   224.8045   
  10.033     0.4824775  0.5408392  29.40336   0.09282486 0.07108759 
  0.1145621 
991.2000000000001 
  0.215      6          6          3.325687   8.287      1.698      
  1.507399   0.1212384  0.1212384  0.1520589  0.4929317  216.5186   
  8.287      0.479225   0.535898   29.43612   0.0933957  0.0721861  
  0.1146053 
991.4      
  0.215      1          3          3.336639   6.604      1.351      
  1.470549   0.138063   0.138063   0.1689476  1.010228   213.871    
  6.604      0.4826781  0.5369155  29.45493   0.09358986 0.07254968 
  0.11463   
991.6      
  0.215      1          3          3.326315   4.953      1.323      
  1.427112   0.1580236  0.1580236  0.1888545  2.366675   216.3659   
  4.953      0.4736033  0.5264019  29.46794   0.09342702 0.07220691 
  0.1146471 
991.8      
  0.216      1          3          3.307924   3.365      1.232      
  1.382366   0.1786253  0.1786253  0.2093617  5.698125   220.8827   
  3.365      0.4327929  0.4859626  29.49384   0.09314072 0.07160029 
  0.1146812 
992        
  0.216      1          3          3.306787   2.775      1.338      
  1.340199   0.1979416  0.1979416  0.2286866  12.98726   221.1651   
  2.775      0.4322072  0.4849462  29.56162   0.09316646 0.07156294 
  0.11477   
992.2000000000001 
  0.216      1          3          3.345974   2.248      1.278      
  1.302785   0.2148443  0.2148443  0.2458335  26.70518   211.6398   
  2.248      0.4163969  0.469847   29.70128   0.09390655 0.07286102 
  0.1149521 
992.4      
  0.216      1          3          3.429619   1.676      1.567      
  1.271278   0.228767   0.228767   0.2602732  48.35909   192.6582   
  1.676      0.3658257  0.4214844  29.9203    0.09547338 0.07571104 
  0.1152357 
992.6      
  0.216      1          3          3.544096   1.441      1.151      
  1.246909   0.2392045  0.2392045  0.2714414  75.47544   169.4084   
  1.441      0.3451807  0.4024266  30.18939   0.09768753 0.07979317 
  0.1155819 
992.8      
  0.216      1          3          3.672611   1.257      1.352      
  1.231225   0.2455367  0.2455367  0.2786295  98.8764    146.6336   
  1.257      0.3175363  0.3766869  30.4564    0.1002814  0.08463866 
  0.1159241 
993        
  0.216      1          3          3.804299   1.251      1.387      
  1.224597   0.2476587  0.2476587  0.2816671  108.2425   126.4689   
  1.251      0.3211095  0.3813412  30.67344   0.1030558  0.08990921 
  0.1162024 
993.2000000000001 
  0.216      1          3          3.933903   1.467      1.206      
  1.224378   0.2468212  0.2468212  0.2817676  104.4446   109.3329   
  1.467      0.3681403  0.4279897  30.81139   0.1058982  0.09541667 
  0.1163796 
993.4      
  0.216      1          3          4.058555   1.257      1.347      
  1.225247   0.2454854  0.2454854  0.2813693  98.66047   95.04605   
  1.257      0.3174122  0.380118   30.86326   0.1087391  0.1010317  
  0.1164464 
993.6      
  0.216      1          3          4.17702    1.245      1.228      
  1.222319   0.2459008  0.2459008  0.2827111  100.424    83.20235   
  1.245      0.3153416  0.379283   30.84193   0.1115465  0.1066741  
  0.116419  
993.8      
  0.216      1          3          4.289391   1.295      1.322      
  1.213961   0.2488134  0.2488134  0.2865417  113.7068   73.33485   
  1.295      0.3347339  0.3990891  30.78002   0.1143282  0.1123171  
  0.1163393 
