~Version
 VERS              .         2.0                           : CWLS LOG ASCII STANDARD - VERSION 2.0
 WRAP              .         NO                            : ONE LINE PER DEPTH STEP
 DLM               .         SPACE                         : DELIMITING CHARACTER(SPACE TAB OR COMMA)
~Well Information
#_______________________________________________________________________________
#
#PARAMETER_NAME    .UNIT     VALUE                         : DESCRIPTION
#_______________________________________________________________________________
STRT               .м        950                           : First reference value
STOP               .м        1308.6                        : Last reference value
STEP               .м        0.1                           : Step increment
NULL               .         -9999                         : Missing value
COMP               .                                       : Company
WELL               .         2142                          : Well name
FLD                .         Узень                         : Field
LOC                .                                       : Location
CNTY               .                                       : County
STAT               .                                       : State
CTRY               .                                       : Country
SRVC               .         SCH                           : Service Company
DATE               .         25.09.2009                    : Date
UWI                .         UZEN_2142                     : Unique Well ID
Block              .         4                             : 
Category           .         Нефтяная                      : 
Condition          .         В работе                      : 
Date               .         01.01.1974                    : 
EREF               .m        231                           : 100.8
Gorizont           .         15                            : 14
Interpretator      .         0                             : 
Kupol              .         Основной                      : osnovnoi
Mud                .         0                             : 
Mud_density        .         0                             : 
Mud_resistivity    .         0                             : 
NGDU               .         НГДУ-1                        : 
ORIGINALWELLNAME   .         2142                          : 
Spud_date          .         1975                          : 1961
Viscosity          .         0                             : 
X                  .m        54618.4                       : 46154
Y                  .m        81581.9                       : 85761.93
YEAR               .         2018                          : 
Исправлено         .         15                            : 
~Parameter Information Block
#_______________________________________________________________________________
#
#PARAMETER_NAME    .UNIT     VALUE                         : DESCRIPTION
#_______________________________________________________________________________
SET                .         LQC_KAZNIPI_Petrel            : 
PBBOTTOM           .м        1308.6                        : Глубина подошвы планшета
PBSCALE            .         1 _ 500                       : Вертикальный масштаб планшета
PBTOP              .м        950                           : Глубина кровли планшета
TLFamily_CALI      .         Caliper                       : 
TLFamily_COLL      .         Net Reservoir Flag            : 
TLFamily_CSAT      .         Fluid Code                    : 
TLFamily_DEPT      .         Measured Depth                : 
TLFamily_GR        .         Russian Gamma Ray             : 
TLFamily_GZ1       .         Gradient 045                  : 
TLFamily_GZ2       .         Gradient 105                  : 
TLFamily_GZ3       .         Gradient 225                  : 
TLFamily_GZ4       .         Gradient 425                  : 
TLFamily_GZ5       .         Gradient 850                  : 
TLFamily_LLS       .         Lateral Log Resistivity       : 
TLFamily_MINV      .         Micro Gradient Resistivity    : 
TLFamily_MNOR      .         Micro Resistivity             : 
TLFamily_NGLD      .         Neutron Gamma                 : 
TLFamily_OGZ       .         Gradient Inverted 225         : 
TLFamily_PHIE      .         Effective Porosity            : 
TLFamily_PHIEN     .         Effective Porosity            : 
TLFamily_PHIT      .         Porosity                      : 
TLFamily_PRMB      .         Permeability                  : 
TLFamily_PRMB_DGR  .         Permeability                  : 
TLFamily_RT        .         Formation Resistivity         : 
TLFamily_SOIL_ARCHIE .         Oil Saturation                : 
TLFamily_SOIL_DW   .         Oil Saturation                : 
TLFamily_SP        .         Spontaneous Potential         : 
TLFamily_VSH_FIN   .         Shale Volume                  : 
TLFamily_VSH_GR    .         Shale Volume                  : 
TLFamily_VSH_SP    .         Shale Volume                  : 
~Curve Information
#_______________________________________________________________________________
#
#LOGNAME           .UNIT     LOG_ID                        : DESCRIPTION
#_______________________________________________________________________________
DEPT               .м                                      : Колонка глубины 
CALI               .м                                      : Каверномер 
COLL               .unitless                               : Описание 
CSAT               .unitless                               : Описание 
GR                 .uR/h                                   : Гамма каротаж 
GZ1                .Ohmm                                   : Градиент-зонд  длиной 0.45м 
GZ2                .Ohmm                                   : Градиент-зонд  длиной 1.05м 
GZ3                .Ohmm                                   : Градиент-зонд  длиной 2.25м 
GZ4                .Ohmm                                   : Градиент-зонд  длиной 4.5м 
GZ5                .Ohmm                                   : Градиент-зонд  длиной 8.5м 
LLS                .Ohmm                                   : Боковой каротаж 
MINV               .Ohmm                                   : Микро-градиент зонд 
MNOR               .Ohmm                                   : Микро-потенциал зонд 
NGLD               .у.е.                                   : Показания зонда НГК-60 аппаратуры ДРСТ-3-90 
OGZ                .Ohmm                                   : Обращенный градиент-зонд 
PHIE               .v/v                                    : Описание 
PHIEN              .v/v                                    :  
PHIT               .v/v                                    : Описание 
PRMB               .mD                                     :  
PRMB_DGR           .mD                                     :  
RT                 .ohmm                                   : УЭС пласта 
SOIL_ARCHIE        .v/v                                    :  
SOIL_DW            .v/v                                    :  
SP                 .mv                                     : Потенциал самополяризации 
VSH_FIN            .v/v                                    : Описание 
VSH_GR             .v/v                                    : Shale volume 
VSH_SP             .v/v                                    : Shale Volume 
~Ascii
# ...
1041.7     0.251      -9999      -9999      5.892274   1.499      1.816      2.172      1.723      1.862      1.143      0.961      1.152      0.875      1.478      0.1545174  0.1545174  0.3524375  2.037956   1.441155   1.143      0          0.3159971  50.352     0.5997579  0.5588654  0.6406504 
1041.8     0.25       -9999      -9999      5.89697    1.511      1.816      2.185      1.723      1.85       1.092      0.923      1.069      0.869      1.499      0.1568681  0.1568681  0.3546377  2.252872   1.434512   1.092      0          0.3068449  50.291     0.5993017  0.5599208  0.6386827 
1041.9     0.25       -9999      -9999      5.900433   1.511      1.804      2.185      1.723      1.85       1.073      1.012      1.126      0.864      1.499      0.1589026  0.1589026  0.3564712  2.457079   1.429634   1.073      0          0.3063367  50.229     0.5986928  0.5607001  0.6366855 
1042       0.249      -9999      -9999      5.902929   1.511      1.804      2.172      1.71       1.85       1.092      1.12       1.209      0.859      1.519      0.1606084  0.1606084  0.3583047  2.642498   1.426128   1.092      0          0.3173345  50.231     0.5990798  0.5612627  0.636897  
1042.1     0.248      -9999      -9999      5.904674   1.499      1.791      2.172      1.697      1.85       1.111      1.304      1.298      0.857      1.54       0.1616056  0.1616056  0.3590381  2.757308   1.423681   1.111      0          0.3256274  50.169     0.5982804  0.5616563  0.6349046 
1042.2     0.247      -9999      -9999      5.905721   1.511      1.778      2.172      1.684      1.85       1.073      1.374      1.387      0.856      1.571      0.1622498  0.1622498  0.3594048  2.834121   1.422215   1.073      0          0.3152497  50.109     0.5974393  0.5618926  0.6329861 
1042.3     0.247      -9999      -9999      5.906068   1.511      1.778      2.185      1.672      1.85       1.041      0.803      1.501      0.854      1.602      0.1632974  0.1632974  0.3601382  2.963615   1.42173    1.041      0          0.3073644  50.047     0.5964873  0.5619709  0.6310039 
1042.4     0.246      -9999      -9999      5.905567   1.473      1.765      2.185      1.659      1.85       1.003      0.936      1.418      0.85       1.633      0.165109   0.165109   0.361605   3.201677   1.42243    1.003      0          0.2990657  49.985     0.5954424  0.5618579  0.6290268 
1042.5     0.245      -9999      -9999      5.903956   1.499      1.753      2.172      1.646      1.85       0.959      1.069      1.304      0.847      1.654      0.1665888  0.1665888  0.3627051  3.410261   1.424687   0.959      0          0.2869216  49.924     0.5942917  0.5614943  0.6270891 
1042.6     0.246      -9999      -9999      5.900817   1.511      1.753      2.159      1.634      1.85       0.946      1.266      1.19       0.843      1.685      0.1681379  0.1681379  0.3641719  3.64318    1.429093   0.946      0          0.2863358  49.926     0.5940423  0.5607868  0.6272979 
1042.7     0.246      -9999      -9999      5.895771   1.511      1.74       2.146      1.621      1.85       0.959      1.076      1.069      0.838      1.736      0.1704834  0.1704834  0.3660054  4.026467   1.436205   0.959      0          0.2970877  49.864     0.5924909  0.5596511  0.6253307 
1042.8     0.248      -9999      -9999      5.8883     1.511      1.727      2.159      1.596      1.85       0.959      0.885      1.203      0.837      1.788      0.1714506  0.1714506  0.3663721  4.19603    1.446801   0.959      0          0.2990264  49.802     0.5906713  0.5579739  0.6233687 
1042.9     0.249      -9999      -9999      5.877766   1.486      1.727      2.121      1.583      1.837      0.965      0.917      1.279      0.84       1.83       0.1714127  0.1714127  0.365272   4.189254   1.461873   0.965      0          0.2998432  49.677     0.5874525  0.5556177  0.6192873 
1043       0.249      -9999      -9999      5.863636   1.486      1.727      2.083      1.57       1.824      0.972      0.942      1.164      0.849      1.881      0.1689524  0.1689524  0.3619717  3.771948   1.482336   0.972      0          0.2945734  49.615     0.5849071  0.5524728  0.6173414 
1043.1     0.249      -9999      -9999      5.845346   1.486      1.727      2.058      1.545      1.811      0.953      0.796      1.076      0.859      1.943      0.1662729  0.1662729  0.3583047  3.36462    1.509251   0.953      0          0.2787047  49.553     0.5819144  0.5484283  0.6154006 
1043.2     0.25       -9999      -9999      5.822376   1.499      1.74       2.032      1.57       1.811      0.934      0.714      0.968      0.869      1.985      0.163751   0.163751   0.3546377  3.021506   1.543746   0.934      0          0.2624821  49.492     0.5784446  0.5433909  0.6134982 
1043.3     0.249      -9999      -9999      5.79418    1.461      1.74       2.007      1.608      1.799      0.965      1.418      1.374      0.877      2.036      0.1621458  0.1621458  0.3517041  2.821575   1.587168   0.965      0          0.2679467  49.43      0.5744191  0.5372707  0.6115676 
1043.4     0.249      -9999      -9999      5.760194   1.473      1.74       1.981      1.646      1.786      1.029      1.317      1.272      0.888      2.088      0.1599768  0.1599768  0.3476704  2.572273   1.641134   1.029      0          0.2823304  49.305     0.5687684  0.5299851  0.6075517 
1043.5     0.25       -9999      -9999      5.719932   1.461      1.74       1.956      1.684      1.773      1.092      1.184      1.184      0.898      2.129      0.1580288  0.1580288  0.3440034  2.3672     1.707445   1.092      0          0.2954763  49.243     0.5635594  0.5214819  0.6056369 
1043.6     0.249      -9999      -9999      5.672962   1.448      1.702      1.931      1.71       1.748      1.149      1.05       1.088      0.907      2.181      0.156652   0.156652   0.3407031  2.232196   1.788197   1.149      0          0.3067529  49.181     0.5577307  0.5117342  0.6037272 
1043.7     0.248      -9999      -9999      5.618994   1.422      1.664      1.905      1.748      1.735      1.111      0.898      0.955      0.916      2.253      0.1554714  0.1554714  0.3374028  2.122583   1.885706   1.111      0          0.2886825  49.12      0.5513074  0.5007592  0.6018555 
1043.8     0.247      -9999      -9999      5.557851   1.384      1.613      1.88       1.761      1.735      1.054      1.107      1.012      0.924      2.315      0.154856   0.154856   0.3344692  2.067599   2.00262    1.054      0          0.2646196  49.058     0.5442825  0.488609   0.599956  
1043.9     0.246      -9999      -9999      5.48945    1.346      1.575      1.854      1.735      1.723      1.08       1.101      1.044      0.932      2.377      0.1544201  0.1544201  0.3315356  2.02952    2.142021   1.08       0          0.2687536  48.996     0.5367136  0.4753656  0.5980616 
1044       0.245      -9999      -9999      5.413936   1.27       1.537      1.829      1.723      1.71       1.181      1.088      1.057      0.943      2.429      0.1533802  0.1533802  0.3275019  1.941477   2.307215   1.181      0          0.2935746  48.871     0.5276414  0.4611616  0.5941212 
1044.1     0.245      -9999      -9999      5.331623   1.232      1.499      1.804      1.71       1.697      1.302      1.044      1.069      0.958      2.543      0.1513421  0.1513421  0.3220014  1.779843   2.50183    1.302      0          0.3166294  48.682     0.5171493  0.4461616  0.588137  
1044.2     0.246      -9999      -9999      5.243062   1.181      1.499      1.778      1.697      1.697      1.403      0.987      1.088      0.976      2.615      0.148961   0.148961   0.3154008  1.607967   2.729585   1.403      0          0.3291443  48.366     0.5043631  0.4305676  0.5781586 
1044.3     0.246      -9999      -9999      5.149092   1.207      1.499      1.753      1.684      1.697      1.422      0.91       1.12       0.995      2.677      0.146248   0.146248   0.3084335  1.432275   2.993969   1.422      0          0.3196109  48.05      0.4914711  0.4146164  0.5683258 
