~Version
 VERS              .         2.0                           : CWLS LOG ASCII STANDARD - VERSION 2.0
 WRAP              .         NO                            : ONE LINE PER DEPTH STEP
 DLM               .         SPACE                         : DELIMITING CHARACTER(SPACE TAB OR COMMA)
~Well Information
#_______________________________________________________________________________
#
#PARAMETER_NAME    .UNIT     VALUE                         : DESCRIPTION
#_______________________________________________________________________________
STRT               .м        950                           : First reference value
STOP               .м        1308.6                        : Last reference value
STEP               .м        0.1                           : Step increment
NULL               .         -9999                         : Missing value
COMP               .                                       : Company
WELL               .         2142                          : Well name
FLD                .         Узень                         : Field
LOC                .                                       : Location
CNTY               .                                       : County
STAT               .                                       : State
CTRY               .                                       : Country
SRVC               .         SCH                           : Service Company
DATE               .         25.09.2009                    : Date
UWI                .         UZEN_2142                     : Unique Well ID
Block              .         4                             : 
Category           .         Нефтяная                      : 
Condition          .         В работе                      : 
Date               .         01.01.1974                    : 
EREF               .m        231                           : 100.8
Gorizont           .         15                            : 14
Interpretator      .         0                             : 
Kupol              .         Основной                      : osnovnoi
Mud                .         0                             : 
Mud_density        .         0                             : 
Mud_resistivity    .         0                             : 
NGDU               .         НГДУ-1                        : 
ORIGINALWELLNAME   .         2142                          : 
Spud_date          .         1975                          : 1961
Viscosity          .         0                             : 
X                  .m        54618.4                       : 46154
Y                  .m        81581.9                       : 85761.93
YEAR               .         2018                          : 
Исправлено         .         15                            : 
~Parameter Information Block
#_______________________________________________________________________________
#
#PARAMETER_NAME    .UNIT     VALUE                         : DESCRIPTION
#_______________________________________________________________________________
SET                .         LQC_KAZNIPI_Petrel            : 
PBBOTTOM           .м        1308.6                        : Глубина подошвы планшета
PBSCALE            .         1 _ 500                       : Вертикальный масштаб планшета
PBTOP              .м        950                           : Глубина кровли планшета
TLFamily_CALI      .         Caliper                       : 
TLFamily_COLL      .         Net Reservoir Flag            : 
TLFamily_CSAT      .         Fluid Code                    : 
TLFamily_DEPT      .         Measured Depth                : 
TLFamily_GR        .         Russian Gamma Ray             : 
TLFamily_GZ1       .         Gradient 045                  : 
TLFamily_GZ2       .         Gradient 105                  : 
TLFamily_GZ3       .         Gradient 225                  : 
TLFamily_GZ4       .         Gradient 425                  : 
TLFamily_GZ5       .         Gradient 850                  : 
TLFamily_LLS       .         Lateral Log Resistivity       : 
TLFamily_MINV      .         Micro Gradient Resistivity    : 
TLFamily_MNOR      .         Micro Resistivity             : 
TLFamily_NGLD      .         Neutron Gamma                 : 
TLFamily_OGZ       .         Gradient Inverted 225         : 
TLFamily_PHIE      .         Effective Porosity            : 
TLFamily_PHIEN     .         Effective Porosity            : 
TLFamily_PHIT      .         Porosity                      : 
TLFamily_PRMB      .         Permeability                  : 
TLFamily_PRMB_DGR  .         Permeability                  : 
TLFamily_RT        .         Formation Resistivity         : 
TLFamily_SOIL_ARCHIE .         Oil Saturation                : 
TLFamily_SOIL_DW   .         Oil Saturation                : 
TLFamily_SP        .         Spontaneous Potential         : 
TLFamily_VSH_FIN   .         Shale Volume                  : 
TLFamily_VSH_GR    .         Shale Volume                  : 
TLFamily_VSH_SP    .         Shale Volume                  : 
~Curve Information
#_______________________________________________________________________________
#
#LOGNAME           .UNIT     LOG_ID                        : DESCRIPTION
#_______________________________________________________________________________
DEPT               .м                                      : Колонка глубины 
CALI               .м                                      : Каверномер 
COLL               .unitless                               : Описание 
CSAT               .unitless                               : Описание 
GR                 .uR/h                                   : Гамма каротаж 
GZ1                .Ohmm                                   : Градиент-зонд  длиной 0.45м 
GZ2                .Ohmm                                   : Градиент-зонд  длиной 1.05м 
GZ3                .Ohmm                                   : Градиент-зонд  длиной 2.25м 
GZ4                .Ohmm                                   : Градиент-зонд  длиной 4.5м 
GZ5                .Ohmm                                   : Градиент-зонд  длиной 8.5м 
LLS                .Ohmm                                   : Боковой каротаж 
MINV               .Ohmm                                   : Микро-градиент зонд 
MNOR               .Ohmm                                   : Микро-потенциал зонд 
NGLD               .у.е.                                   : Показания зонда НГК-60 аппаратуры ДРСТ-3-90 
OGZ                .Ohmm                                   : Обращенный градиент-зонд 
PHIE               .v/v                                    : Описание 
PHIEN              .v/v                                    :  
PHIT               .v/v                                    : Описание 
PRMB               .mD                                     :  
PRMB_DGR           .mD                                     :  
RT                 .ohmm                                   : УЭС пласта 
SOIL_ARCHIE        .v/v                                    :  
SOIL_DW            .v/v                                    :  
SP                 .mv                                     : Потенциал самополяризации 
VSH_FIN            .v/v                                    : Описание 
VSH_GR             .v/v                                    : Shale volume 
VSH_SP             .v/v                                    : Shale Volume 
~Ascii
# ...
1271.2     0.225      -9999      -9999      7.269193   1.524      2.007      1.981      1.113      1.062      1.175      1.965      1.787      1.003      1.747      0.154206   0.154206   0.3054999  2.011072   3.424874   1.175      0          0.2818007  46.224     0.4584663  0.392465   0.5244675 
1271.3     0.224      -9999      -9999      7.313882   1.537      1.994      2.019      1.113      1.062      1.175      2.32       1.901      1.011      1.747      0.1484653  0.1484653  0.3025663  1.574327   3.19495    1.175      0          0.2667921  46.419     0.4669728  0.4037612  0.5301843 
1271.4     0.223      -9999      -9999      7.358702   1.588      1.994      2.045      1.113      1.062      1.162      2.67       2.022      1.02       1.695      0.1429156  0.1429156  0.299266   1.242515   2.979858   1.162      0          0.2466911  46.486     0.4737892  0.415417   0.5321612 
1271.5     0.222      -9999      -9999      7.402611   1.626      1.981      2.058      1.113      1.062      1.149      3.057      2.104      1.022      1.695      0.139917   0.139917   0.2985326  1.093351   2.783182   1.149      0          0.2350695  46.553     0.4806535  0.4271624  0.5341446 
1271.6     0.222      -9999      -9999      7.444802   1.638      1.969      2.07       1.113      1.062      1.124      2.689      1.901      1.018      1.695      0.1394505  0.1394505  0.2999994  1.071813   2.606444   1.124      0          0.2279489  46.557     0.4865119  0.4387606  0.5342632 
1271.7     0.222      -9999      -9999      7.484544   1.613      1.956      2.108      1.113      1.062      1.118      2.295      1.755      1.013      1.716      0.1387907  0.1387907  0.3018329  1.042076   2.450244   1.118      0          0.2273781  46.688     0.4940671  0.4499736  0.5381606 
1271.8     0.222      -9999      -9999      7.521113   1.537      1.918      2.083      1.1        1.049      1.149      1.895      1.558      1.005      1.747      0.1396497  0.1396497  0.3047665  1.080957   2.314793   1.149      0          0.2441951  46.755     0.5003541  0.4605445  0.5401636 
1271.9     0.222      -9999      -9999      7.554113   1.486      1.892      2.058      1.1        1.049      1.2        1.577      2.263      0.997      1.788      0.1415801  0.1415801  0.3077001  1.173719   2.199004   1.2        0          0.2686442  46.632     0.5033941  0.4702966  0.5364915 
1272       0.222      -9999      -9999      7.583303   1.461      1.854      2.045      1.113      1.049      1.315      2.123      2.161      0.99       1.83       0.1433024  0.1433024  0.310267   1.263185   2.101421   1.315      0          0.3081395  46.508     0.5059532  0.4790946  0.5328118 
1272.1     0.222      -9999      -9999      7.60846    1.461      1.829      2.019      1.164      1.049      1.454      2.676      2.009      0.983      1.902      0.1448889  0.1448889  0.3128339  1.351612   2.0208     1.454      0.01921887 0.3481324  46.448     0.5089242  0.4868092  0.5310393 
1272.2     0.222      -9999      -9999      7.629482   1.486      1.854      2.007      1.215      1.049      1.556      2.549      1.876      0.975      1.954      0.1476492  0.1476492  0.3157675  1.520474   1.955809   1.556      0.0654203  0.3779977  46.261     0.5094495  0.4933508  0.5255482 
1272.3     0.222      -9999      -9999      7.646562   1.499      1.892      1.994      1.24       1.049      1.511      2.384      1.971      0.968      2.016      0.1499247  0.1499247  0.3183344  1.675431   1.904547   1.511      0.06499869 0.3756254  46.137     0.5103325  0.4987305  0.5219346 
1272.4     0.222      -9999      -9999      7.659833   1.499      1.867      2.019      1.253      1.037      1.435      2.263      1.958      0.964      2.078      0.1515921  0.1515921  0.3198012  1.798921   1.865646   1.435      0.05126279 0.3638304  45.949     0.5097244  0.5029508  0.5164981 
1272.5     0.222      -9999      -9999      7.669438   1.499      1.867      2.019      1.291      1.062      1.308      2.441      1.946      0.968      2.119      0.1502001  0.1502001  0.3183344  1.695227   1.837988   1.308      0.001103389 0.3293954  45.826     0.509498   0.5060276  0.5129684 
1272.6     0.222      -9999      -9999      7.675485   1.499      1.867      2.019      1.303      1.062      1.2        2.587      1.939      0.974      2.16       0.1482622  0.1482622  0.3161342  1.560751   1.820787   1.2        0          0.293351   45.702     0.5087031  0.5079742  0.5094318 
1272.7     0.221      -9999      -9999      7.67805    1.499      1.867      2.019      1.316      1.062      1.124      2.771      1.736      0.977      2.171      0.1476008  0.1476008  0.3150341  1.517338   1.813539   1.124      0          0.2670239  45.579     0.5073738  0.5088022  0.5059453 
1272.8     0.221      -9999      -9999      7.677095   1.499      1.867      2.019      1.316      1.062      1.118      2.631      1.863      0.973      2.233      0.1496995  0.1496995  0.3165009  1.659416   1.816233   1.118      0          0.2711301  45.454     0.5054589  0.5084939  0.5024239 
1272.9     0.221      -9999      -9999      7.672544   1.461      1.854      2.007      1.303      1.049      1.162      2.447      1.984      0.966      2.295      0.1527814  0.1527814  0.3190678  1.892521   1.829131   1.162      0          0.294175   45.395     0.5038981  0.5070268  0.5007694 
1273       0.221      -9999      -9999      7.664361   1.422      1.854      1.994      1.316      1.049      1.181      2.263      1.907      0.966      2.367      0.1534918  0.1534918  0.3190678  1.950733   1.852554   1.181      0          0.301131   45.335     0.5017455  0.5043991  0.4990919 
1273.1     0.221      -9999      -9999      7.652336   1.397      1.854      1.969      1.329      1.049      1.168      2.054      1.857      0.974      2.398      0.1523447  0.1523447  0.3161342  1.857597   1.887524   1.168      0          0.2912077  45.083     0.4963318  0.5005621  0.4921015 
1273.2     0.221      -9999      -9999      7.636249   1.384      1.854      1.956      1.342      1.049      1.143      2.206      1.806      0.982      2.45       0.1525181  0.1525181  0.3132006  1.871383   1.935338   1.143      0          0.2797139  44.578     0.4869168  0.4954751  0.4783585 
1273.3     0.221      -9999      -9999      7.61564    1.384      1.854      1.943      1.367      1.075      1.118      2.447      2.028      0.993      2.501      0.1514844  0.1514844  0.3091669  1.790676   1.998363   1.118      0          0.2639669  44.136     0.4778257  0.4890336  0.4666178 
1273.4     0.221      -9999      -9999      7.590231   1.422      1.829      1.931      1.367      1.075      1.118      2.257      1.965      1.003      2.563      0.151277   0.151277   0.3054999  1.774908   2.078902   1.118      0          0.2581871  43.629     0.467342   0.481207   0.453477  
1273.5     0.221      -9999      -9999      7.559748   1.435      1.791      1.905      1.38       1.062      1.137      1.99       1.895      1.013      2.605      0.1517432  0.1517432  0.3018329  1.810549   2.179821   1.137      0          0.2598639  43         0.4548172  0.4719823  0.4376521 
1273.6     0.221      -9999      -9999      7.523994   1.473      1.791      1.892      1.38       1.062      1.188      1.844      1.812      1.02       2.656      0.1534812  0.1534812  0.299266   1.949852   2.304448   1.188      0          0.2753933  42.363     0.4417723  0.4613877  0.4221569 
1273.7     0.221      -9999      -9999      7.482951   1.473      1.765      1.88       1.392      1.062      1.276      1.977      1.761      1.03       2.708      0.1573157  0.1573157  0.295599   2.296286   2.456321   1.276      0.02935446 0.3024013  40.901     0.4190404  0.4495187  0.3885622 
1273.8     0.221      -9999      -9999      7.436906   1.473      1.753      1.854      1.405      1.062      1.41       2.079      1.806      1.038      2.791      0.1609788  0.1609788  0.2926654  2.684577   2.638646   1.41       0.09217357 0.3384471  39.631     0.3990503  0.4365663  0.3615343 
