~Version
 VERS              .         2.0                           : CWLS LOG ASCII STANDARD - VERSION 2.0
 WRAP              .         NO                            : ONE LINE PER DEPTH STEP
 DLM               .         SPACE                         : DELIMITING CHARACTER(SPACE TAB OR COMMA)
~Well Information
#_______________________________________________________________________________
#
#PARAMETER_NAME    .UNIT     VALUE                         : DESCRIPTION
#_______________________________________________________________________________
STRT               .м        950                           : First reference value
STOP               .м        1308.6                        : Last reference value
STEP               .м        0.1                           : Step increment
NULL               .         -9999                         : Missing value
COMP               .                                       : Company
WELL               .         2142                          : Well name
FLD                .         Узень                         : Field
LOC                .                                       : Location
CNTY               .                                       : County
STAT               .                                       : State
CTRY               .                                       : Country
SRVC               .         SCH                           : Service Company
DATE               .         25.09.2009                    : Date
UWI                .         UZEN_2142                     : Unique Well ID
Block              .         4                             : 
Category           .         Нефтяная                      : 
Condition          .         В работе                      : 
Date               .         01.01.1974                    : 
EREF               .m        231                           : 100.8
Gorizont           .         15                            : 14
Interpretator      .         0                             : 
Kupol              .         Основной                      : osnovnoi
Mud                .         0                             : 
Mud_density        .         0                             : 
Mud_resistivity    .         0                             : 
NGDU               .         НГДУ-1                        : 
ORIGINALWELLNAME   .         2142                          : 
Spud_date          .         1975                          : 1961
Viscosity          .         0                             : 
X                  .m        54618.4                       : 46154
Y                  .m        81581.9                       : 85761.93
YEAR               .         2018                          : 
Исправлено         .         15                            : 
~Parameter Information Block
#_______________________________________________________________________________
#
#PARAMETER_NAME    .UNIT     VALUE                         : DESCRIPTION
#_______________________________________________________________________________
SET                .         LQC_KAZNIPI_Petrel            : 
PBBOTTOM           .м        1308.6                        : Глубина подошвы планшета
PBSCALE            .         1 _ 500                       : Вертикальный масштаб планшета
PBTOP              .м        950                           : Глубина кровли планшета
TLFamily_CALI      .         Caliper                       : 
TLFamily_COLL      .         Net Reservoir Flag            : 
TLFamily_CSAT      .         Fluid Code                    : 
TLFamily_DEPT      .         Measured Depth                : 
TLFamily_GR        .         Russian Gamma Ray             : 
TLFamily_GZ1       .         Gradient 045                  : 
TLFamily_GZ2       .         Gradient 105                  : 
TLFamily_GZ3       .         Gradient 225                  : 
TLFamily_GZ4       .         Gradient 425                  : 
TLFamily_GZ5       .         Gradient 850                  : 
TLFamily_LLS       .         Lateral Log Resistivity       : 
TLFamily_MINV      .         Micro Gradient Resistivity    : 
TLFamily_MNOR      .         Micro Resistivity             : 
TLFamily_NGLD      .         Neutron Gamma                 : 
TLFamily_OGZ       .         Gradient Inverted 225         : 
TLFamily_PHIE      .         Effective Porosity            : 
TLFamily_PHIEN     .         Effective Porosity            : 
TLFamily_PHIT      .         Porosity                      : 
TLFamily_PRMB      .         Permeability                  : 
TLFamily_PRMB_DGR  .         Permeability                  : 
TLFamily_RT        .         Formation Resistivity         : 
TLFamily_SOIL_ARCHIE .         Oil Saturation                : 
TLFamily_SOIL_DW   .         Oil Saturation                : 
TLFamily_SP        .         Spontaneous Potential         : 
TLFamily_VSH_FIN   .         Shale Volume                  : 
TLFamily_VSH_GR    .         Shale Volume                  : 
TLFamily_VSH_SP    .         Shale Volume                  : 
~Curve Information
#_______________________________________________________________________________
#
#LOGNAME           .UNIT     LOG_ID                        : DESCRIPTION
#_______________________________________________________________________________
DEPT               .м                                      : Колонка глубины 
CALI               .м                                      : Каверномер 
COLL               .unitless                               : Описание 
CSAT               .unitless                               : Описание 
GR                 .uR/h                                   : Гамма каротаж 
GZ1                .Ohmm                                   : Градиент-зонд  длиной 0.45м 
GZ2                .Ohmm                                   : Градиент-зонд  длиной 1.05м 
GZ3                .Ohmm                                   : Градиент-зонд  длиной 2.25м 
GZ4                .Ohmm                                   : Градиент-зонд  длиной 4.5м 
GZ5                .Ohmm                                   : Градиент-зонд  длиной 8.5м 
LLS                .Ohmm                                   : Боковой каротаж 
MINV               .Ohmm                                   : Микро-градиент зонд 
MNOR               .Ohmm                                   : Микро-потенциал зонд 
NGLD               .у.е.                                   : Показания зонда НГК-60 аппаратуры ДРСТ-3-90 
OGZ                .Ohmm                                   : Обращенный градиент-зонд 
PHIE               .v/v                                    : Описание 
PHIEN              .v/v                                    :  
PHIT               .v/v                                    : Описание 
PRMB               .mD                                     :  
PRMB_DGR           .mD                                     :  
RT                 .ohmm                                   : УЭС пласта 
SOIL_ARCHIE        .v/v                                    :  
SOIL_DW            .v/v                                    :  
SP                 .mv                                     : Потенциал самополяризации 
VSH_FIN            .v/v                                    : Описание 
VSH_GR             .v/v                                    : Shale volume 
VSH_SP             .v/v                                    : Shale Volume 
~Ascii
# ...
1295.5     0.221      -9999      -9999      -9999      3.213      4.255      4.75       4.529      2.319      1.981      3.914      3.933      1.114      2.057      0.06415754 0.06415754 0.2647962  0.04320274 -9999      1.981      0          0.171401   48.906     -4999.196  -9999      0.607996  
1295.6     0.221      -9999      -9999      -9999      2.997      3.734      4.14       4.803      2.396      1.461      3.762      1.888      1.115      1.695      0.06023044 0.06023044 0.2644295  0.03654028 -9999      1.461      0          0.01494375 49.229     -4999.19   -9999      0.6187854 
1295.7     0.221      -9999      -9999      -9999      2.362      3.226      3.467      7.597      2.446      1.302      1.717      2.06       1.121      1.54       0.05442763 0.05442763 0.2622293  0.02852921 -9999      1.302      0          0          49.551     -4999.185  -9999      0.6297016 
1295.8     0.221      -9999      -9999      -9999      2.146      2.756      2.896      6.771      2.472      1.245      2.047      2.168      1.127      1.426      0.04858327 0.04858327 0.2600291  0.02223504 -9999      1.245      0          0          49.872     -4999.18   -9999      0.6407446 
1295.9     0.221      -9999      -9999      -9999      2.007      2.54       2.413      5.881999   2.472      1.213      2.136      1.787      -9999      1.364      -9999      -9999      -9999      -9999      -9999      1.213      -9999      -9999      50.068     -4999.176  -9999      0.6475666 
1296       0.221      -9999      -9999      -9999      1.867      2.413      2.083      4.929      2.396      1.168      1.717      1.609      -9999      1.344      -9999      -9999      -9999      -9999      -9999      1.168      -9999      -9999      50.39      -4999.17   -9999      0.6589057 
1296.1     0.221      -9999      -9999      -9999      1.778      2.286      1.867      3.469      2.281      1.156      1.571      1.761      -9999      1.344      -9999      -9999      -9999      -9999      -9999      1.156      -9999      -9999      50.713     -4999.165  -9999      0.6704454 
1296.2     0.221      -9999      -9999      -9999      1.638      2.312      1.715      3.01       2.002      1.124      1.977      1.863      -9999      1.344      -9999      -9999      -9999      -9999      -9999      1.124      -9999      -9999      50.97      -4999.16   -9999      0.6797462 
1296.3     0.221      -9999      -9999      -9999      1.562      2.35       1.613      2.55       1.748      1.111      1.882      1.971      -9999      1.344      -9999      -9999      -9999      -9999      -9999      1.111      -9999      -9999      51.293     -4999.154  -9999      0.6915861 
1296.4     0.221      -9999      -9999      -9999      1.524      2.299      1.575      2.091      1.494      1.118      1.774      2.022      -9999      1.333      -9999      -9999      -9999      -9999      -9999      1.118      -9999      -9999      51.488     -4999.15   -9999      0.6988158 
1296.5     0.221      -9999      -9999      -9999      1.499      2.248      1.524      1.951      1.278      1.137      1.711      1.895      -9999      1.333      -9999      -9999      -9999      -9999      -9999      1.137      -9999      -9999      51.618     -4999.148  -9999      0.70367   
1296.6     0.221      -9999      -9999      -9999      1.461      2.21       1.511      1.811      1.189      1.162      2.034      1.85       -9999      1.333      -9999      -9999      -9999      -9999      -9999      1.162      -9999      -9999      51.813     -4999.145  -9999      0.7110029 
1296.7     0.221      -9999      -9999      -9999      1.486      2.146      1.511      1.672      1.062      1.168      2.276      2.409      -9999      1.333      -9999      -9999      -9999      -9999      -9999      1.168      -9999      -9999      51.945     -4999.142  -9999      0.716002  
1296.8     0.221      -9999      -9999      -9999      1.486      2.108      1.511      1.519      0.999      1.149      2.422      2.32       -9999      1.333      -9999      -9999      -9999      -9999      -9999      1.149      -9999      -9999      51.757     -4999.146  -9999      0.7088907 
1296.9     0.22       -9999      -9999      -9999      1.486      2.058      1.537      1.469      0.948      1.118      2.092      2.193      -9999      1.292      -9999      -9999      -9999      -9999      -9999      1.118      -9999      -9999      51.633     -4999.148  -9999      0.7042318 
1297       -9999      -9999      -9999      -9999      1.486      1.994      1.562      1.418      0.897      1.073      1.793      2.034      -9999      1.292      -9999      -9999      -9999      -9999      -9999      1.073      -9999      -9999      51.446     -4999.151  -9999      0.6972534 
1297.1     -9999      -9999      -9999      -9999      1.473      1.931      1.638      1.367      0.821      1.035      2.028      2.206      -9999      1.292      -9999      -9999      -9999      -9999      -9999      1.035      -9999      -9999      51.322     -4999.154  -9999      0.6926574 
1297.2     -9999      -9999      -9999      -9999      1.461      1.892      1.727      1.316      0.795      1.061      2.536      2.511      -9999      1.313      -9999      -9999      -9999      -9999      -9999      1.061      -9999      -9999      51.135     -4999.157  -9999      0.6857733 
1297.3     -9999      -9999      -9999      -9999      1.448      1.867      1.816      1.278      0.783      1.143      2.365      1.933      -9999      1.313      -9999      -9999      -9999      -9999      -9999      1.143      -9999      -9999      51.011     -4999.159  -9999      0.6812398 
1297.4     -9999      -9999      -9999      -9999      1.448      1.842      1.905      1.227      0.783      1.327      1.907      1.984      -9999      1.333      -9999      -9999      -9999      -9999      -9999      1.327      -9999      -9999      50.888     -4999.162  -9999      0.6767671 
1297.5     -9999      -9999      -9999      -9999      1.448      1.816      1.994      1.227      0.783      1.442      2.028      2.085      -9999      1.333      -9999      -9999      -9999      -9999      -9999      1.442      -9999      -9999      50.764     -4999.164  -9999      0.6722826 
1297.6     -9999      -9999      -9999      -9999      1.448      1.791      2.083      1.215      0.783      1.384      2.282      2.174      -9999      1.333      -9999      -9999      -9999      -9999      -9999      1.384      -9999      -9999      51.022     -4999.159  -9999      0.6816409 
1297.7     -9999      -9999      -9999      -9999      1.448      1.791      2.172      1.202      0.783      1.302      2.073      2.009      -9999      1.333      -9999      -9999      -9999      -9999      -9999      1.302      -9999      -9999      51.217     -4999.156  -9999      0.6887851 
1297.8     -9999      -9999      -9999      -9999      1.41       1.791      2.248      1.189      0.795      1.226      1.825      1.869      -9999      1.333      -9999      -9999      -9999      -9999      -9999      1.226      -9999      -9999      51.348     -4999.153  -9999      0.693619  
1297.9     -9999      -9999      -9999      -9999      1.384      1.791      2.337      1.176      0.821      1.188      1.482      1.692      -9999      1.333      -9999      -9999      -9999      -9999      -9999      1.188      -9999      -9999      51.543     -4999.149  -9999      0.7008661 
1298       -9999      -9999      -9999      -9999      1.359      1.804      2.362      1.164      0.859      1.181      1.641      1.895      -9999      1.302      -9999      -9999      -9999      -9999      -9999      1.181      -9999      -9999      51.674     -4999.147  -9999      0.7057695 
1298.1     -9999      -9999      -9999      -9999      1.346      1.791      2.337      1.151      0.872      1.188      1.882      2.149      -9999      1.313      -9999      -9999      -9999      -9999      -9999      1.188      -9999      -9999      51.741     -4999.146  -9999      0.7082881 
