~Version
 VERS              .         2.0                           : CWLS LOG ASCII STANDARD - VERSION 2.0
 WRAP              .         NO                            : ONE LINE PER DEPTH STEP
 DLM               .         SPACE                         : DELIMITING CHARACTER(SPACE TAB OR COMMA)
~Well Information
#_______________________________________________________________________________
#
#PARAMETER_NAME    .UNIT     VALUE                         : DESCRIPTION
#_______________________________________________________________________________
STRT               .м        950                           : First reference value
STOP               .м        1308.6                        : Last reference value
STEP               .м        0.1                           : Step increment
NULL               .         -9999                         : Missing value
COMP               .                                       : Company
WELL               .         2142                          : Well name
FLD                .         Узень                         : Field
LOC                .                                       : Location
CNTY               .                                       : County
STAT               .                                       : State
CTRY               .                                       : Country
SRVC               .         SCH                           : Service Company
DATE               .         25.09.2009                    : Date
UWI                .         UZEN_2142                     : Unique Well ID
Block              .         4                             : 
Category           .         Нефтяная                      : 
Condition          .         В работе                      : 
Date               .         01.01.1974                    : 
EREF               .m        231                           : 100.8
Gorizont           .         15                            : 14
Interpretator      .         0                             : 
Kupol              .         Основной                      : osnovnoi
Mud                .         0                             : 
Mud_density        .         0                             : 
Mud_resistivity    .         0                             : 
NGDU               .         НГДУ-1                        : 
ORIGINALWELLNAME   .         2142                          : 
Spud_date          .         1975                          : 1961
Viscosity          .         0                             : 
X                  .m        54618.4                       : 46154
Y                  .m        81581.9                       : 85761.93
YEAR               .         2018                          : 
Исправлено         .         15                            : 
~Parameter Information Block
#_______________________________________________________________________________
#
#PARAMETER_NAME    .UNIT     VALUE                         : DESCRIPTION
#_______________________________________________________________________________
SET                .         LQC_KAZNIPI_Petrel            : 
PBBOTTOM           .м        1308.6                        : Глубина подошвы планшета
PBSCALE            .         1 _ 500                       : Вертикальный масштаб планшета
PBTOP              .м        950                           : Глубина кровли планшета
TLFamily_CALI      .         Caliper                       : 
TLFamily_COLL      .         Net Reservoir Flag            : 
TLFamily_CSAT      .         Fluid Code                    : 
TLFamily_DEPT      .         Measured Depth                : 
TLFamily_GR        .         Russian Gamma Ray             : 
TLFamily_GZ1       .         Gradient 045                  : 
TLFamily_GZ2       .         Gradient 105                  : 
TLFamily_GZ3       .         Gradient 225                  : 
TLFamily_GZ4       .         Gradient 425                  : 
TLFamily_GZ5       .         Gradient 850                  : 
TLFamily_LLS       .         Lateral Log Resistivity       : 
TLFamily_MINV      .         Micro Gradient Resistivity    : 
TLFamily_MNOR      .         Micro Resistivity             : 
TLFamily_NGLD      .         Neutron Gamma                 : 
TLFamily_OGZ       .         Gradient Inverted 225         : 
TLFamily_PHIE      .         Effective Porosity            : 
TLFamily_PHIEN     .         Effective Porosity            : 
TLFamily_PHIT      .         Porosity                      : 
TLFamily_PRMB      .         Permeability                  : 
TLFamily_PRMB_DGR  .         Permeability                  : 
TLFamily_RT        .         Formation Resistivity         : 
TLFamily_SOIL_ARCHIE .         Oil Saturation                : 
TLFamily_SOIL_DW   .         Oil Saturation                : 
TLFamily_SP        .         Spontaneous Potential         : 
TLFamily_VSH_FIN   .         Shale Volume                  : 
TLFamily_VSH_GR    .         Shale Volume                  : 
TLFamily_VSH_SP    .         Shale Volume                  : 
~Curve Information
#_______________________________________________________________________________
#
#LOGNAME           .UNIT     LOG_ID                        : DESCRIPTION
#_______________________________________________________________________________
DEPT               .м                                      : Колонка глубины 
CALI               .м                                      : Каверномер 
COLL               .unitless                               : Описание 
CSAT               .unitless                               : Описание 
GR                 .uR/h                                   : Гамма каротаж 
GZ1                .Ohmm                                   : Градиент-зонд  длиной 0.45м 
GZ2                .Ohmm                                   : Градиент-зонд  длиной 1.05м 
GZ3                .Ohmm                                   : Градиент-зонд  длиной 2.25м 
GZ4                .Ohmm                                   : Градиент-зонд  длиной 4.5м 
GZ5                .Ohmm                                   : Градиент-зонд  длиной 8.5м 
LLS                .Ohmm                                   : Боковой каротаж 
MINV               .Ohmm                                   : Микро-градиент зонд 
MNOR               .Ohmm                                   : Микро-потенциал зонд 
NGLD               .у.е.                                   : Показания зонда НГК-60 аппаратуры ДРСТ-3-90 
OGZ                .Ohmm                                   : Обращенный градиент-зонд 
PHIE               .v/v                                    : Описание 
PHIEN              .v/v                                    :  
PHIT               .v/v                                    : Описание 
PRMB               .mD                                     :  
PRMB_DGR           .mD                                     :  
RT                 .ohmm                                   : УЭС пласта 
SOIL_ARCHIE        .v/v                                    :  
SOIL_DW            .v/v                                    :  
SP                 .mv                                     : Потенциал самополяризации 
VSH_FIN            .v/v                                    : Описание 
VSH_GR             .v/v                                    : Shale volume 
VSH_SP             .v/v                                    : Shale Volume 
~Ascii
# ...
1203.7     0.216      8          2          7.409393   2.019      2.337      2.273      1.964      2.065      1.524      1.907      1.819      1          1.819      0.2038937  0.2038937  0.3066     16.74033   3.954029   1.524      0.2771659  0.4294166  42.113     0.3112313  0.3701032  0.2523594 
1203.8     0.215      8          2          7.429911   1.943      2.527      1.918      1.85       1.926      1.594      1.565      1.692      0.99       1.685      0.2083438  0.2083438  0.310267   20.23907   3.835324   1.594      0.3054241  0.4508718  41.683     0.3088582  0.3747385  0.2429779 
1203.9     0.214      8          2          7.447023   1.918      2.705      1.664      1.761      1.773      1.575      1.304      1.603      0.981      1.54       0.211815   0.211815   0.3135673  23.46854   3.73905    1.575      0.311485   0.4547182  41.445     0.3083403  0.3786488  0.2380316 
1204       0.214      8          2          7.460534   1.918      2.896      1.562      1.646      1.634      1.518      1.425      1.749      0.975      1.509      0.21472    0.21472    0.3157675  26.56399   3.66475    1.518      0.3077334  0.4499483  41.079     0.3062045  0.3817649  0.2306441 
1204.1     0.214      8          2          7.470305   1.905      2.781      1.562      1.596      1.545      1.442      1.507      1.857      0.973      1.488      0.2162443  0.2162443  0.3165009  28.3483    3.611935   1.442      0.2952009  0.4380491  40.713     0.3038079  0.3840346  0.2235813 
1204.2     0.214      8          2          7.476171   1.943      2.68       1.537      1.57       1.469      1.384      1.628      1.977      0.974      1.457      0.2165744  0.2165744  0.3161342  28.75029   3.580599   1.384      0.2824456  0.4263651  40.41      0.3016963  0.3854035  0.217989  
1204.3     0.214      8          2          7.477957   2.019      2.591      1.537      1.545      1.418      1.378      1.609      1.946      0.978      1.457      0.2155497  0.2155497  0.3146674  27.52087   3.571109   1.378      0.278005   0.4224159  40.235     0.3003566  0.3858213  0.2148918 
1204.4     0.215      8          2          7.475471   2.07       2.489      1.524      1.507      1.354      1.442      1.577      1.927      0.983      1.488      0.2139343  0.2139343  0.3128339  25.68863   3.584326   1.442      0.2885775  0.4316762  40.189     0.2996957  0.3852398  0.2141516 
1204.5     0.214      8          2          7.468585   2.07       2.388      1.511      1.481      1.329      1.549      1.546      1.971      0.983      1.53       0.2135654  0.2135654  0.3128339  25.28757   3.621177   1.549      0.3110418  0.4512661  40.396     0.3008137  0.3836341  0.2179933 
1204.6     0.214      8          2          7.457249   2.032      2.388      1.524      1.456      1.342      1.543      1.622      2.009      0.978      1.561      0.2141692  0.2141692  0.3146674  25.9473    3.682678   1.543      0.3114812  0.452723   40.921     0.3045399  0.381005   0.2280748 
1204.7     0.214      8          2          7.441296   1.969      2.388      1.575      1.43       1.342      1.486      1.685      1.996      0.973      1.633      0.2132388  0.2132388  0.3165009  24.93778   3.771002   1.486      0.2965491  0.4432317  41.893     0.3129155  0.3773355  0.2484955 
1204.8     0.215      8          2          7.420712   1.918      2.375      1.638      1.405      1.342      1.372      1.577      1.977      0.968      1.726      0.2125817  0.2125817  0.3183344  24.24858   3.888099   1.372      0.2677353  0.4217975  42.737     0.3204628  0.3726531  0.2682725 
1204.9     0.216      8          2          7.395721   1.931      2.375      1.689      1.38       1.354      1.27       1.469      1.965      0.961      1.768      0.2133189  0.2133189  0.3209013  25.02308   4.035161   1.27       0.2429882  0.4027148  43.39      0.3260074  0.3670464  0.2849683 
1205       0.216      -9999      -9999      7.366821   1.969      2.337      1.804      1.367      1.367      1.162      1.406      2.028      0.955      1.819      0.2133114  0.2133114  0.3231015  25.0151    4.212176   1.162      0.210725   0.3780778  44.107     0.3326974  0.3606677  0.304727  
1205.1     0.217      -9999      -9999      7.334483   1.981      2.299      1.956      1.354      1.38       1.073      1.628      2.06       0.949      1.85       0.2115138  0.2115138  0.3253017  23.16895   4.419477   1.073      0.1745915  0.3531525  45.142     0.3448119  0.3536614  0.3359623 
1205.2     0.219      -9999      -9999      7.299613   1.943      2.261      2.108      1.329      1.405      1.13       1.787      1.888      0.943      1.933      0.2084685  0.2084685  0.3275019  20.347     4.654457   1.13       0.1841582  0.3684646  46.305     0.3607073  0.3462589  0.3751556 
1205.3     0.22       -9999      -9999      7.263155   1.842      2.21       2.312      1.316      1.456      1.257      1.946      1.749      0.936      2.088      0.2050639  0.2050639  0.3300688  17.59703   4.913503   1.257      0.2127229  0.3999881  47.467     0.3788027  0.3386851  0.4189202 
1205.4     0.22       -9999      -9999      7.226004   1.74       1.918      2.54       1.278      1.481      1.442      2.092      1.622      0.929      2.212      0.2013057  0.2013057  0.3326357  14.9909    5.192304   1.442      0.2498605  0.4381931  48.566     0.3979697  0.3311378  0.4648017 
1205.5     0.221      -9999      -9999      7.189115   1.664      1.994      2.731      1.316      1.519      1.53       1.857      1.533      0.922      2.408      0.1972507  0.1972507  0.3352026  12.61014   5.4848     1.53       0.2573799  0.4526302  49.602     0.418036   0.3238099  0.5122621 
1205.6     0.223      -9999      -9999      7.153558   1.588      2.121      2.908      1.367      1.634      1.511      1.59       1.641      0.916      2.667      0.1915157  0.1915157  0.3374028  9.873988   5.782312   1.511      0.2335673  0.4448535  50.701     0.4420823  0.3169003  0.5672642 
1205.7     0.224      -9999      -9999      7.12043    1.524      2.426      3.035      1.418      1.748      1.416      1.711      1.73       0.911      2.78       0.1885891  0.1885891  0.3392363  8.71535    6.074008   1.416      0.1991843  0.4248967  51.354     0.4565068  0.3105954  0.6024182 
1205.8     0.225      -9999      -9999      7.0905     1.638      2.743      3.188      1.494      1.697      1.327      1.85       1.812      0.906      2.77       0.1894133  0.1894133  0.3410698  9.027174   6.350178   1.327      0.1775441  0.4088765  51.561     0.4595651  0.3050071  0.6141232 
1205.9     0.226      -9999      -9999      7.064495   1.778      2.921      3.15       1.634      1.634      1.226      2.022      1.901      0.911      2.832      0.1875857  0.1875857  0.3392363  8.35026    6.600303   1.226      0.1391777  0.3806302  51.641     0.4595473  0.3002333  0.6188613 
1206       0.226      -9999      -9999      7.042634   1.867      2.515      2.985      1.532      1.57       1.143      1.85       1.952      0.922      2.687      0.1846043  0.1846043  0.3352026  7.35323    6.818183   1.143      0.09788945 0.3497735  51.593     0.4563584  0.296278   0.6164388 
1206.1     0.226      -9999      -9999      7.025203   1.753      2.223      2.807      1.405      1.481      1.118      1.647      1.692      0.936      2.522      0.1809609  0.1809609  0.3300688  6.294962   6.997046   1.118      0.07251541 0.3311288  51.482     0.4518421  0.2931617  0.6105225 
1206.2     0.225      -9999      -9999      7.012326   1.613      2.045      2.527      1.278      1.405      1.124      1.438      1.501      0.946      2.181      0.1792089  0.1792089  0.3264018  5.841722   7.132189   1.124      0.06696929 0.3258066  51.308     0.4460392  0.2908807  0.6011978 
1206.3     0.225      -9999      -9999      7.003991   1.562      1.905      2.286      1.227      1.329      1.124      1.241      1.349      0.957      2.005      0.1775136  0.1775136  0.3223681  5.434273   7.221048   1.124      0.05921366 0.3181612  51.069     0.4389529  0.2894137  0.5884921 
