~Version
 VERS              .         2.0                           : CWLS LOG ASCII STANDARD - VERSION 2.0
 WRAP              .         NO                            : ONE LINE PER DEPTH STEP
 DLM               .         SPACE                         : DELIMITING CHARACTER(SPACE TAB OR COMMA)
~Well Information
#_______________________________________________________________________________
#
#PARAMETER_NAME    .UNIT     VALUE                         : DESCRIPTION
#_______________________________________________________________________________
STRT               .м        950                           : First reference value
STOP               .м        1308.6                        : Last reference value
STEP               .м        0.1                           : Step increment
NULL               .         -9999                         : Missing value
COMP               .                                       : Company
WELL               .         2142                          : Well name
FLD                .         Узень                         : Field
LOC                .                                       : Location
CNTY               .                                       : County
STAT               .                                       : State
CTRY               .                                       : Country
SRVC               .         SCH                           : Service Company
DATE               .         25.09.2009                    : Date
UWI                .         UZEN_2142                     : Unique Well ID
Block              .         4                             : 
Category           .         Нефтяная                      : 
Condition          .         В работе                      : 
Date               .         01.01.1974                    : 
EREF               .m        231                           : 100.8
Gorizont           .         15                            : 14
Interpretator      .         0                             : 
Kupol              .         Основной                      : osnovnoi
Mud                .         0                             : 
Mud_density        .         0                             : 
Mud_resistivity    .         0                             : 
NGDU               .         НГДУ-1                        : 
ORIGINALWELLNAME   .         2142                          : 
Spud_date          .         1975                          : 1961
Viscosity          .         0                             : 
X                  .m        54618.4                       : 46154
Y                  .m        81581.9                       : 85761.93
YEAR               .         2018                          : 
Исправлено         .         15                            : 
~Parameter Information Block
#_______________________________________________________________________________
#
#PARAMETER_NAME    .UNIT     VALUE                         : DESCRIPTION
#_______________________________________________________________________________
SET                .         LQC_KAZNIPI_Petrel            : 
PBBOTTOM           .м        1308.6                        : Глубина подошвы планшета
PBSCALE            .         1 _ 500                       : Вертикальный масштаб планшета
PBTOP              .м        950                           : Глубина кровли планшета
TLFamily_CALI      .         Caliper                       : 
TLFamily_COLL      .         Net Reservoir Flag            : 
TLFamily_CSAT      .         Fluid Code                    : 
TLFamily_DEPT      .         Measured Depth                : 
TLFamily_GR        .         Russian Gamma Ray             : 
TLFamily_GZ1       .         Gradient 045                  : 
TLFamily_GZ2       .         Gradient 105                  : 
TLFamily_GZ3       .         Gradient 225                  : 
TLFamily_GZ4       .         Gradient 425                  : 
TLFamily_GZ5       .         Gradient 850                  : 
TLFamily_LLS       .         Lateral Log Resistivity       : 
TLFamily_MINV      .         Micro Gradient Resistivity    : 
TLFamily_MNOR      .         Micro Resistivity             : 
TLFamily_NGLD      .         Neutron Gamma                 : 
TLFamily_OGZ       .         Gradient Inverted 225         : 
TLFamily_PHIE      .         Effective Porosity            : 
TLFamily_PHIEN     .         Effective Porosity            : 
TLFamily_PHIT      .         Porosity                      : 
TLFamily_PRMB      .         Permeability                  : 
TLFamily_PRMB_DGR  .         Permeability                  : 
TLFamily_RT        .         Formation Resistivity         : 
TLFamily_SOIL_ARCHIE .         Oil Saturation                : 
TLFamily_SOIL_DW   .         Oil Saturation                : 
TLFamily_SP        .         Spontaneous Potential         : 
TLFamily_VSH_FIN   .         Shale Volume                  : 
TLFamily_VSH_GR    .         Shale Volume                  : 
TLFamily_VSH_SP    .         Shale Volume                  : 
~Curve Information
#_______________________________________________________________________________
#
#LOGNAME           .UNIT     LOG_ID                        : DESCRIPTION
#_______________________________________________________________________________
DEPT               .м                                      : Колонка глубины 
CALI               .м                                      : Каверномер 
COLL               .unitless                               : Описание 
CSAT               .unitless                               : Описание 
GR                 .uR/h                                   : Гамма каротаж 
GZ1                .Ohmm                                   : Градиент-зонд  длиной 0.45м 
GZ2                .Ohmm                                   : Градиент-зонд  длиной 1.05м 
GZ3                .Ohmm                                   : Градиент-зонд  длиной 2.25м 
GZ4                .Ohmm                                   : Градиент-зонд  длиной 4.5м 
GZ5                .Ohmm                                   : Градиент-зонд  длиной 8.5м 
LLS                .Ohmm                                   : Боковой каротаж 
MINV               .Ohmm                                   : Микро-градиент зонд 
MNOR               .Ohmm                                   : Микро-потенциал зонд 
NGLD               .у.е.                                   : Показания зонда НГК-60 аппаратуры ДРСТ-3-90 
OGZ                .Ohmm                                   : Обращенный градиент-зонд 
PHIE               .v/v                                    : Описание 
PHIEN              .v/v                                    :  
PHIT               .v/v                                    : Описание 
PRMB               .mD                                     :  
PRMB_DGR           .mD                                     :  
RT                 .ohmm                                   : УЭС пласта 
SOIL_ARCHIE        .v/v                                    :  
SOIL_DW            .v/v                                    :  
SP                 .mv                                     : Потенциал самополяризации 
VSH_FIN            .v/v                                    : Описание 
VSH_GR             .v/v                                    : Shale volume 
VSH_SP             .v/v                                    : Shale Volume 
~Ascii
# ...
974.2000000000001 0.229      -9999      -9999      7.375918   4.42       9.653      9.018      6.573999   4.225      7.62       3.54       3.444      1.129      4.041      0.04122099 0.04122099 0.2592957  0.01624317 1.705977   7.62       0          0.5032611  39.888     0.6608325  0.521665   0.8       
974.3      0.23       -9999      -9999      7.254485   3.912      9.78       9.462001   6.181001   4.288      6.128      2.358      2.244      1.104      3.866      0.0538463  0.0538463  0.2684632  0.02783058 1.886173   6.128      0          0.4976979  39.952     0.6503543  0.5007086  0.8       
974.4      0.23       -9999      -9999      7.145636   4.128      10.224     9.906999   5.66       4.313      5.271      2.974      3.101      1.075      3.597      0.06746179 0.06746179 0.2790975  0.04974094 2.063812   5.271      0          0.5071216  40.016     0.6413203  0.4826406  0.8       
974.5      0.231      -9999      -9999      7.051179   4.407      11.177     10.415     5.710999   4.313      4.572      3.673      3.705      1.042      3.37       0.08206262 0.08206262 0.2911986  0.09271648 2.231468   4.572      0.03288422 0.5168735  40.079     0.6337453  0.4674906  0.8       
974.6      0.231      -9999      -9999      6.972126   4.687      11.812     10.923     5.774001   4.25       3.683      3.806      3.863      1.003      3.132      0.09839559 0.09839559 0.3054999  0.1860729  2.382207   3.683      0.08612454 0.5092633  40.143     0.6275888  0.4551776  0.8       
974.7000000000001 0.231      -9999      -9999      6.908615   4.966      12.32      11.177     5.85       4.174      3.026      3.882      3.882      0.976      2.925      0.1098899  0.1098899  0.3154008  0.3037984  2.510655   3.026      0.08979253 0.4896277  40.207     0.6227603  0.4455206  0.8       
974.8      0.231      -9999      -9999      6.860392   5.244999   12.637     11.05      5.952      4.085      2.369      3.914      3.882      0.937      2.708      0.1253784  0.1253784  0.3297021  0.5881269  2.612789   2.369      0.08977305 0.4650234  40.27      0.6191626  0.4383252  0.8       
974.9      0.23       -9999      -9999      6.826191   5.512      12.447     10.605     5.914001   3.996      2.058      3.914      3.889      0.906      2.543      0.1375765  0.1375765  0.3410698  0.9894826  2.687733   2.058      0.1031642  0.4568428  40.334     0.6166464  0.4332928  0.8       
975        0.23       -9999      -9999      6.80469    5.741      11.939     9.843001   5.749      3.882      1.746      3.914      3.882      0.885      2.357      0.1457943  0.1457943  0.3487705  1.404828   2.735946   1.746      0.07896967 0.4308094  40.398     0.6150793  0.4301586  0.8       
975.1      0.23       -9999      -9999      6.79435    5.398      11.05      8.954      5.456999   3.767      1.562      3.901      3.851      0.872      2.191      0.1508088  0.1508088  0.3535376  1.739815   2.759438   1.562      0.05772391 0.4107456  40.461     0.6143297  0.4286594  0.8       
975.2000000000001 0.231      -9999      -9999      6.793833   4.661      10.288     7.684      4.987      3.64       1.461      3.794      3.794      0.87       2.047      0.1515545  0.1515545  0.354271   1.796038   2.760617   1.461      0.03186588 0.3926221  40.461     0.6142923  0.4285846  0.8       
975.3      0.234      -9999      -9999      6.801793   4.064      9.272      7.167      4.555      3.526      1.429      1.66       2.777      0.876      1.943      0.149164   0.149164   0.3520708  1.621952   2.742508   1.429      0.008112024 0.3798098  40.398     0.614869   0.429738   0.8       
975.4      0.24       -9999      -9999      6.816757   3.62       7.557      6.651      4.25       3.463      1.467      1.952      1.927      0.885      1.902      0.1455046  0.1455046  0.3487705  1.387572   2.708782   1.467      0          0.3785841  40.398     0.6159574  0.4319148  0.8       
975.5      0.245      -9999      -9999      6.837548   2.807      6.858      6.134      3.767      3.386      1.48       1.711      1.99       0.896      1.964      0.1409688  0.1409688  0.3447368  1.143517   2.662611   1.48       0          0.369467   40.334     0.6174787  0.4349575  0.8       
975.6      0.251      -9999      -9999      6.863467   2.489      6.16       5.842      3.272      3.323      1.588      1.323      1.488      0.909      2.119      0.1355709  0.1355709  0.3399697  0.9083642  2.606153   1.588      0          0.3770763  40.27      0.6193903  0.4387807  0.8       
975.7000000000001 0.255      -9999      -9999      6.894119   2.146      5.436      5.512      2.916      3.285      2.292      1.584      1.603      0.919      2.388      0.1311507  0.1311507  0.3363027  0.7522941  2.54093    2.292      0.1110883  0.4715934  40.27      0.6216726  0.4433453  0.8       
975.8      0.258      -9999      -9999      6.92927    1.905      4.839      5.411      2.751      3.285      4.541      1.457      1.533      0.93       2.636      0.1262436  0.1262436  0.332269   0.6102341  2.468139   4.541      0.3332837  0.6164605  40.207     0.6243193  0.4486385  0.8       
975.9      0.259      -9999      -9999      6.968864   1.74       4.306      5.563      2.662      3.336      6.096      1.139      1.45       0.942      2.936      0.120847   0.120847   0.3278686  0.4847716  2.38864    6.096      0.396815   0.6608787  40.207     0.6273383  0.4546766  0.8       
976        0.26       -9999      -9999      7.01294    1.549      3.759      6.046      2.586      3.463      5.747      1.641      1.552      0.956      3.504      0.1145884  0.1145884  0.3227348  0.3712037  2.303152   5.747      0.3504982  0.6404607  40.143     0.6307468  0.4614937  0.8       
976.1      0.256      -9999      -9999      7.061489   1.397      3.391      6.617      2.561      3.666      4.699      1.539      1.641      0.964      4.217      0.1103963  0.1103963  0.3198012  0.3104309  2.212526   4.699      0.2625916  0.5947681  40.079     0.6345604  0.4691208  0.8       
976.2000000000001 0.245      -9999      -9999      7.114098   1.359      3.544      7.265      2.65       4.034      3.671      1.342      1.406      0.952      4.817      0.1134094  0.1134094  0.3242016  0.3530008  2.118342   3.671      0.1912069  0.5498375  40.079     0.6387641  0.4775283  0.8       
976.3      0.233      -9999      -9999      7.169977   1.791      3.975      7.697      2.891      4.352      2.642      1.222      2.015      0.929      4.982      0.1203428  0.1203428  0.3326357  0.4744594  2.022689   2.642      0.1037544  0.4889011  40.016     0.6433117  0.4866235  0.8       
976.4      0.227      -9999      -9999      7.227857   2.4        4.763      7.887001   3.221      4.517      2.42       2.943      2.739      0.907      4.693      0.1268256  0.1268256  0.3407031  0.6255707  1.928162   2.42       0.1077883  0.4838614  39.824     0.6481135  0.4962271  0.8       
976.5      0.227      -9999      -9999      7.286169   2.997      5.144      7.659      3.64       4.58       2.115      3.901      3.457      0.882      4.228      0.1343651  0.1343651  0.3498706  0.8628313  1.837399   2.115      0.09618593 0.4683307  39.697     0.6530469  0.5060939  0.8       
976.6      0.23       -9999      -9999      7.343076   2.845      5.538      7.138      4.644      4.593      1.95       3.889      3.832      0.862      3.752      0.1400791  0.1400791  0.3572046  1.100937   1.752941   1.95       0.09451764 0.4617312  39.506     0.6579561  0.5159122  0.8       
976.7000000000001 0.24       -9999      -9999      7.396593   2.807      4.28       6.274      5.685      4.529      1.819      3.692      1.279      0.86       3.421      0.1392603  0.1392603  0.357938   1.063156   1.677061   1.819      0.0596922  0.4422367  39.379     0.6626596  0.5253193  0.8       
976.8      0.248      -9999      -9999      7.444789   2.667      3.594      5.423      5.799      4.377      1.829      1.114      1.387      0.869      3.132      0.134538   0.134538   0.3546377  0.8692157  1.611541   1.829      0.03350022 0.4334736  39.187     0.6669689  0.5339378  0.8       
