~Version
 VERS              .         2.0                           : CWLS LOG ASCII STANDARD - VERSION 2.0
 WRAP              .         NO                            : ONE LINE PER DEPTH STEP
 DLM               .         SPACE                         : DELIMITING CHARACTER(SPACE TAB OR COMMA)
~Well Information
#_______________________________________________________________________________
#
#PARAMETER_NAME    .UNIT     VALUE                         : DESCRIPTION
#_______________________________________________________________________________
STRT               .м        950                           : First reference value
STOP               .м        1308.6                        : Last reference value
STEP               .м        0.1                           : Step increment
NULL               .         -9999                         : Missing value
COMP               .                                       : Company
WELL               .         2142                          : Well name
FLD                .         Узень                         : Field
LOC                .                                       : Location
CNTY               .                                       : County
STAT               .                                       : State
CTRY               .                                       : Country
SRVC               .         SCH                           : Service Company
DATE               .         25.09.2009                    : Date
UWI                .         UZEN_2142                     : Unique Well ID
Block              .         4                             : 
Category           .         Нефтяная                      : 
Condition          .         В работе                      : 
Date               .         01.01.1974                    : 
EREF               .m        231                           : 100.8
Gorizont           .         15                            : 14
Interpretator      .         0                             : 
Kupol              .         Основной                      : osnovnoi
Mud                .         0                             : 
Mud_density        .         0                             : 
Mud_resistivity    .         0                             : 
NGDU               .         НГДУ-1                        : 
ORIGINALWELLNAME   .         2142                          : 
Spud_date          .         1975                          : 1961
Viscosity          .         0                             : 
X                  .m        54618.4                       : 46154
Y                  .m        81581.9                       : 85761.93
YEAR               .         2018                          : 
Исправлено         .         15                            : 
~Parameter Information Block
#_______________________________________________________________________________
#
#PARAMETER_NAME    .UNIT     VALUE                         : DESCRIPTION
#_______________________________________________________________________________
SET                .         LQC_KAZNIPI_Petrel            : 
PBBOTTOM           .м        1308.6                        : Глубина подошвы планшета
PBSCALE            .         1 _ 500                       : Вертикальный масштаб планшета
PBTOP              .м        950                           : Глубина кровли планшета
TLFamily_CALI      .         Caliper                       : 
TLFamily_COLL      .         Net Reservoir Flag            : 
TLFamily_CSAT      .         Fluid Code                    : 
TLFamily_DEPT      .         Measured Depth                : 
TLFamily_GR        .         Russian Gamma Ray             : 
TLFamily_GZ1       .         Gradient 045                  : 
TLFamily_GZ2       .         Gradient 105                  : 
TLFamily_GZ3       .         Gradient 225                  : 
TLFamily_GZ4       .         Gradient 425                  : 
TLFamily_GZ5       .         Gradient 850                  : 
TLFamily_LLS       .         Lateral Log Resistivity       : 
TLFamily_MINV      .         Micro Gradient Resistivity    : 
TLFamily_MNOR      .         Micro Resistivity             : 
TLFamily_NGLD      .         Neutron Gamma                 : 
TLFamily_OGZ       .         Gradient Inverted 225         : 
TLFamily_PHIE      .         Effective Porosity            : 
TLFamily_PHIEN     .         Effective Porosity            : 
TLFamily_PHIT      .         Porosity                      : 
TLFamily_PRMB      .         Permeability                  : 
TLFamily_PRMB_DGR  .         Permeability                  : 
TLFamily_RT        .         Formation Resistivity         : 
TLFamily_SOIL_ARCHIE .         Oil Saturation                : 
TLFamily_SOIL_DW   .         Oil Saturation                : 
TLFamily_SP        .         Spontaneous Potential         : 
TLFamily_VSH_FIN   .         Shale Volume                  : 
TLFamily_VSH_GR    .         Shale Volume                  : 
TLFamily_VSH_SP    .         Shale Volume                  : 
~Curve Information
#_______________________________________________________________________________
#
#LOGNAME           .UNIT     LOG_ID                        : DESCRIPTION
#_______________________________________________________________________________
DEPT               .м                                      : Колонка глубины 
CALI               .м                                      : Каверномер 
COLL               .unitless                               : Описание 
CSAT               .unitless                               : Описание 
GR                 .uR/h                                   : Гамма каротаж 
GZ1                .Ohmm                                   : Градиент-зонд  длиной 0.45м 
GZ2                .Ohmm                                   : Градиент-зонд  длиной 1.05м 
GZ3                .Ohmm                                   : Градиент-зонд  длиной 2.25м 
GZ4                .Ohmm                                   : Градиент-зонд  длиной 4.5м 
GZ5                .Ohmm                                   : Градиент-зонд  длиной 8.5м 
LLS                .Ohmm                                   : Боковой каротаж 
MINV               .Ohmm                                   : Микро-градиент зонд 
MNOR               .Ohmm                                   : Микро-потенциал зонд 
NGLD               .у.е.                                   : Показания зонда НГК-60 аппаратуры ДРСТ-3-90 
OGZ                .Ohmm                                   : Обращенный градиент-зонд 
PHIE               .v/v                                    : Описание 
PHIEN              .v/v                                    :  
PHIT               .v/v                                    : Описание 
PRMB               .mD                                     :  
PRMB_DGR           .mD                                     :  
RT                 .ohmm                                   : УЭС пласта 
SOIL_ARCHIE        .v/v                                    :  
SOIL_DW            .v/v                                    :  
SP                 .mv                                     : Потенциал самополяризации 
VSH_FIN            .v/v                                    : Описание 
VSH_GR             .v/v                                    : Shale volume 
VSH_SP             .v/v                                    : Shale Volume 
~Ascii
# ...
1111.9     0.235      -9999      -9999      6.087319   1.435      2.566      2.083      1.735      1.735      1.74       1.025      1.723      1.112      3.101      0.08681972 0.08681972 0.2655296  0.1135717  2.816214   1.74       0          0.1827813  47.206     0.5415451  0.4251093  0.6579809 
1112       0.232      -9999      -9999      6.053334   1.816      2.477      2.146      1.862      1.773      2.083      2.384      2.371      1.125      3.153      0.08331537 0.08331537 0.2607625  0.09780493 2.902596   2.083      0          0.2334214  47.145     0.5377186  0.4198971  0.65554   
1112.1     0.23       -9999      -9999      6.026469   1.88       2.312      2.21       1.977      1.824      2.356      3.305      3.813      1.137      3.204      0.07999462 0.07999462 0.2563621  0.0848892  2.972752   2.356      0          0.2609328  47.083     0.534447   0.4158222  0.6530716 
1112.2     0.228      -9999      -9999      6.006747   1.816      2.185      2.273      2.091      1.875      2.839      3.857      3.114      1.151      3.194      0.07612055 0.07612055 0.2512283  0.07196068 3.02533    2.839      0          0.3061547  46.958     0.5306295  0.412856   0.648403  
1112.3     0.228      -9999      -9999      5.993801   2.007      2.921      2.362      2.18       1.913      3.245      2.873      2.009      1.162      3.111      0.07280984 0.07280984 0.2471946  0.06248458 3.060348   3.245      0          0.3341876  46.896     0.5284387  0.4109204  0.6459571 
1112.4     0.229      -9999      -9999      5.986809   2.553      3.239      2.451      2.231      1.951      3.15       1.825      2.981      1.164      2.967      0.07191395 0.07191395 0.2464612  0.06014214 3.079429   3.15       0          0.3201005  46.962     0.528931   0.4098788  0.6479833 
1112.5     0.231      -9999      -9999      5.984477   2.756      3.023      2.527      2.243      2.002      2.801      3.844      3.832      1.156      2.822      0.07457539 0.07457539 0.2493948  0.06737133 3.085821   2.801      0          0.2932292  47.027     0.5297558  0.409532   0.6499797 
1112.6     0.232      -9999      -9999      5.985423   2.807      2.82       2.604      2.243      2.04       2.146      3.349      3.216      1.142      2.677      0.07934994 0.07934994 0.2545286  0.08258696 3.083226   2.146      0          0.2197966  47.093     0.5308444  0.4096726  0.6520163 
1112.7     0.232      -9999      -9999      5.988154   2.718      2.934      2.604      2.231      2.002      1.962      2.612      2.568      1.127      2.553      0.08444645 0.08444645 0.2600291  0.1026387  3.075751   1.962      0          0.2122976  47.159     0.5320687  0.4100789  0.6540585 
1112.8     0.233      -9999      -9999      5.991131   2.629      3.112      2.566      2.192      1.977      1.924      1.876      2.879      1.112      2.439      0.08954181 0.08954181 0.2655296  0.1275527  3.067621   1.924      0          0.2310521  47.224     0.5332963  0.4105223  0.6560704 
1112.9     0.233      -9999      -9999      5.992877   2.718      3.277      2.553      2.167      1.938      1.797      1.622      3.266      1.097      2.377      0.09466065 0.09466065 0.2710301  0.158673   3.062862   1.797      0          0.2299419  47.29      0.5344529  0.4107827  0.658123  
1113       0.232      -9999      -9999      5.991966   2.756      3.493      2.591      2.116      1.913      1.721      1.349      3.559      1.083      2.305      0.09947737 0.09947737 0.2761639  0.1948589  3.065345   1.721      0          0.236074   47.356     0.5354138  0.4106468  0.6601809 
1113.1     0.232      -9999      -9999      5.987327   2.527      3.366      2.642      2.078      1.875      1.645      1.488      2.454      1.084      2.253      0.09889005 0.09889005 0.2757972  0.1900385  3.078012   1.645      0          0.2163198  47.421     0.5360823  0.4099559  0.6622087 
1113.2     0.231      -9999      -9999      5.978327   2.4        3.213      2.68       2.053      1.837      1.632      1.641      2.701      1.089      2.284      0.09693588 0.09693588 0.2739637  0.174842   3.102736   1.632      0          0.2042306  47.487     0.5364479  0.4086187  0.6642771 
1113.3     0.232      -9999      -9999      5.964599   2.312      3.175      2.642      2.027      1.888      1.619      1.793      3.019      1.1        2.326      0.09289513 0.09289513 0.26993    0.1471639  3.140834   1.619      0          0.1812041  47.553     0.5364693  0.4065875  0.666351  
1113.4     0.232      -9999      -9999      5.946305   2.185      3.137      2.629      2.027      1.951      1.613      1.723      2.892      1.112      2.367      0.0885898  0.0885898  0.2655296  0.1224774  3.192332   1.613      0          0.1570834  47.62      0.5361812  0.4038964  0.668466  
1113.5     0.232      -9999      -9999      5.924041   2.083      3.112      2.642      2.027      2.015      1.842      1.66       2.752      1.12       2.439      0.08622813 0.08622813 0.262596   0.110742   3.256143   1.842      0          0.1980318  47.622     0.5344481  0.4006454  0.6682508 
1113.6     0.232      -9999      -9999      5.898689   2.045      3.112      2.693      2.027      2.065      2.312      1.615      2.612      1.129      2.491      0.08394723 0.08394723 0.2592957  0.1004765  3.330362   2.312      0          0.2715414  47.56      0.5313591  0.3969753  0.6657428 
1113.7     0.231      -9999      -9999      5.871319   2.096      3.417      2.769      2.065      2.129      2.788      2.974      2.523      1.138      2.543      0.08132987 0.08132987 0.2559954  0.08986374 3.412387   2.788      0          0.3237549  47.562     0.5292895  0.3930508  0.6655282 
1113.8     0.231      -9999      -9999      5.842991   2.248      3.671      2.845      2.104      2.192      3.004      3.463      3.076      1.148      2.574      0.07873879 0.07873879 0.2523284  0.08046213 3.499413   3.004      0          0.335027   47.5       0.5260291  0.3890297  0.6630285 
1113.9     0.23       -9999      -9999      5.81483    2.54       4.013      2.934      2.18       2.243      2.75       3.997      3.489      1.154      2.574      0.0772267  0.0772267  0.2501282  0.07543691 3.588124   2.75       0          0.2963669  47.502     0.5239439  0.3850732  0.6628146 
1114       0.23       -9999      -9999      5.787725   2.82       3.81       3.035      2.243      2.37       2.331      3.978      3.927      1.149      2.501      0.08009332 0.08009332 0.2519617  0.08524729 3.675635   2.331      0          0.2487331  47.44      0.5208132  0.3813029  0.6603236 
1114.1     0.23       -9999      -9999      5.762323   2.908      3.544      3.162      2.307      2.472      2.007      3.832      3.565      1.137      2.367      0.08510636 0.08510636 0.2563621  0.1055685  3.75958    2.007      0          0.2159714  47.442     0.5189568  0.3778032  0.6601105 
1114.2     0.23       -9999      -9999      5.738928   2.921      3.15       3.302      2.319      2.51       1.823      3.514      3.19       1.122      2.222      0.09116919 0.09116919 0.2618626  0.1367202  3.83859    1.823      0          0.20781    47.444     0.5172528  0.3746082  0.6598974 
1114.3     0.231      -9999      -9999      5.717844   2.731      3.226      3.429      2.281      2.434      1.892      2.968      2.809      1.109      2.088      0.09681125 0.09681125 0.2666297  0.1739151  3.911214   1.892      0          0.2474805  47.383     0.5146014  0.3717522  0.6574507 
1114.4     0.232      -9999      -9999      5.698987   2.616      3.366      3.531      2.256      2.332      2.045      1.641      2.555      1.096      1.954      0.1031425  0.1031425  0.2713968  0.2278281  3.977332   2.045      0          0.3003454  47.194     0.5098616  0.3692163  0.6505069 
1114.5     0.233      -9999      -9999      5.682107   2.578      3.493      3.594      2.218      2.218      1.988      1.888      2.892      1.086      1.923      0.1090498  0.1090498  0.2750638  0.293106   4.037467   1.988      0          0.3104302  46.877     0.5030728  0.3669608  0.6391848 
