~Version
 VERS              .         2.0                           : CWLS LOG ASCII STANDARD - VERSION 2.0
 WRAP              .         NO                            : ONE LINE PER DEPTH STEP
 DLM               .         SPACE                         : DELIMITING CHARACTER(SPACE TAB OR COMMA)
~Well Information
#_______________________________________________________________________________
#
#PARAMETER_NAME    .UNIT     VALUE                         : DESCRIPTION
#_______________________________________________________________________________
STRT               .м        950                           : First reference value
STOP               .м        1308.6                        : Last reference value
STEP               .м        0.1                           : Step increment
NULL               .         -9999                         : Missing value
COMP               .                                       : Company
WELL               .         2142                          : Well name
FLD                .         Узень                         : Field
LOC                .                                       : Location
CNTY               .                                       : County
STAT               .                                       : State
CTRY               .                                       : Country
SRVC               .         SCH                           : Service Company
DATE               .         25.09.2009                    : Date
UWI                .         UZEN_2142                     : Unique Well ID
Block              .         4                             : 
Category           .         Нефтяная                      : 
Condition          .         В работе                      : 
Date               .         01.01.1974                    : 
EREF               .m        231                           : 100.8
Gorizont           .         15                            : 14
Interpretator      .         0                             : 
Kupol              .         Основной                      : osnovnoi
Mud                .         0                             : 
Mud_density        .         0                             : 
Mud_resistivity    .         0                             : 
NGDU               .         НГДУ-1                        : 
ORIGINALWELLNAME   .         2142                          : 
Spud_date          .         1975                          : 1961
Viscosity          .         0                             : 
X                  .m        54618.4                       : 46154
Y                  .m        81581.9                       : 85761.93
YEAR               .         2018                          : 
Исправлено         .         15                            : 
~Parameter Information Block
#_______________________________________________________________________________
#
#PARAMETER_NAME    .UNIT     VALUE                         : DESCRIPTION
#_______________________________________________________________________________
SET                .         LQC_KAZNIPI_Petrel            : 
PBBOTTOM           .м        1308.6                        : Глубина подошвы планшета
PBSCALE            .         1 _ 500                       : Вертикальный масштаб планшета
PBTOP              .м        950                           : Глубина кровли планшета
TLFamily_CALI      .         Caliper                       : 
TLFamily_COLL      .         Net Reservoir Flag            : 
TLFamily_CSAT      .         Fluid Code                    : 
TLFamily_DEPT      .         Measured Depth                : 
TLFamily_GR        .         Russian Gamma Ray             : 
TLFamily_GZ1       .         Gradient 045                  : 
TLFamily_GZ2       .         Gradient 105                  : 
TLFamily_GZ3       .         Gradient 225                  : 
TLFamily_GZ4       .         Gradient 425                  : 
TLFamily_GZ5       .         Gradient 850                  : 
TLFamily_LLS       .         Lateral Log Resistivity       : 
TLFamily_MINV      .         Micro Gradient Resistivity    : 
TLFamily_MNOR      .         Micro Resistivity             : 
TLFamily_NGLD      .         Neutron Gamma                 : 
TLFamily_OGZ       .         Gradient Inverted 225         : 
TLFamily_PHIE      .         Effective Porosity            : 
TLFamily_PHIEN     .         Effective Porosity            : 
TLFamily_PHIT      .         Porosity                      : 
TLFamily_PRMB      .         Permeability                  : 
TLFamily_PRMB_DGR  .         Permeability                  : 
TLFamily_RT        .         Formation Resistivity         : 
TLFamily_SOIL_ARCHIE .         Oil Saturation                : 
TLFamily_SOIL_DW   .         Oil Saturation                : 
TLFamily_SP        .         Spontaneous Potential         : 
TLFamily_VSH_FIN   .         Shale Volume                  : 
TLFamily_VSH_GR    .         Shale Volume                  : 
TLFamily_VSH_SP    .         Shale Volume                  : 
~Curve Information
#_______________________________________________________________________________
#
#LOGNAME           .UNIT     LOG_ID                        : DESCRIPTION
#_______________________________________________________________________________
DEPT               .м                                      : Колонка глубины 
CALI               .м                                      : Каверномер 
COLL               .unitless                               : Описание 
CSAT               .unitless                               : Описание 
GR                 .uR/h                                   : Гамма каротаж 
GZ1                .Ohmm                                   : Градиент-зонд  длиной 0.45м 
GZ2                .Ohmm                                   : Градиент-зонд  длиной 1.05м 
GZ3                .Ohmm                                   : Градиент-зонд  длиной 2.25м 
GZ4                .Ohmm                                   : Градиент-зонд  длиной 4.5м 
GZ5                .Ohmm                                   : Градиент-зонд  длиной 8.5м 
LLS                .Ohmm                                   : Боковой каротаж 
MINV               .Ohmm                                   : Микро-градиент зонд 
MNOR               .Ohmm                                   : Микро-потенциал зонд 
NGLD               .у.е.                                   : Показания зонда НГК-60 аппаратуры ДРСТ-3-90 
OGZ                .Ohmm                                   : Обращенный градиент-зонд 
PHIE               .v/v                                    : Описание 
PHIEN              .v/v                                    :  
PHIT               .v/v                                    : Описание 
PRMB               .mD                                     :  
PRMB_DGR           .mD                                     :  
RT                 .ohmm                                   : УЭС пласта 
SOIL_ARCHIE        .v/v                                    :  
SOIL_DW            .v/v                                    :  
SP                 .mv                                     : Потенциал самополяризации 
VSH_FIN            .v/v                                    : Описание 
VSH_GR             .v/v                                    : Shale volume 
VSH_SP             .v/v                                    : Shale Volume 
~Ascii
950.0      0.236      -9999      -9999      -9999      3.607      5.017      4.572      3.424      2.993      4.89       3.349      3.876      1.157      5.592      1          1          0.2490281  9323613800000000.0000000 -9999      4.89       0.893819   0.6651605  32.627     -4999.183  -9999      0.6347253 
950.1      0.236      -9999      -9999      -9999      3.925      6.071      4.979      3.831      3.272      4.699      2.409      2.403      1.156      5.912      1          1          0.2493948  9323613800000000.0000000 -9999      4.699      0.8918151  0.6589254  32.563     -4999.184  -9999      0.6331553 
950.2000000000001 0.235      -9999      -9999      -9999      3.798      6.541      5.411      4.136      3.551      4.985      2.968      3.26       1.154      6.067      1          1          0.2501282  9323613800000000.0000000 -9999      4.985      0.8947734  0.669825   32.499     -4999.184  -9999      0.6315886 
950.3      0.234      -9999      -9999      -9999      3.696      7.874      5.792      4.479      3.856      6.446      3.825      3.781      1.156      6.129      1          1          0.2493948  9323613800000000.0000000 -9999      6.446      0.9067296  0.7087896  32.436     -4999.185  -9999      0.6300495 
950.4      0.232      -9999      -9999      -9999      4.217      8.891      6.16       4.923      4.148      6.319      3.324      2.981      1.162      5.985      1          1          0.2471946  9323613800000000.0000000 -9999      6.319      0.9058545  0.7032599  32.308     -4999.187  -9999      0.6269321 
950.5      0.229      -9999      -9999      -9999      4.598      9.589      6.604      5.19       4.364      5.779      2.898      2.32       1.163      5.819      1          1          0.2468279  9323613800000000.0000000 -9999      5.779      0.9018241  0.6892444  31.926     -4999.191  -9999      0.6177059 
950.6      0.227      -9999      -9999      -9999      4.864      9.081      6.909      5.393      4.593      4.826      2.479      2.949      1.15       5.561      1          1          0.251595   9323613800000000.0000000 -9999      4.826      0.8931605  0.6663864  31.48      -4999.196  -9999      0.6070791 
950.7000000000001 0.226      -9999      -9999      -9999      3.162      7.938001   7.151      5.52       4.771      4.223      2.263      3.825      1.132      5.427      1          1          0.2581956  9323613800000000.0000000 -9999      4.223      0.8862548  0.6524798  31.098     -4999.201  -9999      0.598101  
950.8      0.226      -9999      -9999      -9999      4.217      8.319      8.002      5.698      4.898      6.731      3.8        3.165      1.116      5.189      1          1          0.2640628  9323613800000000.0000000 -9999      6.731      0.9086041  0.7308512  30.652     -4999.206  -9999      0.5877618 
950.9      0.226      -9999      -9999      -9999      5.068      8.954      8.319      5.901      4.987      9.113      3.806      2.079      1.1        4.868      1          1          0.26993    9323613800000000.0000000 -9999      9.113      0.9207169  0.7737141  30.27      -4999.21   -9999      0.5790282 
951        0.225      -9999      -9999      -9999      5.284      9.843001   8.827      6.192999   4.949      10.034     3.774      0.923      1.087      4.393      1          1          0.2746971  9323613800000000.0000000 -9999      10.034     0.9242192  0.7880915  29.824     -4999.215  -9999      0.5689726 
951.1      0.225      -9999      -9999      -9999      5.398      10.605     9.208      6.117      4.91       8.7        1.526      2.346      1.072      4.083      1          1          0.2801976  9323613800000000.0000000 -9999      8.7        0.9189726  0.7768918  29.442     -4999.22   -9999      0.5604801 
951.2000000000001 0.224      -9999      -9999      -9999      5.639      11.177     9.018      5.939      4.86       7.589      0.936      3.819      1.055      3.411      1          1          0.2864315  9323613800000000.0000000 -9999      7.589      0.9136075  0.7663174  28.932     -4999.226  -9999      0.5493133 
951.3      0.223      -9999      -9999      -9999      5.817      11.494     8.764      5.761      4.783      6.731      3.749      3.495      1.04       2.915      1          1          0.291932   9323613800000000.0000000 -9999      6.731      0.9086041  0.7565454  28.423     -4999.231  -9999      0.5383623 
951.4      0.222      -9999      -9999      -9999      5.449      11.748     8.383      5.418      4.706999   5.303      3.825      3.171      1.025      2.677      1          1          0.2974325  9323613800000000.0000000 -9999      5.303      0.8977831  0.7307906  27.913     -4999.236  -9999      0.5275822 
951.5      0.221      -9999      -9999      -9999      5.169      11.812     7.684      4.987      4.339      4.509      3.838      2.86       1.014      2.47       1          1          0.3014662  9323613800000000.0000000 -9999      4.509      0.8896993  0.7119547  27.404     -4999.242  -9999      0.5170134 
951.6      0.22       -9999      -9999      -9999      4.763      11.304     7.366      4.555      3.831      3.874      3.794      2.631      1.008      2.377      1          1          0.3036664  9323613800000000.0000000 -9999      3.874      0.8815562  0.6914945  26.894     -4999.247  -9999      0.5066129 
951.7000000000001 0.219      -9999      -9999      -9999      4.344      10.288     6.858      4.11       3.348      3.016      3.546      2.739      1.003      2.264      1          1          0.3054999  9323613800000000.0000000 -9999      3.016      0.8667907  0.6524537  26.385     -4999.252  -9999      0.4964196 
951.8      0.219      -9999      -9999      -9999      3.95       9.208      6.173      3.78       3.043      2.959      2.117      2.847      0.998      2.16       1          1          0.3073334  9323613800000000.0000000 -9999      2.959      0.8655926  0.6512154  25.811     -4999.257  -9999      0.4851462 
951.9      0.219      -9999      -9999      -9999      3.556      8.573      5.461      3.437      2.713      2.693      1.819      3.019      0.997      2.088      1          1          0.3077001  9323613800000000.0000000 -9999      2.693      0.8595182  0.6348312  25.557     -4999.26   -9999      0.480232  
952        0.219      -9999      -9999      6.830167   3.162      7.686999   4.966      2.929      2.446      2.508      1.736      3.216      1.002      2.016      0.155647   0.155647   0.3058666  2.138539   2.678911   2.508      0.2659398  0.49716    25.365     0.4552111  0.4338748  0.4765474 
952.1      0.219      -9999      -9999      6.832123   2.934      7.455      4.598      2.472      2.281      2.267      2.231      2.085      1.008      2.047      0.154      0.154      0.3036664  1.993479   2.674581   2.267      0.2231364  0.466572   25.174     0.4535345  0.4341615  0.4729076 
952.2000000000001 0.219      -9999      -9999      6.834293   2.743      6.874      4.458      2.231      2.053      2.121      2.523      2.384      1.015      2.14       0.1491557  0.1491557  0.3010995  1.621378   2.669786   2.121      0.1758599  0.4387734  25.875     0.4604357  0.4344797  0.4863916 
952.3      0.22       -9999      -9999      6.836809   2.68       6.178      4.674      2.18       2.091      2.178      1.793      2.047      1.022      2.295      0.1442458  0.1442458  0.2985326  1.315043   2.664241   2.178      0.1619743  0.4360573  26.576     0.4675359  0.4348489  0.5002229 
952.4      0.22       -9999      -9999      6.840092   2.654      5.487      5.131      2.307      2.154      2.372      1.393      1.628      1.026      2.45       0.1403625  0.1403625  0.2970658  1.114327   2.657016   2.372      0.1755004  0.4523045  27.276     0.4748583  0.4353312  0.5143855 
952.5      0.22       -9999      -9999      6.844687   2.616      5.004      5.639      2.535      2.218      2.35       1.996      1.946      1.027      2.729      0.1377069  0.1377069  0.2966991  0.9950016  2.646942   2.35       0.1579954  0.4453292  27.913     0.4817946  0.4360071  0.5275822 
