~Version
 VERS              .         2.0                           : CWLS LOG ASCII STANDARD - VERSION 2.0
 WRAP              .         NO                            : ONE LINE PER DEPTH STEP
 DLM               .         SPACE                         : DELIMITING CHARACTER(SPACE TAB OR COMMA)
~Well Information
#_______________________________________________________________________________
#
#PARAMETER_NAME    .UNIT     VALUE                         : DESCRIPTION
#_______________________________________________________________________________
STRT               .м        950                           : First reference value
STOP               .м        1308.6                        : Last reference value
STEP               .м        0.1                           : Step increment
NULL               .         -9999                         : Missing value
COMP               .                                       : Company
WELL               .         2142                          : Well name
FLD                .         Узень                         : Field
LOC                .                                       : Location
CNTY               .                                       : County
STAT               .                                       : State
CTRY               .                                       : Country
SRVC               .         SCH                           : Service Company
DATE               .         25.09.2009                    : Date
UWI                .         UZEN_2142                     : Unique Well ID
Block              .         4                             : 
Category           .         Нефтяная                      : 
Condition          .         В работе                      : 
Date               .         01.01.1974                    : 
EREF               .m        231                           : 100.8
Gorizont           .         15                            : 14
Interpretator      .         0                             : 
Kupol              .         Основной                      : osnovnoi
Mud                .         0                             : 
Mud_density        .         0                             : 
Mud_resistivity    .         0                             : 
NGDU               .         НГДУ-1                        : 
ORIGINALWELLNAME   .         2142                          : 
Spud_date          .         1975                          : 1961
Viscosity          .         0                             : 
X                  .m        54618.4                       : 46154
Y                  .m        81581.9                       : 85761.93
YEAR               .         2018                          : 
Исправлено         .         15                            : 
~Parameter Information Block
#_______________________________________________________________________________
#
#PARAMETER_NAME    .UNIT     VALUE                         : DESCRIPTION
#_______________________________________________________________________________
SET                .         LQC_KAZNIPI_Petrel            : 
PBBOTTOM           .м        1308.6                        : Глубина подошвы планшета
PBSCALE            .         1 _ 500                       : Вертикальный масштаб планшета
PBTOP              .м        950                           : Глубина кровли планшета
TLFamily_CALI      .         Caliper                       : 
TLFamily_COLL      .         Net Reservoir Flag            : 
TLFamily_CSAT      .         Fluid Code                    : 
TLFamily_DEPT      .         Measured Depth                : 
TLFamily_GR        .         Russian Gamma Ray             : 
TLFamily_GZ1       .         Gradient 045                  : 
TLFamily_GZ2       .         Gradient 105                  : 
TLFamily_GZ3       .         Gradient 225                  : 
TLFamily_GZ4       .         Gradient 425                  : 
TLFamily_GZ5       .         Gradient 850                  : 
TLFamily_LLS       .         Lateral Log Resistivity       : 
TLFamily_MINV      .         Micro Gradient Resistivity    : 
TLFamily_MNOR      .         Micro Resistivity             : 
TLFamily_NGLD      .         Neutron Gamma                 : 
TLFamily_OGZ       .         Gradient Inverted 225         : 
TLFamily_PHIE      .         Effective Porosity            : 
TLFamily_PHIEN     .         Effective Porosity            : 
TLFamily_PHIT      .         Porosity                      : 
TLFamily_PRMB      .         Permeability                  : 
TLFamily_PRMB_DGR  .         Permeability                  : 
TLFamily_RT        .         Formation Resistivity         : 
TLFamily_SOIL_ARCHIE .         Oil Saturation                : 
TLFamily_SOIL_DW   .         Oil Saturation                : 
TLFamily_SP        .         Spontaneous Potential         : 
TLFamily_VSH_FIN   .         Shale Volume                  : 
TLFamily_VSH_GR    .         Shale Volume                  : 
TLFamily_VSH_SP    .         Shale Volume                  : 
~Curve Information
#_______________________________________________________________________________
#
#LOGNAME           .UNIT     LOG_ID                        : DESCRIPTION
#_______________________________________________________________________________
DEPT               .м                                      : Колонка глубины 
CALI               .м                                      : Каверномер 
COLL               .unitless                               : Описание 
CSAT               .unitless                               : Описание 
GR                 .uR/h                                   : Гамма каротаж 
GZ1                .Ohmm                                   : Градиент-зонд  длиной 0.45м 
GZ2                .Ohmm                                   : Градиент-зонд  длиной 1.05м 
GZ3                .Ohmm                                   : Градиент-зонд  длиной 2.25м 
GZ4                .Ohmm                                   : Градиент-зонд  длиной 4.5м 
GZ5                .Ohmm                                   : Градиент-зонд  длиной 8.5м 
LLS                .Ohmm                                   : Боковой каротаж 
MINV               .Ohmm                                   : Микро-градиент зонд 
MNOR               .Ohmm                                   : Микро-потенциал зонд 
NGLD               .у.е.                                   : Показания зонда НГК-60 аппаратуры ДРСТ-3-90 
OGZ                .Ohmm                                   : Обращенный градиент-зонд 
PHIE               .v/v                                    : Описание 
PHIEN              .v/v                                    :  
PHIT               .v/v                                    : Описание 
PRMB               .mD                                     :  
PRMB_DGR           .mD                                     :  
RT                 .ohmm                                   : УЭС пласта 
SOIL_ARCHIE        .v/v                                    :  
SOIL_DW            .v/v                                    :  
SP                 .mv                                     : Потенциал самополяризации 
VSH_FIN            .v/v                                    : Описание 
VSH_GR             .v/v                                    : Shale volume 
VSH_SP             .v/v                                    : Shale Volume 
~Ascii
# ...
1133.5     0.249      -9999      -9999      6.917922   1.384      2.007      2.146      1.634      1.519      1.162      1.418      1.26       0.91       1.923      0.1554956  0.1554956  0.339603   2.124775   1.345824   1.162      0          0.3073204  45.356     0.5579013  0.5747036  0.5410991 
1133.6     0.247      -9999      -9999      6.891366   1.359      1.956      2.134      1.646      1.494      1.2        1.285      1.387      0.916      1.985      0.1535996  0.1535996  0.3374028  1.959725   1.377974   1.2        0          0.3124414  45.486     0.5569794  0.5691902  0.5447686 
1133.7     0.245      -9999      -9999      6.86074    1.372      1.956      2.121      1.659      1.481      1.226      1.19       1.507      0.919      2.078      0.1526128  0.1526128  0.3363027  1.878962   1.416006   1.226      0          0.3167304  45.679     0.5566359  0.5628973  0.5503746 
1133.8     0.243      -9999      -9999      6.826332   1.41       1.956      2.108      1.672      1.481      1.2        1.666      1.622      0.921      2.16       0.1524228  0.1524228  0.3355693  1.863797   1.459989   1.2        0          0.3081022  45.808     0.5549893  0.5559103  0.5540681 
1133.9     0.244      -9999      -9999      6.788407   1.435      1.956      2.07       1.684      1.469      1.137      1.946      1.438      0.926      2.233      0.1509047  0.1509047  0.3337358  1.746946   1.51005    1.137      0          0.2840701  46.001     0.5540336  0.5483099  0.5597573 
1134       0.243      -9999      -9999      6.747456   1.448      1.905      2.032      1.672      1.469      1.092      1.66       1.272      0.933      2.336      0.1487257  0.1487257  0.3311689  1.59191    1.566035   1.092      0          0.2619198  46.194     0.5528582  0.5402194  0.5654969 
1134.1     0.241      -9999      -9999      6.70413    1.448      1.854      1.994      1.659      1.456      1.111      1.457      1.177      0.939      2.429      0.146961   0.146961   0.3289687  1.476495   1.627529   1.111      0          0.2619096  46.387     0.5515385  0.5317897  0.5712873 
1134.2     0.241      -9999      -9999      6.659125   1.448      1.804      1.994      1.659      1.443      1.194      1.584      1.552      0.942      2.532      0.1466481  0.1466481  0.3278686  1.456923   1.693964   1.194      0          0.2859622  46.517     0.5491531  0.5231725  0.5751336 
1134.3     0.239      -9999      -9999      6.613256   1.435      1.778      1.994      1.634      1.43       1.384      1.698      1.812      0.947      2.605      0.1456069  0.1456069  0.3260351  1.393642   1.764466   1.384      0          0.3326751  46.646     0.5467521  0.5145336  0.5789706 
1134.4     0.238      -9999      -9999      6.567403   1.461      1.791      2.007      1.621      1.418      1.48       2.155      2.041      0.954      2.615      0.1434664  0.1434664  0.3234682  1.27205    1.837875   1.48       0          0.3478794  46.839     0.5454599  0.5060403  0.5848795 
1134.5     0.237      -9999      -9999      6.522507   1.499      1.791      2.019      1.608      1.418      1.422      2.739      1.914      0.959      2.605      0.1419992  0.1419992  0.3216347  1.19489    1.912711   1.422      0          0.3297724  47.032     0.54435    0.49786    0.5908399 
1134.6     0.238      -9999      -9999      6.479487   1.549      1.791      2.019      1.596      1.405      1.321      3.139      1.8        0.96       2.574      0.1422521  0.1422521  0.321268   1.20785    1.987277   1.321      0          0.3045867  47.162     0.5424723  0.4901459  0.5947987 
1134.7     0.239      -9999      -9999      6.439265   1.6        1.804      2.058      1.596      1.392      1.207      2.301      1.596      0.956      2.584      0.1442396  0.1442396  0.3227348  1.314699   2.05962    1.207      0          0.278311   47.291     0.5408944  0.4830414  0.5987475 
1134.8     0.24       -9999      -9999      6.402739   1.575      1.804      2.058      1.583      1.392      1.162      1.603      1.38       0.954      2.543      0.1450195  0.1450195  0.3234682  1.359162   2.127596   1.162      0          0.2669941  47.484     0.5407536  0.476679   0.6048282 
1134.9     0.24       -9999      -9999      6.370723   1.473      1.804      2.032      1.57       1.367      1.188      1.768      1.476      0.954      2.522      0.1449164  0.1449164  0.3234682  1.353198   2.18902    1.188      0          0.2748666  47.677     0.5410661  0.4711713  0.6109609 
1135       0.239      -9999      -9999      6.343587   1.435      1.804      2.019      1.545      1.367      1.226      2.034      1.431      0.957      2.553      0.1432026  0.1432026  0.3223681  1.257819   2.242468   1.226      0          0.2814797  47.934     0.5429257  0.4665529  0.6192983 
1135.1     0.238      -9999      -9999      6.321544   1.422      1.816      1.994      1.519      1.354      1.245      1.279      1.361      0.964      2.584      0.1402113  0.1402113  0.3198012  1.107165   2.286845   1.245      0          0.2777368  48.128     0.5442117  0.4628346  0.6255888 
1135.2     0.238      -9999      -9999      6.30451    1.422      1.854      1.943      1.507      1.342      1.232      1.615      1.431      0.972      2.615      0.1363451  0.1363451  0.3168676  0.9388597  2.321738   1.232      0          0.262095   48.385     0.5470378  0.4599816  0.6340939 
1135.3     0.237      -9999      -9999      6.29214    1.461      1.905      1.892      1.481      1.342      1.168      1.977      1.539      0.984      2.667      0.1312318  0.1312318  0.3124672  0.7548984  2.34741    1.168      0          0.2245647  48.578     0.5491983  0.4579208  0.6404758 
1135.4     0.237      -9999      -9999      6.283787   1.511      1.956      1.842      1.469      1.329      1.175      2.485      1.66       0.998      2.729      0.1252649  0.1252649  0.3073334  0.5852852  2.364906   1.175      0          0.2052785  48.771     0.5517228  0.4565344  0.6469112 
1135.5     0.237      -9999      -9999      6.278443   1.549      1.981      1.816      1.443      1.316      1.232      2.231      1.577      1.013      2.791      0.1184671  0.1184671  0.3018329  0.4379826  2.376168   1.232      0          0.1988274  49.028     0.5556538  0.4556496  0.6556579 
1135.6     0.237      -9999      -9999      6.27493    1.549      2.007      1.778      1.405      1.303      1.315      1.565      1.469      1.03       2.894      0.1112463  0.1112463  0.295599   0.3218917  2.3836     1.315      0          0.1961231  49.221     0.5586445  0.4550689  0.6622201 
1135.7     0.236      -9999      -9999      6.272003   1.549      2.032      1.753      1.38       1.329      1.378      1.742      1.361      1.043      3.018      0.1050874  0.1050874  0.2908319  0.2475326  2.389811   1.378      0          0.1902236  49.478     0.562862   0.4545856  0.6711385 
1135.8     0.235      -9999      -9999      6.268357   1.549      1.969      1.74       1.342      1.354      1.391      2.079      1.266      1.06       3.173      0.09784885 0.09784885 0.284598   0.1817842  2.397567   1.391      0          0.1618916  49.671     0.5659066  0.4539845  0.6778286 
1135.9     0.235      -9999      -9999      6.26275    1.511      1.905      1.791      1.367      1.392      1.378      2.409      1.539      1.076      3.339      0.09102104 0.09102104 0.2787308  0.135859   2.409549   1.378      0          0.1248064  49.864     0.5688175  0.4530614  0.6845737 
1136       0.233      -9999      -9999      6.254208   1.461      1.867      1.867      1.392      1.418      1.391      2.695      1.755      1.104      3.504      0.07986282 0.07986282 0.2684632  0.08441336 2.427917   1.391      0          0.06669965 50.057     0.5715163  0.4516587  0.6913739 
1136.1     0.232      -9999      -9999      6.242213   1.461      1.867      1.956      1.418      1.456      1.486      2.466      1.603      1.132      3.69       0.06878777 0.06878777 0.2581956  0.05263497 2.453943   1.486      0          0.02676283 50.25      0.5739632  0.4496965  0.6982298 
