~Version
 VERS              .         2.0                           : CWLS LOG ASCII STANDARD - VERSION 2.0
 WRAP              .         NO                            : ONE LINE PER DEPTH STEP
 DLM               .         SPACE                         : DELIMITING CHARACTER(SPACE TAB OR COMMA)
~Well Information
#_______________________________________________________________________________
#
#PARAMETER_NAME    .UNIT     VALUE                         : DESCRIPTION
#_______________________________________________________________________________
STRT               .м        950                           : First reference value
STOP               .м        1308.6                        : Last reference value
STEP               .м        0.1                           : Step increment
NULL               .         -9999                         : Missing value
COMP               .                                       : Company
WELL               .         2142                          : Well name
FLD                .         Узень                         : Field
LOC                .                                       : Location
CNTY               .                                       : County
STAT               .                                       : State
CTRY               .                                       : Country
SRVC               .         SCH                           : Service Company
DATE               .         25.09.2009                    : Date
UWI                .         UZEN_2142                     : Unique Well ID
Block              .         4                             : 
Category           .         Нефтяная                      : 
Condition          .         В работе                      : 
Date               .         01.01.1974                    : 
EREF               .m        231                           : 100.8
Gorizont           .         15                            : 14
Interpretator      .         0                             : 
Kupol              .         Основной                      : osnovnoi
Mud                .         0                             : 
Mud_density        .         0                             : 
Mud_resistivity    .         0                             : 
NGDU               .         НГДУ-1                        : 
ORIGINALWELLNAME   .         2142                          : 
Spud_date          .         1975                          : 1961
Viscosity          .         0                             : 
X                  .m        54618.4                       : 46154
Y                  .m        81581.9                       : 85761.93
YEAR               .         2018                          : 
Исправлено         .         15                            : 
~Parameter Information Block
#_______________________________________________________________________________
#
#PARAMETER_NAME    .UNIT     VALUE                         : DESCRIPTION
#_______________________________________________________________________________
SET                .         LQC_KAZNIPI_Petrel            : 
PBBOTTOM           .м        1308.6                        : Глубина подошвы планшета
PBSCALE            .         1 _ 500                       : Вертикальный масштаб планшета
PBTOP              .м        950                           : Глубина кровли планшета
TLFamily_CALI      .         Caliper                       : 
TLFamily_COLL      .         Net Reservoir Flag            : 
TLFamily_CSAT      .         Fluid Code                    : 
TLFamily_DEPT      .         Measured Depth                : 
TLFamily_GR        .         Russian Gamma Ray             : 
TLFamily_GZ1       .         Gradient 045                  : 
TLFamily_GZ2       .         Gradient 105                  : 
TLFamily_GZ3       .         Gradient 225                  : 
TLFamily_GZ4       .         Gradient 425                  : 
TLFamily_GZ5       .         Gradient 850                  : 
TLFamily_LLS       .         Lateral Log Resistivity       : 
TLFamily_MINV      .         Micro Gradient Resistivity    : 
TLFamily_MNOR      .         Micro Resistivity             : 
TLFamily_NGLD      .         Neutron Gamma                 : 
TLFamily_OGZ       .         Gradient Inverted 225         : 
TLFamily_PHIE      .         Effective Porosity            : 
TLFamily_PHIEN     .         Effective Porosity            : 
TLFamily_PHIT      .         Porosity                      : 
TLFamily_PRMB      .         Permeability                  : 
TLFamily_PRMB_DGR  .         Permeability                  : 
TLFamily_RT        .         Formation Resistivity         : 
TLFamily_SOIL_ARCHIE .         Oil Saturation                : 
TLFamily_SOIL_DW   .         Oil Saturation                : 
TLFamily_SP        .         Spontaneous Potential         : 
TLFamily_VSH_FIN   .         Shale Volume                  : 
TLFamily_VSH_GR    .         Shale Volume                  : 
TLFamily_VSH_SP    .         Shale Volume                  : 
~Curve Information
#_______________________________________________________________________________
#
#LOGNAME           .UNIT     LOG_ID                        : DESCRIPTION
#_______________________________________________________________________________
DEPT               .м                                      : Колонка глубины 
CALI               .м                                      : Каверномер 
COLL               .unitless                               : Описание 
CSAT               .unitless                               : Описание 
GR                 .uR/h                                   : Гамма каротаж 
GZ1                .Ohmm                                   : Градиент-зонд  длиной 0.45м 
GZ2                .Ohmm                                   : Градиент-зонд  длиной 1.05м 
GZ3                .Ohmm                                   : Градиент-зонд  длиной 2.25м 
GZ4                .Ohmm                                   : Градиент-зонд  длиной 4.5м 
GZ5                .Ohmm                                   : Градиент-зонд  длиной 8.5м 
LLS                .Ohmm                                   : Боковой каротаж 
MINV               .Ohmm                                   : Микро-градиент зонд 
MNOR               .Ohmm                                   : Микро-потенциал зонд 
NGLD               .у.е.                                   : Показания зонда НГК-60 аппаратуры ДРСТ-3-90 
OGZ                .Ohmm                                   : Обращенный градиент-зонд 
PHIE               .v/v                                    : Описание 
PHIEN              .v/v                                    :  
PHIT               .v/v                                    : Описание 
PRMB               .mD                                     :  
PRMB_DGR           .mD                                     :  
RT                 .ohmm                                   : УЭС пласта 
SOIL_ARCHIE        .v/v                                    :  
SOIL_DW            .v/v                                    :  
SP                 .mv                                     : Потенциал самополяризации 
VSH_FIN            .v/v                                    : Описание 
VSH_GR             .v/v                                    : Shale volume 
VSH_SP             .v/v                                    : Shale Volume 
~Ascii
# ...
1179.4     0.23       0          0          6.204409   1.74       2.464      1.295      1.075      1.951      1.099      1.552      1.463      1.037      4.858      0.1996893  0.1996893  0.2930321  13.99228   33.16886   1.099      0.1297715  0.2941345  42.843     0.282857   0.155292   0.410422  
1179.5     0.231      0          0          6.181226   1.461      2.413      1.245      1.24       2.027      1.003      1.304      1.304      1.05       5.995      0.195084   0.195084   0.288265   11.49708   34.26422   1.003      0.07298459 0.2467735  42.884     0.2823667  0.1532454  0.4114879 
1179.6     0.231      0          0          6.161557   1.245      2.362      1.27       1.354      2.091      0.889      1.628      1.863      1.064      7.132      0.1902996  0.1902996  0.2831312  9.374937   35.2219    0.889      0          0.1831402  42.862     0.2813078  0.1515301  0.4110856 
1179.7     0.231      0          0          6.145834   1.194      2.87       1.473      1.469      2.116      0.921      2.2        2.384      1.081      8.269      0.1853365  0.1853365  0.2768973  7.586483   36.00665   0.921      0          0.1779923  42.583     0.2774569  0.1501728  0.404741  
1179.8     0.232      6          6          6.13457    1.537      3.391      1.765      1.596      2.142      1.251      2.777      2.911      1.094      9.044      0.1819908  0.1819908  0.2721302  6.577614   36.57964   1.251      0.1121556  0.2820901  42.242     0.2731498  0.1492078  0.3970919 
1179.9     0.226      6          6          6.128233   2.019      4.166      1.956      1.761      2.154      2.086      3.349      3.432      1.109      9.406001   0.1785114  0.1785114  0.2666297  5.6705     36.9059    2.086      0.2897107  0.4328319  41.71      0.2670253  0.1486677  0.3853829 
1180       0.224      6          6          6.127151   2.553      4.128      2.096      1.684      2.154      2.921      3.87       3.87       1.124      8.889      0.1753482  0.1753482  0.2611292  4.954873   36.96193   2.921      0.3839962  0.5112014  41.05      0.2599424  0.1485756  0.3713092 
1180.1     0.223      6          6          6.131678   3.162      4.052      2.146      1.596      2.154      6.033      3.851      3.051      1.128      8.166      0.1760509  0.1760509  0.2596624  5.105606   36.72817   6.033      0.5632309  0.6593054  40.391     0.2533683  0.1489611  0.3577754 
1180.2     0.221      6          6          6.141844   3.518      3.975      2.185      1.481      2.154      3.207      3.825      2.333      1.109      7.545      0.1850273  0.1850273  0.2666297  7.487068   36.20859   3.207      0.4373692  0.5492434  39.731     0.2472802  0.1498302  0.3447302 
1180.3     0.22       6          6          6.157608   3.315      3.658      2.185      1.367      2.167      2.527      2.733      1.615      1.085      7.184      0.1979859  0.1979859  0.2754305  13.01182   35.41738   2.527      0.4068228  0.5155144  38.307     0.2346804  0.151188   0.3181728 
1180.4     0.218      6          6          6.178632   2.883      3.086      2.096      1.227      2.18       1.848      1.787      1.025      1.063      6.874      0.2099394  0.2099394  0.2834979  21.6643    34.38904   1.848      0.347193   0.4563263  36.818     0.2229046  0.153018   0.2927912 
1180.5     0.217      0          0          6.204451   2.273      2.756      2.032      1.227      2.18       1.537      0.86       1.311      1.045      6.719      0.2220729  0.2220729  0.2900985  36.34854   33.16689   1.537      0.3222237  0.4254162  34.439     0.2061382  0.1552958  0.2569807 
1180.6     0.216      0          0          6.234338   2.324      2.756      2.07       1.265      2.243      1.302      1.152      1.552      1.035      6.564      0.2286579  0.2286579  0.2937655  48.13461   31.80634   1.302      0.2857507  0.387788   32.887     0.1972958  0.1579747  0.2366168 
1180.7     0.216      0          0          6.267502   1.842      2.872      2.185      1.316      2.396      1.467      1.45       1.8        1.027      6.098      0.2356635  0.2356635  0.2966991  64.89591   30.36182   1.467      0.342163   0.433777   30.444     0.1849565  0.1610017  0.2089114 
1180.8     0.216      0          0          6.303364   1.943      3.22       2.388      1.481      2.561      2          1.774      2.041      1.021      4.703      0.2388059  0.2388059  0.2988993  74.20309   28.87353   2          0.4377296  0.5198146  29.53      0.1821013  0.16434    0.1998625 
1180.9     0.216      1          2          6.341453   2.21       3.569      2.654      1.646      2.789      4.541      1.584      2.301      1.021      4.357      0.2387329  0.2387329  0.2988993  73.97251   27.37263   4.541      0.6172228  0.6812839  29.189     0.1823224  0.1679616  0.1966832 
1181       0.216      1          2          6.381413   2.629      4.013      2.896      1.811      2.916      5.557      1.298      2.168      1.018      4.01       0.2397974  0.2397974  0.2999994  77.40847   25.88177   5.557      0.6531721  0.7130393  28.784     0.1824302  0.1718469  0.1930135 
1181.1     0.218      1          2          6.422985   3.099      4.445      3.175      1.977      3.082      7.017      1.361      2.022      1.009      3.876      0.2429082  0.2429082  0.3032997  88.39071   24.41692   7.017      0.6926047  0.7476175  28.443     0.1830047  0.1759842  0.1900253 
1181.2     0.218      1          2          6.466004   3.607      5.131      3.734      2.154      3.31       8.414      1.45       1.876      0.999      3.752      0.2462417  0.2462417  0.3069667  101.8948   22.98829   8.414      0.7210414  0.7724276  28.165     0.1840151  0.1803705  0.1876596 
1181.3     0.219      1          2          6.510595   4.356      5.893      4.204      2.332      3.526      9.875      1.552      1.768      0.99       3.638      0.2487985  0.2487985  0.310267   113.6346   21.59562   9.875      0.7435502  0.7921383  28.142     0.186268   0.1850326  0.1875035 
1181.4     0.22       1          2          6.556985   5.106      6.643      4.521      2.485      3.653      10.796     1.59       1.933      0.983      3.556      0.2504809  0.2504809  0.3128339  122.0877   20.23622   10.796     0.7554989  0.8027088  28.182     0.1889486  0.1900107  0.1878865 
1181.5     0.22       1          2          6.605412   5.626      7.481      4.801      2.662      3.78       11.335     1.704      2.054      0.988      3.483      0.2477015  0.2477015  0.3110004  108.4404   18.90836   11.335     0.7586917  0.8058909  28.223     0.1918148  0.1953502  0.1882795 
1181.6     0.22       1          2          6.65599    5.931      8.677999   5.144      2.84       3.92       11.748     1.838      1.971      0.995      3.421      0.2441229  0.2441229  0.3084335  93.09064   17.61443   11.748     0.7596836  0.8072396  28.264     0.1948807  0.2010872  0.1886741 
1181.7     0.22       1          2          6.70871    6.223      10.072     5.499      3.018      4.047      12.383     1.984      1.914      1.003      3.37       0.2384833  0.2384833  0.3054999  73.18934   16.35986   12.383     0.7607259  0.8093418  29.388     0.2030805  0.2072466  0.1989144 
1181.8     0.22       1          2          6.76337    6.566      11.93      5.982      3.183      4.237      12.637     1.476      2.13       1.006      3.287      0.2347674  0.2347674  0.3043998  62.46259   15.15341   12.637     0.759731   0.8096235  30.321     0.2110072  0.2138318  0.2081826 
1181.9     0.221      1          2          6.81983    6.846      14.034     6.566      3.374      4.313      11.939     1.634      2.308      1          3.225      0.2342769  0.2342769  0.3066     61.16947   14.00054   11.939     0.7527887  0.804786   31.19      0.2191609  0.2208539  0.2174679 
1182       0.221      1          2          6.877759   7.1        15.685     7.341      3.577      4.377      10.796     1.812      2.441      0.993      3.132      0.2321869  0.2321869  0.3091669  55.95299   12.90878   10.796     0.7388036  0.7949421  32.951     0.2332727  0.2282983  0.2382471 
