~Version
 VERS              .         2.0                           : CWLS LOG ASCII STANDARD - VERSION 2.0
 WRAP              .         NO                            : ONE LINE PER DEPTH STEP
 DLM               .         SPACE                         : DELIMITING CHARACTER(SPACE TAB OR COMMA)
~Well Information
#_______________________________________________________________________________
#
#PARAMETER_NAME    .UNIT     VALUE                         : DESCRIPTION
#_______________________________________________________________________________
STRT               .м        950                           : First reference value
STOP               .м        1308.6                        : Last reference value
STEP               .м        0.1                           : Step increment
NULL               .         -9999                         : Missing value
COMP               .                                       : Company
WELL               .         2142                          : Well name
FLD                .         Узень                         : Field
LOC                .                                       : Location
CNTY               .                                       : County
STAT               .                                       : State
CTRY               .                                       : Country
SRVC               .         SCH                           : Service Company
DATE               .         25.09.2009                    : Date
UWI                .         UZEN_2142                     : Unique Well ID
Block              .         4                             : 
Category           .         Нефтяная                      : 
Condition          .         В работе                      : 
Date               .         01.01.1974                    : 
EREF               .m        231                           : 100.8
Gorizont           .         15                            : 14
Interpretator      .         0                             : 
Kupol              .         Основной                      : osnovnoi
Mud                .         0                             : 
Mud_density        .         0                             : 
Mud_resistivity    .         0                             : 
NGDU               .         НГДУ-1                        : 
ORIGINALWELLNAME   .         2142                          : 
Spud_date          .         1975                          : 1961
Viscosity          .         0                             : 
X                  .m        54618.4                       : 46154
Y                  .m        81581.9                       : 85761.93
YEAR               .         2018                          : 
Исправлено         .         15                            : 
~Parameter Information Block
#_______________________________________________________________________________
#
#PARAMETER_NAME    .UNIT     VALUE                         : DESCRIPTION
#_______________________________________________________________________________
SET                .         LQC_KAZNIPI_Petrel            : 
PBBOTTOM           .м        1308.6                        : Глубина подошвы планшета
PBSCALE            .         1 _ 500                       : Вертикальный масштаб планшета
PBTOP              .м        950                           : Глубина кровли планшета
TLFamily_CALI      .         Caliper                       : 
TLFamily_COLL      .         Net Reservoir Flag            : 
TLFamily_CSAT      .         Fluid Code                    : 
TLFamily_DEPT      .         Measured Depth                : 
TLFamily_GR        .         Russian Gamma Ray             : 
TLFamily_GZ1       .         Gradient 045                  : 
TLFamily_GZ2       .         Gradient 105                  : 
TLFamily_GZ3       .         Gradient 225                  : 
TLFamily_GZ4       .         Gradient 425                  : 
TLFamily_GZ5       .         Gradient 850                  : 
TLFamily_LLS       .         Lateral Log Resistivity       : 
TLFamily_MINV      .         Micro Gradient Resistivity    : 
TLFamily_MNOR      .         Micro Resistivity             : 
TLFamily_NGLD      .         Neutron Gamma                 : 
TLFamily_OGZ       .         Gradient Inverted 225         : 
TLFamily_PHIE      .         Effective Porosity            : 
TLFamily_PHIEN     .         Effective Porosity            : 
TLFamily_PHIT      .         Porosity                      : 
TLFamily_PRMB      .         Permeability                  : 
TLFamily_PRMB_DGR  .         Permeability                  : 
TLFamily_RT        .         Formation Resistivity         : 
TLFamily_SOIL_ARCHIE .         Oil Saturation                : 
TLFamily_SOIL_DW   .         Oil Saturation                : 
TLFamily_SP        .         Spontaneous Potential         : 
TLFamily_VSH_FIN   .         Shale Volume                  : 
TLFamily_VSH_GR    .         Shale Volume                  : 
TLFamily_VSH_SP    .         Shale Volume                  : 
~Curve Information
#_______________________________________________________________________________
#
#LOGNAME           .UNIT     LOG_ID                        : DESCRIPTION
#_______________________________________________________________________________
DEPT               .м                                      : Колонка глубины 
CALI               .м                                      : Каверномер 
COLL               .unitless                               : Описание 
CSAT               .unitless                               : Описание 
GR                 .uR/h                                   : Гамма каротаж 
GZ1                .Ohmm                                   : Градиент-зонд  длиной 0.45м 
GZ2                .Ohmm                                   : Градиент-зонд  длиной 1.05м 
GZ3                .Ohmm                                   : Градиент-зонд  длиной 2.25м 
GZ4                .Ohmm                                   : Градиент-зонд  длиной 4.5м 
GZ5                .Ohmm                                   : Градиент-зонд  длиной 8.5м 
LLS                .Ohmm                                   : Боковой каротаж 
MINV               .Ohmm                                   : Микро-градиент зонд 
MNOR               .Ohmm                                   : Микро-потенциал зонд 
NGLD               .у.е.                                   : Показания зонда НГК-60 аппаратуры ДРСТ-3-90 
OGZ                .Ohmm                                   : Обращенный градиент-зонд 
PHIE               .v/v                                    : Описание 
PHIEN              .v/v                                    :  
PHIT               .v/v                                    : Описание 
PRMB               .mD                                     :  
PRMB_DGR           .mD                                     :  
RT                 .ohmm                                   : УЭС пласта 
SOIL_ARCHIE        .v/v                                    :  
SOIL_DW            .v/v                                    :  
SP                 .mv                                     : Потенциал самополяризации 
VSH_FIN            .v/v                                    : Описание 
VSH_GR             .v/v                                    : Shale volume 
VSH_SP             .v/v                                    : Shale Volume 
~Ascii
# ...
995.8      0.213      1          3          2.550841   2.388      2.616      2.197      1.799      2.015      1.708      2.231      2.473      1.141      1.509      0.2047425  0.2047425  0.2548953  17.35746   92.19561   1.708      0.307657   0.3920556  8.295      0.1519781  0.1022957  0.2016604 
995.9      0.212      1          3          2.630726   2.413      2.566      2.159      1.799      1.951      1.734      2.365      2.536      1.141      1.509      0.204385   0.204385   0.2548953  17.09484   86.30234   1.734      0.3115009  0.3961865  8.231      0.1530613  0.1050925  0.2010302 
996        0.212      1          3          2.717945   2.451      2.553      2.185      1.811      1.9        1.759      2.498      2.606      1.144      1.509      0.2027973  0.2027973  0.2537952  15.97558   80.29733   1.759      0.3114494  0.3970132  8.231      0.1545389  0.1082334  0.2008445 
996.1      0.213      1          3          2.810962   2.477      2.553      2.096      1.811      1.837      1.753      2.581      2.511      1.148      1.499      0.2008629  0.2008629  0.2523284  14.71047   74.3529    1.753      0.3045634  0.3915021  8.168      0.155956   0.1116865  0.2002255 
996.2000000000001 0.213      1          3          2.907561   2.477      2.54       2.083      1.824      1.786      1.721      2.257      2.403      1.154      1.488      0.1981545  0.1981545  0.2501282  13.10568   68.64489   1.721      0.2901817  0.3792129  8.104      0.1574961  0.1153894  0.1996029 
996.3      0.213      1          3          3.005325   2.439      2.477      2.083      1.837      1.735      1.677      2.009      2.257      1.159      1.478      0.1957123  0.1957123  0.2482947  11.8093    63.31406   1.677      0.2736998  0.3651343  8.104      0.1593406  0.1192619  0.1994195 
996.4      0.213      1          3          3.101648   2.426      2.489      2.058      1.837      1.697      1.632      1.793      2.269      1.164      1.478      0.1933303  0.1933303  0.2464612  10.66851   58.46682   1.632      0.2564821  0.3503367  8.04       0.1610028  0.1232044  0.1988012 
996.5      0.213      1          3          3.193744   2.451      2.527      2.032      1.85       1.672      1.664      1.831      2.295      1.169      1.478      0.1909562  0.1909562  0.2446277  9.64117    54.17973   1.664      0.2552548  0.3504612  7.976      0.162641   0.1270957  0.1981862 
996.6      0.213      1          3          3.278886   2.451      2.553      2.032      1.85       1.646      1.708      1.78       2.25       1.173      1.509      0.1890483  0.1890483  0.2431609  8.887756   50.49652   1.708      0.2578582  0.3539255  7.849      0.1639775  0.1308024  0.1971525 
996.7000000000001 0.213      1          3          3.3545     2.426      2.578      1.994      1.862      1.634      1.759      1.692      2.193      1.171      1.53       0.1892533  0.1892533  0.2438943  8.965768   47.43594   1.759      0.2687247  0.3647619  7.849      0.1655789  0.1341849  0.196973  
996.8      0.213      1          3          3.418179   2.426      2.604      1.981      1.862      1.621      1.816      1.634      2.308      1.167      1.561      0.1903387  0.1903387  0.2453611  9.390577   45.00284   1.816      0.2831663  0.3784761  7.785      0.1667345  0.1371012  0.1963679 
996.9      0.213      1          3          3.468      2.502      2.629      1.981      1.888      1.608      1.848      1.793      2.485      1.164      1.592      0.1910845  0.1910845  0.2464612  9.694063   43.18653   1.848      0.2914355  0.3864862  7.785      0.1678083  0.139427   0.1961895 
997        0.213      1          3          3.502593   2.578      2.591      1.956      1.875      1.57       1.873      1.907      2.428      1.159      1.612      0.1927457  0.1927457  0.2482947  10.40583   41.96874   1.873      0.301178   0.3954097  7.722      0.1683302  0.141065   0.1955953 
997.1      0.213      1          3          3.521183   2.616      2.578      1.956      1.862      1.545      1.943      2.022      2.301      1.156      1.612      0.1937979  0.1937979  0.2493948  10.88341   41.32854   1.943      0.3163565  0.4092719  7.658      0.1684755  0.1419533  0.1949977 
997.2000000000001 0.213      1          3          3.523748   2.629      2.553      1.956      1.837      1.761      2.026      2.092      2.352      1.16       1.612      0.1924089  0.1924089  0.247928   10.2574    41.24097   2.026      0.3254323  0.4177607  7.594      0.1682398  0.1420763  0.1944033 
997.3      0.213      1          3          3.510945   2.604      2.527      1.956      1.811      1.9        2.032      1.971      2.428      1.165      1.623      0.1907054  0.1907054  0.2460945  9.538604   41.67986   2.032      0.32113    0.4139287  7.594      0.1678458  0.1414634  0.1942281 
997.4      0.213      1          3          3.483969   2.566      2.515      1.956      1.799      1.926      1.988      2.263      2.511      1.171      1.654      0.1888131  0.1888131  0.2438943  8.799037   42.62003   1.988      0.3081372  0.4018851  7.531      0.1669126  0.1401808  0.1936445 
997.5      0.213      1          3          3.444432   2.54       2.578      1.956      1.773      1.964      1.918      2.39       2.587      1.177      1.695      0.1869483  0.1869483  0.2416941  8.126334   44.03643   1.918      0.290292   0.385303   7.531      0.1658962  0.1383219  0.1934706 
997.6      0.213      1          3          3.394396   2.439      2.642      1.956      1.773      1.989      1.823      2.225      2.308      1.181      1.726      0.1858925  0.1858925  0.2402273  7.76853    45.8966    1.823      0.2695764  0.3657526  7.531      0.1646508  0.1360047  0.1932969 
997.7000000000001 0.213      1          3          3.336122   2.502      2.718      1.956      1.761      2.027      1.74       2.054      2.422      1.181      1.747      0.1864263  0.1864263  0.2402273  7.947405   48.16231   1.74       0.2552904  0.3515806  7.467      0.1630333  0.1333548  0.1927118 
997.8      0.213      1          3          3.272028   2.527      2.794      1.956      1.761      2.027      1.664      2.168      2.504      1.173      1.799      0.1898594  0.1898594  0.2431609  9.200579   50.78367   1.664      0.2515092  0.3466127  7.467      0.1615197  0.1304999  0.1925395 
997.9      0.213      1          3          3.20438    2.54       2.908      1.956      1.761      2.027      1.575      2.416      2.612      1.169      1.83       0.1919083  0.1919083  0.2446277  10.04073   53.70534   1.575      0.2390975  0.3337525  7.403      0.1597557  0.1275529  0.1919586 
998        0.213      1          3          3.135226   2.604      3.048      1.994      1.748      2.015      1.607      2.314      2.428      1.169      1.84       0.1924223  0.1924223  0.2446277  10.26325   56.86579   1.607      0.2479994  0.3411592  7.403      0.1581983  0.1246091  0.1917874 
998.1      0.213      1          3          3.06632    2.731      2.997      2.045      1.773      2.015      1.689      2.117      2.581      1.175      1.799      0.1907231  0.1907231  0.2424275  9.545815   60.19997   1.689      0.2596612  0.3515639  7.403      0.15668    0.1217435  0.1916165 
998.2000000000001 0.213      1          3          2.999135   2.82       2.921      2.083      1.799      2.015      1.746      2.009      2.689      1.182      1.736      0.1887007  0.1887007  0.2398606  8.756951   63.63897   1.746      0.2643036  0.3554067  7.34       0.1550299  0.1190129  0.191047  
998.3      0.213      1          3          2.934761   2.87       2.832      2.096      1.824      2.015      1.759      2.295      2.803      1.188      1.736      0.1869507  0.1869507  0.2376604  8.127171   67.1182    1.759      0.2608867  0.35182    7.34       0.1536657  0.116454   0.1908773 
998.4      0.213      1          3          2.873851   2.883      2.921      2.096      1.85       2.002      1.765      2.498      2.936      1.196      1.705      0.1844362  0.1844362  0.2347268  7.300701   70.58521   1.765      0.2533122  0.3445272  7.34       0.1523957  0.1140835  0.1907079 
