~Version
 VERS              .         2.0                           : CWLS LOG ASCII STANDARD - VERSION 2.0
 WRAP              .         NO                            : ONE LINE PER DEPTH STEP
 DLM               .         SPACE                         : DELIMITING CHARACTER(SPACE TAB OR COMMA)
~Well Information
#_______________________________________________________________________________
#
#PARAMETER_NAME    .UNIT     VALUE                         : DESCRIPTION
#_______________________________________________________________________________
STRT               .м        950                           : First reference value
STOP               .м        1308.6                        : Last reference value
STEP               .м        0.1                           : Step increment
NULL               .         -9999                         : Missing value
COMP               .                                       : Company
WELL               .         2142                          : Well name
FLD                .         Узень                         : Field
LOC                .                                       : Location
CNTY               .                                       : County
STAT               .                                       : State
CTRY               .                                       : Country
SRVC               .         SCH                           : Service Company
DATE               .         25.09.2009                    : Date
UWI                .         UZEN_2142                     : Unique Well ID
Block              .         4                             : 
Category           .         Нефтяная                      : 
Condition          .         В работе                      : 
Date               .         01.01.1974                    : 
EREF               .m        231                           : 100.8
Gorizont           .         15                            : 14
Interpretator      .         0                             : 
Kupol              .         Основной                      : osnovnoi
Mud                .         0                             : 
Mud_density        .         0                             : 
Mud_resistivity    .         0                             : 
NGDU               .         НГДУ-1                        : 
ORIGINALWELLNAME   .         2142                          : 
Spud_date          .         1975                          : 1961
Viscosity          .         0                             : 
X                  .m        54618.4                       : 46154
Y                  .m        81581.9                       : 85761.93
YEAR               .         2018                          : 
Исправлено         .         15                            : 
~Parameter Information Block
#_______________________________________________________________________________
#
#PARAMETER_NAME    .UNIT     VALUE                         : DESCRIPTION
#_______________________________________________________________________________
SET                .         LQC_KAZNIPI_Petrel            : 
PBBOTTOM           .м        1308.6                        : Глубина подошвы планшета
PBSCALE            .         1 _ 500                       : Вертикальный масштаб планшета
PBTOP              .м        950                           : Глубина кровли планшета
TLFamily_CALI      .         Caliper                       : 
TLFamily_COLL      .         Net Reservoir Flag            : 
TLFamily_CSAT      .         Fluid Code                    : 
TLFamily_DEPT      .         Measured Depth                : 
TLFamily_GR        .         Russian Gamma Ray             : 
TLFamily_GZ1       .         Gradient 045                  : 
TLFamily_GZ2       .         Gradient 105                  : 
TLFamily_GZ3       .         Gradient 225                  : 
TLFamily_GZ4       .         Gradient 425                  : 
TLFamily_GZ5       .         Gradient 850                  : 
TLFamily_LLS       .         Lateral Log Resistivity       : 
TLFamily_MINV      .         Micro Gradient Resistivity    : 
TLFamily_MNOR      .         Micro Resistivity             : 
TLFamily_NGLD      .         Neutron Gamma                 : 
TLFamily_OGZ       .         Gradient Inverted 225         : 
TLFamily_PHIE      .         Effective Porosity            : 
TLFamily_PHIEN     .         Effective Porosity            : 
TLFamily_PHIT      .         Porosity                      : 
TLFamily_PRMB      .         Permeability                  : 
TLFamily_PRMB_DGR  .         Permeability                  : 
TLFamily_RT        .         Formation Resistivity         : 
TLFamily_SOIL_ARCHIE .         Oil Saturation                : 
TLFamily_SOIL_DW   .         Oil Saturation                : 
TLFamily_SP        .         Spontaneous Potential         : 
TLFamily_VSH_FIN   .         Shale Volume                  : 
TLFamily_VSH_GR    .         Shale Volume                  : 
TLFamily_VSH_SP    .         Shale Volume                  : 
~Curve Information
#_______________________________________________________________________________
#
#LOGNAME           .UNIT     LOG_ID                        : DESCRIPTION
#_______________________________________________________________________________
DEPT               .м                                      : Колонка глубины 
CALI               .м                                      : Каверномер 
COLL               .unitless                               : Описание 
CSAT               .unitless                               : Описание 
GR                 .uR/h                                   : Гамма каротаж 
GZ1                .Ohmm                                   : Градиент-зонд  длиной 0.45м 
GZ2                .Ohmm                                   : Градиент-зонд  длиной 1.05м 
GZ3                .Ohmm                                   : Градиент-зонд  длиной 2.25м 
GZ4                .Ohmm                                   : Градиент-зонд  длиной 4.5м 
GZ5                .Ohmm                                   : Градиент-зонд  длиной 8.5м 
LLS                .Ohmm                                   : Боковой каротаж 
MINV               .Ohmm                                   : Микро-градиент зонд 
MNOR               .Ohmm                                   : Микро-потенциал зонд 
NGLD               .у.е.                                   : Показания зонда НГК-60 аппаратуры ДРСТ-3-90 
OGZ                .Ohmm                                   : Обращенный градиент-зонд 
PHIE               .v/v                                    : Описание 
PHIEN              .v/v                                    :  
PHIT               .v/v                                    : Описание 
PRMB               .mD                                     :  
PRMB_DGR           .mD                                     :  
RT                 .ohmm                                   : УЭС пласта 
SOIL_ARCHIE        .v/v                                    :  
SOIL_DW            .v/v                                    :  
SP                 .mv                                     : Потенциал самополяризации 
VSH_FIN            .v/v                                    : Описание 
VSH_GR             .v/v                                    : Shale volume 
VSH_SP             .v/v                                    : Shale Volume 
~Ascii
# ...
1249.6     0.215      1          2          6.880553   4.052      8.105      7.303      2.764      2.307      4.699      1.546      2.161      1.053      5.178      0.2242628  0.2242628  0.2871649  39.90707   8.674428   4.699      0.6077686  0.6755006  24.371     0.1906123  0.2685339  0.1126907 
1249.7     0.215      1          2          6.90139    4.331      8.221      7.316      2.815      2.332      4.287      1.577      2.333      1.047      4.868      0.2258233  0.2258233  0.2893651  42.65332   8.410022   4.287      0.5929754  0.6627492  24.612     0.1925509  0.2719497  0.1131522 
1249.8     0.215      1          2          6.923105   4.636      8.338001   7.303      2.866      2.358      3.969      1.596      2.288      1.039      4.517      0.2281075  0.2281075  0.2922987  47.0178    8.143046   3.969      0.5816679  0.6530135  24.79      0.1945187  0.2755558  0.1134817 
1249.9     0.215      1          2          6.945683   4.953      8.570001   7.239      2.929      2.358      3.969      1.622      2.25       1.031      4.197      0.2303612  0.2303612  0.2952323  51.76139   7.874439   3.969      0.5852347  0.6564389  24.967     0.1965791  0.2793559  0.1138024 
1250       0.215      1          2          6.969103   4.852      8.802      7.176001   2.98       2.358      4.128      1.628      2.206      1.025      3.876      0.2318311  0.2318311  0.2974325  55.11017   7.605176   4.128      0.5950591  0.6654624  25.208     0.1987923  0.283353   0.1142316 
1250.1     0.215      1          2          6.993334   4.699      9.018      7.151      3.005      2.345      4.287      1.609      2.168      1.025      3.587      0.2310326  0.2310326  0.2974325  53.26507   7.336285   4.287      0.6009805  0.6712474  25.577     0.2012118  0.2875487  0.114875  
1250.2     0.215      1          2          7.018267   4.585      9.335001   7.138      3.082      2.396      4.382      1.59       2.123      1.026      3.287      0.2298211  0.2298211  0.2970658  50.58268   7.069513   4.382      0.6032507  0.673877   26.009     0.2037719  0.2919309  0.1156128 
1250.3     0.215      1          2          7.043776   4.521      9.526      7.112      3.221      2.446      4.445      1.552      2.085      1.025      3.204      0.2292976  0.2292976  0.2974325  49.46592   6.806626   4.445      0.6051161  0.676117   26.505     0.2064694  0.2964834  0.1164555 
1250.4     0.215      1          2          7.069761   4.458      9.843001   7.1        3.374      2.51       4.461      1.526      2.187      1.021      3.049      0.2299195  0.2299195  0.2988993  50.79539   6.548866   4.461      0.6067101  0.6779856  26.746     0.2090298  0.301194   0.1168655 
1250.5     0.215      1          2          7.096009   4.585      10.034     7.112      3.526      2.573      4.477      1.495      2.269      1.015      2.925      0.2311211  0.2311211  0.3010995  53.46643   6.298414   4.477      0.6091488  0.6806256  27.433     0.2120558  0.3060282  0.1180835 
1250.6     0.215      1          2          7.122424   4.661      10.034     7.138      3.678      2.637      4.477      1.482      2.339      1.008      2.832      0.2326118  0.2326118  0.3036664  56.97618   6.056038   4.477      0.6113313  0.683051   28.248     0.2153169  0.3109714  0.1196624 
1250.7     0.215      1          2          7.148949   4.674      10.034     7.176001   3.805      2.688      4.414      1.78       2.295      1.004      2.78       0.2327347  0.2327347  0.3051332  57.27547   5.822037   4.414      0.6089178  0.6817585  29.572     0.2193896  0.3160156  0.1227636 
1250.8     0.214      1          2          7.175732   4.572      10.034     7.227      3.932      2.802      4.35       1.92       2.257      1.002      2.77       0.2319381  0.2319381  0.3058666  55.36239   5.594939   4.35       0.6050506  0.6794111  30.895     0.2240257  0.3211918  0.1268597 
1250.9     0.214      1          2          7.203017   4.534      10.034     7.29       4.047      2.878      4.287      1.793      2.409      1          2.749      0.2319421  0.2319421  0.3066     55.37168   5.372684   4.287      0.6023434  0.6775151  30.628     0.2262362  0.3265522  0.1259201 
1251       0.214      1          2          7.230978   4.534      10.097     7.341      4.186      2.942      4.16       1.698      2.504      0.996      2.708      0.2316347  0.2316347  0.3080668  54.65062   5.154078   4.16       0.596226   0.6733542  31.951     0.2316124  0.3321384  0.1310863 
1251.1     0.214      1          2          7.259851   4.483      9.970001   7.417      4.313      2.993      4.096      1.603      2.244      0.992      2.667      0.2315294  0.2315294  0.3095336  54.40568   4.937673   4.096      0.5931165  0.6716571  32.703     0.2363764  0.3380072  0.1347456 
1251.2     0.214      1          2          7.289805   4.382      9.843001   7.493      4.479      3.056      4.033      1.526      2.098      0.991      2.646      0.2298368  0.2298368  0.3099003  50.61664   4.722769   4.033      0.5875186  0.6683138  33.771     0.2426167  0.344205   0.1410283 
1251.3     0.214      1          2          7.321074   4.369      9.653      7.607999   4.631      3.132      4.033      1.653      2.206      0.994      2.667      0.2266199  0.2266199  0.3088002  44.12732   4.508395   4.033      0.5824235  0.6656636  34.649     0.2490313  0.3507965  0.1472662 
1251.4     0.214      1          2          7.353852   4.344      9.462001   7.709      4.796      3.145      4.191      1.603      2.327      0.997      2.687      0.2220341  0.2220341  0.3077001  36.28839   4.29412    4.191      0.5825188  0.6685309  36.229     0.2595941  0.3578414  0.1613467 
1251.5     0.215      1          2          7.388297   4.28       9.335001   7.760001   4.949      3.183      4.049      1.514      2.288      0.996      2.718      0.2188119  0.2188119  0.3080668  31.62903   4.079913   4.049      0.5702745  0.6609496  37.488     0.2704693  0.365397   0.1755416 
1251.6     0.217      1          2          7.424381   4.229      9.145      7.811      5.126      3.196      3.907      1.457      2.225      0.992      2.76       0.2165697  0.2165697  0.3095336  28.74452   3.866961   3.907      0.5590771  0.6543291  38.557     0.2817087  0.3734836  0.1899338 
1251.7     0.219      1          2          7.461704   4.14       9.018      7.849      5.19       3.196      3.765      1.539      2.168      0.986      2.78       0.2133082  0.2133082  0.3117338  25.01171   3.658387   3.765      0.5453811  0.6471258  40.073     0.2982594  0.3820359  0.2144828 
1251.8     0.219      1          2          7.499607   4.102      8.827      7.887001   5.241      3.196      3.622      1.584      2.111      0.979      2.811      0.2063667  0.2063667  0.3143007  18.60247   3.458079   3.622      0.5235114  0.6370611  42.416     0.3270727  0.3909218  0.2632236 
1251.9     0.22       1          2          7.537336   4.152999   8.7        7.900001   5.279      3.183      3.48       1.425      2.047      0.972      2.811      0.2029745  0.2029745  0.3168676  16.09672   3.269583   3.48       0.5074247  0.6290045  43.486     0.3451307  0.3999721  0.2902893 
1252       0.221      1          2          7.573867   4.28       8.51       7.747      5.304      3.082      3.309      1.247      2.117      0.965      2.76       0.1951069  0.1951069  0.3194345  11.5083    3.096871   3.309      0.4779712  0.6152374  45.319     0.3767503  0.4089346  0.344566  
1252.1     0.221      1          2          7.608078   4.407      8.7        7.405      5.33       3.005      1.981      1.387      2.187      0.958      2.667      0.1917311  0.1917311  0.3220014  9.965139   2.943409   1.981      0.3256987  0.5016009  46.133     0.3947584  0.4175099  0.372007  
1252.2     0.221      -9999      -9999      7.638721   4.585      9.018      6.820001   5.33       2.891      1.442      1.501      2.257      0.954      2.563      0.1866104  0.1866104  0.3234682  8.010043   2.81242    1.442      0.1986652  0.4110697  47.011     0.4147207  0.4253434  0.404098  
