~Version
 VERS              .         2.0                           : CWLS LOG ASCII STANDARD - VERSION 2.0
 WRAP              .         NO                            : ONE LINE PER DEPTH STEP
 DLM               .         SPACE                         : DELIMITING CHARACTER(SPACE TAB OR COMMA)
~Well Information
#_______________________________________________________________________________
#
#PARAMETER_NAME    .UNIT     VALUE                         : DESCRIPTION
#_______________________________________________________________________________
STRT               .м        950                           : First reference value
STOP               .м        1308.6                        : Last reference value
STEP               .м        0.1                           : Step increment
NULL               .         -9999                         : Missing value
COMP               .                                       : Company
WELL               .         2142                          : Well name
FLD                .         Узень                         : Field
LOC                .                                       : Location
CNTY               .                                       : County
STAT               .                                       : State
CTRY               .                                       : Country
SRVC               .         SCH                           : Service Company
DATE               .         25.09.2009                    : Date
UWI                .         UZEN_2142                     : Unique Well ID
Block              .         4                             : 
Category           .         Нефтяная                      : 
Condition          .         В работе                      : 
Date               .         01.01.1974                    : 
EREF               .m        231                           : 100.8
Gorizont           .         15                            : 14
Interpretator      .         0                             : 
Kupol              .         Основной                      : osnovnoi
Mud                .         0                             : 
Mud_density        .         0                             : 
Mud_resistivity    .         0                             : 
NGDU               .         НГДУ-1                        : 
ORIGINALWELLNAME   .         2142                          : 
Spud_date          .         1975                          : 1961
Viscosity          .         0                             : 
X                  .m        54618.4                       : 46154
Y                  .m        81581.9                       : 85761.93
YEAR               .         2018                          : 
Исправлено         .         15                            : 
~Parameter Information Block
#_______________________________________________________________________________
#
#PARAMETER_NAME    .UNIT     VALUE                         : DESCRIPTION
#_______________________________________________________________________________
SET                .         LQC_KAZNIPI_Petrel            : 
PBBOTTOM           .м        1308.6                        : Глубина подошвы планшета
PBSCALE            .         1 _ 500                       : Вертикальный масштаб планшета
PBTOP              .м        950                           : Глубина кровли планшета
TLFamily_CALI      .         Caliper                       : 
TLFamily_COLL      .         Net Reservoir Flag            : 
TLFamily_CSAT      .         Fluid Code                    : 
TLFamily_DEPT      .         Measured Depth                : 
TLFamily_GR        .         Russian Gamma Ray             : 
TLFamily_GZ1       .         Gradient 045                  : 
TLFamily_GZ2       .         Gradient 105                  : 
TLFamily_GZ3       .         Gradient 225                  : 
TLFamily_GZ4       .         Gradient 425                  : 
TLFamily_GZ5       .         Gradient 850                  : 
TLFamily_LLS       .         Lateral Log Resistivity       : 
TLFamily_MINV      .         Micro Gradient Resistivity    : 
TLFamily_MNOR      .         Micro Resistivity             : 
TLFamily_NGLD      .         Neutron Gamma                 : 
TLFamily_OGZ       .         Gradient Inverted 225         : 
TLFamily_PHIE      .         Effective Porosity            : 
TLFamily_PHIEN     .         Effective Porosity            : 
TLFamily_PHIT      .         Porosity                      : 
TLFamily_PRMB      .         Permeability                  : 
TLFamily_PRMB_DGR  .         Permeability                  : 
TLFamily_RT        .         Formation Resistivity         : 
TLFamily_SOIL_ARCHIE .         Oil Saturation                : 
TLFamily_SOIL_DW   .         Oil Saturation                : 
TLFamily_SP        .         Spontaneous Potential         : 
TLFamily_VSH_FIN   .         Shale Volume                  : 
TLFamily_VSH_GR    .         Shale Volume                  : 
TLFamily_VSH_SP    .         Shale Volume                  : 
~Curve Information
#_______________________________________________________________________________
#
#LOGNAME           .UNIT     LOG_ID                        : DESCRIPTION
#_______________________________________________________________________________
DEPT               .м                                      : Колонка глубины 
CALI               .м                                      : Каверномер 
COLL               .unitless                               : Описание 
CSAT               .unitless                               : Описание 
GR                 .uR/h                                   : Гамма каротаж 
GZ1                .Ohmm                                   : Градиент-зонд  длиной 0.45м 
GZ2                .Ohmm                                   : Градиент-зонд  длиной 1.05м 
GZ3                .Ohmm                                   : Градиент-зонд  длиной 2.25м 
GZ4                .Ohmm                                   : Градиент-зонд  длиной 4.5м 
GZ5                .Ohmm                                   : Градиент-зонд  длиной 8.5м 
LLS                .Ohmm                                   : Боковой каротаж 
MINV               .Ohmm                                   : Микро-градиент зонд 
MNOR               .Ohmm                                   : Микро-потенциал зонд 
NGLD               .у.е.                                   : Показания зонда НГК-60 аппаратуры ДРСТ-3-90 
OGZ                .Ohmm                                   : Обращенный градиент-зонд 
PHIE               .v/v                                    : Описание 
PHIEN              .v/v                                    :  
PHIT               .v/v                                    : Описание 
PRMB               .mD                                     :  
PRMB_DGR           .mD                                     :  
RT                 .ohmm                                   : УЭС пласта 
SOIL_ARCHIE        .v/v                                    :  
SOIL_DW            .v/v                                    :  
SP                 .mv                                     : Потенциал самополяризации 
VSH_FIN            .v/v                                    : Описание 
VSH_GR             .v/v                                    : Shale volume 
VSH_SP             .v/v                                    : Shale Volume 
~Ascii
# ...
1157.8     0.236      -9999      -9999      7.039106   1.372      1.6        2.058      0.757      1.456      0.724      1.647      1.698      1.04       1.22       0.1863668  0.1863668  0.291932   7.927248   10.29625   0.724      0          0.1035455  42.521     0.3198947  0.2503822  0.3894073 
1157.9     0.234      -9999      -9999      7.007968   1.181      1.422      1.74       0.846      1.291      0.895      1.291      1.526      1.052      1.323      0.1826996  0.1826996  0.2875316  6.77951    10.75552   0.895      0          0.1798277  42.528     0.3176726  0.2459601  0.3893852 
1158       0.232      -9999      -9999      6.979365   1.08       1.524      1.486      0.897      1.215      1.111      0.853      1.361      1.065      1.519      0.1788244  0.1788244  0.2827645  5.746727   11.19544   1.111      0.04684612 0.2500216  42.472     0.3149698  0.2419667  0.387973  
1158.1     0.231      -9999      -9999      6.954795   1.054      1.613      1.397      0.96       1.253      1.365      0.93       1.196      1.082      1.747      0.1733802  0.1733802  0.2765306  4.555954   11.58768   1.365      0.1110101  0.3057229  42.416     0.312577   0.2385882  0.3865659 
1158.2     0.231      -9999      -9999      6.93575    1.092      1.715      1.435      1.062      1.278      1.651      1.031      1.063      1.1        2.026      0.167434   0.167434   0.26993    3.535433   11.90114   1.651      0.1618364  0.3504744  42.361     0.3105938  0.2360019  0.3851857 
1158.3     0.231      -9999      -9999      6.923403   1.13       1.892      1.575      1.215      1.303      1.689      1.126      1.844      1.11       2.284      0.1642717  0.1642717  0.266263   3.089363   12.10887   1.689      0.1568525  0.3475659  42.305     0.3090644  0.2343402  0.3837887 
1158.4     0.231      -9999      -9999      6.918705   1.105      2.07       1.765      1.392      1.443      1.638      2.396      2.346      1.102      2.853      0.1673092  0.1673092  0.2691966  3.516654   12.18887   1.638      0.1581746  0.3466449  42.313     0.3087498  0.233711   0.3837887 
1158.5     0.23       -9999      -9999      6.922358   1.181      2.248      1.969      1.532      1.557      2.273      1.558      1.723      1.08       3.215      0.1755255  0.1755255  0.277264   4.992482   12.12662   2.273      0.3076607  0.4654876  42.257     0.3082984  0.2342001  0.3823966 
1158.6     0.229      -9999      -9999      6.934853   1.321      2.439      2.121      1.57       1.557      2.705      1.152      1.387      1.058      3.494      0.1835445  0.1835445  0.2853314  7.028251   11.91611   2.705      0.386294   0.5269492  42.201     0.3084452  0.2358808  0.3810096 
1158.7     0.229      -9999      -9999      6.956168   1.626      2.642      2.299      1.519      1.557      2.578      1.958      2.549      1.044      3.659      0.1875151  0.1875151  0.2904652  8.32517    11.56541   2.578      0.3838802  0.5246901  42.4       0.3119699  0.2387757  0.3851641 
1158.8     0.229      -9999      -9999      6.985857   1.943      2.832      2.477      1.507      1.583      2.261      2.409      2.409      1.032      3.7        0.1921539  0.1921539  0.2948656  10.14648   11.09406   2.261      0.358552   0.5019408  42.153     0.3112475  0.2428672  0.3796278 
1158.9     0.23       -9999      -9999      7.023131   2.21       2.629      2.578      1.532      1.608      1.969      2.123      2.206      1.033      3.587      0.1913768  0.1913768  0.2944989  9.815683   10.52937   1.969      0.3131279  0.465012   42.033     0.3124913  0.2481037  0.3768789 
1159       0.231      -9999      -9999      7.066916   2.426      2.451      2.566      1.507      1.634      1.702      1.863      1.977      1.04       3.452      0.1882179  0.1882179  0.291932   8.578491   9.902663   1.702      0.253776   0.4176566  41.914     0.3142851  0.254399   0.3741712 
1159.1     0.232      -9999      -9999      7.115692   2.629      2.731      2.502      1.405      1.532      1.448      2.689      3.501      1.038      3.318      0.1882067  0.1882067  0.2926654  8.574365   9.248339   1.448      0.1949368  0.3695695  41.795     0.3165416  0.2616002  0.371483  
1159.2     0.232      -9999      -9999      7.167757   2.693      2.464      2.375      1.278      1.43       1.245      3.52       3.025      1.029      3.184      0.1913014  0.1913014  0.2959657  9.784156   8.59753    1.245      0.1479909  0.3290817  41.484     0.3171646  0.2695121  0.3648172 
1159.3     0.232      -9999      -9999      7.221314   2.324      2.223      2.235      1.176      1.316      1.092      2.67       2.231      1.021      3.091      0.1939273  0.1939273  0.2988993  10.94364   7.975818   1.092      0.1046137  0.291736   41.174     0.318097   0.2779005  0.3582935 
1159.4     0.232      -9999      -9999      7.274281   1.892      1.969      2.108      1.1        1.227      0.991      1.882      1.317      1.02       3.029      0.1941562  0.1941562  0.299266   11.05102   7.405196   0.991      0.06385501 0.2574165  40.798     0.3185145  0.286453   0.3505759 
1159.5     0.232      -9999      -9999      7.3248     1.765      1.892      1.969      1.049      1.138      0.94       1.196      1.431      1.024      3.101      0.1921296  0.1921296  0.2977992  10.13593   6.89901    0.94       0.03154419 0.2320462  40.552     0.320211   0.2948557  0.3455662 
1159.6     0.232      -9999      -9999      7.371116   1.626      1.88       1.829      1.024      1.075      0.854      1.469      1.571      1.023      3.308      0.1918029  0.1918029  0.2981659  9.995693   6.465408   0.854      0          0.1943399  40.369     0.3223121  0.3027755  0.3418488 
1159.7     0.232      -9999      -9999      7.411614   1.499      1.854      1.677      0.986      1.011      0.889      1.653      1.711      1.021      3.711      0.1923739  0.1923739  0.2988993  10.2421    6.108663   0.889      0.006958261 0.2124608  40.058     0.3228043  0.3098747  0.3357338 
1159.8     0.231      -9999      -9999      7.444724   1.435      1.842      1.562      0.986      0.973      0.991      1.438      1.793      1.025      4.269      0.190524   0.190524   0.2974325  9.465077   5.831681   0.991      0.0483299  0.2489702  39.875     0.3239653  0.3158021  0.3321284 
1159.9     0.23       -9999      -9999      7.468944   1.397      1.829      1.486      0.999      0.935      1.054      1.317      1.609      1.032      5.22       0.1878178  0.1878178  0.2948656  8.433351   5.637049   1.054      0.06386885 0.263744   39.692     0.3243872  0.3202098  0.3285646 
1160       0.228      -9999      -9999      7.483123   1.346      1.778      1.397      1.037      1.011      1.022      1.349      1.476      1.04       5.716      0.1854207  0.1854207  0.291932   7.613764   5.526129   1.022      0.03954124 0.243923   39.381     0.3227615  0.3228188  0.3227042 
1160.1     0.226      -9999      -9999      7.486378   1.321      1.715      1.372      1.062      1.087      0.991      1.387      1.361      1.05       6.188001   0.1825996  0.1825996  0.288265   6.750648   5.500978   0.991      0.01245853 0.2215751  39.071     0.3201983  0.3234207  0.3169758 
1160.2     0.224      -9999      -9999      7.47812    1.283      1.664      1.359      1.126      1.138      1.422      1.082      1.565      1.058      6.66       0.1808501  0.1808501  0.2853314  6.265272   5.565013   1.422      0.1593712  0.3436424  38.759     0.3166102  0.3218959  0.3113244 
1160.3     0.222      -9999      -9999      7.458148   1.257      1.562      1.346      1.164      1.189      2.026      1.438      1.812      1.07       7.132      0.1779615  0.1779615  0.280931   5.53908    5.722989   2.026      0.2779788  0.4413773  38.449     0.3120286  0.3182375  0.3058197 
1160.4     0.221      -9999      -9999      7.426426   1.245      1.486      1.461      1.202      1.227      2.566      1.838      1.704      1.075      7.442      0.1788378  0.1788378  0.2790975  5.750011   5.983157   2.566      0.3565164  0.5026746  37.82      0.3038171  0.3125126  0.2951217 
