~Version
 VERS              .         2.0                           : CWLS LOG ASCII STANDARD - VERSION 2.0
 WRAP              .         NO                            : ONE LINE PER DEPTH STEP
 DLM               .         SPACE                         : DELIMITING CHARACTER(SPACE TAB OR COMMA)
~Well Information
#_______________________________________________________________________________
#
#PARAMETER_NAME    .UNIT     VALUE                         : DESCRIPTION
#_______________________________________________________________________________
STRT               .м        950                           : First reference value
STOP               .м        1308.6                        : Last reference value
STEP               .м        0.1                           : Step increment
NULL               .         -9999                         : Missing value
COMP               .                                       : Company
WELL               .         2142                          : Well name
FLD                .         Узень                         : Field
LOC                .                                       : Location
CNTY               .                                       : County
STAT               .                                       : State
CTRY               .                                       : Country
SRVC               .         SCH                           : Service Company
DATE               .         25.09.2009                    : Date
UWI                .         UZEN_2142                     : Unique Well ID
Block              .         4                             : 
Category           .         Нефтяная                      : 
Condition          .         В работе                      : 
Date               .         01.01.1974                    : 
EREF               .m        231                           : 100.8
Gorizont           .         15                            : 14
Interpretator      .         0                             : 
Kupol              .         Основной                      : osnovnoi
Mud                .         0                             : 
Mud_density        .         0                             : 
Mud_resistivity    .         0                             : 
NGDU               .         НГДУ-1                        : 
ORIGINALWELLNAME   .         2142                          : 
Spud_date          .         1975                          : 1961
Viscosity          .         0                             : 
X                  .m        54618.4                       : 46154
Y                  .m        81581.9                       : 85761.93
YEAR               .         2018                          : 
Исправлено         .         15                            : 
~Parameter Information Block
#_______________________________________________________________________________
#
#PARAMETER_NAME    .UNIT     VALUE                         : DESCRIPTION
#_______________________________________________________________________________
SET                .         LQC_KAZNIPI_Petrel            : 
PBBOTTOM           .м        1308.6                        : Глубина подошвы планшета
PBSCALE            .         1 _ 500                       : Вертикальный масштаб планшета
PBTOP              .м        950                           : Глубина кровли планшета
TLFamily_CALI      .         Caliper                       : 
TLFamily_COLL      .         Net Reservoir Flag            : 
TLFamily_CSAT      .         Fluid Code                    : 
TLFamily_DEPT      .         Measured Depth                : 
TLFamily_GR        .         Russian Gamma Ray             : 
TLFamily_GZ1       .         Gradient 045                  : 
TLFamily_GZ2       .         Gradient 105                  : 
TLFamily_GZ3       .         Gradient 225                  : 
TLFamily_GZ4       .         Gradient 425                  : 
TLFamily_GZ5       .         Gradient 850                  : 
TLFamily_LLS       .         Lateral Log Resistivity       : 
TLFamily_MINV      .         Micro Gradient Resistivity    : 
TLFamily_MNOR      .         Micro Resistivity             : 
TLFamily_NGLD      .         Neutron Gamma                 : 
TLFamily_OGZ       .         Gradient Inverted 225         : 
TLFamily_PHIE      .         Effective Porosity            : 
TLFamily_PHIEN     .         Effective Porosity            : 
TLFamily_PHIT      .         Porosity                      : 
TLFamily_PRMB      .         Permeability                  : 
TLFamily_PRMB_DGR  .         Permeability                  : 
TLFamily_RT        .         Formation Resistivity         : 
TLFamily_SOIL_ARCHIE .         Oil Saturation                : 
TLFamily_SOIL_DW   .         Oil Saturation                : 
TLFamily_SP        .         Spontaneous Potential         : 
TLFamily_VSH_FIN   .         Shale Volume                  : 
TLFamily_VSH_GR    .         Shale Volume                  : 
TLFamily_VSH_SP    .         Shale Volume                  : 
~Curve Information
#_______________________________________________________________________________
#
#LOGNAME           .UNIT     LOG_ID                        : DESCRIPTION
#_______________________________________________________________________________
DEPT               .м                                      : Колонка глубины 
CALI               .м                                      : Каверномер 
COLL               .unitless                               : Описание 
CSAT               .unitless                               : Описание 
GR                 .uR/h                                   : Гамма каротаж 
GZ1                .Ohmm                                   : Градиент-зонд  длиной 0.45м 
GZ2                .Ohmm                                   : Градиент-зонд  длиной 1.05м 
GZ3                .Ohmm                                   : Градиент-зонд  длиной 2.25м 
GZ4                .Ohmm                                   : Градиент-зонд  длиной 4.5м 
GZ5                .Ohmm                                   : Градиент-зонд  длиной 8.5м 
LLS                .Ohmm                                   : Боковой каротаж 
MINV               .Ohmm                                   : Микро-градиент зонд 
MNOR               .Ohmm                                   : Микро-потенциал зонд 
NGLD               .у.е.                                   : Показания зонда НГК-60 аппаратуры ДРСТ-3-90 
OGZ                .Ohmm                                   : Обращенный градиент-зонд 
PHIE               .v/v                                    : Описание 
PHIEN              .v/v                                    :  
PHIT               .v/v                                    : Описание 
PRMB               .mD                                     :  
PRMB_DGR           .mD                                     :  
RT                 .ohmm                                   : УЭС пласта 
SOIL_ARCHIE        .v/v                                    :  
SOIL_DW            .v/v                                    :  
SP                 .mv                                     : Потенциал самополяризации 
VSH_FIN            .v/v                                    : Описание 
VSH_GR             .v/v                                    : Shale volume 
VSH_SP             .v/v                                    : Shale Volume 
~Ascii
# ...
1020.1     0.214      6          6          2.501292   6.287001   14.479     5.36       3.221      4.656      86.683     3.489      3.8        1.95       11.938     0.01       0          0.01       0.004289259 96.05135   86.683     0          0          28.295     0.2191406  0.1005986  0.3376826 
1020.2     0.214      6          6          2.568782   6.705999   16.384     5.728      3.526      5.152      95.256     3.292      3.222      1.981      9.975      0.01       0          0.01       0.004289259 90.83794   95.256     0          0          29.378     0.2276703  0.1029173  0.3524234 
1020.3     0.215      6          6          2.645113   7.049      19.432     6.211      3.869      5.584001   97.32      3.336      3.33       1.998      8.579      0.01       0          0.01       0.004289259 85.28172   97.32      0          0          30.461     0.2367191  0.1056042  0.3678339 
1020.4     0.216      6          6          2.730516   7.405      24.322     8.383      4.136      6.041      97.478     3.355      3.038      2.006      7.959      0.01       0          0.01       0.004289259 79.46703   97.478     0          0          31.544     0.2463118  0.1086937  0.3839299 
1020.5     0.217      6          6          2.824942   7.772999   26.862     9.78       4.923      5.564      64.137     3.051      2.803      1.997      7.339      0.01       0          0.01       0.004289259 73.49835   64.137     0          0          32.627     0.2564711  0.112215   0.4007272 
1020.6     0.218      6          6          2.92815    10.161     33.97499   11.05      5.977001   6.835      19.845     2.816      2.587      1.975      6.46       0.01       0          0.01       0.004289259 67.48608   19.845     0          0          33.773     0.2677517  0.1161943  0.419309  
1020.7     0.219      6          6          3.039669   11.113     35.52501   12.256     6.358      7.278999   14.606     3.133      2.968      1.954      5.943      0.01       0          0.01       0.004289259 61.54131   14.606     0          0          34.729     0.278007   0.1206529  0.4353612 
1020.8     0.219      6          6          3.15885    11.939     37.15      13.526     6.625      7.66       13.812     3.489      3.298      1.914      5.323      0.01       0          0.01       0.004289259 55.76572   13.812     0          0          35.557     0.2876364  0.1256071  0.4496658 
1020.9     0.219      6          6          3.284918   12.891     40.643     14.923     6.955      8.041      16.67      3.794      3.635      1.86       4.982      0.01       0          0.01       0.004289259 50.24527   16.67      0          0          36.385     0.2977382  0.1310691  0.4644073 
1021       0.22       6          6          3.417011   12.32      40.643     16.448     7.132999   8.358999   19.845     3.863      3.832      1.785      4.827      0.01       0          0.01874051 0.004289259 45.04628   19.845     0          0          37.213     0.3083199  0.1370472  0.4795926 
1021.1     0.221      6          6          3.554166   11.748     40.96      18.162     7.184      8.358999   25.402     3.889      3.87       1.707      4.662      0.01       0          0.04734309 0.004289259 40.21659   25.402     0          0          38.041     0.3193857  0.143543   0.4952284 
1021.2     0.222      6          6          3.695469   11.431     41.278     20.194     7.184      8.358999   24.608     3.882      3.901      1.622      4.6        0.01       0          0.07851261 0.004289259 35.78179   24.608     0          0.03657041 38.805     0.3302881  0.1505574  0.5100188 
1021.3     0.223      -9999      -9999      3.840004   11.685     46.675     22.607     7.132999   8.295      17.051     3.876      3.889      1.5        4.579      0.01028671 0.01028671 0.12325    0.004342031 31.75103   17.051     0          0.1964912  39.633     0.342313   0.1580871  0.5265389 
1021.4     0.224      -9999      -9999      3.987022   12.002     50.803     25.846     7.006      8.168      15.146     3.876      3.882      1.385      4.548      0.04832627 0.04832627 0.1654205  0.02199266 28.11656   15.146     0.1257055  0.5382196  40.461     0.354831   0.1661325  0.5435295 
1021.5     0.224      -9999      -9999      4.135881   12.447     51.438     31.88      6.79       8.041      9.176      3.838      3.851      1.27       4.486      0.08620159 0.08620159 0.207591   0.1106167  24.86023   9.176      0.3318222  0.5818352  41.289     0.3678467  0.174696   0.5609975 
1021.6     0.224      -9999      -9999      4.28594    12.828     51.43699   44.453     6.587      7.914001   5.957      3.8        3.8        1.154      4.331      0.1249921  0.1249921  0.2501282  0.5785154  21.95925   5.957      0.4079005  0.5982211  41.926     0.3792003  0.1837752  0.5746253 
1021.7     0.224      -9999      -9999      4.436498   12.574     34.292     46.675     6.511      7.47       2.737      3.768      3.641      1.087      4.01       0.1456842  0.1456842  0.2746971  1.398246   19.38877   2.737      0.2536455  0.4725581  42.563     0.390948   0.193359   0.5885371 
1021.8     0.225      -9999      -9999      4.586777   9.78       29.371     50.803     6.6        6.898      2.032      3.457      3.222      1.026      3.514      0.1642936  0.1642936  0.2970658  3.092253   17.12316   2.032      0.2270097  0.4431654  43.137     0.4023398  0.2034233  0.6012563 
1021.9     0.225      -9999      -9999      4.735956   8.554      24.61      51.75601   6.650001   6.517001   1.74       2.771      2.797      0.992      3.122      0.1726419  0.1726419  0.3095336  4.414735   15.13603   1.74       0.2037622  0.4244086  43.774     0.4148234  0.2139321  0.6157147 
1022       0.225      -9999      -9999      4.883152   7.328      20.43      48.26301   5.876      6.073      1.664      1.749      2.25       0.968      2.729      0.1772101  0.1772101  0.3183344  5.364366   13.40147   1.664      0.205185   0.4272506  44.411     0.4276495  0.2248331  0.6304659 
1022.1     0.226      -9999      -9999      5.027477   5.538      19.115     41.595     4.568      5.500999   1.638      1.99       2.428      0.944      2.336      0.1819383  0.1819383  0.3271352  6.562921   11.89388   1.638      0.2174439  0.4380454  44.984     0.4399906  0.2360607  0.6439204 
1022.2     0.226      -9999      -9999      5.167945   3.696      15.876     30.355     4.085      4.675      1.619      2.276      2.676      0.924      1.943      0.1848537  0.1848537  0.3344692  7.431844   10.58961   1.619      0.2239668  0.4457859  45.621     0.4533803  0.2475264  0.6592343 
1022.3     0.226      -9999      -9999      5.303462   2.883      12.955     25.275     3.691      4.186      1.6        2.682      2.924      0.916      1.674      0.1832985  0.1832985  0.3374028  6.95491    9.467045   1.6        0.2138928  0.4436148  46.258     0.4669826  0.2591154  0.6748499 
1022.4     0.227      -9999      -9999      5.432902   2.464      9.309999   21.147     2.65       3.92       1.594      2.441      3.165      0.921      1.447      0.1772062  0.1772062  0.3355693  5.363472   8.506112   1.594      0.188977   0.4332851  46.831     0.4798883  0.2706911  0.6890855 
1022.5     0.228      -9999      -9999      5.555209   2.134      5.665      17.464     1.875      3.056      1.607      1.996      2.631      0.931      1.271      0.1698259  0.1698259  0.3319023  3.91513    7.687929   1.607      0.1615667  0.4223213  47.277     0.4911405  0.2821036  0.7001774 
1022.6     0.229      -9999      -9999      5.669449   1.918      5.08       13.971     1.519      2.523      1.6        2.123      2.695      0.937      1.168      0.1642257  0.1642257  0.3297021  3.083304   6.994948   1.6        0.1349489  0.4111294  47.659     0.5014437  0.2931976  0.7096897 
1022.7     0.229      -9999      -9999      5.774767   1.804      4.001      10.415     1.38       2.065      1.607      2.288      2.784      0.934      1.106      0.1622704  0.1622704  0.3308022  2.836609   6.411564   1.607      0.1276663  0.4109206  47.978     0.5107024  0.3038113  0.7175936 
