~Version
 VERS              .         2.0                           : CWLS LOG ASCII STANDARD - VERSION 2.0
 WRAP              .         NO                            : ONE LINE PER DEPTH STEP
 DLM               .         SPACE                         : DELIMITING CHARACTER(SPACE TAB OR COMMA)
~Well Information
#_______________________________________________________________________________
#
#PARAMETER_NAME    .UNIT     VALUE                         : DESCRIPTION
#_______________________________________________________________________________
STRT               .м        950                           : First reference value
STOP               .м        1308.6                        : Last reference value
STEP               .м        0.1                           : Step increment
NULL               .         -9999                         : Missing value
COMP               .                                       : Company
WELL               .         2142                          : Well name
FLD                .         Узень                         : Field
LOC                .                                       : Location
CNTY               .                                       : County
STAT               .                                       : State
CTRY               .                                       : Country
SRVC               .         SCH                           : Service Company
DATE               .         25.09.2009                    : Date
UWI                .         UZEN_2142                     : Unique Well ID
Block              .         4                             : 
Category           .         Нефтяная                      : 
Condition          .         В работе                      : 
Date               .         01.01.1974                    : 
EREF               .m        231                           : 100.8
Gorizont           .         15                            : 14
Interpretator      .         0                             : 
Kupol              .         Основной                      : osnovnoi
Mud                .         0                             : 
Mud_density        .         0                             : 
Mud_resistivity    .         0                             : 
NGDU               .         НГДУ-1                        : 
ORIGINALWELLNAME   .         2142                          : 
Spud_date          .         1975                          : 1961
Viscosity          .         0                             : 
X                  .m        54618.4                       : 46154
Y                  .m        81581.9                       : 85761.93
YEAR               .         2018                          : 
Исправлено         .         15                            : 
~Parameter Information Block
#_______________________________________________________________________________
#
#PARAMETER_NAME    .UNIT     VALUE                         : DESCRIPTION
#_______________________________________________________________________________
SET                .         LQC_KAZNIPI_Petrel            : 
PBBOTTOM           .м        1308.6                        : Глубина подошвы планшета
PBSCALE            .         1 _ 500                       : Вертикальный масштаб планшета
PBTOP              .м        950                           : Глубина кровли планшета
TLFamily_CALI      .         Caliper                       : 
TLFamily_COLL      .         Net Reservoir Flag            : 
TLFamily_CSAT      .         Fluid Code                    : 
TLFamily_DEPT      .         Measured Depth                : 
TLFamily_GR        .         Russian Gamma Ray             : 
TLFamily_GZ1       .         Gradient 045                  : 
TLFamily_GZ2       .         Gradient 105                  : 
TLFamily_GZ3       .         Gradient 225                  : 
TLFamily_GZ4       .         Gradient 425                  : 
TLFamily_GZ5       .         Gradient 850                  : 
TLFamily_LLS       .         Lateral Log Resistivity       : 
TLFamily_MINV      .         Micro Gradient Resistivity    : 
TLFamily_MNOR      .         Micro Resistivity             : 
TLFamily_NGLD      .         Neutron Gamma                 : 
TLFamily_OGZ       .         Gradient Inverted 225         : 
TLFamily_PHIE      .         Effective Porosity            : 
TLFamily_PHIEN     .         Effective Porosity            : 
TLFamily_PHIT      .         Porosity                      : 
TLFamily_PRMB      .         Permeability                  : 
TLFamily_PRMB_DGR  .         Permeability                  : 
TLFamily_RT        .         Formation Resistivity         : 
TLFamily_SOIL_ARCHIE .         Oil Saturation                : 
TLFamily_SOIL_DW   .         Oil Saturation                : 
TLFamily_SP        .         Spontaneous Potential         : 
TLFamily_VSH_FIN   .         Shale Volume                  : 
TLFamily_VSH_GR    .         Shale Volume                  : 
TLFamily_VSH_SP    .         Shale Volume                  : 
~Curve Information
#_______________________________________________________________________________
#
#LOGNAME           .UNIT     LOG_ID                        : DESCRIPTION
#_______________________________________________________________________________
DEPT               .м                                      : Колонка глубины 
CALI               .м                                      : Каверномер 
COLL               .unitless                               : Описание 
CSAT               .unitless                               : Описание 
GR                 .uR/h                                   : Гамма каротаж 
GZ1                .Ohmm                                   : Градиент-зонд  длиной 0.45м 
GZ2                .Ohmm                                   : Градиент-зонд  длиной 1.05м 
GZ3                .Ohmm                                   : Градиент-зонд  длиной 2.25м 
GZ4                .Ohmm                                   : Градиент-зонд  длиной 4.5м 
GZ5                .Ohmm                                   : Градиент-зонд  длиной 8.5м 
LLS                .Ohmm                                   : Боковой каротаж 
MINV               .Ohmm                                   : Микро-градиент зонд 
MNOR               .Ohmm                                   : Микро-потенциал зонд 
NGLD               .у.е.                                   : Показания зонда НГК-60 аппаратуры ДРСТ-3-90 
OGZ                .Ohmm                                   : Обращенный градиент-зонд 
PHIE               .v/v                                    : Описание 
PHIEN              .v/v                                    :  
PHIT               .v/v                                    : Описание 
PRMB               .mD                                     :  
PRMB_DGR           .mD                                     :  
RT                 .ohmm                                   : УЭС пласта 
SOIL_ARCHIE        .v/v                                    :  
SOIL_DW            .v/v                                    :  
SP                 .mv                                     : Потенциал самополяризации 
VSH_FIN            .v/v                                    : Описание 
VSH_GR             .v/v                                    : Shale volume 
VSH_SP             .v/v                                    : Shale Volume 
~Ascii
# ...
1225.3     0.217      8          2          7.276839   3.086      3.658      4.394      0.935      0.96       2.521      1.438      2.295      0.983      5.396      0.2343223  0.2343223  0.3128339  61.288     4.814624   2.521      0.4943509  0.5861307  31.785     0.237914   0.3415083  0.1343197 
1225.4     0.217      8          2          7.269713   3.137      3.709      4.204      0.973      0.96       2.667      1.533      2.066      0.979      5.654      0.2360143  0.2360143  0.3143007  65.87428   4.865861   2.667      0.510611   0.5999182  31.801     0.2372315  0.3400352  0.1344277 
1225.5     0.217      8          2          7.254182   3.048      3.772      4.026      0.986      0.973      2.943      1.59       2.098      0.976      5.84       0.2374541  0.2374541  0.3154008  70.04626   4.979437   2.943      0.5351803  0.6208799  32.008     0.236202   0.3368466  0.1355573 
1225.6     0.217      8          2          7.231326   2.858      3.709      3.861      1.011      0.986      3.023      1.546      2.123      0.981      6.398      0.2361912  0.2361912  0.3135673  66.37322   5.151414   3.023      0.5388569  0.6238212  32.215     0.2344729  0.3322086  0.1367373 
1225.7     0.217      8          2          7.202399   2.718      3.62       3.747      1.062      0.986      2.896      1.577      1.971      0.991      7.132      0.2335182  0.2335182  0.3099003  59.22177   5.377618   2.896      0.5247875  0.6111757  32.167     0.2314609  0.3264299  0.136492  
1225.8     0.217      8          2          7.168571   2.578      3.531      3.658      1.1        1.011      2.743      1.615      1.831      1.001      7.855999   0.2311573  0.2311573  0.3062333  53.54899   5.654772   2.743      0.5081946  0.5959898  31.929     0.2275031  0.3197997  0.1352065 
1225.9     0.217      0          0          7.130991   2.439      3.429      3.594      1.138      1.062      2.604      1.406      1.882      1.01       9.303      0.2294133  0.2294133  0.302933   49.71063   5.979453   2.604      0.4927103  0.5814028  31.5       0.2227869  0.3125916  0.1329822 
1226       0.217      0          0          7.090637   2.35       3.34       3.556      1.176      1.151      2.439      1.476      1.939      1.019      10.595     0.2276959  0.2276959  0.2996327  46.1996    6.348881   2.439      0.4734506  0.5633419  31.07      0.2179903  0.3050325  0.1309481 
1226.1     0.217      0          0          7.048294   2.337      3.264      3.582      1.265      1.329      2.299      1.596      1.946      1.028      11.783     0.2258012  0.2258012  0.2963324  42.61328   6.761085   2.299      0.4546856  0.545753   30.895     0.2137308  0.2972971  0.1301645 
1226.2     0.217      0          0          7.004574   2.451      3.34       3.709      1.367      1.405      2.159      1.768      1.952      1.037      13.23      0.2239092  0.2239092  0.2930321  39.30972   7.214794   2.159      0.4342374  0.5265314  30.72      0.2094634  0.2895161  0.1294107 
1226.3     0.217      0          0          6.959999   2.566      3.417      3.632      1.519      1.532      2.026      1.666      2.034      1.044      14.781     0.2228599  0.2228599  0.2904652  37.58927   7.708737   2.026      0.414713   0.5077673  30.353     0.2048645  0.2817924  0.1279367 
1226.4     0.216      0          0          6.914783   2.68       3.429      3.95       1.799      1.659      2.064      1.501      2.009      1.048      16.073     0.222874   0.222874   0.2889984  37.61192   8.244345   2.064      0.4198266  0.5108998  29.988     0.200377   0.2741682  0.1265858 
1226.5     0.215      1          2          6.86896    2.82       3.429      4.267      1.977      1.837      2.283      1.336      1.977      1.047      18.037     0.2246868  0.2246868  0.2893651  40.63515   8.825115   2.283      0.4505327  0.5368731  29.622     0.1959949  0.2666521  0.1253378 
1226.6     0.215      1          2          6.822676   2.959      3.429      4.585      2.231      2.015      2.642      1.19       1.933      1.044      19.277     0.227226   0.227226   0.2904652  45.28303   9.453281   2.642      0.4919258  0.5724604  29.192     0.1916338  0.2592694  0.1239983 
1226.7     0.215      1          2          6.776162   3.023      3.544      4.903      2.561      2.231      2.845      1.399      1.965      1.044      20.518     0.2285887  0.2285887  0.2904652  47.99272   10.12962   2.845      0.5118211  0.5890337  28.826     0.1875045  0.252056   0.122953  
1226.8     0.215      1          2          6.729836   2.947      3.721      5.22       3.005      2.485      2.991      1.33       2.003      1.054      21.344     0.2262335  0.2262335  0.2867982  43.40612   10.8513    2.991      0.5188313  0.5944668  28.46      0.1835294  0.2450713  0.1219875 
1226.9     0.215      1          2          6.684234   2.921      3.886      5.525      4.231      2.777      3.004      1.431      1.971      1.056      21.758     0.2267509  0.2267509  0.2860648  44.37469   11.61191   3.004      0.5207641  0.5951372  28.094     0.179739   0.2383848  0.1210932 
1227       0.215      1          2          6.640091   3.023      4.052      5.715      6.009      3.183      2.991      1.565      1.946      1.058      21.913     0.227194   0.227194   0.2853314  45.22129   12.39892   2.991      0.5206036  0.5939916  27.728     0.1761739  0.2320861  0.1202617 
1227.1     0.215      1          2          6.598401   3.201      4.293      6.781      6.644001   3.551      3.277      1.685      2.034      1.065      21.965     0.2257117  0.2257117  0.2827645  42.45088   13.19114   3.277      0.5380874  0.6090041  27.362     0.1728872  0.2262901  0.1194842 
1227.2     0.215      1          2          6.56024    3.417      4.598      7.245999   7.343      3.92       3.81       1.59       2.149      1.072      21.395     0.22412    0.22412    0.2801976  39.66466   13.96057   3.81       0.5669639  0.6343773  26.996     0.1699322  0.2211119  0.1187525 
1227.3     0.215      1          2          6.526722   3.683      4.953      7.71       8.232001   4.288      4.001      1.507      2.352      1.071      18.295     0.225355   0.225355   0.2805643  41.80987   14.67332   4.001      0.5788113  0.6443084  26.566     0.167301   0.2166615  0.1179406 
1227.4     0.215      1          2          6.498921   3.963      5.461      7.942999   9.121      4.656      5.413      1.418      2.174      1.063      16.073     0.2289956  0.2289956  0.2834979  48.83294   15.29203   5.413      0.6395751  0.6980835  26.2       0.1651584  0.2130383  0.1172786 
1227.5     0.215      1          2          6.477752   4.267      7.493      8.174999   9.819      4.783      7.62       1.539      2.301      1.055      13.644     0.2324836  0.2324836  0.2864315  56.66555   15.78059   7.62       0.6970274  0.7486553  25.835     0.1634784  0.2103199  0.1166369 
1227.6     0.215      1          2          6.464002   4.647999   8.446      8.291      10.518     4.898      9.495      1.723      2.25       1.047      12.248     0.23581    0.23581    0.2893651  65.30264   16.10626   9.495      0.7301041  0.7774977  25.469     0.1622882  0.2085729  0.1160035 
1227.7     0.215      1          2          6.458073   5.08       9.653      8.523      10.962     4.974      14.86      1.711      2.206      1.042      11.267     0.2377996  0.2377996  0.2911986  71.08578   16.24876   14.86      0.7828622  0.8234186  25.357     0.1618152  0.2078241  0.1158063 
1227.8     0.214      1          2          6.460203   5.563      10.859     8.756      11.089     4.987      14.67      1.698      2.161      1.041      9.975      0.2381542  0.2381542  0.2915653  72.16912   16.1974    14.67      0.7818304  0.8225197  25.246     0.1618518  0.2080929  0.1156108 
1227.9     0.214      1          2          6.470351   5.995      12.066     8.988      11.216     4.999      17.781     1.819      2.212      1.043      9.148      0.2372592  0.2372592  0.2908319  69.46635   15.95505   17.781     0.8000033  0.8382998  25.071     0.1623414  0.2093779  0.115305  
