~Version
 VERS              .         2.0                           : CWLS LOG ASCII STANDARD - VERSION 2.0
 WRAP              .         NO                            : ONE LINE PER DEPTH STEP
 DLM               .         SPACE                         : DELIMITING CHARACTER(SPACE TAB OR COMMA)
~Well Information
#_______________________________________________________________________________
#
#PARAMETER_NAME    .UNIT     VALUE                         : DESCRIPTION
#_______________________________________________________________________________
STRT               .м        950                           : First reference value
STOP               .м        1308.6                        : Last reference value
STEP               .м        0.1                           : Step increment
NULL               .         -9999                         : Missing value
COMP               .                                       : Company
WELL               .         2142                          : Well name
FLD                .         Узень                         : Field
LOC                .                                       : Location
CNTY               .                                       : County
STAT               .                                       : State
CTRY               .                                       : Country
SRVC               .         SCH                           : Service Company
DATE               .         25.09.2009                    : Date
UWI                .         UZEN_2142                     : Unique Well ID
Block              .         4                             : 
Category           .         Нефтяная                      : 
Condition          .         В работе                      : 
Date               .         01.01.1974                    : 
EREF               .m        231                           : 100.8
Gorizont           .         15                            : 14
Interpretator      .         0                             : 
Kupol              .         Основной                      : osnovnoi
Mud                .         0                             : 
Mud_density        .         0                             : 
Mud_resistivity    .         0                             : 
NGDU               .         НГДУ-1                        : 
ORIGINALWELLNAME   .         2142                          : 
Spud_date          .         1975                          : 1961
Viscosity          .         0                             : 
X                  .m        54618.4                       : 46154
Y                  .m        81581.9                       : 85761.93
YEAR               .         2018                          : 
Исправлено         .         15                            : 
~Parameter Information Block
#_______________________________________________________________________________
#
#PARAMETER_NAME    .UNIT     VALUE                         : DESCRIPTION
#_______________________________________________________________________________
SET                .         LQC_KAZNIPI_Petrel            : 
PBBOTTOM           .м        1308.6                        : Глубина подошвы планшета
PBSCALE            .         1 _ 500                       : Вертикальный масштаб планшета
PBTOP              .м        950                           : Глубина кровли планшета
TLFamily_CALI      .         Caliper                       : 
TLFamily_COLL      .         Net Reservoir Flag            : 
TLFamily_CSAT      .         Fluid Code                    : 
TLFamily_DEPT      .         Measured Depth                : 
TLFamily_GR        .         Russian Gamma Ray             : 
TLFamily_GZ1       .         Gradient 045                  : 
TLFamily_GZ2       .         Gradient 105                  : 
TLFamily_GZ3       .         Gradient 225                  : 
TLFamily_GZ4       .         Gradient 425                  : 
TLFamily_GZ5       .         Gradient 850                  : 
TLFamily_LLS       .         Lateral Log Resistivity       : 
TLFamily_MINV      .         Micro Gradient Resistivity    : 
TLFamily_MNOR      .         Micro Resistivity             : 
TLFamily_NGLD      .         Neutron Gamma                 : 
TLFamily_OGZ       .         Gradient Inverted 225         : 
TLFamily_PHIE      .         Effective Porosity            : 
TLFamily_PHIEN     .         Effective Porosity            : 
TLFamily_PHIT      .         Porosity                      : 
TLFamily_PRMB      .         Permeability                  : 
TLFamily_PRMB_DGR  .         Permeability                  : 
TLFamily_RT        .         Formation Resistivity         : 
TLFamily_SOIL_ARCHIE .         Oil Saturation                : 
TLFamily_SOIL_DW   .         Oil Saturation                : 
TLFamily_SP        .         Spontaneous Potential         : 
TLFamily_VSH_FIN   .         Shale Volume                  : 
TLFamily_VSH_GR    .         Shale Volume                  : 
TLFamily_VSH_SP    .         Shale Volume                  : 
~Curve Information
#_______________________________________________________________________________
#
#LOGNAME           .UNIT     LOG_ID                        : DESCRIPTION
#_______________________________________________________________________________
DEPT               .м                                      : Колонка глубины 
CALI               .м                                      : Каверномер 
COLL               .unitless                               : Описание 
CSAT               .unitless                               : Описание 
GR                 .uR/h                                   : Гамма каротаж 
GZ1                .Ohmm                                   : Градиент-зонд  длиной 0.45м 
GZ2                .Ohmm                                   : Градиент-зонд  длиной 1.05м 
GZ3                .Ohmm                                   : Градиент-зонд  длиной 2.25м 
GZ4                .Ohmm                                   : Градиент-зонд  длиной 4.5м 
GZ5                .Ohmm                                   : Градиент-зонд  длиной 8.5м 
LLS                .Ohmm                                   : Боковой каротаж 
MINV               .Ohmm                                   : Микро-градиент зонд 
MNOR               .Ohmm                                   : Микро-потенциал зонд 
NGLD               .у.е.                                   : Показания зонда НГК-60 аппаратуры ДРСТ-3-90 
OGZ                .Ohmm                                   : Обращенный градиент-зонд 
PHIE               .v/v                                    : Описание 
PHIEN              .v/v                                    :  
PHIT               .v/v                                    : Описание 
PRMB               .mD                                     :  
PRMB_DGR           .mD                                     :  
RT                 .ohmm                                   : УЭС пласта 
SOIL_ARCHIE        .v/v                                    :  
SOIL_DW            .v/v                                    :  
SP                 .mv                                     : Потенциал самополяризации 
VSH_FIN            .v/v                                    : Описание 
VSH_GR             .v/v                                    : Shale volume 
VSH_SP             .v/v                                    : Shale Volume 
~Ascii
# ...
1087.6     0.244      -9999      -9999      7.269789   1.08       1.257      1.499      1.43       1.253      1.061      1.139      2.079      0.849      1.364      0.1657438  0.1657438  0.3619717  3.289543   0.9843297  1.061      0          0.3199067  43.14      0.59463    0.6530029  0.5362571 
1087.7     0.245      -9999      -9999      7.218275   1.105      1.283      1.511      1.443      1.265      1.003      3.832      3.051      0.845      1.385      0.1684193  0.1684193  0.3634385  3.687159   1.030455   1.003      0          0.3064781  43.271     0.5909673  0.6409054  0.5410292 
1087.8     0.246      -9999      -9999      7.164032   1.13       1.308      1.537      1.443      1.278      1.01       3.851      3.857      0.84       1.416      0.1718497  0.1718497  0.365272   4.268071   1.081362   1.01       0          0.3162782  43.336     0.5861282  0.6284093  0.5438471 
1087.9     0.246      -9999      -9999      7.108873   1.143      1.321      1.562      1.443      1.291      1.054      3.857      1.552      0.833      1.437      0.1766321  0.1766321  0.3678389  5.233756   1.135707   1.054      0.01244218 0.3405131  43.275     0.5794145  0.6159522  0.5428768 
1088       0.246      -9999      -9999      7.054521   1.168      1.346      1.588      1.443      1.303      1.111      1.882      1.33       0.835      1.478      0.1780491  0.1780491  0.3671055  5.559796   1.19193    1.111      0.04323199 0.3588153  43.213     0.5728983  0.6039186  0.5418779 
1088.1     0.245      -9999      -9999      7.002664   1.156      1.359      1.613      1.418      1.316      1.099      1.152      1.184      0.842      1.519      0.1771878  0.1771878  0.3645386  5.359285   1.248163   1.099      0.03427406 0.3513218  43.215     0.5677295  0.5926569  0.5428022 
1088.2     0.245      -9999      -9999      6.954684   1.156      1.384      1.638      1.405      1.354      1.073      1.412      1.45       0.849      1.561      0.1764742  0.1764742  0.3619717  5.198617   1.302554   1.073      0.01992372 0.3396191  43.153     0.5621138  0.582424   0.5418035 
1088.3     0.245      -9999      -9999      6.911655   1.156      1.41       1.638      1.392      1.38       1.061      1.647      1.546      0.852      1.612      0.1767109  0.1767109  0.3608716  5.251378   1.353343   1.061      0.01588744 0.3349863  43.155     0.5580626  0.5733976  0.5427276 
1088.4     0.247      -9999      -9999      6.874349   1.156      1.435      1.651      1.392      1.418      1.041      1.92       1.298      0.847      1.643      0.1799768  0.1799768  0.3627051  6.036221   1.398979   1.041      0.02277115 0.3354029  43.094     0.5537221  0.565685   0.5417592 
1088.5     0.249      -9999      -9999      6.842959   1.194      1.461      1.677      1.405      1.443      1.003      1.723      1.107      0.844      1.664      0.1819819  0.1819819  0.3638052  6.57514    1.438566   1.003      0.01511848 0.3270616  43.096     0.5509796  0.5592759  0.5426834 
1088.6     0.25       -9999      -9999      6.81722    1.257      1.486      1.702      1.405      1.481      0.927      1.653      1.374      0.847      1.664      0.1819048  0.1819048  0.3627051  6.553543   1.471863   0.927      0          0.2985992  43.034     0.5478797  0.5540747  0.5416847 
1088.7     0.251      -9999      -9999      6.796521   1.295      1.511      1.727      1.405      1.507      0.883      1.653      1.304      0.855      1.623      0.1795031  0.1795031  0.3597715  5.915482   1.499198   0.883      0          0.2740349  43.036     0.546268   0.5499271  0.5426088 
1088.8     0.251      -9999      -9999      6.77979    1.346      1.524      1.753      1.418      1.507      0.94       1.539      1.203      0.864      1.602      0.1769169  0.1769169  0.3564712  5.29771    1.521661   0.94       0          0.28843    42.974     0.5441039  0.5465975  0.5416103 
1088.9     0.251      -9999      -9999      6.765827   1.372      1.549      1.727      1.405      1.494      1.035      1.368      1.082      0.863      1.612      0.1775871  0.1775871  0.3568379  5.451333   1.540668   1.035      0.008642654 0.3232848  42.976     0.5431842  0.5438339  0.5425344 
1089       0.251      -9999      -9999      6.753415   1.384      1.575      1.727      1.38       1.481      1.041      1.152      1.158      0.859      1.54       0.1793046  0.1793046  0.3583047  5.865636   1.557762   1.041      0.01958131 0.3294244  42.978     0.5424244  0.5413891  0.5434597 
1089.1     0.25       -9999      -9999      6.741455   1.384      1.6        1.727      1.354      1.481      0.978      1.279      1.285      0.851      1.519      0.1827852  0.1827852  0.3612383  6.804312   1.574413   0.978      0.007199257 0.3166997  42.917     0.5407668  0.5390438  0.5424899 
1089.2     0.25       -9999      -9999      6.729085   1.359      1.613      1.702      1.329      1.469      0.883      1.45       1.222      0.845      1.54       0.1852312  0.1852312  0.3634385  7.552477   1.591821   0.883      0          0.2872226  42.919     0.5400221  0.5366289  0.5434152 
1089.3     0.25       -9999      -9999      6.715669   1.308      1.613      1.702      1.291      1.456      0.984      1.647      1.126      0.847      1.571      0.185093   0.185093   0.3627051  7.508081   1.61092    0.984      0.02080325 0.3237606  42.857     0.5382186  0.5340217  0.5424154 
1089.4     0.25       -9999      -9999      6.700849   1.257      1.613      1.702      1.265      1.443      1.061      1.501      1.057      0.852      1.602      0.1835796  0.1835796  0.3608716  7.038773   1.632284   1.061      0.04803495 0.3446579  42.859     0.5372486  0.5311566  0.5433407 
1089.5     0.25       -9999      -9999      6.684512   1.245      1.613      1.677      1.253      1.43       1.137      1.323      1.469      0.858      1.612      0.1814259  0.1814259  0.3586714  6.421047   1.656163   1.137      0.06892293 0.3616577  42.925     0.5371076  0.528016   0.5461992 
1089.6     0.249      -9999      -9999      6.666876   1.245      1.613      1.677      1.265      1.418      1.168      1.215      1.336      0.863      1.581      0.1799948  0.1799948  0.3568379  6.040854   1.682332   1.168      0.07423869 0.3662678  42.927     0.5358883  0.5246466  0.54713   
1089.7     0.248      -9999      -9999      6.648443   1.257      1.613      1.677      1.278      1.405      1.118      2.066      1.203      0.86       1.54       0.1811976  0.1811976  0.357938   6.358826   1.710126   1.118      0.06050103 0.3551331  42.993     0.535577   0.5211478  0.5500062 
1089.8     0.247      -9999      -9999      6.629952   1.295      1.613      1.651      1.278      1.392      1.022      1.812      1.8        0.852      1.499      0.1845519  0.1845519  0.3608716  7.336818   1.73847    1.022      0.0356046  0.3336315  42.995     0.534302   0.5176615  0.5509425 
1089.9     0.246      -9999      -9999      6.612343   1.334      1.6        1.638      1.278      1.367      0.927      1.438      1.533      0.845      1.478      0.1871856  0.1871856  0.3634385  8.208997   1.765898   0.927      0.002808414 0.3071606  43.061     0.5340996  0.5143632  0.553836  
1090       0.245      -9999      -9999      6.596513   1.384      1.6        1.613      1.278      1.354      0.914      1.057      1.317      0.848      1.457      0.1864164  0.1864164  0.3623384  7.944047   1.790925   0.914      0          0.2998381  43.063     0.533097   0.511416   0.554778  
1090.1     0.246      -9999      -9999      6.58323    1.397      1.6        1.6        1.265      1.342      1.01       0.847      1.018      0.855      1.447      0.1840997  0.1840997  0.3597715  7.196664   1.812197   1.01       0.02817014 0.3277907  43.065     0.5323387  0.508956   0.5557216 
1090.2     0.247      -9999      -9999      6.573049   1.384      1.562      1.588      1.24       1.329      1.111      1.037      1.088      0.864      1.457      0.1806282  0.1806282  0.3564712  6.206259   1.828674   1.111      0.05514126 0.350683   43.131     0.5328577  0.5070785  0.5586368 
