~Version
 VERS              .         2.0                           : CWLS LOG ASCII STANDARD - VERSION 2.0
 WRAP              .         NO                            : ONE LINE PER DEPTH STEP
 DLM               .         SPACE                         : DELIMITING CHARACTER(SPACE TAB OR COMMA)
~Well Information
#_______________________________________________________________________________
#
#PARAMETER_NAME    .UNIT     VALUE                         : DESCRIPTION
#_______________________________________________________________________________
STRT               .м        950                           : First reference value
STOP               .м        1308.6                        : Last reference value
STEP               .м        0.1                           : Step increment
NULL               .         -9999                         : Missing value
COMP               .                                       : Company
WELL               .         2142                          : Well name
FLD                .         Узень                         : Field
LOC                .                                       : Location
CNTY               .                                       : County
STAT               .                                       : State
CTRY               .                                       : Country
SRVC               .         SCH                           : Service Company
DATE               .         25.09.2009                    : Date
UWI                .         UZEN_2142                     : Unique Well ID
Block              .         4                             : 
Category           .         Нефтяная                      : 
Condition          .         В работе                      : 
Date               .         01.01.1974                    : 
EREF               .m        231                           : 100.8
Gorizont           .         15                            : 14
Interpretator      .         0                             : 
Kupol              .         Основной                      : osnovnoi
Mud                .         0                             : 
Mud_density        .         0                             : 
Mud_resistivity    .         0                             : 
NGDU               .         НГДУ-1                        : 
ORIGINALWELLNAME   .         2142                          : 
Spud_date          .         1975                          : 1961
Viscosity          .         0                             : 
X                  .m        54618.4                       : 46154
Y                  .m        81581.9                       : 85761.93
YEAR               .         2018                          : 
Исправлено         .         15                            : 
~Parameter Information Block
#_______________________________________________________________________________
#
#PARAMETER_NAME    .UNIT     VALUE                         : DESCRIPTION
#_______________________________________________________________________________
SET                .         LQC_KAZNIPI_Petrel            : 
PBBOTTOM           .м        1308.6                        : Глубина подошвы планшета
PBSCALE            .         1 _ 500                       : Вертикальный масштаб планшета
PBTOP              .м        950                           : Глубина кровли планшета
TLFamily_CALI      .         Caliper                       : 
TLFamily_COLL      .         Net Reservoir Flag            : 
TLFamily_CSAT      .         Fluid Code                    : 
TLFamily_DEPT      .         Measured Depth                : 
TLFamily_GR        .         Russian Gamma Ray             : 
TLFamily_GZ1       .         Gradient 045                  : 
TLFamily_GZ2       .         Gradient 105                  : 
TLFamily_GZ3       .         Gradient 225                  : 
TLFamily_GZ4       .         Gradient 425                  : 
TLFamily_GZ5       .         Gradient 850                  : 
TLFamily_LLS       .         Lateral Log Resistivity       : 
TLFamily_MINV      .         Micro Gradient Resistivity    : 
TLFamily_MNOR      .         Micro Resistivity             : 
TLFamily_NGLD      .         Neutron Gamma                 : 
TLFamily_OGZ       .         Gradient Inverted 225         : 
TLFamily_PHIE      .         Effective Porosity            : 
TLFamily_PHIEN     .         Effective Porosity            : 
TLFamily_PHIT      .         Porosity                      : 
TLFamily_PRMB      .         Permeability                  : 
TLFamily_PRMB_DGR  .         Permeability                  : 
TLFamily_RT        .         Formation Resistivity         : 
TLFamily_SOIL_ARCHIE .         Oil Saturation                : 
TLFamily_SOIL_DW   .         Oil Saturation                : 
TLFamily_SP        .         Spontaneous Potential         : 
TLFamily_VSH_FIN   .         Shale Volume                  : 
TLFamily_VSH_GR    .         Shale Volume                  : 
TLFamily_VSH_SP    .         Shale Volume                  : 
~Curve Information
#_______________________________________________________________________________
#
#LOGNAME           .UNIT     LOG_ID                        : DESCRIPTION
#_______________________________________________________________________________
DEPT               .м                                      : Колонка глубины 
CALI               .м                                      : Каверномер 
COLL               .unitless                               : Описание 
CSAT               .unitless                               : Описание 
GR                 .uR/h                                   : Гамма каротаж 
GZ1                .Ohmm                                   : Градиент-зонд  длиной 0.45м 
GZ2                .Ohmm                                   : Градиент-зонд  длиной 1.05м 
GZ3                .Ohmm                                   : Градиент-зонд  длиной 2.25м 
GZ4                .Ohmm                                   : Градиент-зонд  длиной 4.5м 
GZ5                .Ohmm                                   : Градиент-зонд  длиной 8.5м 
LLS                .Ohmm                                   : Боковой каротаж 
MINV               .Ohmm                                   : Микро-градиент зонд 
MNOR               .Ohmm                                   : Микро-потенциал зонд 
NGLD               .у.е.                                   : Показания зонда НГК-60 аппаратуры ДРСТ-3-90 
OGZ                .Ohmm                                   : Обращенный градиент-зонд 
PHIE               .v/v                                    : Описание 
PHIEN              .v/v                                    :  
PHIT               .v/v                                    : Описание 
PRMB               .mD                                     :  
PRMB_DGR           .mD                                     :  
RT                 .ohmm                                   : УЭС пласта 
SOIL_ARCHIE        .v/v                                    :  
SOIL_DW            .v/v                                    :  
SP                 .mv                                     : Потенциал самополяризации 
VSH_FIN            .v/v                                    : Описание 
VSH_GR             .v/v                                    : Shale volume 
VSH_SP             .v/v                                    : Shale Volume 
~Ascii
# ...
1066       0.245      -9999      -9999      6.244552   1.016      1.384      1.816      1.684      2.104      0.857      1.285      1.12       0.82       1.22       0.1786498  0.1786498  0.372606   5.704074   1.019047   0.857      0          0.2775714  45.947     0.5877461  0.6438254  0.5316669 
1066.1     0.246      -9999      -9999      6.245181   1.016      1.346      1.74       1.646      2.053      0.845      1.387      1.228      0.818      1.199      0.1787055  0.1787055  0.3733394  5.717652   1.018417   0.845      0          0.2734318  46.076     0.5897996  0.6439881  0.5356112 
1066.2     0.245      -9999      -9999      6.245734   1.016      1.321      1.689      1.608      2.002      0.8        1.184      1.291      0.815      1.178      0.179122   0.179122   0.3744395  5.820133   1.017864   0.8        0          0.2552966  46.206     0.5918711  0.6441311  0.539611  
1066.3     0.245      -9999      -9999      6.246727   1.041      1.295      1.664      1.583      1.951      0.718      1.037      1.12       0.812      1.158      0.179202   0.179202   0.3755396  5.840011   1.01687    0.718      0          0.2154821  46.399     0.5949625  0.644388   0.5455369 
1066.4     0.245      -9999      -9999      6.248662   1.08       1.334      1.626      1.583      1.9        0.851      0.898      0.993      0.807      1.168      0.1802872  0.1802872  0.3773731  6.116652   1.014936   0.851      0          0.2832092  46.528     0.5972301  0.6448891  0.5495711 
1066.5     0.245      -9999      -9999      6.251953   1.105      1.372      1.6        1.583      1.862      0.914      0.72       0.815      0.805      1.127      0.1802048  0.1802048  0.3781065  6.095201   1.011655   0.914      0          0.3090655  46.658     0.5997021  0.6457424  0.5536619 
1066.6     0.246      -9999      -9999      6.256929   1.105      1.41       1.575      1.557      1.837      1.035      0.822      0.866      0.804      1.106      0.179684   0.179684   0.3784732  5.961317   1.006713   1.035      0.01872635 0.3503848  46.787     0.6023914  0.6470346  0.5577482 
1066.7     0.248      -9999      -9999      6.263866   1.105      1.435      1.562      1.557      1.811      1.016      0.949      0.974      0.807      1.106      0.1772797  0.1772797  0.3773731  5.380313   0.9998665  1.016      0          0.3397889  46.98      0.6063437  0.6488403  0.5638471 
1066.8     0.249      -9999      -9999      6.272954   1.092      1.397      1.562      1.57       1.773      0.978      1.076      1.076      0.81       1.106      0.1751031  0.1751031  0.376273   4.903334   0.9909675  0.978      0          0.3227046  47.109     0.6096059  0.6512132  0.5679986 
1066.9     0.25       -9999      -9999      6.284198   1.041      1.372      1.562      1.519      1.773      0.921      1.196      1.177      0.813      1.096      0.1728219  0.1728219  0.3751729  4.448767   0.9800649  0.921      0          0.2973184  47.239     0.6131847  0.6541616  0.5722077 
1067       0.25       -9999      -9999      6.297486   1.029      1.346      1.549      1.481      1.773      0.826      1.33       1.291      0.815      1.106      0.1704821  0.1704821  0.3744395  4.026239   0.9673361  0.826      0          0.2532823  47.432     0.6180528  0.6576629  0.5784428 
1067.1     0.249      -9999      -9999      6.312543   1.003      1.321      1.537      1.443      1.773      0.876      1.406      1.184      0.815      1.106      0.1691235  0.1691235  0.3744395  3.799575   0.9531124  0.876      0          0.2727244  47.561     0.6221698  0.6616531  0.5826865 
1067.2     0.248      -9999      -9999      6.329039   1.003      1.308      1.575      1.443      1.811      0.908      1.12       1.063      0.813      1.127      0.1687604  0.1687604  0.3751729  3.741194   0.9377694  0.908      0          0.285953   47.627     0.6254924  0.6660521  0.5849327 
1067.3     0.246      -9999      -9999      6.346553   1.003      1.346      1.588      1.443      1.837      0.965      0.91       0.942      0.814      1.116      0.1669108  0.1669108  0.3748062  3.457408   0.9217495  0.965      0          0.3040743  47.756     0.6299861  0.6707549  0.5892174 
1067.4     0.248      -9999      -9999      6.364537   1.067      1.397      1.6        1.443      1.862      0.972      0.65       0.79       0.816      1.137      0.1646582  0.1646582  0.3740728  3.140703   0.905584   0.972      0          0.3022034  47.886     0.6345898  0.6756185  0.5935611 
1067.5     0.249      -9999      -9999      6.382328   1.13       1.435      1.613      1.43       1.875      0.838      0.853      0.898      0.818      1.158      0.162754   0.162754   0.3733394  2.895728   0.8898723  0.838      0          0.2442901  47.951     0.6381374  0.6804643  0.5958105 
1067.6     0.249      -9999      -9999      6.399133   1.168      1.473      1.651      1.469      1.888      0.743      1.12       1.044      0.82       1.168      0.1605365  0.1605365  0.372606   2.634416   0.8752803  0.743      0          0.1923354  48.081     0.6426347  0.6850739  0.6001956 
1067.7     0.248      -9999      -9999      6.414081   1.194      1.511      1.664      1.469      1.913      0.743      1.444      1.196      0.82       1.178      0.1601684  0.1601684  0.372606   2.593375   0.8625025  0.743      0          0.1916481  48.019     0.6437503  0.6892     0.5983006 
1067.8     0.247      -9999      -9999      6.426299   1.232      1.473      1.689      1.481      1.926      0.749      1.317      1.291      0.818      1.199      0.1606541  0.1606541  0.3733394  2.647659   0.8521976  0.749      0          0.1967898  47.957     0.6445009  0.692591   0.5964106 
1067.9     0.247      -9999      -9999      6.434772   1.245      1.461      1.702      1.494      1.938      0.705      1.164      1.171      0.813      1.22       0.1623982  0.1623982  0.3751729  2.852117   0.8451233  0.705      0          0.1779502  47.897     0.6447717  0.6949525  0.5945909 
1068       0.246      -9999      -9999      6.438585   1.245      1.435      1.727      1.494      1.938      0.832      1.018      1.076      0.808      1.23       0.1643661  0.1643661  0.3770064  3.101826   0.8419588  0.832      0          0.2489699  47.835     0.6443644  0.6960179  0.5927109 
1068.1     0.245      -9999      -9999      6.436914   1.219      1.41       1.753      1.481      1.938      1.016      0.847      0.955      0.804      1.251      0.1662194  0.1662194  0.3784732  3.356943   0.843344   1.016      0          0.3248482  47.773     0.6431934  0.6955509  0.590836  
1068.2     0.245      -9999      -9999      6.429061   1.194      1.384      1.753      1.481      1.938      0.972      0.987      1.037      0.799      1.271      0.1687175  0.1687175  0.3803067  3.734357   0.8498844  0.972      0          0.3156424  47.712     0.6411793  0.6933601  0.5889986 
1068.3     0.245      -9999      -9999      6.414587   1.156      1.372      1.753      1.469      1.938      0.914      1.139      1.222      0.798      1.282      0.1700552  0.1700552  0.3806734  3.953609   0.8620739  0.914      0          0.296767   47.65      0.6382369  0.68934    0.5871337 
1068.4     0.246      -9999      -9999      6.39327    1.143      1.346      1.753      1.443      1.938      0.864      1.317      1.063      0.799      1.282      0.1709653  0.1709653  0.3803067  4.110074   0.8803442  0.864      0          0.2777132  47.588     0.6343679  0.683462   0.5852739 
1068.5     0.246      -9999      -9999      6.365183   1.143      1.321      1.74       1.418      1.888      0.781      1.139      0.841      0.798      1.282      0.172898   0.172898   0.3806734  4.463218   0.9050084  0.781      0          0.2439541  47.527     0.6296225  0.6757939  0.5834511 
1068.6     0.247      -9999      -9999      6.330638   1.13       1.295      1.715      1.38       1.862      0.762      0.86       1.063      0.793      1.271      0.1765734  0.1765734  0.3825069  5.220671   0.9362948  0.762      0          0.2428939  47.465     0.6240408  0.6664803  0.5816014 
