~Version
 VERS              .         2.0                           : CWLS LOG ASCII STANDARD - VERSION 2.0
 WRAP              .         NO                            : ONE LINE PER DEPTH STEP
 DLM               .         SPACE                         : DELIMITING CHARACTER(SPACE TAB OR COMMA)
~Well Information
#_______________________________________________________________________________
#
#PARAMETER_NAME    .UNIT     VALUE                         : DESCRIPTION
#_______________________________________________________________________________
STRT               .м        900                           : First reference value
STOP               .м        1475.8                        : Last reference value
STEP               .м        0.2                           : Step increment
NULL               .         -9999                         : Missing value
COMP               .                                       : Company
WELL               .         275                           : Well name
FLD                .         УЗЕНЬ                         : Field
LOC                .                                       : Location
CNTY               .                                       : County
STAT               .                                       : State
CTRY               .                                       : Country
SRVC               .                                       : Service Company
DATE               .         26.08.1966                    : Date
UWI                .                                       : Unique Well ID
Block              .         4                             : 
Cartographic_reference_system .         GCS_WGS_1984                  : ESRI,PE_10_3_1- <?xml version="1.0" encoding="utf-16"?><ILateBoundCoordinateReferenceSystem name="GCS_WGS_1984"><AuthorityCode>EPSG,4326</AuthorityCode></ILateBoundCoordinateReferenceSystem>
Category           .         Нагнетательная                : 
Condition          .         Ликвидированная               : 
Date               .         20.05.1967                    : 
EREF               .m        222                           : 100.8
Gorizont           .         17                            : 14
HZCS               .GCS_WGS_1984 WGS_1984_EASE_Grid_Global     : ESRI,PE_10_3_1- <?xml version="1.0" encoding="utf-16"?><ILateBoundCoordinateReferenceSystem name="WGS_1984_EASE_Grid_Global"><AuthorityCode>EPSG,3975</AuthorityCode></ILateBoundCoordinateReferenceSystem>
Interpretator      .         Ткачева И.Г.                  : 
Kupol              .         Основной                      : osnovnoi
LATI               .dega     0.6454540436                  : GCS_WGS_1984
LONG               .dega     0.5622768321                  : GCS_WGS_1984
Mud                .         0                             : 
Mud_density        .         0                             : 
Mud_resistivity    .         0                             : 
NGDU               .         НГДУ-1                        : 
ORIGINALWELLNAME   .         275                           : 
Spud_date          .         1966                          : 1961
Uslovie            .         55                            : 
Viscosity          .         0                             : 
X                  .m        54252                         : 46154
Y                  .m        82341                         : 85761.93
YEAR               .         2018                          : 
~Parameter Information Block
#_______________________________________________________________________________
#
#PARAMETER_NAME    .UNIT     VALUE                         : DESCRIPTION
#_______________________________________________________________________________
SET                .         LQC_KAZNIPI_Petrel            : 
GSDD               .         CSAT                          : CSATкрив,0,DEPT,BOTTOM,,,,0
PBBOTTOM           .м        1396                          : Глубина подошвы планшета
PBSCALE            .         1                             : Вертикальный масштаб планшета
PBTOP              .м        985                           : Глубина кровли планшета
TLFamily_CALI      .         Caliper                       : 
TLFamily_COLL      .         Net Reservoir Flag            : 
TLFamily_CSAT      .         Fluid Code                    : 
TLFamily_DEPT      .         Measured Depth                : 
TLFamily_GR        .         Russian Gamma Ray             : 
TLFamily_GZ3       .         Gradient 225                  : 
TLFamily_MINV      .         Micro Gradient Resistivity    : 
TLFamily_MNOR      .         Micro Resistivity             : 
TLFamily_NGLD      .         Neutron Gamma                 : 
TLFamily_OGZ       .         Gradient Inverted 225         : 
TLFamily_PHIE      .         Effective Porosity            : 
TLFamily_PHIEN     .         Effective Porosity            : 
TLFamily_PHIT      .         Porosity                      : 
TLFamily_PRMB      .         Permeability                  : 
TLFamily_PRMB_DGR  .         Permeability                  : 
TLFamily_RT        .         Formation Resistivity         : 
TLFamily_SOIL_ARCHIE .         Oil Saturation                : 
TLFamily_SOIL_DW   .         Oil Saturation                : 
TLFamily_SP        .         Spontaneous Potential         : 
TLFamily_VSH_FIN   .         Shale Volume                  : 
TLFamily_VSH_GR    .         Shale Volume                  : 
TLFamily_VSH_SP    .         Shale Volume                  : 
~Curve Information
#_______________________________________________________________________________
#
#LOGNAME           .UNIT     LOG_ID                        : DESCRIPTION
#_______________________________________________________________________________
DEPT               .м                                      : Колонка глубины 
CALI               .м                                      : Каверномер 
COLL               .unitless                               : Описание 
CSAT               .unitless                               : Описание 
GR                 .uR/h                                   : Гамма каротаж 
GZ3                .Ohmm                                   : Градиент-зонд  длиной 2.25м 
MINV               .Ohmm                                   : Микро-градиент зонд 
MNOR               .Ohmm                                   : Микро-потенциал зонд 
NGLD               .у.е.                                   : Показания зонда НГК-60 аппаратуры ДРСТ-3-90 
OGZ                .Ohmm                                   : Обращенный градиент-зонд 
PHIE               .v/v                                    : Описание 
PHIEN              .v/v                                    :  
PHIT               .v/v                                    : Описание 
PRMB               .мД                                     :  
PRMB_DGR           .мД                                     :  
RT                 .ohmm                                   : УЭС пласта 
SOIL_ARCHIE        .v/v                                    :  
SOIL_DW            .v/v                                    :  
SP                 .мВ                                     : Потенциал самополяризации 
VSH_FIN            .v/v                                    : Описание 
VSH_GR             .v/v                                    : Shale volume 
VSH_SP             .v/v                                    : Shale Volume 
~Ascii
# ...
1209.8     0.238      -9999      -9999      11.207     0          1.067      1.449      1.534      1.449      0.164005   0.164005   0.33126    5.875728   0.7669088  1.836      0.2489138  0.4702606  96.896     0.4603486  0.6195931  0.4603486 
1210       0.237      -9999      -9999      11.092     0          3.848      1.398      1.606      1.398      0.153103   0.1531029  0.32334    3.805968   0.9124564  1.824      0.2072532  0.4481845  97.211     0.4672034  0.5862916  0.4672034 
1210.2     0.234      -9999      -9999      11.435     0          4.94       1.449      1.696      1.449      0.132959   0.1329585  0.31344    1.674991   0.5433988  1.887      0.1332466  0.4207114  98.469     0.4955197  0.691314   0.4955197 
1210.4     0.232      -9999      -9999      11.308     0          3.619      1.551      1.781      1.551      0.112907   0.1129075  0.30409    0.7385209  0.6583589  2.013      0.05253544 0.3982459  99.727     0.5253713  0.6503971  0.5253713 
1210.6     0.233      -9999      -9999      10.813     0          3.162      1.703      1.817      1.703      0.100854   0.1008541  0.30013    0.4485104  1.390931   2.165      0.006485068 0.3944738  100.671    0.5488058  0.5127486  0.5488058 
1210.8     0.238      -9999      -9999      10.648     0          4.419      1.907      1.75       1.907      0.108894   0.1088941  0.3075     0.6141621  1.784787   2.267      0.07728563 0.4299226  100.671    0.5488058  0.4736743  0.5488058 
1211       0.242      -9999      -9999      10.712     0          3.759      2.059      1.68       2.059      0.12248    0.1224798  0.3152     1.06404    1.620267   2.254      0.1498046  0.4569616  100.042    0.5330915  0.4884639  0.5330915 
1211.2     0.238      -9999      -9999      10.877     0          4.483      2.034      1.667      2.034      0.131577   0.1315772  0.31663    1.559752   1.262716   2.089      0.1655308  0.4505482  99.098     0.5102509  0.5287582  0.5102509 
1211.4     0.233      -9999      -9999      11.08      0          3.594      1.983      1.663      1.983      0.136918   0.1369185  0.31707    1.95546    0.9291525  1.925      0.1590255  0.4356978  98.469     0.4955197  0.5829214  0.4955197 
1211.6     0.228      -9999      -9999      10.686     0          2.438      1.932      1.637      1.932      0.131621   0.1316206  0.31993    1.542773   1.68519    1.862      0.1301878  0.4288458  99.413     0.5178083  0.5178423  0.5177743 
1211.8     0.228      -9999      -9999      10.217     0          2.515      1.856      1.631      1.856      0.15026    0.1502598  0.32059    3.407492   3.423176   1.811      0.205029   0.4473782  100.357    0.4761833  0.4114552  0.5409113 
1212       0.232      -9999      -9999      10.559     0          1.689      1.831      1.599      1.831      0.134921   0.1349211  0.32411    1.747418   2.041703   1.76       0.1219582  0.4215518  101.3      0.5257503  0.4865781  0.5649226 
1212.2     0.237      -9999      -9999      10.597     0          1.486      1.78       1.557      1.78       0.136707   0.1367065  0.32873    1.852204   1.927768   1.735      0.1229514  0.4244604  101.615    0.534438   0.4957295  0.5731465 
1212.4     0.242      -9999      -9999      10.813     0          1.473      1.703      1.538      1.703      0.124552   0.1245521  0.33082    1.094059   1.390931   1.735      0.05593667 0.4081967  102.244    0.5704962  0.5511154  0.5898769 
1212.6     0.247      -9999      -9999      11.219     0          1.397      1.627      1.591      1.627      0.088729   0.08872893 0.32499    0.2428427  0.7531276  1.735      0          0.3356611  102.873    0.6397685  0.6725143  0.6070227 
1212.8     0.252      -9999      -9999      10.75      0          1.232      1.525      1.642      1.525      0.109907   0.109907   0.31938    0.612407   1.529851   1.735      0          0.3716383  103.503    0.5794842  0.5343509  0.6246174 
1213       0.247      -9999      -9999      10.75      0          1.714      1.449      1.654      1.449      0.106994   0.1069937  0.31806    0.5436287  1.529851   1.735      0          0.3648241  103.817    0.5839486  0.5343509  0.6335462 
1213.2     0.242      -9999      -9999      10.991     0          1.181      1.373      1.701      1.373      0.08239    0.08239006 0.31289    0.1942175  1.062902   1.735      0          0.3067793  104.761    0.6312071  0.601379   0.6610352 
1213.4     0.237      -9999      -9999      11.295     0          1.524      1.297      1.696      1.297      0.059897   0.05989697 0.31344    0.07425667 0.6714189  1.773      0          0.2546377  105.076    0.6842374  0.6980491  0.6704257 
1213.6     0.232      -9999      -9999      11.029     0          3.708      1.195      1.741      1.195      0.070415   0.07041492 0.30849    0.1185465  1.003588   1.798      0          0.283318   105.705    0.6510985  0.6126896  0.6895074 
1213.8     0.227      -9999      -9999      11.004     0          4.546      1.119      1.826      1.119      0.060252   0.06025214 0.29914    0.0796881  1.042226   1.836      0          0.2489339  106.019    0.6522117  0.6052246  0.6991988 
1214       0.222      -9999      -9999      10.851     0          3.975      1.22       1.785      1.22       0.076254   0.07625357 0.30365    0.1549474  1.313312   1.9        0          0.3116011  105.705    0.625494   0.5614806  0.6895074 
1214.2     0.22       -9999      -9999      10.496     0          3.442      1.322      1.802      1.322      0.099283   0.09928346 0.30178    0.416776   2.245618   1.976      0          0.3728899  104.446    0.5617654  0.4717768  0.651754  
1214.4     0.224      -9999      -9999      9.912      0          3.124      1.424      1.798      1.424      0.130422   0.1304223  0.30222    1.570103   5.427318   2.026      0.1659894  0.433477   102.873    0.4806616  0.3543006  0.6070227 
1214.6     0.228      -9999      -9999      9.747      0          6.502      1.525      1.788      1.525      0.142406   0.1424059  0.30332    2.606403   6.964119   1.95       0.2059897  0.4408314  101.615    0.4499554  0.3267643  0.5731465 
1214.8     0.231      -9999      -9999      10.077     0          8.191      1.653      1.94       1.653      0.114578   0.1145781  0.2866     0.8487059  4.22965    1.874      0.05432552 0.3670154  101.3      0.47454    0.3841573  0.5649226 
1215       0.231      -9999      -9999      10.077     0          6.223      1.729      2.05       1.729      0.095852   0.09585249 0.2745     0.4002106  4.22965    1.76       0          0.2924089  102.559    0.4912842  0.3841573  0.5984111 
1215.2     0.225      -9999      -9999      10.191     0          2.464      1.856      2.103      1.856      0.080839   0.08083908 0.26867    0.2157847  3.560342   1.621      0          0.2152475  103.503    0.5154302  0.4062429  0.6246174 
1215.4     0.22       -9999      -9999      10.115     0          2.311      1.932      2.058      1.932      0.08315    0.08315008 0.27362    0.2336097  3.99362    1.494      0          0.1973165  104.761    0.5262088  0.3913824  0.6610352 
1215.6     0.219      -9999      -9999      9.912      0          2.642      1.983      2.008      1.983      0.09935    0.09935024 0.27912    0.4563478  5.427318   1.444      0          0.2344352  104.132    0.4984557  0.3543006  0.6426108 
1215.8     0.219      -9999      -9999      10.483     0          2.972      1.958      1.955      1.958      0.098525   0.0985246  0.28495    0.4307112  2.290169   1.418      0          0.2341755  100.671    0.5087923  0.4687789  0.5488058 
1216       0.22       -9999      -9999      11.27      0          2.476      1.907      1.902      1.907      0.126441   0.1264412  0.29078    1.385008   0.6972678  1.406      0          0.2982454  95.952     0.5649522  0.6895444  0.44036   
1216.2     0.222      -9999      -9999      10.978     0          2.426      1.907      1.868      1.907      0.159569   0.1595691  0.29452    5.607435   1.083988   1.406      0.1560713  0.3574294  91.233     0.4749467  0.5975576  0.3523358 
1216.4     0.22       8          2          10.953     1          2.248      2.034      1.821      2.034      0.190908   0.1909082  0.29969    20.91869   1.12572    1.659      0.3205291  0.4514942  85.885     0.4323684  0.5902773  0.2744596 
