~Version
 VERS              .         2.0                           : CWLS LOG ASCII STANDARD - VERSION 2.0
 WRAP              .         NO                            : ONE LINE PER DEPTH STEP
 DLM               .         SPACE                         : DELIMITING CHARACTER(SPACE TAB OR COMMA)
~Well Information
#_______________________________________________________________________________
#
#PARAMETER_NAME    .UNIT     VALUE                         : DESCRIPTION
#_______________________________________________________________________________
STRT               .м        900                           : First reference value
STOP               .м        1475.8                        : Last reference value
STEP               .м        0.2                           : Step increment
NULL               .         -9999                         : Missing value
COMP               .                                       : Company
WELL               .         275                           : Well name
FLD                .         УЗЕНЬ                         : Field
LOC                .                                       : Location
CNTY               .                                       : County
STAT               .                                       : State
CTRY               .                                       : Country
SRVC               .                                       : Service Company
DATE               .         26.08.1966                    : Date
UWI                .                                       : Unique Well ID
Block              .         4                             : 
Cartographic_reference_system .         GCS_WGS_1984                  : ESRI,PE_10_3_1- <?xml version="1.0" encoding="utf-16"?><ILateBoundCoordinateReferenceSystem name="GCS_WGS_1984"><AuthorityCode>EPSG,4326</AuthorityCode></ILateBoundCoordinateReferenceSystem>
Category           .         Нагнетательная                : 
Condition          .         Ликвидированная               : 
Date               .         20.05.1967                    : 
EREF               .m        222                           : 100.8
Gorizont           .         17                            : 14
HZCS               .GCS_WGS_1984 WGS_1984_EASE_Grid_Global     : ESRI,PE_10_3_1- <?xml version="1.0" encoding="utf-16"?><ILateBoundCoordinateReferenceSystem name="WGS_1984_EASE_Grid_Global"><AuthorityCode>EPSG,3975</AuthorityCode></ILateBoundCoordinateReferenceSystem>
Interpretator      .         Ткачева И.Г.                  : 
Kupol              .         Основной                      : osnovnoi
LATI               .dega     0.6454540436                  : GCS_WGS_1984
LONG               .dega     0.5622768321                  : GCS_WGS_1984
Mud                .         0                             : 
Mud_density        .         0                             : 
Mud_resistivity    .         0                             : 
NGDU               .         НГДУ-1                        : 
ORIGINALWELLNAME   .         275                           : 
Spud_date          .         1966                          : 1961
Uslovie            .         55                            : 
Viscosity          .         0                             : 
X                  .m        54252                         : 46154
Y                  .m        82341                         : 85761.93
YEAR               .         2018                          : 
~Parameter Information Block
#_______________________________________________________________________________
#
#PARAMETER_NAME    .UNIT     VALUE                         : DESCRIPTION
#_______________________________________________________________________________
SET                .         LQC_KAZNIPI_Petrel            : 
GSDD               .         CSAT                          : CSATкрив,0,DEPT,BOTTOM,,,,0
PBBOTTOM           .м        1396                          : Глубина подошвы планшета
PBSCALE            .         1                             : Вертикальный масштаб планшета
PBTOP              .м        985                           : Глубина кровли планшета
TLFamily_CALI      .         Caliper                       : 
TLFamily_COLL      .         Net Reservoir Flag            : 
TLFamily_CSAT      .         Fluid Code                    : 
TLFamily_DEPT      .         Measured Depth                : 
TLFamily_GR        .         Russian Gamma Ray             : 
TLFamily_GZ3       .         Gradient 225                  : 
TLFamily_MINV      .         Micro Gradient Resistivity    : 
TLFamily_MNOR      .         Micro Resistivity             : 
TLFamily_NGLD      .         Neutron Gamma                 : 
TLFamily_OGZ       .         Gradient Inverted 225         : 
TLFamily_PHIE      .         Effective Porosity            : 
TLFamily_PHIEN     .         Effective Porosity            : 
TLFamily_PHIT      .         Porosity                      : 
TLFamily_PRMB      .         Permeability                  : 
TLFamily_PRMB_DGR  .         Permeability                  : 
TLFamily_RT        .         Formation Resistivity         : 
TLFamily_SOIL_ARCHIE .         Oil Saturation                : 
TLFamily_SOIL_DW   .         Oil Saturation                : 
TLFamily_SP        .         Spontaneous Potential         : 
TLFamily_VSH_FIN   .         Shale Volume                  : 
TLFamily_VSH_GR    .         Shale Volume                  : 
TLFamily_VSH_SP    .         Shale Volume                  : 
~Curve Information
#_______________________________________________________________________________
#
#LOGNAME           .UNIT     LOG_ID                        : DESCRIPTION
#_______________________________________________________________________________
DEPT               .м                                      : Колонка глубины 
CALI               .м                                      : Каверномер 
COLL               .unitless                               : Описание 
CSAT               .unitless                               : Описание 
GR                 .uR/h                                   : Гамма каротаж 
GZ3                .Ohmm                                   : Градиент-зонд  длиной 2.25м 
MINV               .Ohmm                                   : Микро-градиент зонд 
MNOR               .Ohmm                                   : Микро-потенциал зонд 
NGLD               .у.е.                                   : Показания зонда НГК-60 аппаратуры ДРСТ-3-90 
OGZ                .Ohmm                                   : Обращенный градиент-зонд 
PHIE               .v/v                                    : Описание 
PHIEN              .v/v                                    :  
PHIT               .v/v                                    : Описание 
PRMB               .мД                                     :  
PRMB_DGR           .мД                                     :  
RT                 .ohmm                                   : УЭС пласта 
SOIL_ARCHIE        .v/v                                    :  
SOIL_DW            .v/v                                    :  
SP                 .мВ                                     : Потенциал самополяризации 
VSH_FIN            .v/v                                    : Описание 
VSH_GR             .v/v                                    : Shale volume 
VSH_SP             .v/v                                    : Shale Volume 
~Ascii
# ...
1033       0.236      -9999      -9999      6.46       0          2.794      3.076      1.73       3.076      0.082376   0.08237561 0.3097     0.1965134  16.08921   3.356      0.05605464 0.4927568  116.716    0.6364375  0.2086632  0.6364375 
1033.2     0.251      -9999      -9999      6.422      0          4.762      3.051      1.69       3.051      0.093075   0.09307462 0.3141     0.3048981  16.70015   3.495      0.1498742  0.5239543  116.086    0.6185617  0.2055117  0.6185617 
1033.4     0.266      -9999      -9999      6.625      0          7.048      2.924      1.671      2.924      0.103923   0.1039225  0.31619    0.4803566  13.68533   3.508      0.2170412  0.5421176  115.143    0.5925986  0.222917   0.5925986 
1033.6     0.28       -9999      -9999      6.841      0          6.159      2.771      1.756      2.771      0.096515   0.09651531 0.30684    0.3631697  11.07269   3.419      0.1680134  0.5176249  114.828    0.5841354  0.2430584  0.5841354 
1033.8     0.296      -9999      -9999      7.018      0          6.286      2.619      1.756      2.619      0.104681   0.104681   0.30684    0.514468   9.308137   3.318      0.2055313  0.5223573  113.884    0.5593908  0.2609127  0.5593908 
1034       0.308      -9999      -9999      7.133      0          5.397      2.492      1.752      2.492      0.105161   0.105161   0.30728    0.5242135  8.315348   3.204      0.1949127  0.5150107  113.884    0.5593908  0.2732098  0.5593908 
1034.2     0.271      -9999      -9999      7.107      0          1.74       2.314      1.764      2.314      0.10103    0.1010301  0.30596    0.44179    8.530113   3.103      0.1587134  0.4998473  114.199    0.5675452  0.2703798  0.5675452 
1034.4     0.239      -9999      -9999      6.841      0          0.737      2.466      1.699      2.466      0.103355   0.1033553  0.31311    0.4745099  11.07269   3.052      0.162434   0.505589   114.828    0.5841354  0.2430584  0.5841354 
1034.6     0.214      -9999      -9999      7.145      0          0.559      2.644      1.604      2.644      0.111963   0.1119625  0.32356    0.6577703  8.218059   3.242      0.2284236  0.540596   115.143    0.5925986  0.2745259  0.5925986 
1034.8     0.214      -9999      -9999      7.425      0          0.533      2.847      1.532      2.847      0.114922   0.1149222  0.33148    0.7237002  6.244637   3.495      0.2663248  0.567038   115.772    0.6098117  0.3071016  0.6098117 
1035       0.215      -9999      -9999      7.551      0          0.787      2.822      1.462      2.822      0.120435   0.1204346  0.33918    0.8885815  5.518732   3.622      0.3009548  0.5863522  116.086    0.6185617  0.3229954  0.6185617 
1035.2     0.218      -9999      -9999      8.135      0          0.825      2.644      1.419      2.644      0.119696   0.1196956  0.34391    0.8453651  3.112384   3.672      0.3001588  0.5915106  116.716    0.6364375  0.4081011  0.6364375 
1035.4     0.22       -9999      -9999      8.376      0          0.952      2.466      1.466      2.466      0.119955   0.1199546  0.33874    0.8720625  2.457212   3.584      0.295487   0.583328   116.086    0.6185617  0.449452   0.6185617 
1035.6     0.225      -9999      -9999      8.516      0          0.851      2.263      1.498      2.263      0.121864   0.1218641  0.33522    0.9590527  2.141963   3.406      0.2886923  0.5722951  115.457    0.6011391  0.4753709  0.6011391 
1035.8     0.231      -9999      -9999      8.757      0          1.003      2.085      1.495      2.085      0.125043   0.1250425  0.33555    1.096877   1.69107    3.166      0.2783192  0.5603363  115.143    0.5925986  0.5235379  0.5925986 
1036       0.239      -9999      -9999      9.125      0          0.851      1.907      1.517      1.907      0.116722   0.1167222  0.33313    0.7764631  1.178738   2.976      0.217466   0.5344117  115.772    0.6098117  0.6066693  0.6098117 
1036.2     0.26       -9999      -9999      8.706      0          0.533      1.805      1.517      1.805      0.107936   0.1079356  0.33313    0.5337928  1.777805   2.938      0.164013   0.519673   116.716    0.6364375  0.5129536  0.6364375 
1036.4     0.269      -9999      -9999      8.808      0          0.635      1.907      1.443      1.907      0.110784   0.1107842  0.34127    0.5840216  1.608567   3.001      0.1844479  0.5348971  117.345    0.6547145  0.5343406  0.6547145 
1036.6     0.271      -9999      -9999      8.567      0          0.686      1.983      1.345      1.983      0.113223   0.1132225  0.35205    0.6214979  2.03746    3.09       0.2036282  0.5526019  118.289    0.6829622  0.4851798  0.6829622 
1036.8     0.276      -9999      -9999      7.793      0          0.521      2.034      1.324      2.034      0.115742   0.1157425  0.35436    0.685846   4.352742   3.166      0.2249524  0.5626705  118.289    0.6829622  0.3558655  0.6829622 
1037       0.285      -9999      -9999      7.691      0          0.356      2.136      1.386      2.136      0.132442   0.1324421  0.34754    1.435585   4.810702   3.191      0.3080624  0.5785648  115.772    0.6098117  0.3416219  0.6098117 
1037.2     0.284      -9999      -9999      7.323      0          0.571      2.212      1.445      2.212      0.142001   0.142001   0.34105    2.213148   6.901648   3.204      0.3485674  0.5849158  113.884    0.5593908  0.2948097  0.5593908 
1037.4     0.28       -9999      -9999      7.488      0          0.889      2.237      1.502      2.237      0.150586   0.1505856  0.33478    3.270208   5.870477   3.179      0.3777622  0.5874758  111.997    0.5126497  0.3149482  0.5126497 
1037.6     0.28       -9999      -9999      7.513      0          0.978      2.136      1.536      2.136      0.141495   0.1414951  0.33104    2.251619   5.728289   3.014      0.3311135  0.5644536  112.626    0.527833   0.3181173  0.527833  
1037.8     0.285      -9999      -9999      7.716      0          0.737      2.034      1.608      2.034      0.130305   0.1303051  0.32312    1.440672   4.694185   2.609      0.2398647  0.512202   112.94     0.5355603  0.3450593  0.5355603 
1038       0.29       -9999      -9999      7.59       0          1.372      1.932      1.612      1.932      0.121961   0.121961   0.32268    1.011006   5.31163    2.444      0.1753018  0.4844753  113.884    0.5593908  0.3280797  0.5593908 
1038.2     0.296      -9999      -9999      7.843      0          2.083      1.831      1.648      1.831      0.11495    0.1149501  0.31872    0.7613111  4.144445   2.292      0.1127342  0.4536462  114.199    0.5675452  0.363063   0.5675452 
1038.4     0.302      -9999      -9999      7.831      0          1.041      1.831      1.732      1.831      0.099395   0.09939531 0.30948    0.4064516  4.193509   2.178      0          0.4038332  114.828    0.5841354  0.3613224  0.5841354 
1038.6     0.307      -9999      -9999      7.983      0          0.47       1.983      1.692      1.983      0.098584   0.09858409 0.31388    0.3859881  3.61273    2.127      0          0.3999613  115.457    0.6011391  0.3840001  0.6011391 
1038.8     0.294      -9999      -9999      8.211      0          0.533      2.161      1.551      2.161      0.109755   0.1097546  0.32939    0.5852789  2.88883    2.153      0.04725322 0.4383051  116.086    0.6185617  0.420713   0.6185617 
1039       0.283      -9999      -9999      7.97       0          0.495      2.314      1.504      2.314      0.109496   0.1094956  0.33456    0.5673615  3.659086   2.254      0.06277841 0.4553679  116.716    0.6364375  0.3820061  0.6364375 
1039.2     0.271      -9999      -9999      7.666      0          0.406      2.492      1.441      2.492      0.122955   0.1229546  0.34149    0.9805826  4.930114   2.419      0.1675502  0.4991198  116.086    0.6185617  0.3382187  0.6185617 
1039.4     0.261      -9999      -9999      7.564      0          0.546      2.644      1.455      2.644      0.129842   0.1298424  0.33995    1.323294   5.448817   2.571      0.2254218  0.5215895  115.143    0.5925986  0.3246814  0.5925986 
1039.6     0.266      -9999      -9999      7.894      0          0.521      2.822      1.477      2.822      0.13547    0.1354701  0.33753    1.698123   3.942246   2.761      0.2763669  0.5430549  114.199    0.5675452  0.3705546  0.5675452 
