~Version
 VERS              .         2.0                           : CWLS LOG ASCII STANDARD - VERSION 2.0
 WRAP              .         NO                            : ONE LINE PER DEPTH STEP
 DLM               .         SPACE                         : DELIMITING CHARACTER(SPACE TAB OR COMMA)
~Well Information
#_______________________________________________________________________________
#
#PARAMETER_NAME    .UNIT     VALUE                         : DESCRIPTION
#_______________________________________________________________________________
STRT               .м        900                           : First reference value
STOP               .м        1475.8                        : Last reference value
STEP               .м        0.2                           : Step increment
NULL               .         -9999                         : Missing value
COMP               .                                       : Company
WELL               .         275                           : Well name
FLD                .         УЗЕНЬ                         : Field
LOC                .                                       : Location
CNTY               .                                       : County
STAT               .                                       : State
CTRY               .                                       : Country
SRVC               .                                       : Service Company
DATE               .         26.08.1966                    : Date
UWI                .                                       : Unique Well ID
Block              .         4                             : 
Cartographic_reference_system .         GCS_WGS_1984                  : ESRI,PE_10_3_1- <?xml version="1.0" encoding="utf-16"?><ILateBoundCoordinateReferenceSystem name="GCS_WGS_1984"><AuthorityCode>EPSG,4326</AuthorityCode></ILateBoundCoordinateReferenceSystem>
Category           .         Нагнетательная                : 
Condition          .         Ликвидированная               : 
Date               .         20.05.1967                    : 
EREF               .m        222                           : 100.8
Gorizont           .         17                            : 14
HZCS               .GCS_WGS_1984 WGS_1984_EASE_Grid_Global     : ESRI,PE_10_3_1- <?xml version="1.0" encoding="utf-16"?><ILateBoundCoordinateReferenceSystem name="WGS_1984_EASE_Grid_Global"><AuthorityCode>EPSG,3975</AuthorityCode></ILateBoundCoordinateReferenceSystem>
Interpretator      .         Ткачева И.Г.                  : 
Kupol              .         Основной                      : osnovnoi
LATI               .dega     0.6454540436                  : GCS_WGS_1984
LONG               .dega     0.5622768321                  : GCS_WGS_1984
Mud                .         0                             : 
Mud_density        .         0                             : 
Mud_resistivity    .         0                             : 
NGDU               .         НГДУ-1                        : 
ORIGINALWELLNAME   .         275                           : 
Spud_date          .         1966                          : 1961
Uslovie            .         55                            : 
Viscosity          .         0                             : 
X                  .m        54252                         : 46154
Y                  .m        82341                         : 85761.93
YEAR               .         2018                          : 
~Parameter Information Block
#_______________________________________________________________________________
#
#PARAMETER_NAME    .UNIT     VALUE                         : DESCRIPTION
#_______________________________________________________________________________
SET                .         LQC_KAZNIPI_Petrel            : 
GSDD               .         CSAT                          : CSATкрив,0,DEPT,BOTTOM,,,,0
PBBOTTOM           .м        1396                          : Глубина подошвы планшета
PBSCALE            .         1                             : Вертикальный масштаб планшета
PBTOP              .м        985                           : Глубина кровли планшета
TLFamily_CALI      .         Caliper                       : 
TLFamily_COLL      .         Net Reservoir Flag            : 
TLFamily_CSAT      .         Fluid Code                    : 
TLFamily_DEPT      .         Measured Depth                : 
TLFamily_GR        .         Russian Gamma Ray             : 
TLFamily_GZ3       .         Gradient 225                  : 
TLFamily_MINV      .         Micro Gradient Resistivity    : 
TLFamily_MNOR      .         Micro Resistivity             : 
TLFamily_NGLD      .         Neutron Gamma                 : 
TLFamily_OGZ       .         Gradient Inverted 225         : 
TLFamily_PHIE      .         Effective Porosity            : 
TLFamily_PHIEN     .         Effective Porosity            : 
TLFamily_PHIT      .         Porosity                      : 
TLFamily_PRMB      .         Permeability                  : 
TLFamily_PRMB_DGR  .         Permeability                  : 
TLFamily_RT        .         Formation Resistivity         : 
TLFamily_SOIL_ARCHIE .         Oil Saturation                : 
TLFamily_SOIL_DW   .         Oil Saturation                : 
TLFamily_SP        .         Spontaneous Potential         : 
TLFamily_VSH_FIN   .         Shale Volume                  : 
TLFamily_VSH_GR    .         Shale Volume                  : 
TLFamily_VSH_SP    .         Shale Volume                  : 
~Curve Information
#_______________________________________________________________________________
#
#LOGNAME           .UNIT     LOG_ID                        : DESCRIPTION
#_______________________________________________________________________________
DEPT               .м                                      : Колонка глубины 
CALI               .м                                      : Каверномер 
COLL               .unitless                               : Описание 
CSAT               .unitless                               : Описание 
GR                 .uR/h                                   : Гамма каротаж 
GZ3                .Ohmm                                   : Градиент-зонд  длиной 2.25м 
MINV               .Ohmm                                   : Микро-градиент зонд 
MNOR               .Ohmm                                   : Микро-потенциал зонд 
NGLD               .у.е.                                   : Показания зонда НГК-60 аппаратуры ДРСТ-3-90 
OGZ                .Ohmm                                   : Обращенный градиент-зонд 
PHIE               .v/v                                    : Описание 
PHIEN              .v/v                                    :  
PHIT               .v/v                                    : Описание 
PRMB               .мД                                     :  
PRMB_DGR           .мД                                     :  
RT                 .ohmm                                   : УЭС пласта 
SOIL_ARCHIE        .v/v                                    :  
SOIL_DW            .v/v                                    :  
SP                 .мВ                                     : Потенциал самополяризации 
VSH_FIN            .v/v                                    : Описание 
VSH_GR             .v/v                                    : Shale volume 
VSH_SP             .v/v                                    : Shale Volume 
~Ascii
# ...
1175.8     0.204      6          6          8.732      0          11.112     26.949     2.911      26.949     0.107048   0.1070479  0.17979    0.931393   32.2818    7.889      0.5182937  0.5889353  71.728     0.1322184  0.1886844  0.1322184 
1176       0.204      6          6          8.795      0          24.447     30.89      3.034      30.89      0.092253   0.09225261 0.16626    0.5222405  29.35042   7.978      0.4749594  0.5530281  71.728     0.1323255  0.1944823  0.1323255 
1176.2     0.205      6          6          8.453      0          29.336     34.831     3.154      34.831     0.077817   0.0778171  0.15306    0.296973   49.20973   7.692      0.4100065  0.4990389  71.728     0.132433   0.1650163  0.132433  
1176.4     0.205      6          6          8.503      0          16.446     39.153     3.254      39.153     0.065527   0.06552671 0.14206    0.1834811  45.62874   7.405      0.339588   0.4420424  72.043     0.133313   0.169028   0.133313  
1176.6     0.205      6          6          8.085      0          7.302      39.534     3.246      39.534     0.066186   0.06618588 0.14294    0.1880698  85.81248   7.119      0.3307092  0.4343818  72.357     0.1342246  0.1382768  0.1342246 
1176.8     0.205      6          6          7.907      0          5.207      39.661     3.034      39.661     0.091029   0.09102883 0.16626    0.4956822  112.2956   6.833      0.4304119  0.5150138  72.987     0.1360339  0.1269441  0.1360339 
1177       0.205      1          2          8.326      1          3.81       39.661     2.653      39.661     0.13611    0.1361099  0.20817    2.881664   59.62035   6.546      0.5496082  0.6153005  73.616     0.13797    0.1552496  0.13797   
1177.2     0.205      1          2          8.541      1          3.765      39.534     2.376      39.534     0.168991   0.1689914  0.23864    10.40836   43.08252   6.26       0.6033164  0.6616045  73.93      0.1390563  0.172142   0.1390563 
1177.4     0.206      1          2          8.706      1          4.394      39.661     2.149      39.661     0.195859   0.1958589  0.26361    29.71572   33.57532   5.974      0.6347873  0.6891249  74.245     0.1401853  0.1863423  0.1401853 
1177.6     0.206      1          2          8.859      1          4.013      39.153     2.039      39.153     0.208673   0.2086728  0.27571    48.9731    26.6449    5.688      0.6429833  0.696367   74.56      0.141355   0.2005546  0.141355  
1177.8     0.205      1          2          9.138      1          3.569      38.517     1.974      38.517     0.217412   0.217412   0.28286    69.14931   17.47919   5.401      0.6450942  0.6974494  73.616     0.1385092  0.2293198  0.1385092 
1178       0.205      1          2          9.366      1          3.175      37.5       1.923      37.5       0.223798   0.223798   0.28847    88.84379   12.38501   5.115      0.6435955  0.6957768  73.301     0.1377029  0.2558647  0.1377029 
1178.2     0.205      1          2          9.328      1          3.2        36.483     1.876      36.483     0.230273   0.230273   0.29364    114.7767   13.11698   4.829      0.6415433  0.6932765  72.357     0.1351727  0.2512362  0.1351727 
1178.4     0.205      1          2          9.912      1          3.175      35.339     1.881      35.339     0.230175   0.2301754  0.29309    114.5436   5.427318   5.255      0.6554281  0.7056304  71.728     0.1336504  0.3326019  0.1336504 
1178.6     0.204      1          2          9.849      1          3.124      34.068     1.893      34.068     0.229208   0.2292078  0.29177    110.4769   5.969372   5.825      0.6707068  0.7192705  71.099     0.1322189  0.3226865  0.1322189 
1178.8     0.204      1          2          9.43       1          3.924      32.924     1.951      32.924     0.222692   0.2226916  0.28539    85.76675   11.24337   6.522      0.6810609  0.7285212  70.47      0.130874   0.2638536  0.130874  
1179       0.204      1          2          9.772      1          3.873      31.78      2.042      31.78      0.211738   0.2117384  0.27538    55.88497   6.70594    7.282      0.6857587  0.732987   70.47      0.1309745  0.3109682  0.1309745 
1179.2     0.204      1          2          9.95       1          3.264      30.508     2.02       30.508     0.214575   0.2145753  0.2778     62.48368   5.124454   7.915      0.7007487  0.7463825  70.155     0.1303778  0.3387294  0.1303778 
1179.4     0.203      1          2          9.709      1          2.908      29.364     1.955      29.364     0.222566   0.2225658  0.28495    85.45364   7.375706   8.485      0.7180198  0.76174    69.841     0.1298005  0.3016976  0.1298005 
1179.6     0.203      1          2          9.925      1          2.896      28.22      2.003      28.22      0.216774   0.2167744  0.27967    68.13177   5.32174    9.688      0.7298608  0.7724775  69.841     0.1298958  0.3346857  0.1298958 
1179.8     0.203      1          2          9.772      1          3.061      27.076     1.984      27.076     0.219452   0.2194518  0.28176    75.7569    6.70594    10.131     0.7378662  0.7794395  69.211     0.1286916  0.3109682  0.1286916 
1180       0.203      8          2          10.141     1          3.124      25.424     2.039      25.424     0.213026   0.2130261  0.27571    58.96452   3.839761   10.321     0.7344539  0.7763847  68.897     0.1281633  0.3712804  0.1281633 
1180.2     0.203      8          2          10.445     1          2.997      24.407     2.073      24.407     0.209307   0.2093072  0.27197    51.05103   2.42552    10.257     0.7302738  0.7725142  68.268     0.1270692  0.429662   0.1270692 
1180.4     0.201      8          2          10.242     1          2.984      23.39      2.01       23.39      0.217206   0.2172061  0.2789     69.60538   3.296275   10.194     0.7367239  0.7780437  67.638     0.1260421  0.3897392  0.1260421 
1180.6     0.201      8          2          10.28      1          2.743      22.246     2.003      22.246     0.218195   0.2181947  0.27967    72.38657   3.112331   10.384     0.7398723  0.7807922  67.324     0.1255917  0.3969193  0.1255917 
1180.8     0.201      8          2          10.026     1          2.972      20.975     2.016      20.975     0.216943   0.2169425  0.27824    69.00347   4.56849    10.764     0.7431687  0.783627   66.695     0.1246592  0.3513251  0.1246592 
1181       0.201      8          2          10.534     1          3.734      19.831     2.029      19.831     0.215518   0.2155182  0.27681    65.29758   2.120305   11.081     0.7454324  0.7856135  66.38      0.124248   0.448431   0.124248  
1181.2     0.201      8          2          10.547     1          3.416      18.686     1.878      18.686     0.234062   0.234062   0.29342    135.0223   2.079062   10.511     0.754425   0.7933488  65.436     0.1229636  0.4512402  0.1229636 
1181.4     0.201      8          2          10.712     1          3.022      17.415     1.9        17.415     0.231676   0.2316761  0.291      123.1087   1.620267   9.878      0.7452603  0.7850282  64.807     0.1221935  0.4884639  0.1221935 
1181.6     0.201      8          2          11.511     1          3.01       16.271     1.921      16.271     0.229268   0.2292685  0.28869    112.094    0.4844446  9.244      0.7351826  0.7759207  64.492     0.1218531  0.7170203  0.1218531 
1181.8     0.201      8          2          12.006     1          3.124      15.127     1.883      15.127     0.233105   0.2331046  0.29287    129.8966   0.2292987  8.864      0.7331444  0.77438    66.065     0.1240467  0.8        0.1240467 
1182       0.203      8          2          11.994     1          3.035      13.856     1.885      13.856     0.232355   0.2323549  0.29265    125.9166   0.233494   8.738      0.730666   0.7723802  67.009     0.1255911  0.8        0.1255911 
1182.2     0.203      8          2          12.273     1          3.276      12.712     1.764      12.712     0.246111   0.2461114  0.30596    215.0177   0.1531733  8.738      0.7418596  0.7826767  68.268     0.1279048  0.8        0.1279048 
1182.4     0.203      8          2          12.273     1          2.934      11.441     1.75       11.441     0.247135   0.247135   0.3075     223.2748   0.1531733  8.485      0.739037   0.7804083  69.211     0.1298941  0.8        0.1298941 
