~Version
 VERS              .         2.0                           : CWLS LOG ASCII STANDARD - VERSION 2.0
 WRAP              .         NO                            : ONE LINE PER DEPTH STEP
 DLM               .         SPACE                         : DELIMITING CHARACTER(SPACE TAB OR COMMA)
~Well Information
#_______________________________________________________________________________
#
#PARAMETER_NAME    .UNIT     VALUE                         : DESCRIPTION
#_______________________________________________________________________________
STRT               .м        900                           : First reference value
STOP               .м        1475.8                        : Last reference value
STEP               .м        0.2                           : Step increment
NULL               .         -9999                         : Missing value
COMP               .                                       : Company
WELL               .         275                           : Well name
FLD                .         УЗЕНЬ                         : Field
LOC                .                                       : Location
CNTY               .                                       : County
STAT               .                                       : State
CTRY               .                                       : Country
SRVC               .                                       : Service Company
DATE               .         26.08.1966                    : Date
UWI                .                                       : Unique Well ID
Block              .         4                             : 
Cartographic_reference_system .         GCS_WGS_1984                  : ESRI,PE_10_3_1- <?xml version="1.0" encoding="utf-16"?><ILateBoundCoordinateReferenceSystem name="GCS_WGS_1984"><AuthorityCode>EPSG,4326</AuthorityCode></ILateBoundCoordinateReferenceSystem>
Category           .         Нагнетательная                : 
Condition          .         Ликвидированная               : 
Date               .         20.05.1967                    : 
EREF               .m        222                           : 100.8
Gorizont           .         17                            : 14
HZCS               .GCS_WGS_1984 WGS_1984_EASE_Grid_Global     : ESRI,PE_10_3_1- <?xml version="1.0" encoding="utf-16"?><ILateBoundCoordinateReferenceSystem name="WGS_1984_EASE_Grid_Global"><AuthorityCode>EPSG,3975</AuthorityCode></ILateBoundCoordinateReferenceSystem>
Interpretator      .         Ткачева И.Г.                  : 
Kupol              .         Основной                      : osnovnoi
LATI               .dega     0.6454540436                  : GCS_WGS_1984
LONG               .dega     0.5622768321                  : GCS_WGS_1984
Mud                .         0                             : 
Mud_density        .         0                             : 
Mud_resistivity    .         0                             : 
NGDU               .         НГДУ-1                        : 
ORIGINALWELLNAME   .         275                           : 
Spud_date          .         1966                          : 1961
Uslovie            .         55                            : 
Viscosity          .         0                             : 
X                  .m        54252                         : 46154
Y                  .m        82341                         : 85761.93
YEAR               .         2018                          : 
~Parameter Information Block
#_______________________________________________________________________________
#
#PARAMETER_NAME    .UNIT     VALUE                         : DESCRIPTION
#_______________________________________________________________________________
SET                .         LQC_KAZNIPI_Petrel            : 
GSDD               .         CSAT                          : CSATкрив,0,DEPT,BOTTOM,,,,0
PBBOTTOM           .м        1396                          : Глубина подошвы планшета
PBSCALE            .         1                             : Вертикальный масштаб планшета
PBTOP              .м        985                           : Глубина кровли планшета
TLFamily_CALI      .         Caliper                       : 
TLFamily_COLL      .         Net Reservoir Flag            : 
TLFamily_CSAT      .         Fluid Code                    : 
TLFamily_DEPT      .         Measured Depth                : 
TLFamily_GR        .         Russian Gamma Ray             : 
TLFamily_GZ3       .         Gradient 225                  : 
TLFamily_MINV      .         Micro Gradient Resistivity    : 
TLFamily_MNOR      .         Micro Resistivity             : 
TLFamily_NGLD      .         Neutron Gamma                 : 
TLFamily_OGZ       .         Gradient Inverted 225         : 
TLFamily_PHIE      .         Effective Porosity            : 
TLFamily_PHIEN     .         Effective Porosity            : 
TLFamily_PHIT      .         Porosity                      : 
TLFamily_PRMB      .         Permeability                  : 
TLFamily_PRMB_DGR  .         Permeability                  : 
TLFamily_RT        .         Formation Resistivity         : 
TLFamily_SOIL_ARCHIE .         Oil Saturation                : 
TLFamily_SOIL_DW   .         Oil Saturation                : 
TLFamily_SP        .         Spontaneous Potential         : 
TLFamily_VSH_FIN   .         Shale Volume                  : 
TLFamily_VSH_GR    .         Shale Volume                  : 
TLFamily_VSH_SP    .         Shale Volume                  : 
~Curve Information
#_______________________________________________________________________________
#
#LOGNAME           .UNIT     LOG_ID                        : DESCRIPTION
#_______________________________________________________________________________
DEPT               .м                                      : Колонка глубины 
CALI               .м                                      : Каверномер 
COLL               .unitless                               : Описание 
CSAT               .unitless                               : Описание 
GR                 .uR/h                                   : Гамма каротаж 
GZ3                .Ohmm                                   : Градиент-зонд  длиной 2.25м 
MINV               .Ohmm                                   : Микро-градиент зонд 
MNOR               .Ohmm                                   : Микро-потенциал зонд 
NGLD               .у.е.                                   : Показания зонда НГК-60 аппаратуры ДРСТ-3-90 
OGZ                .Ohmm                                   : Обращенный градиент-зонд 
PHIE               .v/v                                    : Описание 
PHIEN              .v/v                                    :  
PHIT               .v/v                                    : Описание 
PRMB               .мД                                     :  
PRMB_DGR           .мД                                     :  
RT                 .ohmm                                   : УЭС пласта 
SOIL_ARCHIE        .v/v                                    :  
SOIL_DW            .v/v                                    :  
SP                 .мВ                                     : Потенциал самополяризации 
VSH_FIN            .v/v                                    : Описание 
VSH_GR             .v/v                                    : Shale volume 
VSH_SP             .v/v                                    : Shale Volume 
~Ascii
# ...
1277.8     0.285      -9999      -9999      11.245     0          2.845      1.551      1.845      1.551      0.044911   0.04491064 0.29705    0.04175908 0.7241126  1.596      0          0.1440249  105.39     0.6786118  0.681143   0.6760806 
1278       0.282      -9999      -9999      11.359     0          2.984      1.551      1.792      1.551      0.037678   0.0376775  0.30288    0.02998877 0.6095281  1.57       0          0.1155787  106.334    0.7124119  0.7203026  0.7045211 
1278.2     0.28       -9999      -9999      11.372     0          2.591      1.551      1.781      1.551      0.03485    0.03485001 0.30409    0.02645752 0.5976719  1.532      0          0.09358348 106.963    0.7243634  0.7249087  0.7238181 
1278.4     0.278      -9999      -9999      11.13      0          2.451      1.551      1.75       1.551      0.056895   0.05689491 0.3075     0.06685475 0.8615381  1.52       0          0.1850455  106.963    0.6835199  0.6437967  0.7232431 
1278.6     0.274      -9999      -9999      11.384     0          2.248      1.551      1.716      1.551      0.044488   0.04448783 0.31124    0.03881732 0.5869318  1.52       0          0.1442491  106.648    0.7209333  0.7291868  0.7126798 
1278.8     0.307      -9999      -9999      11.13      0          3.149      1.551      1.663      1.551      0.072405   0.07240482 0.31707    0.1248242  0.8615381  1.558      0          0.256238   106.019    0.6681566  0.6437967  0.6925164 
1279       0.302      -9999      -9999      10.547     0          3.175      1.551      1.633      1.551      0.112055   0.1120551  0.32037    0.6685925  2.079062   1.621      0          0.363328   105.705    0.5830382  0.4837234  0.6823531 
1279.2     0.297      -9999      -9999      10.686     0          2.857      1.551      1.646      1.551      0.105047   0.1050466  0.31894    0.4986039  1.68519    1.697      0          0.3632166  105.39     0.5950626  0.5178423  0.6722829 
1279.4     0.289      -9999      -9999      10.813     0          2.553      1.551      1.532      1.551      0.114846   0.1148455  0.33148    0.7213378  1.390931   1.722      0.005443559 0.3984881  104.761    0.6020921  0.5511154  0.6530689 
1279.6     0.293      -9999      -9999      10.826     0          3.2        1.551      1.559      1.551      0.112454   0.1124541  0.32851    0.6589389  1.363873   1.722      0          0.3913877  104.446    0.5989995  0.5546398  0.6433592 
1279.8     0.298      -9999      -9999      10.648     0          3.01       1.551      1.593      1.551      0.12124    0.1212396  0.32477    0.9724596  1.784787   1.697      0.04327909 0.3980851  103.817    0.5665608  0.5082827  0.6248389 
1280       0.303      -9999      -9999      10.382     0          2.908      1.576      1.599      1.576      0.136292   0.1362917  0.32411    1.852616   2.667769   1.672      0.1204159  0.4164895  103.188    0.5264489  0.4461283  0.6067695 
1280.2     0.308      -9999      -9999      10.445     0          2.832      1.576      1.631      1.576      0.131115   0.1311151  0.32059    1.506014   2.42552    1.634      0.08541839 0.3983168  102.873    0.5288841  0.460125   0.5976433 
1280.4     0.292      -9999      -9999      10.344     0          2.857      1.576      1.684      1.576      0.126477   0.1264771  0.31476    1.263975   2.825439   1.634      0.06262781 0.3848446  103.503    0.5261992  0.4378926  0.6145057 
1280.6     0.278      -9999      -9999      10.369     0          2.413      1.576      1.682      1.576      0.124259   0.1242588  0.31498    1.148893   2.720691   1.634      0.04968811 0.3814072  103.817    0.5330493  0.4432937  0.6228049 
1280.8     0.284      -9999      -9999      10.026     0          2.007      1.551      1.701      1.551      0.132672   0.132672   0.31289    1.658184   4.56849    1.621      0.09405132 0.3903814  104.446    0.507452   0.3746697  0.6402344 
1281       0.289      -9999      -9999      9.493      0          1.6        1.5        1.686      1.5        0.149185   0.1491846  0.31454    3.332009   10.2224    1.621      0.1723192  0.4164767  104.761    0.4686761  0.2884991  0.6488532 
1281.2     0.294      -9999      -9999      8.567      0          1.041      1.5        1.714      1.5        0.160883   0.1608829  0.31146    5.553606   41.42272   1.596      0.2153373  0.4246158  105.39     0.4250492  0.1832104  0.6668881 
1281.4     0.299      -9999      -9999      8.541      0          1.016      1.449      1.743      1.449      0.157864   0.157864   0.30827    4.94344    43.08252   1.596      0.2047091  0.4174586  105.39     0.42362    0.1808895  0.6663505 
1281.6     0.297      -9999      -9999      8.998      0          1.029      1.449      1.661      1.449      0.160291   0.1602913  0.31729    5.29418    21.59711   1.608      0.2137744  0.4316686  105.39     0.4460693  0.2263251  0.6658134 
1281.8     0.292      -9999      -9999      9.087      0          1.27       1.398      1.656      1.398      0.157699   0.1576988  0.31784    4.729914   18.87947   1.646      0.212084   0.4354739  105.705    0.4555689  0.2364207  0.6747171 
1282       0.285      -9999      -9999      8.821      0          1.524      1.475      1.688      1.475      0.15726    0.1572605  0.31432    4.706115   28.21966   1.71       0.2256046  0.4422655  106.019    0.4455995  0.2075105  0.6836884 
1282.2     0.28       -9999      -9999      8.63       0          1.333      1.551      1.673      1.551      0.158996   0.1589964  0.31597    5.035448   37.66129   1.748      0.2395787  0.4520801  106.648    0.4457382  0.1889583  0.7025181 
1282.4     0.274      -9999      -9999      8.948      0          2.489      1.653      1.699      1.653      0.149067   0.1490672  0.31311    3.333801   23.29208   1.786      0.2091777  0.4425667  106.963    0.4663334  0.2208437  0.7118231 
1282.6     0.269      -9999      -9999      9.278      0          2.222      1.729      1.813      1.729      0.135183   0.1351825  0.30057    1.935879   14.14642   1.798      0.1548792  0.4123001  105.705    0.4660906  0.2596328  0.6725485 
1282.8     0.262      -9999      -9999      8.897      0          3.238      1.805      1.9        1.805      0.14434    0.1443399  0.291      2.968999   25.15804   1.798      0.2002491  0.4155544  103.188    0.4076192  0.2153895  0.5998488 
1283       0.266      -9999      -9999      8.808      0          2.794      1.856      1.866      1.856      0.163357   0.1633573  0.29474    6.585081   28.77951   1.786      0.2699259  0.4429328  100.042    0.3624002  0.2061919  0.5186085 
1283.2     0.292      -9999      -9999      9.138      0          2.629      1.932      1.8        1.932      0.173567   0.1735672  0.302      9.895724   17.47919   1.71       0.2873329  0.4504234  97.84      0.3549881  0.2424075  0.4675686 
1283.4     0.276      -9999      -9999      9.087      0          3.353      2.034      1.728      2.034      0.189855   0.1898547  0.30992    19.22186   18.87947   1.596      0.3123073  0.4574565  95.952     0.3319449  0.2364207  0.427469  
1283.6     0.257      -9999      -9999      8.909      0          4.191      2.11       1.756      2.11       0.194957   0.1949566  0.30684    24.18139   24.70595   1.52       0.3119256  0.4467117  94.379     0.3065885  0.2166606  0.3965164 
1283.8     0.251      -9999      -9999      8.897      0          4.521      2.186      1.811      2.186      0.192403   0.1924025  0.30079    22.20035   25.15804   1.431      0.2862996  0.4208174  93.121     0.2943387  0.2153895  0.3732879 
1284       0.252      -9999      -9999      9.201      0          2.845      2.288      1.87       2.288      0.180367   0.1803669  0.2943     13.62575   15.89196   1.406      0.244467   0.3942905  92.806     0.3087331  0.2500128  0.3674533 
1284.2     0.254      -9999      -9999      9.341      0          3.048      2.339      1.923      2.339      0.170027   0.1700271  0.28847    8.967233   12.86184   1.406      0.2104708  0.3742094  93.121     0.3202153  0.2677784  0.3726522 
1284.4     0.242      -9999      -9999      9.29       0          2.451      2.263      1.906      2.263      0.171432   0.1714323  0.29034    9.452303   13.89222   1.482      0.2340881  0.3944032  93.75      0.3223736  0.2611651  0.3835821 
