~Version
 VERS              .         2.0                           : CWLS LOG ASCII STANDARD - VERSION 2.0
 WRAP              .         NO                            : ONE LINE PER DEPTH STEP
 DLM               .         SPACE                         : DELIMITING CHARACTER(SPACE TAB OR COMMA)
~Well Information
#_______________________________________________________________________________
#
#PARAMETER_NAME    .UNIT     VALUE                         : DESCRIPTION
#_______________________________________________________________________________
STRT               .м        900                           : First reference value
STOP               .м        1475.8                        : Last reference value
STEP               .м        0.2                           : Step increment
NULL               .         -9999                         : Missing value
COMP               .                                       : Company
WELL               .         275                           : Well name
FLD                .         УЗЕНЬ                         : Field
LOC                .                                       : Location
CNTY               .                                       : County
STAT               .                                       : State
CTRY               .                                       : Country
SRVC               .                                       : Service Company
DATE               .         26.08.1966                    : Date
UWI                .                                       : Unique Well ID
Block              .         4                             : 
Cartographic_reference_system .         GCS_WGS_1984                  : ESRI,PE_10_3_1- <?xml version="1.0" encoding="utf-16"?><ILateBoundCoordinateReferenceSystem name="GCS_WGS_1984"><AuthorityCode>EPSG,4326</AuthorityCode></ILateBoundCoordinateReferenceSystem>
Category           .         Нагнетательная                : 
Condition          .         Ликвидированная               : 
Date               .         20.05.1967                    : 
EREF               .m        222                           : 100.8
Gorizont           .         17                            : 14
HZCS               .GCS_WGS_1984 WGS_1984_EASE_Grid_Global     : ESRI,PE_10_3_1- <?xml version="1.0" encoding="utf-16"?><ILateBoundCoordinateReferenceSystem name="WGS_1984_EASE_Grid_Global"><AuthorityCode>EPSG,3975</AuthorityCode></ILateBoundCoordinateReferenceSystem>
Interpretator      .         Ткачева И.Г.                  : 
Kupol              .         Основной                      : osnovnoi
LATI               .dega     0.6454540436                  : GCS_WGS_1984
LONG               .dega     0.5622768321                  : GCS_WGS_1984
Mud                .         0                             : 
Mud_density        .         0                             : 
Mud_resistivity    .         0                             : 
NGDU               .         НГДУ-1                        : 
ORIGINALWELLNAME   .         275                           : 
Spud_date          .         1966                          : 1961
Uslovie            .         55                            : 
Viscosity          .         0                             : 
X                  .m        54252                         : 46154
Y                  .m        82341                         : 85761.93
YEAR               .         2018                          : 
~Parameter Information Block
#_______________________________________________________________________________
#
#PARAMETER_NAME    .UNIT     VALUE                         : DESCRIPTION
#_______________________________________________________________________________
SET                .         LQC_KAZNIPI_Petrel            : 
GSDD               .         CSAT                          : CSATкрив,0,DEPT,BOTTOM,,,,0
PBBOTTOM           .м        1396                          : Глубина подошвы планшета
PBSCALE            .         1                             : Вертикальный масштаб планшета
PBTOP              .м        985                           : Глубина кровли планшета
TLFamily_CALI      .         Caliper                       : 
TLFamily_COLL      .         Net Reservoir Flag            : 
TLFamily_CSAT      .         Fluid Code                    : 
TLFamily_DEPT      .         Measured Depth                : 
TLFamily_GR        .         Russian Gamma Ray             : 
TLFamily_GZ3       .         Gradient 225                  : 
TLFamily_MINV      .         Micro Gradient Resistivity    : 
TLFamily_MNOR      .         Micro Resistivity             : 
TLFamily_NGLD      .         Neutron Gamma                 : 
TLFamily_OGZ       .         Gradient Inverted 225         : 
TLFamily_PHIE      .         Effective Porosity            : 
TLFamily_PHIEN     .         Effective Porosity            : 
TLFamily_PHIT      .         Porosity                      : 
TLFamily_PRMB      .         Permeability                  : 
TLFamily_PRMB_DGR  .         Permeability                  : 
TLFamily_RT        .         Formation Resistivity         : 
TLFamily_SOIL_ARCHIE .         Oil Saturation                : 
TLFamily_SOIL_DW   .         Oil Saturation                : 
TLFamily_SP        .         Spontaneous Potential         : 
TLFamily_VSH_FIN   .         Shale Volume                  : 
TLFamily_VSH_GR    .         Shale Volume                  : 
TLFamily_VSH_SP    .         Shale Volume                  : 
~Curve Information
#_______________________________________________________________________________
#
#LOGNAME           .UNIT     LOG_ID                        : DESCRIPTION
#_______________________________________________________________________________
DEPT               .м                                      : Колонка глубины 
CALI               .м                                      : Каверномер 
COLL               .unitless                               : Описание 
CSAT               .unitless                               : Описание 
GR                 .uR/h                                   : Гамма каротаж 
GZ3                .Ohmm                                   : Градиент-зонд  длиной 2.25м 
MINV               .Ohmm                                   : Микро-градиент зонд 
MNOR               .Ohmm                                   : Микро-потенциал зонд 
NGLD               .у.е.                                   : Показания зонда НГК-60 аппаратуры ДРСТ-3-90 
OGZ                .Ohmm                                   : Обращенный градиент-зонд 
PHIE               .v/v                                    : Описание 
PHIEN              .v/v                                    :  
PHIT               .v/v                                    : Описание 
PRMB               .мД                                     :  
PRMB_DGR           .мД                                     :  
RT                 .ohmm                                   : УЭС пласта 
SOIL_ARCHIE        .v/v                                    :  
SOIL_DW            .v/v                                    :  
SP                 .мВ                                     : Потенциал самополяризации 
VSH_FIN            .v/v                                    : Описание 
VSH_GR             .v/v                                    : Shale volume 
VSH_SP             .v/v                                    : Shale Volume 
~Ascii
# ...
1311.8     0.214      -9999      -9999      10.115     0          4.445      1.347      1.95       1.347      0.090419   0.0904192  0.2855     0.3041784  3.99362    1.634      0          0.2778375  103.188    0.4617229  0.3913824  0.5320634 
1312       0.209      -9999      -9999      10.407     0          3.302      1.347      1.948      1.347      0.090805   0.0908054  0.28572    0.3089663  2.568871   1.824      0          0.31765    103.188    0.4916254  0.4516308  0.53162   
1312.2     0.211      -9999      -9999      10.864     0          3.2        1.373      1.95       1.373      0.088139   0.08813923 0.2855     0.2759928  1.287764   1.976      0          0.3382505  103.503    0.5520216  0.5650713  0.5389719 
1312.4     0.22       -9999      -9999      11.257     0          2.819      1.398      1.976      1.398      0.07457    0.07457013 0.28264    0.1564519  0.7111009  2.14       0          0.329004   104.761    0.6278993  0.6851628  0.5706359 
1312.6     0.225      -9999      -9999      10.864     0          2.261      1.424      1.938      1.424      0.069812   0.06981246 0.28682    0.1256663  1.287764   2.229      0          0.3359711  106.334    0.588834   0.5650713  0.6125967 
1312.8     0.224      -9999      -9999      11.181     0          2.4        1.424      1.874      1.424      0.050809   0.05080889 0.29386    0.05437161 0.7976387  2.267      0          0.2968577  107.592    0.6540017  0.6600993  0.647904  
1313       0.224      -9999      -9999      11.549     0          3.886      1.424      1.855      1.424      0.04157    0.04156983 0.29595    0.03636832 0.4574112  2.254      0          0.2664323  106.963    0.7099543  0.790635   0.6292737 
1313.2     0.227      -9999      -9999      10.978     0          3.721      1.398      1.927      1.398      0.065778   0.06577781 0.28803    0.1053052  1.083988   2.203      0          0.3229935  106.019    0.5999828  0.5975576  0.6024079 
1313.4     0.231      -9999      -9999      10.724     0          2.934      1.424      2.024      1.424      0.066367   0.06636728 0.27736    0.1125473  1.591152   2.165      0          0.3042376  106.648    0.573469   0.5275818  0.6193562 
1313.6     0.234      -9999      -9999      10.991     0          2.972      1.475      1.991      1.475      0.050103   0.05010271 0.28099    0.0554579  1.062902   2.102      0          0.2486804  107.592    0.623593   0.601379   0.645807  
1313.8     0.237      -9999      -9999      10.927     0          2.515      1.5        1.991      1.5        0.049627   0.04962683 0.28099    0.05434367 1.170828   2.064      0          0.240142   108.536    0.6279971  0.5827996  0.6731946 
1314       0.241      -9999      -9999      11.245     0          3.607      1.525      2.05       1.525      0.019304   0.01930434 0.2745     0.01529083 0.7241126  2.001      0          0.07905513 108.851    0.6816612  0.681143   0.6821795 
1314.2     0.243      -9999      -9999      11.473     0          3.111      1.576      2.109      1.576      0.005574   0.005574286 0.26801    0.008730624 0.5130761  1.95       0          0          108.221    0.7122073  0.7617133  0.6627014 
1314.4     0.247      -9999      -9999      11.207     0          2.946      1.602      2.168      1.602      0.015814   0.01581431 0.26152    0.01385618 0.7669088  1.925      0          0.01161128 107.278    0.6516178  0.6685687  0.6346669 
1314.6     0.25       -9999      -9999      11.562     0          2.324      1.653      2.149      1.653      0.008426   0.008425581 0.26361    0.01002922 0.4485131  1.9        0          0          106.648    0.7060105  0.7956911  0.6163298 
1314.8     0.247      -9999      -9999      11.765     0          2.248      1.653      2.118      1.653      0.015093   0.0150926  0.26702    0.01315269 0.3300324  1.874      0          0.005604282 106.019    0.6992345  0.8        0.5984691 
1315       0.236      -9999      -9999      11.448     0          2.426      1.653      2.044      1.653      0.022629   0.022629   0.27516    0.01757521 0.5328289  1.836      0          0.05965714 106.334    0.6795225  0.7524329  0.6066121 
1315.2     0.225      -9999      -9999      11.676     0          2.476      1.678      2.061      1.678      0.0163     0.0163     0.27329    0.01351515 0.3775405  1.811      0          0.01025724 107.278    0.716303   0.8        0.632606  
1315.4     0.223      -9999      -9999      11.93      0          2.896      1.678      2.044      1.678      0.012356   0.0123563  0.27516    0.01134031 0.257203   1.798      0          0          108.536    0.7344355  0.8        0.668871  
1315.6     0.225      -9999      -9999      11.587     0          3.01       1.703      2.063      1.703      0.005425   0.005424662 0.27307    0.008506552 0.4318863  1.773      0          0          109.48     0.7485313  0.8        0.6970627 
1315.8     0.229      -9999      -9999      11.13      0          3.213      1.729      2.077      1.729      0.017163   0.01716346 0.27153    0.01411815 0.8615381  1.748      0          0          110.424    0.6850092  0.6437967  0.7262218 
1316       0.233      -9999      -9999      10.902     0          2.629      1.754      2.052      1.754      0.033522   0.03352177 0.27428    0.02806356 1.215903   1.722      0          0.08626046 110.738    0.6557242  0.575699   0.7357492 
1316.2     0.237      -9999      -9999      10.877     0          1.816      1.78       2.099      1.78       0.036054   0.03605382 0.26911    0.03189686 1.262716   1.71       0          0.08547445 109.48     0.632038   0.5686848  0.6953913 
1316.4     0.233      -9999      -9999      11.092     0          2.172      1.831      2.027      1.831      0.037248   0.03724808 0.27703    0.03254861 0.9124564  1.672      0          0.09598559 108.221    0.6443756  0.6319119  0.6568392 
1316.6     0.229      -9999      -9999      10.864     0          1.854      1.881      1.984      1.881      0.063053   0.06305279 0.28176    0.09605799 1.287764   1.672      0          0.2046135  106.963    0.5925906  0.5650713  0.6201098 
1316.8     0.225      -9999      -9999      10.737     0          1.664      1.932      1.993      1.932      0.075022   0.07502166 0.28077    0.1606546  1.560199   1.672      0          0.2393778  105.705    0.5580419  0.5309557  0.5851281 
1317       0.225      -9999      -9999      10.597     0          1.689      1.983      1.993      1.983      0.087905   0.08790464 0.28077    0.2783025  1.927768   1.697      0          0.2787868  104.446    0.5237771  0.4957295  0.5518246 
1317.2     0.232      -9999      -9999      9.988      0          2.095      2.008      1.965      2.008      0.120868   0.1208678  0.28385    1.121732   4.838495   1.697      0.06316462 0.3518984  103.503    0.4478069  0.3677531  0.5278606 
1317.4     0.238      -9999      -9999      9.76       0          1.689      2.059      1.857      2.059      0.145013   0.1450134  0.29573    2.999986   6.828646   1.722      0.1849332  0.4089034  102.559    0.416825   0.328854   0.504796  
1317.6     0.246      -9999      -9999      9.95       0          1.232      2.085      1.862      2.085      0.140812   0.140812   0.29518    2.513187   5.124454   1.697      0.1607396  0.3977701  101.93     0.4253792  0.3609641  0.4897942 
1317.8     0.245      -9999      -9999      9.836      0          0.889      2.161      1.914      2.161      0.141861   0.1418606  0.28946    2.687073   6.087788   1.71       0.1708404  0.3953166  100.986    0.404787   0.3413403  0.4682338 
1318       0.231      -9999      -9999      10.306     0          0.927      2.186      1.942      2.186      0.124688   0.1246885  0.28638    1.307365   2.992425   1.735      0.09300262 0.3687405  100.042    0.4386783  0.4298088  0.4475478 
1318.2     0.225      -9999      -9999      10.775     0          0.724      2.161      1.87       2.161      0.105938   0.1059384  0.2943     0.5698535  1.473137   1.786      0          0.353188   101.3      0.5076574  0.5409415  0.4743733 
1318.4     0.229      -9999      -9999      11.042     0          0.94       2.085      1.843      2.085      0.08814    0.08813996 0.29727    0.2636892  0.984067   1.836      0          0.328535   102.559    0.5596456  0.6166075  0.5026837 
