~Version
 VERS              .         2.0                           : CWLS LOG ASCII STANDARD - VERSION 2.0
 WRAP              .         NO                            : ONE LINE PER DEPTH STEP
 DLM               .         SPACE                         : DELIMITING CHARACTER(SPACE TAB OR COMMA)
~Well Information
#_______________________________________________________________________________
#
#PARAMETER_NAME    .UNIT     VALUE                         : DESCRIPTION
#_______________________________________________________________________________
STRT               .м        900                           : First reference value
STOP               .м        1475.8                        : Last reference value
STEP               .м        0.2                           : Step increment
NULL               .         -9999                         : Missing value
COMP               .                                       : Company
WELL               .         275                           : Well name
FLD                .         УЗЕНЬ                         : Field
LOC                .                                       : Location
CNTY               .                                       : County
STAT               .                                       : State
CTRY               .                                       : Country
SRVC               .                                       : Service Company
DATE               .         26.08.1966                    : Date
UWI                .                                       : Unique Well ID
Block              .         4                             : 
Cartographic_reference_system .         GCS_WGS_1984                  : ESRI,PE_10_3_1- <?xml version="1.0" encoding="utf-16"?><ILateBoundCoordinateReferenceSystem name="GCS_WGS_1984"><AuthorityCode>EPSG,4326</AuthorityCode></ILateBoundCoordinateReferenceSystem>
Category           .         Нагнетательная                : 
Condition          .         Ликвидированная               : 
Date               .         20.05.1967                    : 
EREF               .m        222                           : 100.8
Gorizont           .         17                            : 14
HZCS               .GCS_WGS_1984 WGS_1984_EASE_Grid_Global     : ESRI,PE_10_3_1- <?xml version="1.0" encoding="utf-16"?><ILateBoundCoordinateReferenceSystem name="WGS_1984_EASE_Grid_Global"><AuthorityCode>EPSG,3975</AuthorityCode></ILateBoundCoordinateReferenceSystem>
Interpretator      .         Ткачева И.Г.                  : 
Kupol              .         Основной                      : osnovnoi
LATI               .dega     0.6454540436                  : GCS_WGS_1984
LONG               .dega     0.5622768321                  : GCS_WGS_1984
Mud                .         0                             : 
Mud_density        .         0                             : 
Mud_resistivity    .         0                             : 
NGDU               .         НГДУ-1                        : 
ORIGINALWELLNAME   .         275                           : 
Spud_date          .         1966                          : 1961
Uslovie            .         55                            : 
Viscosity          .         0                             : 
X                  .m        54252                         : 46154
Y                  .m        82341                         : 85761.93
YEAR               .         2018                          : 
~Parameter Information Block
#_______________________________________________________________________________
#
#PARAMETER_NAME    .UNIT     VALUE                         : DESCRIPTION
#_______________________________________________________________________________
SET                .         LQC_KAZNIPI_Petrel            : 
GSDD               .         CSAT                          : CSATкрив,0,DEPT,BOTTOM,,,,0
PBBOTTOM           .м        1396                          : Глубина подошвы планшета
PBSCALE            .         1                             : Вертикальный масштаб планшета
PBTOP              .м        985                           : Глубина кровли планшета
TLFamily_CALI      .         Caliper                       : 
TLFamily_COLL      .         Net Reservoir Flag            : 
TLFamily_CSAT      .         Fluid Code                    : 
TLFamily_DEPT      .         Measured Depth                : 
TLFamily_GR        .         Russian Gamma Ray             : 
TLFamily_GZ3       .         Gradient 225                  : 
TLFamily_MINV      .         Micro Gradient Resistivity    : 
TLFamily_MNOR      .         Micro Resistivity             : 
TLFamily_NGLD      .         Neutron Gamma                 : 
TLFamily_OGZ       .         Gradient Inverted 225         : 
TLFamily_PHIE      .         Effective Porosity            : 
TLFamily_PHIEN     .         Effective Porosity            : 
TLFamily_PHIT      .         Porosity                      : 
TLFamily_PRMB      .         Permeability                  : 
TLFamily_PRMB_DGR  .         Permeability                  : 
TLFamily_RT        .         Formation Resistivity         : 
TLFamily_SOIL_ARCHIE .         Oil Saturation                : 
TLFamily_SOIL_DW   .         Oil Saturation                : 
TLFamily_SP        .         Spontaneous Potential         : 
TLFamily_VSH_FIN   .         Shale Volume                  : 
TLFamily_VSH_GR    .         Shale Volume                  : 
TLFamily_VSH_SP    .         Shale Volume                  : 
~Curve Information
#_______________________________________________________________________________
#
#LOGNAME           .UNIT     LOG_ID                        : DESCRIPTION
#_______________________________________________________________________________
DEPT               .м                                      : Колонка глубины 
CALI               .м                                      : Каверномер 
COLL               .unitless                               : Описание 
CSAT               .unitless                               : Описание 
GR                 .uR/h                                   : Гамма каротаж 
GZ3                .Ohmm                                   : Градиент-зонд  длиной 2.25м 
MINV               .Ohmm                                   : Микро-градиент зонд 
MNOR               .Ohmm                                   : Микро-потенциал зонд 
NGLD               .у.е.                                   : Показания зонда НГК-60 аппаратуры ДРСТ-3-90 
OGZ                .Ohmm                                   : Обращенный градиент-зонд 
PHIE               .v/v                                    : Описание 
PHIEN              .v/v                                    :  
PHIT               .v/v                                    : Описание 
PRMB               .мД                                     :  
PRMB_DGR           .мД                                     :  
RT                 .ohmm                                   : УЭС пласта 
SOIL_ARCHIE        .v/v                                    :  
SOIL_DW            .v/v                                    :  
SP                 .мВ                                     : Потенциал самополяризации 
VSH_FIN            .v/v                                    : Описание 
VSH_GR             .v/v                                    : Shale volume 
VSH_SP             .v/v                                    : Shale Volume 
~Ascii
# ...
966        0.217      -9999      -9999      10.014     0          0.47       3.331      1.377      3.331      -9999      -9999      -9999      -9999      -9999      2.507      -9999      -9999      95.638     -9999      0.346331   0.2393233 
966.2000000000001 0.252      -9999      -9999      9.772      0          0.584      3.483      1.371      3.483      -9999      -9999      -9999      -9999      -9999      2.558      -9999      -9999      95.638     -9999      0.2982931  0.2393233 
966.4      0.25       -9999      -9999      9.417      0          0.584      3.407      1.362      3.407      -9999      -9999      -9999      -9999      -9999      2.697      -9999      -9999      95.638     -9999      0.2396152  0.2393233 
966.6      0.247      -9999      -9999      9.049      0          0.622      3.356      1.375      3.356      -9999      -9999      -9999      -9999      -9999      3.001      -9999      -9999      95.323     -9999      0.1909423  0.2360374 
966.8      0.246      -9999      -9999      9.493      0          0.597      3.356      1.371      3.356      -9999      -9999      -9999      -9999      -9999      3.444      -9999      -9999      95.323     -9999      0.2511193  0.2360374 
967        0.27       -9999      -9999      9.404      0          0.66       3.458      1.366      3.458      -9999      -9999      -9999      -9999      -9999      3.888      -9999      -9999      95.323     -9999      0.2377009  0.2360374 
967.2000000000001 0.269      -9999      -9999      9.125      0          0.838      3.356      1.383      3.356      -9999      -9999      -9999      -9999      -9999      3.926      -9999      -9999      95.638     -9999      0.2001095  0.2393233 
967.4      0.268      -9999      -9999      9.608      0          0.902      3.076      1.443      3.076      -9999      -9999      -9999      -9999      -9999      3.799      -9999      -9999      95.952     -9999      0.2695853  0.242662  
967.6      0.266      -9999      -9999      10.255     0          0.546      2.822      1.591      2.822      -9999      -9999      -9999      -9999      -9999      3.584      -9999      -9999      96.267     -9999      0.4018571  0.2460752 
967.8      0.265      -9999      -9999      10.382     0          0.952      2.517      1.606      2.517      -9999      -9999      -9999      -9999      -9999      3.508      -9999      -9999      96.896     -9999      0.4346139  0.2530856 
968        0.307      -9999      -9999      10.509     0          0.711      2.263      1.612      2.263      -9999      -9999      -9999      -9999      -9999      3.647      -9999      -9999      97.211     -9999      0.4700407  0.256695  
968.2000000000001 0.349      -9999      -9999      10.75      0          0.787      2.008      1.635      2.008      -9999      -9999      -9999      -9999      -9999      3.862      -9999      -9999      98.154     -9999      0.5454009  0.2679023 
968.4      0.382      -9999      -9999      11.042     0          0.876      2.11       1.701      2.11       -9999      -9999      -9999      -9999      -9999      4.103      -9999      -9999      98.784     -9999      0.653074   0.275732  
968.6      0.331      -9999      -9999      11.067     0          2.692      2.212      1.783      2.212      -9999      -9999      -9999      -9999      -9999      4.331      -9999      -9999      99.413     -9999      0.6632263  0.283829  
968.8      0.287      -9999      -9999      10.407     0          2.819      2.314      1.76       2.314      -9999      -9999      -9999      -9999      -9999      4.521      -9999      -9999      98.784     -9999      0.4413698  0.275732  
969        0.288      -9999      -9999      9.595      0          3.835      2.415      1.813      2.415      -9999      -9999      -9999      -9999      -9999      4.483      -9999      -9999      95.638     -9999      0.2674316  0.2393233 
969.2000000000001 0.289      -9999      -9999      9.595      0          3.67       2.39       1.855      2.39       -9999      -9999      -9999      -9999      -9999      4.344      -9999      -9999      91.548     -9999      0.2674316  0.2013583 
969.4      0.288      -9999      -9999      9.43       0          2.616      2.288      1.942      2.288      -9999      -9999      -9999      -9999      -9999      3.723      -9999      -9999      87.773     -9999      0.241545   0.1745639 
969.6      0.28       -9999      -9999      9.328      0          2.591      2.186      1.948      2.186      -9999      -9999      -9999      -9999      -9999      3.255      -9999      -9999      82.739     -9999      0.2268116  0.1491338 
969.8      0.268      -9999      -9999      9.608      0          3.988      2.263      1.906      2.263      -9999      -9999      -9999      -9999      -9999      3.065      -9999      -9999      79.593     -9999      0.2695853  0.1381347 
970        0.234      -9999      -9999      9.62       0          4.927      2.339      1.961      2.339      -9999      -9999      -9999      -9999      -9999      2.849      -9999      -9999      78.02      -9999      0.2715888  0.1337915 
970.2000000000001 0.214      -9999      -9999      9.595      0          3.683      2.339      1.974      2.339      -9999      -9999      -9999      -9999      -9999      2.723      -9999      -9999      77.391     -9999      0.2674316  0.1322444 
970.4      0.211      -9999      -9999      9.595      0          2.984      2.212      1.963      2.212      -9999      -9999      -9999      -9999      -9999      2.533      -9999      -9999      76.447     -9999      0.2674316  0.1301094 
970.6      0.21       -9999      -9999      9.899      0          2.654      2.085      1.946      2.085      -9999      -9999      -9999      -9999      -9999      2.343      -9999      -9999      76.133     -9999      0.3226079  0.1294463 
970.8      0.208      -9999      -9999      10.115     0          3.099      1.958      1.887      1.958      -9999      -9999      -9999      -9999      -9999      2.191      -9999      -9999      76.133     -9999      0.3686006  0.1294463 
971        0.206      -9999      -9999      9.874      0          3.454      1.805      1.906      1.805      -9999      -9999      -9999      -9999      -9999      2.165      -9999      -9999      76.133     -9999      0.3176696  0.1294463 
971.2000000000001 0.205      -9999      -9999      10.064     0          3.53       1.805      1.84       1.805      -9999      -9999      -9999      -9999      -9999      2.216      -9999      -9999      75.818     -9999      0.3571822  0.1288036 
971.4      0.204      -9999      -9999      9.899      0          3.467      1.856      1.855      1.856      -9999      -9999      -9999      -9999      -9999      2.254      -9999      -9999      76.133     -9999      0.3226079  0.1294463 
971.6      0.204      -9999      -9999      9.76       0          3.569      1.907      1.866      1.907      -9999      -9999      -9999      -9999      -9999      2.292      -9999      -9999      76.133     -9999      0.2960926  0.1294463 
971.8      0.204      -9999      -9999      10.432     0          3.391      1.958      1.872      1.958      -9999      -9999      -9999      -9999      -9999      2.368      -9999      -9999      76.447     -9999      0.4482311  0.1301094 
972        0.204      -9999      -9999      10.344     0          2.883      2.034      1.832      2.034      -9999      -9999      -9999      -9999      -9999      2.393      -9999      -9999      76.762     -9999      0.4245421  0.1307977 
972.2000000000001 0.204      -9999      -9999      9.709      0          2.756      2.11       1.783      2.11       -9999      -9999      -9999      -9999      -9999      2.444      -9999      -9999      77.391     -9999      0.2869201  0.1322444 
972.4      0.204      -9999      -9999      8.859      0          2.705      2.085      1.798      2.085      -9999      -9999      -9999      -9999      -9999      2.444      -9999      -9999      78.02      -9999      0.1698198  0.1337915 
