~Version
 VERS              .         2.0                           : CWLS LOG ASCII STANDARD - VERSION 2.0
 WRAP              .         NO                            : ONE LINE PER DEPTH STEP
 DLM               .         SPACE                         : DELIMITING CHARACTER(SPACE TAB OR COMMA)
~Well Information
#_______________________________________________________________________________
#
#PARAMETER_NAME    .UNIT     VALUE                         : DESCRIPTION
#_______________________________________________________________________________
STRT               .м        900                           : First reference value
STOP               .м        1475.8                        : Last reference value
STEP               .м        0.2                           : Step increment
NULL               .         -9999                         : Missing value
COMP               .                                       : Company
WELL               .         275                           : Well name
FLD                .         УЗЕНЬ                         : Field
LOC                .                                       : Location
CNTY               .                                       : County
STAT               .                                       : State
CTRY               .                                       : Country
SRVC               .                                       : Service Company
DATE               .         26.08.1966                    : Date
UWI                .                                       : Unique Well ID
Block              .         4                             : 
Cartographic_reference_system .         GCS_WGS_1984                  : ESRI,PE_10_3_1- <?xml version="1.0" encoding="utf-16"?><ILateBoundCoordinateReferenceSystem name="GCS_WGS_1984"><AuthorityCode>EPSG,4326</AuthorityCode></ILateBoundCoordinateReferenceSystem>
Category           .         Нагнетательная                : 
Condition          .         Ликвидированная               : 
Date               .         20.05.1967                    : 
EREF               .m        222                           : 100.8
Gorizont           .         17                            : 14
HZCS               .GCS_WGS_1984 WGS_1984_EASE_Grid_Global     : ESRI,PE_10_3_1- <?xml version="1.0" encoding="utf-16"?><ILateBoundCoordinateReferenceSystem name="WGS_1984_EASE_Grid_Global"><AuthorityCode>EPSG,3975</AuthorityCode></ILateBoundCoordinateReferenceSystem>
Interpretator      .         Ткачева И.Г.                  : 
Kupol              .         Основной                      : osnovnoi
LATI               .dega     0.6454540436                  : GCS_WGS_1984
LONG               .dega     0.5622768321                  : GCS_WGS_1984
Mud                .         0                             : 
Mud_density        .         0                             : 
Mud_resistivity    .         0                             : 
NGDU               .         НГДУ-1                        : 
ORIGINALWELLNAME   .         275                           : 
Spud_date          .         1966                          : 1961
Uslovie            .         55                            : 
Viscosity          .         0                             : 
X                  .m        54252                         : 46154
Y                  .m        82341                         : 85761.93
YEAR               .         2018                          : 
~Parameter Information Block
#_______________________________________________________________________________
#
#PARAMETER_NAME    .UNIT     VALUE                         : DESCRIPTION
#_______________________________________________________________________________
SET                .         LQC_KAZNIPI_Petrel            : 
GSDD               .         CSAT                          : CSATкрив,0,DEPT,BOTTOM,,,,0
PBBOTTOM           .м        1396                          : Глубина подошвы планшета
PBSCALE            .         1                             : Вертикальный масштаб планшета
PBTOP              .м        985                           : Глубина кровли планшета
TLFamily_CALI      .         Caliper                       : 
TLFamily_COLL      .         Net Reservoir Flag            : 
TLFamily_CSAT      .         Fluid Code                    : 
TLFamily_DEPT      .         Measured Depth                : 
TLFamily_GR        .         Russian Gamma Ray             : 
TLFamily_GZ3       .         Gradient 225                  : 
TLFamily_MINV      .         Micro Gradient Resistivity    : 
TLFamily_MNOR      .         Micro Resistivity             : 
TLFamily_NGLD      .         Neutron Gamma                 : 
TLFamily_OGZ       .         Gradient Inverted 225         : 
TLFamily_PHIE      .         Effective Porosity            : 
TLFamily_PHIEN     .         Effective Porosity            : 
TLFamily_PHIT      .         Porosity                      : 
TLFamily_PRMB      .         Permeability                  : 
TLFamily_PRMB_DGR  .         Permeability                  : 
TLFamily_RT        .         Formation Resistivity         : 
TLFamily_SOIL_ARCHIE .         Oil Saturation                : 
TLFamily_SOIL_DW   .         Oil Saturation                : 
TLFamily_SP        .         Spontaneous Potential         : 
TLFamily_VSH_FIN   .         Shale Volume                  : 
TLFamily_VSH_GR    .         Shale Volume                  : 
TLFamily_VSH_SP    .         Shale Volume                  : 
~Curve Information
#_______________________________________________________________________________
#
#LOGNAME           .UNIT     LOG_ID                        : DESCRIPTION
#_______________________________________________________________________________
DEPT               .м                                      : Колонка глубины 
CALI               .м                                      : Каверномер 
COLL               .unitless                               : Описание 
CSAT               .unitless                               : Описание 
GR                 .uR/h                                   : Гамма каротаж 
GZ3                .Ohmm                                   : Градиент-зонд  длиной 2.25м 
MINV               .Ohmm                                   : Микро-градиент зонд 
MNOR               .Ohmm                                   : Микро-потенциал зонд 
NGLD               .у.е.                                   : Показания зонда НГК-60 аппаратуры ДРСТ-3-90 
OGZ                .Ohmm                                   : Обращенный градиент-зонд 
PHIE               .v/v                                    : Описание 
PHIEN              .v/v                                    :  
PHIT               .v/v                                    : Описание 
PRMB               .мД                                     :  
PRMB_DGR           .мД                                     :  
RT                 .ohmm                                   : УЭС пласта 
SOIL_ARCHIE        .v/v                                    :  
SOIL_DW            .v/v                                    :  
SP                 .мВ                                     : Потенциал самополяризации 
VSH_FIN            .v/v                                    : Описание 
VSH_GR             .v/v                                    : Shale volume 
VSH_SP             .v/v                                    : Shale Volume 
~Ascii
# ...
999        0.204      1          3          5.064      1          3.899      4.042      2.044      4.042      0.214297   0.2142974  0.27516    62.38258   59.44908   3.293      0.7709445  0.8065727  72.043     0.1224929  0.122369   0.1226168 
999.2000000000001 0.204      1          3          5.369      1          3.276      4.093      2.105      4.093      0.204387   0.2043869  0.26845    41.95627   43.9146    3.305      0.7631405  0.8005913  71.728     0.1303427  0.1384784  0.1222069 
999.4      0.204      1          3          5.521      1          4.115      4.093      2.042      4.093      0.210494   0.2104943  0.27538    52.99707   37.76214   3.356      0.7697024  0.8069546  71.728     0.1347444  0.1472819  0.1222069 
999.6      0.204      1          3          5.622      1          4.381      4.119      2.09       4.119      0.203718   0.2037185  0.2701     40.51694   34.15849   3.444      0.7669384  0.8049349  71.728     0.1378229  0.1534389  0.1222069 
999.8      0.204      1          3          5.648      1          5.054      4.144      2.056      4.144      0.207595   0.2075953  0.27384    47.11385   33.28785   3.558      0.773575   0.810877   71.414     0.1384384  0.1550651  0.1218116 
1000       0.204      1          3          5.648      1          4.851      4.195      2.012      4.195      0.212743   0.2127425  0.27868    57.58857   33.28785   3.672      0.7808343  0.8173245  72.043     0.1388409  0.1550651  0.1226168 
1000.2     0.204      1          3          5.699      1          3.467      4.195      1.995      4.195      0.214178   0.2141782  0.28055    60.78269   31.644     3.736      0.7836282  0.8199933  72.357     0.1406722  0.1583052  0.1230392 
1000.4     0.204      1          3          5.978      1          2.972      4.246      2.025      4.246      0.207377   0.2073772  0.27725    46.06441   23.98655   3.824      0.7806653  0.8185377  72.672     0.1503722  0.1772667  0.1234776 
1000.6     0.204      1          3          6.092      1          3.848      4.322      2.02       4.322      0.206518   0.2065185  0.2778     44.31345   21.41922   3.913      0.7822634  0.8204522  72.987     0.1547923  0.1856533  0.1239313 
1000.8     0.204      1          3          6.092      1          5.08       4.373      2.024      4.373      0.205961   0.2059613  0.27736    43.34661   21.41922   4.002      0.7841202  0.8221184  73.301     0.1550263  0.1856533  0.1243994 
1001       0.204      1          3          6.041      1          4.635      4.424      2.042      4.424      0.204265   0.2042653  0.27538    40.63255   22.53193   4.065      0.7844379  0.8222708  73.93      0.1536205  0.1818534  0.1253875 
1001.2     0.204      1          3          6.397      1          3.746      4.475      2.116      4.475      0.19064    0.1906396  0.26724    23.45309   15.82222   4.154      0.7753543  0.8162799  74.245     0.1680013  0.2100938  0.1259088 
1001.4     0.204      1          3          6.422      1          2.959      4.525      2.061      4.525      0.196705   0.1967053  0.27329    29.67322   15.43427   4.242      0.7824789  0.822504   74.874     0.1696203  0.2122344  0.1270061 
1001.6     0.204      1          3          6.244      1          4.051      4.424      2.096      4.424      0.194944   0.1949438  0.26944    27.93959   18.41838   4.331      0.783362   0.8224833  74.874     0.162231   0.1974558  0.1270061 
1001.8     0.204      1          3          5.749      1          4.966      4.169      2.133      4.169      0.196333   0.1963331  0.26537    30.11669   30.11118   4.432      0.7872024  0.8238157  75.189     0.1445663  0.1615475  0.1275852 
1002       0.204      1          3          5.28       1          3.848      3.89       2.105      3.89       0.204405   0.2044049  0.26845    41.98849   47.97242   4.534      0.795814   0.8297558  74.874     0.1302881  0.1335701  0.1270061 
1002.2     0.204      1          3          4.772      1          3.556      3.61       2.141      3.61       0.20428    0.2042796  0.26449    42.41086   79.44652   4.647      0.798342   0.8306237  74.56      0.117577   0.1087052  0.1264487 
1002.4     0.204      1          3          4.518      1          3.657      3.331      2.173      3.331      0.202453   0.2024529  0.26097    39.77123   102.2389   4.761      0.7994559  0.8309537  73.616     0.1114761  0.09806653 0.1248856 
1002.6     0.204      1          3          4.353      1          2.794      3.051      2.17       3.051      0.204092   0.2040924  0.2613     42.59717   120.4412   4.901      0.8033936  0.834068   72.672     0.1075988  0.09172004 0.1234776 
1002.8     0.204      1          3          4.391      1          2.197      2.873      2.149      2.873      0.206652   0.2066523  0.26361    47.08763   115.9811   5.065      0.8081449  0.8383279  71.414     0.1074779  0.09314424 0.1218116 
1003       0.204      1          3          3.972      1          3.543      2.847      2.135      2.847      0.210975   0.2109754  0.26515    56.28449   175.8278   5.255      0.8143924  0.8431363  70.155     0.0994684  0.07859049 0.1203463 
1003.2     0.204      1          3          3.693      1          3.518      2.746      2.168      2.746      0.208618   0.2086177  0.26152    51.62151   231.9588   5.445      0.8160613  0.8441364  68.897     0.09461295 0.07018399 0.1190419 
1003.4     0.204      1          3          3.731      1          2.388      2.644      2.192      2.644      0.205754   0.2057539  0.25888    46.15631   223.3689   5.635      0.8171828  0.8451261  67.638     0.09456396 0.07127379 0.1178541 
1003.6     0.204      1          3          3.312      1          2.984      2.542      2.251      2.542      0.200695   0.2006948  0.25239    38.14632   338.6283   5.825      0.8168709  0.8441749  66.38      0.08844002 0.06013729 0.1167428 
1003.8     0.204      1          3          3.3        1          3.149      2.441      2.338      2.441      0.190437   0.1904366  0.24282    25.55993   342.6876   5.762      0.8089146  0.8368109  65.436     0.08788916 0.05984538 0.115933  
1004       0.204      1          3          3.274      1          3.581      2.314      2.344      2.314      0.189864   0.1898644  0.24216    25.00764   351.6506   5.23       0.7996094  0.828272   65.122     0.08744123 0.05921776 0.1156647 
1004.2     0.204      1          3          3.351      1          3.886      2.212      2.355      2.212      0.188234   0.1882345  0.24095    23.43803   325.7645   4.42       0.7817895  0.8120661  65.122     0.08838027 0.06109586 0.1156647 
1004.4     0.204      1          3          3.465      1          3.543      2.059      2.317      2.059      0.192362   0.1923621  0.24513    27.50017   290.8972   3.85       0.7707134  0.8021004  64.807     0.08969067 0.06398632 0.115395  
1004.6     0.204      1          3          3.554      1          3.251      2.085      2.207      2.085      0.205174   0.2051741  0.25723    45.31795   266.2912   3.52       0.7716367  0.8032174  64.807     0.09086633 0.06633765 0.115395  
1004.8     0.204      1          3          3.3        1          3.175      2.136      2.219      2.136      0.204761   0.2047608  0.25591    44.75463   342.6876   3.293      0.7641149  0.7958785  65.122     0.08775503 0.05984538 0.1156647 
1005       0.204      1          3          3.211      1          3.2        2.161      2.162      2.161      0.211907   0.2119066  0.26218    59.243     374.3528   3.141      0.764751   0.7964248  65.436     0.08682856 0.05772417 0.115933  
1005.2     0.204      1          3          3.325      1          3.086      2.186      2.164      2.186      0.211216   0.211216   0.26196    57.57254   334.2849   3.052      0.7609584  0.7931011  65.436     0.08819404 0.06045513 0.115933  
1005.4     0.204      1          3          3.325      1          2.781      2.237      2.162      2.237      0.211456   0.211456   0.26218    58.11532   334.2849   2.989      0.7588056  0.7911181  65.436     0.08819404 0.06045513 0.115933  
1005.6     0.204      1          3          3.211      1          3.213      2.263      2.13       2.263      0.215747   0.2157466  0.2657     68.83917   374.3528   2.938      0.760401   0.7924607  65.436     0.08682856 0.05772417 0.115933  
