~Version
 VERS              .         2.0                           : CWLS LOG ASCII STANDARD - VERSION 2.0
 WRAP              .         NO                            : ONE LINE PER DEPTH STEP
 DLM               .         SPACE                         : DELIMITING CHARACTER(SPACE TAB OR COMMA)
~Well Information
#_______________________________________________________________________________
#
#PARAMETER_NAME    .UNIT     VALUE                         : DESCRIPTION
#_______________________________________________________________________________
STRT               .м        900                           : First reference value
STOP               .м        1475.8                        : Last reference value
STEP               .м        0.2                           : Step increment
NULL               .         -9999                         : Missing value
COMP               .                                       : Company
WELL               .         275                           : Well name
FLD                .         УЗЕНЬ                         : Field
LOC                .                                       : Location
CNTY               .                                       : County
STAT               .                                       : State
CTRY               .                                       : Country
SRVC               .                                       : Service Company
DATE               .         26.08.1966                    : Date
UWI                .                                       : Unique Well ID
Block              .         4                             : 
Cartographic_reference_system .         GCS_WGS_1984                  : ESRI,PE_10_3_1- <?xml version="1.0" encoding="utf-16"?><ILateBoundCoordinateReferenceSystem name="GCS_WGS_1984"><AuthorityCode>EPSG,4326</AuthorityCode></ILateBoundCoordinateReferenceSystem>
Category           .         Нагнетательная                : 
Condition          .         Ликвидированная               : 
Date               .         20.05.1967                    : 
EREF               .m        222                           : 100.8
Gorizont           .         17                            : 14
HZCS               .GCS_WGS_1984 WGS_1984_EASE_Grid_Global     : ESRI,PE_10_3_1- <?xml version="1.0" encoding="utf-16"?><ILateBoundCoordinateReferenceSystem name="WGS_1984_EASE_Grid_Global"><AuthorityCode>EPSG,3975</AuthorityCode></ILateBoundCoordinateReferenceSystem>
Interpretator      .         Ткачева И.Г.                  : 
Kupol              .         Основной                      : osnovnoi
LATI               .dega     0.6454540436                  : GCS_WGS_1984
LONG               .dega     0.5622768321                  : GCS_WGS_1984
Mud                .         0                             : 
Mud_density        .         0                             : 
Mud_resistivity    .         0                             : 
NGDU               .         НГДУ-1                        : 
ORIGINALWELLNAME   .         275                           : 
Spud_date          .         1966                          : 1961
Uslovie            .         55                            : 
Viscosity          .         0                             : 
X                  .m        54252                         : 46154
Y                  .m        82341                         : 85761.93
YEAR               .         2018                          : 
~Parameter Information Block
#_______________________________________________________________________________
#
#PARAMETER_NAME    .UNIT     VALUE                         : DESCRIPTION
#_______________________________________________________________________________
SET                .         LQC_KAZNIPI_Petrel            : 
GSDD               .         CSAT                          : CSATкрив,0,DEPT,BOTTOM,,,,0
PBBOTTOM           .м        1396                          : Глубина подошвы планшета
PBSCALE            .         1                             : Вертикальный масштаб планшета
PBTOP              .м        985                           : Глубина кровли планшета
TLFamily_CALI      .         Caliper                       : 
TLFamily_COLL      .         Net Reservoir Flag            : 
TLFamily_CSAT      .         Fluid Code                    : 
TLFamily_DEPT      .         Measured Depth                : 
TLFamily_GR        .         Russian Gamma Ray             : 
TLFamily_GZ3       .         Gradient 225                  : 
TLFamily_MINV      .         Micro Gradient Resistivity    : 
TLFamily_MNOR      .         Micro Resistivity             : 
TLFamily_NGLD      .         Neutron Gamma                 : 
TLFamily_OGZ       .         Gradient Inverted 225         : 
TLFamily_PHIE      .         Effective Porosity            : 
TLFamily_PHIEN     .         Effective Porosity            : 
TLFamily_PHIT      .         Porosity                      : 
TLFamily_PRMB      .         Permeability                  : 
TLFamily_PRMB_DGR  .         Permeability                  : 
TLFamily_RT        .         Formation Resistivity         : 
TLFamily_SOIL_ARCHIE .         Oil Saturation                : 
TLFamily_SOIL_DW   .         Oil Saturation                : 
TLFamily_SP        .         Spontaneous Potential         : 
TLFamily_VSH_FIN   .         Shale Volume                  : 
TLFamily_VSH_GR    .         Shale Volume                  : 
TLFamily_VSH_SP    .         Shale Volume                  : 
~Curve Information
#_______________________________________________________________________________
#
#LOGNAME           .UNIT     LOG_ID                        : DESCRIPTION
#_______________________________________________________________________________
DEPT               .м                                      : Колонка глубины 
CALI               .м                                      : Каверномер 
COLL               .unitless                               : Описание 
CSAT               .unitless                               : Описание 
GR                 .uR/h                                   : Гамма каротаж 
GZ3                .Ohmm                                   : Градиент-зонд  длиной 2.25м 
MINV               .Ohmm                                   : Микро-градиент зонд 
MNOR               .Ohmm                                   : Микро-потенциал зонд 
NGLD               .у.е.                                   : Показания зонда НГК-60 аппаратуры ДРСТ-3-90 
OGZ                .Ohmm                                   : Обращенный градиент-зонд 
PHIE               .v/v                                    : Описание 
PHIEN              .v/v                                    :  
PHIT               .v/v                                    : Описание 
PRMB               .мД                                     :  
PRMB_DGR           .мД                                     :  
RT                 .ohmm                                   : УЭС пласта 
SOIL_ARCHIE        .v/v                                    :  
SOIL_DW            .v/v                                    :  
SP                 .мВ                                     : Потенциал самополяризации 
VSH_FIN            .v/v                                    : Описание 
VSH_GR             .v/v                                    : Shale volume 
VSH_SP             .v/v                                    : Shale Volume 
~Ascii
# ...
1107.8     0.274      -9999      -9999      10.344     0          0.571      2.008      1.551      2.008      0.145356   0.1453562  0.32939    2.671715   1.322056   2.406      0.272693   0.5156883  108.851    0.5106782  0.5789003  0.4424562 
1108       0.28       -9999      -9999      10.306     0          1.168      2.085      1.553      2.085      0.144182   0.1441816  0.32917    2.543336   1.365667   2.507      0.2821033  0.5240407  109.48     0.5135104  0.571279   0.4557417 
1108.2     0.285      -9999      -9999      10.458     0          0.66       2.186      1.495      2.186      0.147115   0.1471153  0.33555    2.811908   1.199401   2.571      0.299528   0.5381346  109.165    0.5257111  0.6023797  0.4490426 
1108.4     0.28       -9999      -9999      10.813     0          1.702      2.288      1.517      2.288      0.13564    0.1356401  0.33313    1.739908   0.8857008  2.596      0.2575889  0.5255466  107.907    0.5524847  0.6817712  0.4231983 
1108.6     0.274      -9999      -9999      10.978     0          1.905      2.339      1.536      2.339      0.131699   0.1316995  0.33104    1.48271    0.7692804  2.583      0.2393349  0.5179539  106.334    0.5575168  0.7221535  0.3928799 
1108.8     0.284      -9999      -9999      10.826     0          0.876      2.136      1.604      2.136      0.133437   0.1334371  0.32356    1.643751   0.8759205  2.596      0.2518259  0.5152247  105.076    0.5275241  0.6848693  0.3701789 
1109       0.297      -9999      -9999      11.143     0          1.422      2.008      1.62       2.008      0.121837   0.1218366  0.3218     1.009091   0.6681632  2.583      0.1962081  0.4976149  103.817    0.5568588  0.7649279  0.3487898 
1109.2     0.311      -9999      -9999      10.585     0          1.791      1.831      1.542      1.831      0.154363   0.1543627  0.33038    3.907914   1.076112   2.419      0.3078275  0.5277806  103.503    0.4866585  0.6296595  0.3436576 
1109.4     0.324      -9999      -9999      10.712     0          1.499      1.653      1.515      1.653      0.151188   0.1511881  0.33335    3.373981   0.9654951  2.153      0.2557683  0.4982554  104.132    0.5060968  0.6581747  0.3540189 
1109.6     0.336      -9999      -9999      10.674     0          1.524      1.576      1.608      1.576      0.139695   0.1396947  0.32312    2.150221   0.9973446  2.026      0.1891948  0.4593141  104.761    0.507107   0.6495097  0.3647043 
1109.8     0.306      -9999      -9999      10.864     0          1.384      1.653      1.701      1.653      0.119375   0.1193754  0.31289    0.9404721  0.8479491  2.051      0.09490034 0.4235977  105.39     0.5348625  0.6940059  0.3757191 
1110       0.288      -9999      -9999      10.369     0          1.206      1.703      1.72       1.703      0.133379   0.1333787  0.3108     1.72282    1.294126   2.102      0.1791882  0.4491774  106.019    0.4855192  0.5839698  0.3870687 
1110.2     0.29       -9999      -9999      10.331     0          0.698      1.754      1.737      1.754      0.130678   0.1306784  0.30893    1.546583   1.336816   2.165      0.1784478  0.4516906  106.648    0.48752    0.5762818  0.3987583 
1110.4     0.294      -9999      -9999      10.001     0          2.807      1.831      1.785      1.831      0.134268   0.1342681  0.30365    1.839736   1.77205    2.229      0.2085191  0.4594734  106.963    0.4591874  0.5136331  0.4047417 
1110.6     0.297      -9999      -9999      9.95       0          3.556      1.881      1.732      1.881      0.14311    0.1431095  0.30948    2.622414   1.850944   2.279      0.2521789  0.4823807  106.648    0.4516683  0.5045782  0.3987583 
1110.8     0.284      -9999      -9999      9.493      0          1.499      1.932      1.659      1.932      0.165105   0.1651051  0.31751    6.495203   2.734671   2.305      0.3325743  0.5173835  106.334    0.4115602  0.4302404  0.3928799 
1111       0.271      -9999      -9999      9.379      0          4.267      1.856      1.631      1.856      0.170262   0.1702622  0.32059    7.997017   3.014328   2.33       0.3510888  0.5277548  106.648    0.4061145  0.4134707  0.3987583 
1111.2     0.279      -9999      -9999      9.557      0          3.569      1.856      1.644      1.856      0.162344   0.162344   0.31916    5.736812   2.589203   2.368      0.3316299  0.5222991  107.278    0.4253819  0.4399514  0.4108124 
1111.4     0.288      -9999      -9999      8.998      0          1.016      1.932      1.58       1.932      0.180838   0.1808382  0.3262     12.28497   4.173609   2.368      0.3848055  0.5460318  107.907    0.3926116  0.3620249  0.4231983 
1111.6     0.296      -9999      -9999      9.049      0          1.422      1.983      1.502      1.983      0.187024   0.1870239  0.33478    15.47036   3.99572    2.33       0.3945874  0.5542803  108.536    0.4022307  0.3685215  0.43594   
1111.8     0.297      -9999      -9999      9.417      0          1.6        2.059      1.417      2.059      0.187822   0.1878219  0.34413    15.43614   2.918068   2.254      0.3849548  0.5542217  108.851    0.4307214  0.4189867  0.4424562 
1112       0.288      -9999      -9999      9.582      0          1.41       2.11       1.354      2.11       0.189095   0.189095   0.35106    15.86534   2.534504   2.165      0.3749496  0.5511513  109.48     0.4497728  0.4438039  0.4557417 
1112.2     0.279      -9999      -9999      9.544      0          1.511      2.161      1.383      2.161      0.184326   0.1843261  0.34787    13.10657   2.618112   2.14       0.3591795  0.5420048  110.109    0.4536786  0.4379612  0.469396  
1112.4     0.278      -9999      -9999      9.43       0          1.841      2.237      1.379      2.237      0.188759   0.1887587  0.34831    15.80704   2.885845   2.267      0.388081   0.5592054  109.794    0.4417011  0.4208906  0.4625115 
1112.6     0.283      -9999      -9999      9.684      0          3.061      2.288      1.449      2.288      0.176149   0.1761485  0.34061    9.511442   2.323051   2.381      0.3695986  0.5534574  109.165    0.454459   0.4598753  0.4490426 
1112.8     0.289      -9999      -9999      10.026     0          3.111      2.186      1.54       2.186      0.158839   0.1588386  0.3306     4.72584    1.734615   2.457      0.3282019  0.5363201  108.221    0.4738226  0.5181309  0.4295142 
1113       0.293      -9999      -9999      10.369     0          3.276      2.085      1.622      2.085      0.141221   0.1412209  0.32158    2.308586   1.294126   2.457      0.2661896  0.5095657  107.278    0.4973911  0.5839698  0.4108124 
1113.2     0.299      -9999      -9999      10.331     0          3.365      1.983      1.629      1.983      0.139606   0.1396058  0.32081    2.161357   1.336816   2.406      0.252538   0.5017864  107.907    0.49974    0.5762818  0.4231983 
1113.4     0.296      -9999      -9999      9.557      0          1.676      1.881      1.631      1.881      0.158683   0.1586827  0.32059    4.880322   2.589203   2.267      0.3049637  0.5089772  108.851    0.4412038  0.4399514  0.4424562 
1113.6     0.292      -9999      -9999      9.163      0          2.248      1.805      1.631      1.805      0.16581    0.1658104  0.32059    6.614071   3.625014   2.191      0.3178876  0.5083218  109.48     0.419605   0.3834682  0.4557417 
1113.8     0.288      -9999      -9999      9.379      0          1.537      1.907      1.536      1.907      0.170007   0.170007   0.33104    7.596345   3.014328   2.153      0.3227673  0.5169199  110.109    0.4414333  0.4134707  0.469396  
1114       0.284      -9999      -9999      9.303      0          2.108      2.008      1.542      2.008      0.167574   0.1675741  0.33038    6.865188   3.216476   2.165      0.3169091  0.5152248  111.053    0.446624   0.4026557  0.4905923 
1114.2     0.28       -9999      -9999      9.887      0          0.876      2.11       1.603      2.11       0.147592   0.1475921  0.32367    3.004941   1.953267   2.229      0.2572112  0.4946707  110.424    0.4849937  0.4936129  0.4763744 
1114.4     0.288      -9999      -9999      10.267     0          1.549      2.212      1.635      2.212      0.13672    0.1367203  0.32015    1.915982   1.411922   2.305      0.2250969  0.4867741  109.165    0.5063021  0.5635617  0.4490426 
