~Version
 VERS              .         2.0                           : CWLS LOG ASCII STANDARD - VERSION 2.0
 WRAP              .         NO                            : ONE LINE PER DEPTH STEP
 DLM               .         SPACE                         : DELIMITING CHARACTER(SPACE TAB OR COMMA)
~Well Information
#_______________________________________________________________________________
#
#PARAMETER_NAME    .UNIT     VALUE                         : DESCRIPTION
#_______________________________________________________________________________
STRT               .м        900                           : First reference value
STOP               .м        1475.8                        : Last reference value
STEP               .м        0.2                           : Step increment
NULL               .         -9999                         : Missing value
COMP               .                                       : Company
WELL               .         275                           : Well name
FLD                .         УЗЕНЬ                         : Field
LOC                .                                       : Location
CNTY               .                                       : County
STAT               .                                       : State
CTRY               .                                       : Country
SRVC               .                                       : Service Company
DATE               .         26.08.1966                    : Date
UWI                .                                       : Unique Well ID
Block              .         4                             : 
Cartographic_reference_system .         GCS_WGS_1984                  : ESRI,PE_10_3_1- <?xml version="1.0" encoding="utf-16"?><ILateBoundCoordinateReferenceSystem name="GCS_WGS_1984"><AuthorityCode>EPSG,4326</AuthorityCode></ILateBoundCoordinateReferenceSystem>
Category           .         Нагнетательная                : 
Condition          .         Ликвидированная               : 
Date               .         20.05.1967                    : 
EREF               .m        222                           : 100.8
Gorizont           .         17                            : 14
HZCS               .GCS_WGS_1984 WGS_1984_EASE_Grid_Global     : ESRI,PE_10_3_1- <?xml version="1.0" encoding="utf-16"?><ILateBoundCoordinateReferenceSystem name="WGS_1984_EASE_Grid_Global"><AuthorityCode>EPSG,3975</AuthorityCode></ILateBoundCoordinateReferenceSystem>
Interpretator      .         Ткачева И.Г.                  : 
Kupol              .         Основной                      : osnovnoi
LATI               .dega     0.6454540436                  : GCS_WGS_1984
LONG               .dega     0.5622768321                  : GCS_WGS_1984
Mud                .         0                             : 
Mud_density        .         0                             : 
Mud_resistivity    .         0                             : 
NGDU               .         НГДУ-1                        : 
ORIGINALWELLNAME   .         275                           : 
Spud_date          .         1966                          : 1961
Uslovie            .         55                            : 
Viscosity          .         0                             : 
X                  .m        54252                         : 46154
Y                  .m        82341                         : 85761.93
YEAR               .         2018                          : 
~Parameter Information Block
#_______________________________________________________________________________
#
#PARAMETER_NAME    .UNIT     VALUE                         : DESCRIPTION
#_______________________________________________________________________________
SET                .         LQC_KAZNIPI_Petrel            : 
GSDD               .         CSAT                          : CSATкрив,0,DEPT,BOTTOM,,,,0
PBBOTTOM           .м        1396                          : Глубина подошвы планшета
PBSCALE            .         1                             : Вертикальный масштаб планшета
PBTOP              .м        985                           : Глубина кровли планшета
TLFamily_CALI      .         Caliper                       : 
TLFamily_COLL      .         Net Reservoir Flag            : 
TLFamily_CSAT      .         Fluid Code                    : 
TLFamily_DEPT      .         Measured Depth                : 
TLFamily_GR        .         Russian Gamma Ray             : 
TLFamily_GZ3       .         Gradient 225                  : 
TLFamily_MINV      .         Micro Gradient Resistivity    : 
TLFamily_MNOR      .         Micro Resistivity             : 
TLFamily_NGLD      .         Neutron Gamma                 : 
TLFamily_OGZ       .         Gradient Inverted 225         : 
TLFamily_PHIE      .         Effective Porosity            : 
TLFamily_PHIEN     .         Effective Porosity            : 
TLFamily_PHIT      .         Porosity                      : 
TLFamily_PRMB      .         Permeability                  : 
TLFamily_PRMB_DGR  .         Permeability                  : 
TLFamily_RT        .         Formation Resistivity         : 
TLFamily_SOIL_ARCHIE .         Oil Saturation                : 
TLFamily_SOIL_DW   .         Oil Saturation                : 
TLFamily_SP        .         Spontaneous Potential         : 
TLFamily_VSH_FIN   .         Shale Volume                  : 
TLFamily_VSH_GR    .         Shale Volume                  : 
TLFamily_VSH_SP    .         Shale Volume                  : 
~Curve Information
#_______________________________________________________________________________
#
#LOGNAME           .UNIT     LOG_ID                        : DESCRIPTION
#_______________________________________________________________________________
DEPT               .м                                      : Колонка глубины 
CALI               .м                                      : Каверномер 
COLL               .unitless                               : Описание 
CSAT               .unitless                               : Описание 
GR                 .uR/h                                   : Гамма каротаж 
GZ3                .Ohmm                                   : Градиент-зонд  длиной 2.25м 
MINV               .Ohmm                                   : Микро-градиент зонд 
MNOR               .Ohmm                                   : Микро-потенциал зонд 
NGLD               .у.е.                                   : Показания зонда НГК-60 аппаратуры ДРСТ-3-90 
OGZ                .Ohmm                                   : Обращенный градиент-зонд 
PHIE               .v/v                                    : Описание 
PHIEN              .v/v                                    :  
PHIT               .v/v                                    : Описание 
PRMB               .мД                                     :  
PRMB_DGR           .мД                                     :  
RT                 .ohmm                                   : УЭС пласта 
SOIL_ARCHIE        .v/v                                    :  
SOIL_DW            .v/v                                    :  
SP                 .мВ                                     : Потенциал самополяризации 
VSH_FIN            .v/v                                    : Описание 
VSH_GR             .v/v                                    : Shale volume 
VSH_SP             .v/v                                    : Shale Volume 
~Ascii
# ...
1352.6     0.234      -9999      -9999      10.483     0          4.737      1.78       2.19       1.78       0.076544   0.07654379 0.2591     0.1864557  2.290169   2.102      0          0.3137966  101.3      0.486837   0.4687789  0.4868371 
1352.8     0.237      -9999      -9999      10.445     0          4.521      1.729      2.226      1.729      0.076786   0.07678637 0.25514    0.1913097  2.42552    2.102      0          0.3087168  100.671    0.473011   0.460125   0.4730105 
1353       0.239      -9999      -9999      10.712     0          5.131      1.729      2.179      1.729      0.070429   0.07042857 0.26031    0.1429782  1.620267   2.127      0          0.303257   102.244    0.509368   0.5244865  0.509368  
1353.2     0.243      -9999      -9999      11.054     0          3.988      1.805      2.124      1.805      0.069395   0.06939532 0.26636    0.1336423  0.9663835  2.115      0          0.3070799  103.188    0.532499   0.6202464  0.532499  
1353.4     0.246      -9999      -9999      10.813     0          4.077      1.881      2.126      1.881      0.059327   0.05932663 0.26614    0.08705985 1.390931   2.102      0          0.2749027  104.446    0.562283   0.5511154  0.5622832 
1353.6     0.245      -9999      -9999      10.306     0          4.407      1.983      2.107      1.983      0.054093   0.05409316 0.26823    0.06908154 2.992425   2.089      0          0.2587429  105.39     0.585051   0.4298088  0.5850515 
1353.8     0.239      -9999      -9999      10.026     0          4.038      2.034      2.16       2.034      0.037077   0.03707746 0.2624     0.0341985  4.56849    2.077      0          0.1815973  106.648    0.617341   0.3746697  0.6173406 
1354       0.236      -9999      -9999      10.61      0          4.254      2.11       2.283      2.11       0.011161   0.01116051 0.24887    0.01193286 1.890271   2.039      0          0          107.907    0.65115    0.4988995  0.6511504 
1354.2     0.229      -9999      -9999      10.407     0          4.934      2.186      2.407      2.186      0.014578   0.01457767 0.23523    0.01455481 2.568871   2.039      0          0          106.019    0.595704   0.4516308  0.5957038 
1354.4     0.225      -9999      -9999      10.001     0          5.969      2.263      2.369      2.263      0.041231   0.04123052 0.23941    0.0446317  4.744371   2.026      0          0.1472483  103.503    0.528756   0.3701049  0.5287558 
1354.6     0.225      -9999      -9999      9.836      0          6.921      2.339      2.221      2.339      0.076579   0.07657919 0.25569    0.1892228  6.087788   2.013      0          0.2938656  101.3      0.475457   0.3413403  0.4754574 
1354.8     0.227      -9999      -9999      10.001     0          5.905      2.339      2.116      2.339      0.096517   0.09651741 0.26724    0.4234763  4.744371   1.976      0.01238776 0.3511345  100.357    0.45322    0.3701049  0.4532204 
1355       0.228      -9999      -9999      9.709      0          4.127      2.212      2.12       2.212      0.092116   0.09211602 0.2668     0.3515974  7.375706   1.95       0          0.3366051  100.986    0.465103   0.320732   0.4651026 
1355.2     0.229      -9999      -9999      10.128     0          2.527      2.059      2.147      2.059      0.084861   0.08486056 0.26383    0.2610106  3.915932   1.912      0          0.3088637  101.615    0.477271   0.3938853  0.4772707 
1355.4     0.231      -9999      -9999      10.686     0          2.553      1.932      2.065      1.932      0.090589   0.09058943 0.27285    0.3217971  1.68519    1.874      0          0.327904   102.244    0.489729   0.5178423  0.4897288 
1355.6     0.232      -9999      -9999      10.61      0          2.54       1.805      2.016      1.805      0.092262   0.0922616  0.27824    0.3384379  1.890271   1.836      0          0.3318689  102.873    0.50248    0.4988995  0.5024796 
1355.8     0.231      -9999      -9999      10.648     0          2.667      1.678      2.067      1.678      0.079331   0.07933075 0.27263    0.1992574  1.784787   1.811      0          0.2881809  103.817    0.523119   0.5082827  0.5231193 
1356       0.227      -9999      -9999      10.585     0          2.553      1.525      2.079      1.525      0.110577   0.1105769  0.27131    0.759262   1.963044   1.798      0.06200686 0.354322   99.413     0.42407    0.4928211  0.4240696 
1356.2     0.223      -9999      -9999      10.483     0          2.476      1.373      2.071      1.373      0.127694   0.1276937  0.27219    1.570198   2.290169   2.013      0.200063   0.4198683  96.896     0.37511    0.4687789  0.3751099 
1356.4     0.219      8          2          10.851     1          2.896      1.881      2.014      1.881      0.152004   0.1520042  0.27846    4.322021   1.313312   2.849      0.4027762  0.5471659  93.75      0.322169   0.5614806  0.3221687 
1356.6     0.215      8          2          10.864     1          3.569      2.644      2.046      2.644      0.150107   0.1501066  0.27494    4.040784   1.287764   3.786      0.4731693  0.6027266  93.435     0.316283   0.5650713  0.3162831 
1356.8     0.215      8          2          10.331     1          3.873      3.407      2.027      3.407      0.154285   0.1542848  0.27703    4.790006   2.881488   4.521      0.5249162  0.6415062  93.121     0.310531   0.4351102  0.3105307 
1357       0.217      8          2          9.836      1          4.267      4.169      2.09       4.169      0.151495   0.1514946  0.2701     4.368417   6.087788   5.053      0.5441647  0.6540554  92.177     0.296077   0.3413403  0.2960772 
1357.2     0.218      8          2          9.887      1          2.845      4.144      2.181      4.144      0.14509    0.1450897  0.26009    3.455767   5.636261   5.015      0.5294572  0.6401862  91.233     0.282395   0.3499839  0.2823952 
1357.4     0.218      8          2          10.382     1          3.581      3.712      2.242      3.712      0.140748   0.1407479  0.25338    2.947293   2.667769   4.61       0.5007553  0.6153392  90.604     0.27337    0.4461283  0.2733702 
1357.6     0.214      8          2          10.623     1          3.035      3.229      2.126      3.229      0.158769   0.1587691  0.26614    6.049709   1.853499   3.786      0.4973701  0.6041064  89.66      0.260942   0.50209    0.2609423 
1357.8     0.211      8          2          10.547     1          3.061      2.797      2.079      2.797      0.171642   0.1716421  0.27131    10.26755   2.079062   3.166      0.4841836  0.5837073  87.773     0.239024   0.4837234  0.2390237 
1358       0.208      8          2          10.762     1          2.527      2.212      2.099      2.212      0.176621   0.1766209  0.26911    12.80534   1.50236    2.533      0.440358   0.5376282  85.57      0.216664   0.5375044  0.2166641 
1358.2     0.205      8          2          10.978     1          3.111      2.364      2.01       2.364      0.193662   0.1936623  0.2789     25.50084   1.083988   2.153      0.4359482  0.5248343  83.368     0.197387   0.5975576  0.1973867 
1358.4     0.205      8          2          10.699     1          4.661      2.542      1.898      2.542      0.199293   0.1992932  0.29122    30.91056   1.652408   2.178      0.4491069  0.5432224  86.2       0.221051   0.5211539  0.2210513 
1358.6     0.205      8          2          10.915     1          3.873      2.746      1.931      2.746      0.186023   0.1860232  0.28759    17.80029   1.192252   2.241      0.426713   0.5345092  89.031     0.249263   0.5793804  0.2492631 
1358.8     0.205      8          2          10.94      1          3.048      2.949      1.989      2.949      0.166739   0.166739   0.28121    8.016424   1.148054   2.153      0.3651614  0.4991666  92.177     0.286609   0.5865264  0.2866092 
1359       0.205      8          2          11.105     1          2.438      3.127      2.042      3.127      0.147411   0.1474113  0.27538    3.595852   0.8947079  2.039      0.285657   0.4555484  95.008     0.325905   0.6359527  0.3259053 
1359.2     0.205      8          2          10.788     1          2.413      3.356      2.052      3.356      0.131281   0.1312812  0.27428    1.81503    1.44448    2.013      0.2156787  0.4277644  97.84      0.371148   0.5444009  0.3711483 
