~Version
 VERS              .         2.0                           : CWLS LOG ASCII STANDARD - VERSION 2.0
 WRAP              .         NO                            : ONE LINE PER DEPTH STEP
 DLM               .         SPACE                         : DELIMITING CHARACTER(SPACE TAB OR COMMA)
~Well Information
#_______________________________________________________________________________
#
#PARAMETER_NAME    .UNIT     VALUE                         : DESCRIPTION
#_______________________________________________________________________________
STRT               .м        900                           : First reference value
STOP               .м        1475.8                        : Last reference value
STEP               .м        0.2                           : Step increment
NULL               .         -9999                         : Missing value
COMP               .                                       : Company
WELL               .         275                           : Well name
FLD                .         УЗЕНЬ                         : Field
LOC                .                                       : Location
CNTY               .                                       : County
STAT               .                                       : State
CTRY               .                                       : Country
SRVC               .                                       : Service Company
DATE               .         26.08.1966                    : Date
UWI                .                                       : Unique Well ID
Block              .         4                             : 
Cartographic_reference_system .         GCS_WGS_1984                  : ESRI,PE_10_3_1- <?xml version="1.0" encoding="utf-16"?><ILateBoundCoordinateReferenceSystem name="GCS_WGS_1984"><AuthorityCode>EPSG,4326</AuthorityCode></ILateBoundCoordinateReferenceSystem>
Category           .         Нагнетательная                : 
Condition          .         Ликвидированная               : 
Date               .         20.05.1967                    : 
EREF               .m        222                           : 100.8
Gorizont           .         17                            : 14
HZCS               .GCS_WGS_1984 WGS_1984_EASE_Grid_Global     : ESRI,PE_10_3_1- <?xml version="1.0" encoding="utf-16"?><ILateBoundCoordinateReferenceSystem name="WGS_1984_EASE_Grid_Global"><AuthorityCode>EPSG,3975</AuthorityCode></ILateBoundCoordinateReferenceSystem>
Interpretator      .         Ткачева И.Г.                  : 
Kupol              .         Основной                      : osnovnoi
LATI               .dega     0.6454540436                  : GCS_WGS_1984
LONG               .dega     0.5622768321                  : GCS_WGS_1984
Mud                .         0                             : 
Mud_density        .         0                             : 
Mud_resistivity    .         0                             : 
NGDU               .         НГДУ-1                        : 
ORIGINALWELLNAME   .         275                           : 
Spud_date          .         1966                          : 1961
Uslovie            .         55                            : 
Viscosity          .         0                             : 
X                  .m        54252                         : 46154
Y                  .m        82341                         : 85761.93
YEAR               .         2018                          : 
~Parameter Information Block
#_______________________________________________________________________________
#
#PARAMETER_NAME    .UNIT     VALUE                         : DESCRIPTION
#_______________________________________________________________________________
SET                .         LQC_KAZNIPI_Petrel            : 
GSDD               .         CSAT                          : CSATкрив,0,DEPT,BOTTOM,,,,0
PBBOTTOM           .м        1396                          : Глубина подошвы планшета
PBSCALE            .         1                             : Вертикальный масштаб планшета
PBTOP              .м        985                           : Глубина кровли планшета
TLFamily_CALI      .         Caliper                       : 
TLFamily_COLL      .         Net Reservoir Flag            : 
TLFamily_CSAT      .         Fluid Code                    : 
TLFamily_DEPT      .         Measured Depth                : 
TLFamily_GR        .         Russian Gamma Ray             : 
TLFamily_GZ3       .         Gradient 225                  : 
TLFamily_MINV      .         Micro Gradient Resistivity    : 
TLFamily_MNOR      .         Micro Resistivity             : 
TLFamily_NGLD      .         Neutron Gamma                 : 
TLFamily_OGZ       .         Gradient Inverted 225         : 
TLFamily_PHIE      .         Effective Porosity            : 
TLFamily_PHIEN     .         Effective Porosity            : 
TLFamily_PHIT      .         Porosity                      : 
TLFamily_PRMB      .         Permeability                  : 
TLFamily_PRMB_DGR  .         Permeability                  : 
TLFamily_RT        .         Formation Resistivity         : 
TLFamily_SOIL_ARCHIE .         Oil Saturation                : 
TLFamily_SOIL_DW   .         Oil Saturation                : 
TLFamily_SP        .         Spontaneous Potential         : 
TLFamily_VSH_FIN   .         Shale Volume                  : 
TLFamily_VSH_GR    .         Shale Volume                  : 
TLFamily_VSH_SP    .         Shale Volume                  : 
~Curve Information
#_______________________________________________________________________________
#
#LOGNAME           .UNIT     LOG_ID                        : DESCRIPTION
#_______________________________________________________________________________
DEPT               .м                                      : Колонка глубины 
CALI               .м                                      : Каверномер 
COLL               .unitless                               : Описание 
CSAT               .unitless                               : Описание 
GR                 .uR/h                                   : Гамма каротаж 
GZ3                .Ohmm                                   : Градиент-зонд  длиной 2.25м 
MINV               .Ohmm                                   : Микро-градиент зонд 
MNOR               .Ohmm                                   : Микро-потенциал зонд 
NGLD               .у.е.                                   : Показания зонда НГК-60 аппаратуры ДРСТ-3-90 
OGZ                .Ohmm                                   : Обращенный градиент-зонд 
PHIE               .v/v                                    : Описание 
PHIEN              .v/v                                    :  
PHIT               .v/v                                    : Описание 
PRMB               .мД                                     :  
PRMB_DGR           .мД                                     :  
RT                 .ohmm                                   : УЭС пласта 
SOIL_ARCHIE        .v/v                                    :  
SOIL_DW            .v/v                                    :  
SP                 .мВ                                     : Потенциал самополяризации 
VSH_FIN            .v/v                                    : Описание 
VSH_GR             .v/v                                    : Shale volume 
VSH_SP             .v/v                                    : Shale Volume 
~Ascii
# ...
1141.8     0.306      -9999      -9999      9.316      0          3.01       2.644      1.612      2.644      0.172036   0.1720359  0.32268    8.555809   3.180962   2.406      0.3654778  0.5386416  107.278    0.4076489  0.4044853  0.4108124 
1142       0.31       -9999      -9999      9.239      0          5.474      2.644      1.711      2.644      0.159881   0.1598806  0.31179    5.314382   3.397187   2.279      0.3135045  0.5041566  107.907    0.4084831  0.393768   0.4231983 
1142.2     0.28       -9999      -9999      8.541      0          12.827     2.644      1.836      2.644      0.157877   0.1578765  0.29804    5.14618    6.166285   2.229      0.3037363  0.4839278  108.221    0.3691016  0.308689   0.4295142 
1142.4     0.282      -9999      -9999      8.783      0          10.541     2.593      1.995      2.593      0.131089   0.131089   0.28055    1.75698    5.014879   2.216      0.2014071  0.4294062  109.165    0.3924575  0.3358725  0.4490426 
1142.6     0.289      -9999      -9999      8.123      0          7.683      2.644      2.175      2.644      0.119778   0.1197781  0.26075    1.171121   8.811899   2.191      0.1503521  0.3845508  109.48     0.3612785  0.2668153  0.4557417 
1142.8     0.296      -9999      -9999      7.551      0          6.477      2.873      2.238      2.873      0.117927   0.1179269  0.25382    1.111684   14.36274   2.102      0.1270923  0.3591107  110.109    0.3439792  0.2185625  0.469396  
1143       0.288      -9999      -9999      7.539      0          5.905      3.127      2.164      3.127      0.124643   0.1246428  0.26196    1.434398   14.51071   2.039      0.1461271  0.3720162  110.738    0.3505371  0.2176497  0.4834245 
1143.2     0.288      -9999      -9999      7.653      0          4.381      3.356      2.02       3.356      0.139284   0.1392835  0.2778     2.518721   13.16447   2.013      0.2032388  0.4104951  111.053    0.3585347  0.2264772  0.4905923 
1143.4     0.302      -9999      -9999      7.869      0          2.54       3.559      1.828      3.559      0.156991   0.1569908  0.29892    4.938545   10.94672   2.013      0.2661209  0.4567204  111.682    0.3746945  0.2441967  0.5051923 
1143.6     0.303      -9999      -9999      7.564      0          4.254      3.814      1.724      3.814      0.171064   0.1710637  0.31036    8.609924   14.20415   2.127      0.3281559  0.4978587  112.311    0.3698676  0.2195556  0.5201796 
1143.8     0.269      -9999      -9999      7.678      0          5.588      4.042      1.684      4.042      0.171857   0.1718567  0.31476    8.755444   12.88636   2.469      0.3746927  0.5382364  112.94     0.3820101  0.2284604  0.5355597 
1144       0.236      -9999      -9999      7.958      0          5.143      4.271      1.669      4.271      0.168494   0.1684945  0.31641    7.53744    10.14546   3.039      0.4234087  0.5819743  113.255    0.3976531  0.2518952  0.543411  
1144.2     0.232      -9999      -9999      8.034      0          6.032      4.475      1.648      4.475      0.167262   0.1672616  0.31872    7.087571   9.50783    3.432      0.45167    0.6071386  113.884    0.4090256  0.2586609  0.5593902 
1144.4     0.246      -9999      -9999      7.742      0          6.794      4.068      1.673      4.068      0.167048   0.1670483  0.31597    7.098701   12.20088   3.419      0.4507884  0.6043612  114.199    0.4005808  0.233617   0.5675446 
1144.6     0.26       -9999      -9999      8.123      0          2.159      3.686      1.637      3.686      0.163153   0.1631532  0.31993    5.920574   8.811899   3.305      0.4304765  0.5968926  114.828    0.4254751  0.2668153  0.5841348 
1144.8     0.275      -9999      -9999      8.262      0          1.397      3.331      1.561      3.331      0.172824   0.1728239  0.32829    8.65787    7.825482   3.09       0.4364963  0.5973412  114.199    0.4238064  0.2800682  0.5675446 
1145       0.276      -9999      -9999      8.909      0          0.698      2.975      1.489      2.975      0.171112   0.1711121  0.33621    7.804913   4.503228   2.887      0.4116188  0.5872833  113.884    0.4551755  0.3509607  0.5593902 
1145.2     0.264      -9999      -9999      9.087      0          0.635      2.568      1.453      2.568      0.173048   0.1730479  0.34017    8.34748    3.86812    2.811      0.4085683  0.5860782  113.57     0.4624004  0.3734379  0.5513629 
1145.4     0.262      -9999      -9999      9.379      0          1.714      2.644      1.396      2.644      0.185656   0.1856556  0.34644    13.94834   3.014328   2.799      0.4386294  0.5997007  110.424    0.4449225  0.4134707  0.4763744 
1145.6     0.265      -9999      -9999      9.443      0          1.27       2.72       1.455      2.72       0.18684    0.1868405  0.33995    15.04522   2.853983   2.925      0.4543332  0.6053228  107.592    0.4198773  0.4228031  0.4169514 
1145.8     0.269      -9999      -9999      9.633      0          6.032      2.797      1.525      2.797      0.170528   0.1705281  0.33225    7.73072    2.426475   3.128      0.4327497  0.6004524  108.536    0.4438541  0.4517682  0.43594   
1146       0.257      -9999      -9999      9.29       0          10.223     2.619      1.57       2.619      0.17137    0.1713703  0.3273     8.168726   3.252388   3.33       0.4524806  0.6102953  109.165    0.4249384  0.4008342  0.4490426 
1146.2     0.251      -9999      -9999      9.544      0          4.508      2.339      1.584      2.339      0.160206   0.1602061  0.32576    5.104558   2.618112   3.533      0.4385459  0.6113957  110.109    0.4536786  0.4379612  0.469396  
1146.4     0.274      -9999      -9999      9.404      0          2.686      2.237      1.69       2.237      0.148615   0.1486149  0.3141     3.257577   2.950647   3.66       0.4172944  0.6001074  110.738    0.450258   0.4170915  0.4834245 
1146.6     0.297      -9999      -9999      9.036      0          2.705      2.415      1.847      2.415      0.111646   0.1116465  0.29683    0.7198339  20.39193   3.634      0.2790245  0.5444992  111.682    0.5051923  0.2183539  0.5051923 
1146.8     0.32       -9999      -9999      8.783      0          2.629      2.593      1.838      2.593      0.107781   0.1077807  0.29782    0.6080804  29.88747   3.508      0.2470084  0.5320376  112.311    0.5201796  0.1933643  0.5201796 
1147       0.313      -9999      -9999      9.024      0          3.251      2.771      1.749      2.771      0.110794   0.1107944  0.30761    0.6657263  20.76506   3.406      0.247529   0.5375396  113.255    0.543411   0.2170987  0.543411  
1147.2     0.296      -9999      -9999      9.125      0          3.873      2.975      1.69       2.975      0.11525    0.1152502  0.3141     0.7850566  17.82594   3.33       0.2589313  0.5434383  113.57     0.5513629  0.2278921  0.5513629 
1147.4     0.278      -9999      -9999      9.227      0          4.445      3.127      1.758      3.127      0.10709    0.1070902  0.30662    0.5706281  15.2797    3.305      0.217591   0.5246173  113.57     0.5513629  0.2393372  0.5513629 
1147.6     0.26       -9999      -9999      9.709      0          2.324      3.331      1.853      3.331      0.093041   0.09304121 0.29617    0.3263831  7.375706   3.482      0.1590101  0.5071135  113.884    0.5593902  0.3016976  0.5593902 
1147.8     0.245      -9999      -9999      10.141     0          2.68       3.508      1.859      3.508      0.092321   0.09232122 0.29551    0.317324   3.839761   3.685      0.1768349  0.5191765  113.884    0.5593902  0.3712804  0.5593902 
1148       0.255      -9999      -9999      10.014     0          3.073      3.534      1.798      3.534      0.099641   0.09964122 0.30222    0.4224627  4.652086   3.964      0.2442208  0.5525624  113.884    0.5593902  0.3493056  0.5593902 
1148.2     0.264      -9999      -9999      10.014     0          2.743      3.229      1.796      3.229      0.09719    0.09719029 0.30244    0.3802076  4.652086   3.698      0.2046068  0.5334176  114.199    0.5675446  0.3493056  0.5675446 
1148.4     0.275      -9999      -9999      10.496     0          3.149      2.924      1.805      2.924      0.09611    0.09611029 0.30145    0.3644883  2.245618   3.242      0.1475516  0.4990871  114.199    0.5675446  0.440319   0.5675446 
