~Version
 VERS              .         2.0                           : CWLS LOG ASCII STANDARD - VERSION 2.0
 WRAP              .         NO                            : ONE LINE PER DEPTH STEP
 DLM               .         SPACE                         : DELIMITING CHARACTER(SPACE TAB OR COMMA)
~Well Information
#_______________________________________________________________________________
#
#PARAMETER_NAME    .UNIT     VALUE                         : DESCRIPTION
#_______________________________________________________________________________
STRT               .м        900                           : First reference value
STOP               .м        1475.8                        : Last reference value
STEP               .м        0.2                           : Step increment
NULL               .         -9999                         : Missing value
COMP               .                                       : Company
WELL               .         275                           : Well name
FLD                .         УЗЕНЬ                         : Field
LOC                .                                       : Location
CNTY               .                                       : County
STAT               .                                       : State
CTRY               .                                       : Country
SRVC               .                                       : Service Company
DATE               .         26.08.1966                    : Date
UWI                .                                       : Unique Well ID
Block              .         4                             : 
Cartographic_reference_system .         GCS_WGS_1984                  : ESRI,PE_10_3_1- <?xml version="1.0" encoding="utf-16"?><ILateBoundCoordinateReferenceSystem name="GCS_WGS_1984"><AuthorityCode>EPSG,4326</AuthorityCode></ILateBoundCoordinateReferenceSystem>
Category           .         Нагнетательная                : 
Condition          .         Ликвидированная               : 
Date               .         20.05.1967                    : 
EREF               .m        222                           : 100.8
Gorizont           .         17                            : 14
HZCS               .GCS_WGS_1984 WGS_1984_EASE_Grid_Global     : ESRI,PE_10_3_1- <?xml version="1.0" encoding="utf-16"?><ILateBoundCoordinateReferenceSystem name="WGS_1984_EASE_Grid_Global"><AuthorityCode>EPSG,3975</AuthorityCode></ILateBoundCoordinateReferenceSystem>
Interpretator      .         Ткачева И.Г.                  : 
Kupol              .         Основной                      : osnovnoi
LATI               .dega     0.6454540436                  : GCS_WGS_1984
LONG               .dega     0.5622768321                  : GCS_WGS_1984
Mud                .         0                             : 
Mud_density        .         0                             : 
Mud_resistivity    .         0                             : 
NGDU               .         НГДУ-1                        : 
ORIGINALWELLNAME   .         275                           : 
Spud_date          .         1966                          : 1961
Uslovie            .         55                            : 
Viscosity          .         0                             : 
X                  .m        54252                         : 46154
Y                  .m        82341                         : 85761.93
YEAR               .         2018                          : 
~Parameter Information Block
#_______________________________________________________________________________
#
#PARAMETER_NAME    .UNIT     VALUE                         : DESCRIPTION
#_______________________________________________________________________________
SET                .         LQC_KAZNIPI_Petrel            : 
GSDD               .         CSAT                          : CSATкрив,0,DEPT,BOTTOM,,,,0
PBBOTTOM           .м        1396                          : Глубина подошвы планшета
PBSCALE            .         1                             : Вертикальный масштаб планшета
PBTOP              .м        985                           : Глубина кровли планшета
TLFamily_CALI      .         Caliper                       : 
TLFamily_COLL      .         Net Reservoir Flag            : 
TLFamily_CSAT      .         Fluid Code                    : 
TLFamily_DEPT      .         Measured Depth                : 
TLFamily_GR        .         Russian Gamma Ray             : 
TLFamily_GZ3       .         Gradient 225                  : 
TLFamily_MINV      .         Micro Gradient Resistivity    : 
TLFamily_MNOR      .         Micro Resistivity             : 
TLFamily_NGLD      .         Neutron Gamma                 : 
TLFamily_OGZ       .         Gradient Inverted 225         : 
TLFamily_PHIE      .         Effective Porosity            : 
TLFamily_PHIEN     .         Effective Porosity            : 
TLFamily_PHIT      .         Porosity                      : 
TLFamily_PRMB      .         Permeability                  : 
TLFamily_PRMB_DGR  .         Permeability                  : 
TLFamily_RT        .         Formation Resistivity         : 
TLFamily_SOIL_ARCHIE .         Oil Saturation                : 
TLFamily_SOIL_DW   .         Oil Saturation                : 
TLFamily_SP        .         Spontaneous Potential         : 
TLFamily_VSH_FIN   .         Shale Volume                  : 
TLFamily_VSH_GR    .         Shale Volume                  : 
TLFamily_VSH_SP    .         Shale Volume                  : 
~Curve Information
#_______________________________________________________________________________
#
#LOGNAME           .UNIT     LOG_ID                        : DESCRIPTION
#_______________________________________________________________________________
DEPT               .м                                      : Колонка глубины 
CALI               .м                                      : Каверномер 
COLL               .unitless                               : Описание 
CSAT               .unitless                               : Описание 
GR                 .uR/h                                   : Гамма каротаж 
GZ3                .Ohmm                                   : Градиент-зонд  длиной 2.25м 
MINV               .Ohmm                                   : Микро-градиент зонд 
MNOR               .Ohmm                                   : Микро-потенциал зонд 
NGLD               .у.е.                                   : Показания зонда НГК-60 аппаратуры ДРСТ-3-90 
OGZ                .Ohmm                                   : Обращенный градиент-зонд 
PHIE               .v/v                                    : Описание 
PHIEN              .v/v                                    :  
PHIT               .v/v                                    : Описание 
PRMB               .мД                                     :  
PRMB_DGR           .мД                                     :  
RT                 .ohmm                                   : УЭС пласта 
SOIL_ARCHIE        .v/v                                    :  
SOIL_DW            .v/v                                    :  
SP                 .мВ                                     : Потенциал самополяризации 
VSH_FIN            .v/v                                    : Описание 
VSH_GR             .v/v                                    : Shale volume 
VSH_SP             .v/v                                    : Shale Volume 
~Ascii
# ...
1420.6     0.208      1          3          8.034      1          2.235      1.017      2.589      1.017      0.153156   0.1531563  0.21521    5.801362   92.68703   0.81       0          0.04675427 51.594     0.1200985  0.123097   0.1171    
1420.8     0.208      1          3          8.478      1          3.48       1.042      2.662      1.042      0.139083   0.139083   0.20718    3.283818   47.38548   0.836      0          0.008535181 51.594     0.1340579  0.1509831  0.1171328 
1421       0.206      1          3          8.668      1          3.772      1.017      2.733      1.017      0.127937   0.1279373  0.19937    2.104191   35.55966   0.836      0          0          50.65      0.1405591  0.1647698  0.1163483 
1421.2     0.206      1          3          8.63       1          2.375      1.042      2.644      1.042      0.139234   0.1392335  0.20916    3.279696   37.66129   0.836      0          0.01380259 50.336     0.1390134  0.1619153  0.1161116 
1421.4     0.206      1          3          9.011      1          1.753      0.992      2.477      0.992      0.152777   0.1527766  0.22753    5.44191    21.17702   0.848      0          0.09403402 50.65      0.1546681  0.1929238  0.1164124 
1421.6     0.206      1          3          8.783      1          2.057      0.941      2.323      0.941      0.17529    0.17529    0.24447    13.31161   29.88747   0.861      0.08971621 0.177478   50.65      0.1450817  0.1737188  0.1164445 
1421.8     0.206      1          3          8.808      1          2.464      0.864      2.281      0.864      0.179864   0.1798643  0.24909    15.89199   28.77951   0.886      0.1179161  0.2048896  50.965     0.1462379  0.1757277  0.1167481 
1422       0.206      1          3          8.757      1          2.248      0.814      2.331      0.814      0.174655   0.1746551  0.24359    13.00023   31.08506   0.924      0.1172373  0.2034234  51.279     0.1443537  0.171654   0.1170534 
1422.2     0.206      1          3          8.783      1          2.032      0.737      2.371      0.737      0.169424   0.1694242  0.23919    10.57965   29.88747   0.962      0.1149349  0.2027213  51.279     0.1454025  0.1737188  0.1170861 
1422.4     0.206      1          3          8.668      1          1.867      0.814      2.316      0.814      0.17785    0.1778502  0.24524    14.80315   35.55966   1.038      0.1751779  0.2562437  51.279     0.1409443  0.1647698  0.1171189 
1422.6     0.206      1          3          8.427      1          2.451      0.89       2.395      0.89       0.171806   0.171806   0.23655    11.83135   51.18156   1.165      0.2004322  0.2751845  51.279     0.1323173  0.1474831  0.1171516 
1422.8     0.206      1          3          8.491      1          2.781      0.966      2.389      0.966      0.171656   0.1716561  0.23721    11.72587   46.46368   1.292      0.2376154  0.3124938  51.279     0.1345365  0.1518885  0.1171844 
1423       0.206      1          3          8.592      1          1.816      1.068      2.372      1.068      0.172255   0.1722549  0.23908    11.9423    39.88711   1.33       0.2493493  0.3260334  51.279     0.1381637  0.1591102  0.1172173 
1423.2     0.206      1          3          8.211      1          1.651      1.144      2.386      1.144      0.175593   0.1755933  0.23754    13.85216   70.93538   1.254      0.2400681  0.308671   50.965     0.1252559  0.1335365  0.1169753 
1423.4     0.206      1          3          8.237      1          2.134      1.22       2.433      1.22       0.169644   0.1696441  0.23237    10.96552   68.20252   1.076      0.1634149  0.2351278  50.965     0.1260753  0.1351428  0.1170078 
1423.6     0.206      1          3          8.262      1          2.832      1.297      2.501      1.297      0.161227   0.1612272  0.22489    7.883559   65.67414   0.95       0.08105794 0.1559865  50.65      0.1267362  0.1367056  0.1167667 
1423.8     0.206      1          3          8.554      1          2.438      1.373      2.473      1.373      0.160755   0.1607546  0.22797    7.634531   42.2445    0.861      0.03424514 0.1186941  50.65      0.1365764  0.1563537  0.1167991 
1424       0.206      1          3          8.402      1          1.968      1.5        2.45       1.5        0.165587   0.1655874  0.2305     9.290465   53.15199   0.886      0.06725703 0.145758   50.65      0.1313143  0.1457971  0.1168315 
1424.2     0.206      1          3          7.97       1          2.045      1.347      2.35       1.347      0.182527   0.1825274  0.2415     18.33518   102.0985   0.95       0.1584317  0.224136   50.65      0.1181953  0.1195266  0.1168639 
1424.4     0.206      1          3          7.831      1          2.349      1.169      2.266      1.169      0.193933   0.1939327  0.25074    28.77268   125.9614   1.038      0.2271077  0.2889808  50.65      0.1145106  0.1121248  0.1168964 
1424.6     0.206      1          3          8.085      1          2.248      0.992      2.276      0.992      0.190115   0.1901149  0.24964    24.55373   85.81248   1.14       0.2491288  0.3146948  51.279     0.1217501  0.1260183  0.1174819 
1424.8     0.206      1          3          8.046      1          2.121      0.814      2.279      0.814      0.189971   0.1899711  0.24931    24.43488   91.0216    1.216      0.2711892  0.335806   52.538     0.121227   0.1237782  0.1186759 
1425       0.206      1          3          7.881      1          2.07       0.737      2.24       0.737      0.196337   0.196337   0.2536     31.5281    116.7952   1.241      0.2953234  0.3566446  52.223     0.1165727  0.114733   0.1184124 
1425.2     0.206      1          3          7.97       1          2.413      0.763      2.213      0.763      0.198754   0.1987544  0.25657    34.55205   102.0985   1.178      0.2840013  0.3467751  51.909     0.1188405  0.1195266  0.1181545 
1425.4     0.206      1          3          7.666      1          2.057      0.763      2.16       0.763      0.207878   0.2078777  0.2624     49.84742   161.6287   1.102      0.2853927  0.3441437  51.909     0.1110601  0.1039312  0.1181891 
1425.6     0.206      1          3          7.26       1          1.524      0.788      2.16       0.788      0.210894   0.2108939  0.2624     56.69037   298.5074   1.026      0.2693802  0.3241594  51.594     0.1020816  0.08622923 0.1179339 
1425.8     0.206      1          3          7.171      1          2.451      0.814      2.158      0.814      0.21178    0.2117799  0.26262    58.82322   341.477    0.95       0.2449603  0.2991189  50.965     0.1000866  0.08277101 0.1174022 
1426       0.206      1          3          7.59       1          1.753      0.864      2.219      0.864      0.201537   0.2015369  0.25591    39.00529   181.2981   0.95       0.2167235  0.2756007  50.965     0.1088983  0.1003613  0.1174354 
1426.2     0.206      1          3          7.97       1          2.159      0.941      2.204      0.941      0.199993   0.1999935  0.25756    36.28758   102.0985   0.937      0.2064084  0.270812   50.65      0.1183584  0.1195266  0.1171903 
1426.4     0.206      1          3          8.25       1          1.841      1.017      2.217      1.017      0.19542    0.1954202  0.25613    30.02314   66.87589   0.937      0.1923124  0.2620427  50.336     0.1264509  0.1359532  0.1169485 
1426.6     0.206      1          3          8.288      1          2.299      0.992      2.151      0.992      0.202923   0.2029234  0.26339    40.19839   63.14401   0.937      0.2138042  0.2833256  50.021     0.127529   0.1383501  0.1167079 
1426.8     0.206      1          3          8.453      1          1.867      0.915      2.105      0.915      0.206372   0.2063716  0.26845    45.66224   49.20973   0.937      0.222809   0.2950545  49.706     0.132863   0.1492572  0.1164688 
1427       0.206      1          3          8.338      1          2.261      0.864      2.168      0.864      0.200256   0.2002555  0.26152    36.1361    58.54902   0.912      0.1959639  0.2670772  50.021     0.1291704  0.1415683  0.1167725 
1427.2     0.206      1          3          7.97       1          1.968      0.814      2.247      0.814      0.194852   0.1948519  0.25283    29.68158   102.0985   0.886      0.1699277  0.2351181  50.336     0.1183028  0.1195266  0.117079  
