~Version
 VERS              .         2.0                           : CWLS LOG ASCII STANDARD - VERSION 2.0
 WRAP              .         NO                            : ONE LINE PER DEPTH STEP
 DLM               .         SPACE                         : DELIMITING CHARACTER(SPACE TAB OR COMMA)
~Well Information
#_______________________________________________________________________________
#
#PARAMETER_NAME    .UNIT     VALUE                         : DESCRIPTION
#_______________________________________________________________________________
STRT               .м        900                           : First reference value
STOP               .м        1475.8                        : Last reference value
STEP               .м        0.2                           : Step increment
NULL               .         -9999                         : Missing value
COMP               .                                       : Company
WELL               .         275                           : Well name
FLD                .         УЗЕНЬ                         : Field
LOC                .                                       : Location
CNTY               .                                       : County
STAT               .                                       : State
CTRY               .                                       : Country
SRVC               .                                       : Service Company
DATE               .         26.08.1966                    : Date
UWI                .                                       : Unique Well ID
Block              .         4                             : 
Cartographic_reference_system .         GCS_WGS_1984                  : ESRI,PE_10_3_1- <?xml version="1.0" encoding="utf-16"?><ILateBoundCoordinateReferenceSystem name="GCS_WGS_1984"><AuthorityCode>EPSG,4326</AuthorityCode></ILateBoundCoordinateReferenceSystem>
Category           .         Нагнетательная                : 
Condition          .         Ликвидированная               : 
Date               .         20.05.1967                    : 
EREF               .m        222                           : 100.8
Gorizont           .         17                            : 14
HZCS               .GCS_WGS_1984 WGS_1984_EASE_Grid_Global     : ESRI,PE_10_3_1- <?xml version="1.0" encoding="utf-16"?><ILateBoundCoordinateReferenceSystem name="WGS_1984_EASE_Grid_Global"><AuthorityCode>EPSG,3975</AuthorityCode></ILateBoundCoordinateReferenceSystem>
Interpretator      .         Ткачева И.Г.                  : 
Kupol              .         Основной                      : osnovnoi
LATI               .dega     0.6454540436                  : GCS_WGS_1984
LONG               .dega     0.5622768321                  : GCS_WGS_1984
Mud                .         0                             : 
Mud_density        .         0                             : 
Mud_resistivity    .         0                             : 
NGDU               .         НГДУ-1                        : 
ORIGINALWELLNAME   .         275                           : 
Spud_date          .         1966                          : 1961
Uslovie            .         55                            : 
Viscosity          .         0                             : 
X                  .m        54252                         : 46154
Y                  .m        82341                         : 85761.93
YEAR               .         2018                          : 
~Parameter Information Block
#_______________________________________________________________________________
#
#PARAMETER_NAME    .UNIT     VALUE                         : DESCRIPTION
#_______________________________________________________________________________
SET                .         LQC_KAZNIPI_Petrel            : 
GSDD               .         CSAT                          : CSATкрив,0,DEPT,BOTTOM,,,,0
PBBOTTOM           .м        1396                          : Глубина подошвы планшета
PBSCALE            .         1                             : Вертикальный масштаб планшета
PBTOP              .м        985                           : Глубина кровли планшета
TLFamily_CALI      .         Caliper                       : 
TLFamily_COLL      .         Net Reservoir Flag            : 
TLFamily_CSAT      .         Fluid Code                    : 
TLFamily_DEPT      .         Measured Depth                : 
TLFamily_GR        .         Russian Gamma Ray             : 
TLFamily_GZ3       .         Gradient 225                  : 
TLFamily_MINV      .         Micro Gradient Resistivity    : 
TLFamily_MNOR      .         Micro Resistivity             : 
TLFamily_NGLD      .         Neutron Gamma                 : 
TLFamily_OGZ       .         Gradient Inverted 225         : 
TLFamily_PHIE      .         Effective Porosity            : 
TLFamily_PHIEN     .         Effective Porosity            : 
TLFamily_PHIT      .         Porosity                      : 
TLFamily_PRMB      .         Permeability                  : 
TLFamily_PRMB_DGR  .         Permeability                  : 
TLFamily_RT        .         Formation Resistivity         : 
TLFamily_SOIL_ARCHIE .         Oil Saturation                : 
TLFamily_SOIL_DW   .         Oil Saturation                : 
TLFamily_SP        .         Spontaneous Potential         : 
TLFamily_VSH_FIN   .         Shale Volume                  : 
TLFamily_VSH_GR    .         Shale Volume                  : 
TLFamily_VSH_SP    .         Shale Volume                  : 
~Curve Information
#_______________________________________________________________________________
#
#LOGNAME           .UNIT     LOG_ID                        : DESCRIPTION
#_______________________________________________________________________________
DEPT               .м                                      : Колонка глубины 
CALI               .м                                      : Каверномер 
COLL               .unitless                               : Описание 
CSAT               .unitless                               : Описание 
GR                 .uR/h                                   : Гамма каротаж 
GZ3                .Ohmm                                   : Градиент-зонд  длиной 2.25м 
MINV               .Ohmm                                   : Микро-градиент зонд 
MNOR               .Ohmm                                   : Микро-потенциал зонд 
NGLD               .у.е.                                   : Показания зонда НГК-60 аппаратуры ДРСТ-3-90 
OGZ                .Ohmm                                   : Обращенный градиент-зонд 
PHIE               .v/v                                    : Описание 
PHIEN              .v/v                                    :  
PHIT               .v/v                                    : Описание 
PRMB               .мД                                     :  
PRMB_DGR           .мД                                     :  
RT                 .ohmm                                   : УЭС пласта 
SOIL_ARCHIE        .v/v                                    :  
SOIL_DW            .v/v                                    :  
SP                 .мВ                                     : Потенциал самополяризации 
VSH_FIN            .v/v                                    : Описание 
VSH_GR             .v/v                                    : Shale volume 
VSH_SP             .v/v                                    : Shale Volume 
~Ascii
# ...
933        0.372      -9999      -9999      9.481      0          0.483      3.864      1.273      3.864      -9999      -9999      -9999      -9999      -9999      3.824      -9999      -9999      101.93     -9999      0.2492668  0.3191312 
933.2000000000001 0.368      -9999      -9999      9.772      0          0.673      3.915      1.337      3.915      -9999      -9999      -9999      -9999      -9999      3.888      -9999      -9999      101.93     -9999      0.2982931  0.3191312 
933.4      0.343      -9999      -9999      9.899      0          0.8        3.992      1.341      3.992      -9999      -9999      -9999      -9999      -9999      3.926      -9999      -9999      101.93     -9999      0.3226079  0.3191312 
933.6      0.318      -9999      -9999      10.09      0          0.813      3.915      1.314      3.915      -9999      -9999      -9999      -9999      -9999      3.938      -9999      -9999      101.93     -9999      0.3629585  0.3191312 
933.8      0.299      -9999      -9999      10.204     0          1.003      3.814      1.318      3.814      -9999      -9999      -9999      -9999      -9999      3.926      -9999      -9999      101.93     -9999      0.3894085  0.3191312 
934        0.31       -9999      -9999      10.331     0          1.232      3.737      1.191      3.737      -9999      -9999      -9999      -9999      -9999      3.888      -9999      -9999      101.93     -9999      0.4211504  0.3191312 
934.2000000000001 0.318      -9999      -9999      10.559     0          1.41       3.636      1.248      3.636      -9999      -9999      -9999      -9999      -9999      3.9        -9999      -9999      101.93     -9999      0.4847679  0.3191312 
934.4      0.329      -9999      -9999      10.61      0          0.775      3.534      1.371      3.534      -9999      -9999      -9999      -9999      -9999      3.938      -9999      -9999      101.615    -9999      0.5002651  0.314452  
934.6      0.336      -9999      -9999      10.521     0          0.635      3.559      1.364      3.559      -9999      -9999      -9999      -9999      -9999      4.002      -9999      -9999      101.615    -9999      0.4735339  0.314452  
934.8      0.335      -9999      -9999      10.496     0          0.571      3.61       1.398      3.61       -9999      -9999      -9999      -9999      -9999      4.052      -9999      -9999      101.615    -9999      0.4662856  0.314452  
935        0.326      -9999      -9999      10.801     0          0.66       3.661      1.36       3.661      -9999      -9999      -9999      -9999      -9999      4.116      -9999      -9999      101.615    -9999      0.5628362  0.314452  
935.2000000000001 0.317      -9999      -9999      10.331     0          0.635      3.712      1.305      3.712      -9999      -9999      -9999      -9999      -9999      4.141      -9999      -9999      101.615    -9999      0.4211504  0.314452  
935.4      0.308      -9999      -9999      10.052     0          0.419      3.763      1.341      3.763      -9999      -9999      -9999      -9999      -9999      4.154      -9999      -9999      101.3      -9999      0.3545473  0.309849  
935.6      0.304      -9999      -9999      9.722      0          0.508      3.788      1.356      3.788      -9999      -9999      -9999      -9999      -9999      4.192      -9999      -9999      101.3      -9999      0.2892309  0.309849  
935.8      0.312      -9999      -9999      9.811      0          0.381      3.814      1.273      3.814      -9999      -9999      -9999      -9999      -9999      4.204      -9999      -9999      101.3      -9999      0.3055581  0.309849  
936        0.318      -9999      -9999      9.963      0          0.444      3.763      1.314      3.763      -9999      -9999      -9999      -9999      -9999      4.192      -9999      -9999      101.3      -9999      0.3356024  0.309849  
936.2000000000001 0.324      -9999      -9999      9.506      0          0.47       3.712      1.343      3.712      -9999      -9999      -9999      -9999      -9999      4.154      -9999      -9999      101.3      -9999      0.2531416  0.309849  
936.4      0.318      -9999      -9999      9.1        0          0.61       3.636      1.223      3.636      -9999      -9999      -9999      -9999      -9999      4.103      -9999      -9999      101.615    -9999      0.1970465  0.314452  
936.6      0.313      -9999      -9999      9.265      0          0.838      3.585      1.248      3.585      -9999      -9999      -9999      -9999      -9999      4.04       -9999      -9999      101.615    -9999      0.2181641  0.314452  
936.8      0.31       -9999      -9999      9.303      0          1.029      3.534      1.218      3.534      -9999      -9999      -9999      -9999      -9999      4.002      -9999      -9999      101.615    -9999      0.2233398  0.314452  
937        0.321      -9999      -9999      9.417      0          0.8        3.483      1.138      3.483      -9999      -9999      -9999      -9999      -9999      3.951      -9999      -9999      101.615    -9999      0.2396152  0.314452  
937.2000000000001 0.334      -9999      -9999      9.366      0          0.813      3.432      1.144      3.432      -9999      -9999      -9999      -9999      -9999      3.913      -9999      -9999      101.93     -9999      0.2321925  0.3191312 
937.4      0.345      -9999      -9999      9.468      0          0.838      3.381      1.195      3.381      -9999      -9999      -9999      -9999      -9999      3.913      -9999      -9999      101.93     -9999      0.2472754  0.3191312 
937.6      0.357      -9999      -9999      9.569      0          0.902      3.432      1.242      3.432      -9999      -9999      -9999      -9999      -9999      3.964      -9999      -9999      102.244    -9999      0.2631756  0.3238719 
937.8      0.354      -9999      -9999      9.443      0          0.952      3.483      1.206      3.483      -9999      -9999      -9999      -9999      -9999      4.065      -9999      -9999      102.244    -9999      0.2434902  0.3238719 
938        0.352      -9999      -9999      9.531      0          1.029      3.508      1.25       3.508      -9999      -9999      -9999      -9999      -9999      4.128      -9999      -9999      102.244    -9999      0.2570767  0.3238719 
938.2000000000001 0.354      -9999      -9999      9.76       0          1.194      3.483      1.322      3.483      -9999      -9999      -9999      -9999      -9999      4.179      -9999      -9999      102.244    -9999      0.2960926  0.3238719 
938.4      0.358      -9999      -9999      9.595      0          0.978      3.432      1.352      3.432      -9999      -9999      -9999      -9999      -9999      4.166      -9999      -9999      102.244    -9999      0.2674316  0.3238719 
938.6      0.364      -9999      -9999      9.595      0          0.864      3.356      1.356      3.356      -9999      -9999      -9999      -9999      -9999      4.103      -9999      -9999      102.559    -9999      0.2674316  0.3287047 
938.8      0.312      -9999      -9999      9.608      0          1.257      3.305      1.309      3.305      -9999      -9999      -9999      -9999      -9999      4.002      -9999      -9999      102.559    -9999      0.2695853  0.3287047 
939        0.315      -9999      -9999      9.544      0          1.245      3.254      1.307      3.254      -9999      -9999      -9999      -9999      -9999      3.989      -9999      -9999      102.873    -9999      0.259147   0.3336    
939.2000000000001 0.317      -9999      -9999      9.417      0          1.333      3.229      1.303      3.229      -9999      -9999      -9999      -9999      -9999      3.989      -9999      -9999      102.873    -9999      0.2396152  0.3336    
939.4      0.32       -9999      -9999      8.808      0          1.308      3.28       1.333      3.28       -9999      -9999      -9999      -9999      -9999      4.014      -9999      -9999      102.873    -9999      0.1645591  0.3336    
