~Version
 VERS              .         2.0                           : CWLS LOG ASCII STANDARD - VERSION 2.0
 WRAP              .         NO                            : ONE LINE PER DEPTH STEP
 DLM               .         SPACE                         : DELIMITING CHARACTER(SPACE TAB OR COMMA)
~Well Information
#_______________________________________________________________________________
#
#PARAMETER_NAME    .UNIT     VALUE                         : DESCRIPTION
#_______________________________________________________________________________
STRT               .м        900                           : First reference value
STOP               .м        1475.8                        : Last reference value
STEP               .м        0.2                           : Step increment
NULL               .         -9999                         : Missing value
COMP               .                                       : Company
WELL               .         275                           : Well name
FLD                .         УЗЕНЬ                         : Field
LOC                .                                       : Location
CNTY               .                                       : County
STAT               .                                       : State
CTRY               .                                       : Country
SRVC               .                                       : Service Company
DATE               .         26.08.1966                    : Date
UWI                .                                       : Unique Well ID
Block              .         4                             : 
Cartographic_reference_system .         GCS_WGS_1984                  : ESRI,PE_10_3_1- <?xml version="1.0" encoding="utf-16"?><ILateBoundCoordinateReferenceSystem name="GCS_WGS_1984"><AuthorityCode>EPSG,4326</AuthorityCode></ILateBoundCoordinateReferenceSystem>
Category           .         Нагнетательная                : 
Condition          .         Ликвидированная               : 
Date               .         20.05.1967                    : 
EREF               .m        222                           : 100.8
Gorizont           .         17                            : 14
HZCS               .GCS_WGS_1984 WGS_1984_EASE_Grid_Global     : ESRI,PE_10_3_1- <?xml version="1.0" encoding="utf-16"?><ILateBoundCoordinateReferenceSystem name="WGS_1984_EASE_Grid_Global"><AuthorityCode>EPSG,3975</AuthorityCode></ILateBoundCoordinateReferenceSystem>
Interpretator      .         Ткачева И.Г.                  : 
Kupol              .         Основной                      : osnovnoi
LATI               .dega     0.6454540436                  : GCS_WGS_1984
LONG               .dega     0.5622768321                  : GCS_WGS_1984
Mud                .         0                             : 
Mud_density        .         0                             : 
Mud_resistivity    .         0                             : 
NGDU               .         НГДУ-1                        : 
ORIGINALWELLNAME   .         275                           : 
Spud_date          .         1966                          : 1961
Uslovie            .         55                            : 
Viscosity          .         0                             : 
X                  .m        54252                         : 46154
Y                  .m        82341                         : 85761.93
YEAR               .         2018                          : 
~Parameter Information Block
#_______________________________________________________________________________
#
#PARAMETER_NAME    .UNIT     VALUE                         : DESCRIPTION
#_______________________________________________________________________________
SET                .         LQC_KAZNIPI_Petrel            : 
GSDD               .         CSAT                          : CSATкрив,0,DEPT,BOTTOM,,,,0
PBBOTTOM           .м        1396                          : Глубина подошвы планшета
PBSCALE            .         1                             : Вертикальный масштаб планшета
PBTOP              .м        985                           : Глубина кровли планшета
TLFamily_CALI      .         Caliper                       : 
TLFamily_COLL      .         Net Reservoir Flag            : 
TLFamily_CSAT      .         Fluid Code                    : 
TLFamily_DEPT      .         Measured Depth                : 
TLFamily_GR        .         Russian Gamma Ray             : 
TLFamily_GZ3       .         Gradient 225                  : 
TLFamily_MINV      .         Micro Gradient Resistivity    : 
TLFamily_MNOR      .         Micro Resistivity             : 
TLFamily_NGLD      .         Neutron Gamma                 : 
TLFamily_OGZ       .         Gradient Inverted 225         : 
TLFamily_PHIE      .         Effective Porosity            : 
TLFamily_PHIEN     .         Effective Porosity            : 
TLFamily_PHIT      .         Porosity                      : 
TLFamily_PRMB      .         Permeability                  : 
TLFamily_PRMB_DGR  .         Permeability                  : 
TLFamily_RT        .         Formation Resistivity         : 
TLFamily_SOIL_ARCHIE .         Oil Saturation                : 
TLFamily_SOIL_DW   .         Oil Saturation                : 
TLFamily_SP        .         Spontaneous Potential         : 
TLFamily_VSH_FIN   .         Shale Volume                  : 
TLFamily_VSH_GR    .         Shale Volume                  : 
TLFamily_VSH_SP    .         Shale Volume                  : 
~Curve Information
#_______________________________________________________________________________
#
#LOGNAME           .UNIT     LOG_ID                        : DESCRIPTION
#_______________________________________________________________________________
DEPT               .м                                      : Колонка глубины 
CALI               .м                                      : Каверномер 
COLL               .unitless                               : Описание 
CSAT               .unitless                               : Описание 
GR                 .uR/h                                   : Гамма каротаж 
GZ3                .Ohmm                                   : Градиент-зонд  длиной 2.25м 
MINV               .Ohmm                                   : Микро-градиент зонд 
MNOR               .Ohmm                                   : Микро-потенциал зонд 
NGLD               .у.е.                                   : Показания зонда НГК-60 аппаратуры ДРСТ-3-90 
OGZ                .Ohmm                                   : Обращенный градиент-зонд 
PHIE               .v/v                                    : Описание 
PHIEN              .v/v                                    :  
PHIT               .v/v                                    : Описание 
PRMB               .мД                                     :  
PRMB_DGR           .мД                                     :  
RT                 .ohmm                                   : УЭС пласта 
SOIL_ARCHIE        .v/v                                    :  
SOIL_DW            .v/v                                    :  
SP                 .мВ                                     : Потенциал самополяризации 
VSH_FIN            .v/v                                    : Описание 
VSH_GR             .v/v                                    : Shale volume 
VSH_SP             .v/v                                    : Shale Volume 
~Ascii
# ...
1454.6     0.218      1          3          2.966      0          4.255      1.907      -9999      1.907      -9999      -9999      -9999      -9999      -9999      1.507      -9999      -9999      83.997     0.270675   0.02       0.2706749 
1454.8     0.219      1          3          1.664      0          3.238      2.237      -9999      2.237      -9999      -9999      -9999      -9999      -9999      1.089      -9999      -9999      82.11      0.24856    0.02       0.2485602 
1455       0.219      1          3          2.705      0          4.508      2.593      -9999      2.593      -9999      -9999      -9999      -9999      -9999      1.013      -9999      -9999      86.514     0.304065   0.02       0.3040647 
1455.2     0.22       1          3          2.197      0          4.165      2.949      -9999      2.949      -9999      -9999      -9999      -9999      -9999      0.937      -9999      -9999      90.289     0.363167   0.02       0.3631669 
1455.4     0.22       -9999      -9999      2.134      0          3.657      3.28       -9999      3.28       -9999      -9999      -9999      -9999      -9999      0.912      -9999      -9999      94.379     0.440599   0.02       0.4405991 
1455.6     0.219      -9999      -9999      2.019      0          3.2        3.28       -9999      3.28       -9999      -9999      -9999      -9999      -9999      1.076      -9999      -9999      98.154     0.525652   0.02       0.5256523 
1455.8     0.219      -9999      -9999      1.702      0          2.883      2.949      -9999      2.949      -9999      -9999      -9999      -9999      -9999      1.241      -9999      -9999      102.244    0.633876   0.02       0.6338763 
1456       0.219      -9999      -9999      1.841      0          2.959      2.619      -9999      2.619      -9999      -9999      -9999      -9999      -9999      1.38       -9999      -9999      102.559    0.642945   0.02       0.6429446 
1456.2     0.219      -9999      -9999      1.93       0          3.289      2.314      -9999      2.314      -9999      -9999      -9999      -9999      -9999      1.558      -9999      -9999      97.525     0.510525   0.02       0.5105247 
1456.4     0.218      -9999      -9999      1.841      0          3.2        1.983      -9999      1.983      -9999      -9999      -9999      -9999      -9999      1.748      -9999      -9999      92.177     0.397096   0.02       0.3970961 
1456.6     0.218      1          3          1.93       0          2.896      1.653      -9999      1.653      -9999      -9999      -9999      -9999      -9999      1.925      -9999      -9999      87.773     0.32253    0.02       0.3225303 
1456.8     0.217      1          3          1.664      0          2.997      1.322      -9999      1.322      -9999      -9999      -9999      -9999      -9999      2.102      -9999      -9999      84.627     0.278604   0.02       0.2786044 
1457       0.217      1          3          1.867      0          3.403      0.966      -9999      0.966      -9999      -9999      -9999      -9999      -9999      2.127      -9999      -9999      80.852     0.235127   0.02       0.2351272 
1457.2     0.215      1          3          1.854      0          3.353      1.042      -9999      1.042      -9999      -9999      -9999      -9999      -9999      1.862      -9999      -9999      77.391     0.203199   0.02       0.2031985 
1457.4     0.215      1          3          1.918      0          3.543      1.119      -9999      1.119      -9999      -9999      -9999      -9999      -9999      1.684      -9999      -9999      73.616     0.175965   0.02       0.1759646 
1457.6     0.215      1          3          1.664      0          2.819      1.195      -9999      1.195      -9999      -9999      -9999      -9999      -9999      1.444      -9999      -9999      70.155     0.157012   0.02       0.157012  
1457.8     0.215      1          3          1.486      0          2.489      1.297      -9999      1.297      -9999      -9999      -9999      -9999      -9999      1.241      -9999      -9999      66.38      0.141842   0.02       0.1418416 
1458       0.215      1          3          1.397      0          2.426      1.373      -9999      1.373      -9999      -9999      -9999      -9999      -9999      1.127      -9999      -9999      62.919     0.132033   0.02       0.1320329 
1458.2     0.214      1          3          1.422      0          2.476      1.449      -9999      1.449      -9999      -9999      -9999      -9999      -9999      1.038      -9999      -9999      59.459     0.125245   0.02       0.1252445 
1458.4     0.214      1          3          1.524      0          2.273      1.525      -9999      1.525      -9999      -9999      -9999      -9999      -9999      1.026      -9999      -9999      59.459     0.125245   0.02       0.1252445 
1458.6     0.214      1          3          1.93       0          3.022      1.475      -9999      1.475      -9999      -9999      -9999      -9999      -9999      1.051      -9999      -9999      60.717     0.127419   0.02       0.1274189 
1458.8     0.214      1          3          1.905      0          2.934      1.347      -9999      1.347      -9999      -9999      -9999      -9999      -9999      1.102      -9999      -9999      61.976     0.12992    0.02       0.1299205 
1459       0.214      1          3          1.549      0          2.197      1.22       -9999      1.22       -9999      -9999      -9999      -9999      -9999      1.152      -9999      -9999      63.234     0.132788   0.02       0.1327876 
1459.2     0.214      1          3          1.181      0          1.88       1.093      -9999      1.093      -9999      -9999      -9999      -9999      -9999      1.216      -9999      -9999      64.178     0.135206   0.02       0.1352055 
1459.4     0.213      1          3          1.257      0          1.994      0.966      -9999      0.966      -9999      -9999      -9999      -9999      -9999      1.241      -9999      -9999      65.751     0.139795   0.02       0.139795  
1459.6     0.213      1          3          1.702      0          2.527      0.839      -9999      0.839      -9999      -9999      -9999      -9999      -9999      1.216      -9999      -9999      65.122     0.137872   0.02       0.1378718 
1459.8     0.213      1          3          1.791      0          2.946      0.712      -9999      0.712      -9999      -9999      -9999      -9999      -9999      1.165      -9999      -9999      63.863     0.134372   0.02       0.134372  
1460       0.213      1          3          1.638      0          2.73       0.763      -9999      0.763      -9999      -9999      -9999      -9999      -9999      1.089      -9999      -9999      62.605     0.131305   0.02       0.1313055 
1460.2     0.213      1          3          1.524      0          2.502      0.814      -9999      0.814      -9999      -9999      -9999      -9999      -9999      1.013      -9999      -9999      61.346     0.128625   0.02       0.1286254 
1460.4     0.213      1          3          1.524      0          2.464      0.864      -9999      0.864      -9999      -9999      -9999      -9999      -9999      0.95       -9999      -9999      59.773     0.125759   0.02       0.1257591 
1460.6     0.213      1          3          1.6        0          2.553      0.915      -9999      0.915      -9999      -9999      -9999      -9999      -9999      0.899      -9999      -9999      58.515     0.123801   0.02       0.123801  
1460.8     0.214      1          3          1.6        0          2.718      0.839      -9999      0.839      -9999      -9999      -9999      -9999      -9999      0.848      -9999      -9999      57.257     0.122094   0.02       0.1220944 
1461       0.214      1          3          1.638      0          2.946      0.788      -9999      0.788      -9999      -9999      -9999      -9999      -9999      0.823      -9999      -9999      60.717     0.127419   0.02       0.1274189 
1461.2     0.214      1          3          1.689      0          2.705      0.712      -9999      0.712      -9999      -9999      -9999      -9999      -9999      0.81       -9999      -9999      62.29      0.1306     0.02       0.1306001 
