~Version
 VERS              .         2.0                           : CWLS LOG ASCII STANDARD - VERSION 2.0
 WRAP              .         NO                            : ONE LINE PER DEPTH STEP
 DLM               .         SPACE                         : DELIMITING CHARACTER(SPACE TAB OR COMMA)
~Well Information
#_______________________________________________________________________________
#
#PARAMETER_NAME    .UNIT     VALUE                         : DESCRIPTION
#_______________________________________________________________________________
STRT               .м        900                           : First reference value
STOP               .м        1475.8                        : Last reference value
STEP               .м        0.2                           : Step increment
NULL               .         -9999                         : Missing value
COMP               .                                       : Company
WELL               .         275                           : Well name
FLD                .         УЗЕНЬ                         : Field
LOC                .                                       : Location
CNTY               .                                       : County
STAT               .                                       : State
CTRY               .                                       : Country
SRVC               .                                       : Service Company
DATE               .         26.08.1966                    : Date
UWI                .                                       : Unique Well ID
Block              .         4                             : 
Cartographic_reference_system .         GCS_WGS_1984                  : ESRI,PE_10_3_1- <?xml version="1.0" encoding="utf-16"?><ILateBoundCoordinateReferenceSystem name="GCS_WGS_1984"><AuthorityCode>EPSG,4326</AuthorityCode></ILateBoundCoordinateReferenceSystem>
Category           .         Нагнетательная                : 
Condition          .         Ликвидированная               : 
Date               .         20.05.1967                    : 
EREF               .m        222                           : 100.8
Gorizont           .         17                            : 14
HZCS               .GCS_WGS_1984 WGS_1984_EASE_Grid_Global     : ESRI,PE_10_3_1- <?xml version="1.0" encoding="utf-16"?><ILateBoundCoordinateReferenceSystem name="WGS_1984_EASE_Grid_Global"><AuthorityCode>EPSG,3975</AuthorityCode></ILateBoundCoordinateReferenceSystem>
Interpretator      .         Ткачева И.Г.                  : 
Kupol              .         Основной                      : osnovnoi
LATI               .dega     0.6454540436                  : GCS_WGS_1984
LONG               .dega     0.5622768321                  : GCS_WGS_1984
Mud                .         0                             : 
Mud_density        .         0                             : 
Mud_resistivity    .         0                             : 
NGDU               .         НГДУ-1                        : 
ORIGINALWELLNAME   .         275                           : 
Spud_date          .         1966                          : 1961
Uslovie            .         55                            : 
Viscosity          .         0                             : 
X                  .m        54252                         : 46154
Y                  .m        82341                         : 85761.93
YEAR               .         2018                          : 
~Parameter Information Block
#_______________________________________________________________________________
#
#PARAMETER_NAME    .UNIT     VALUE                         : DESCRIPTION
#_______________________________________________________________________________
SET                .         LQC_KAZNIPI_Petrel            : 
GSDD               .         CSAT                          : CSATкрив,0,DEPT,BOTTOM,,,,0
PBBOTTOM           .м        1396                          : Глубина подошвы планшета
PBSCALE            .         1                             : Вертикальный масштаб планшета
PBTOP              .м        985                           : Глубина кровли планшета
TLFamily_CALI      .         Caliper                       : 
TLFamily_COLL      .         Net Reservoir Flag            : 
TLFamily_CSAT      .         Fluid Code                    : 
TLFamily_DEPT      .         Measured Depth                : 
TLFamily_GR        .         Russian Gamma Ray             : 
TLFamily_GZ3       .         Gradient 225                  : 
TLFamily_MINV      .         Micro Gradient Resistivity    : 
TLFamily_MNOR      .         Micro Resistivity             : 
TLFamily_NGLD      .         Neutron Gamma                 : 
TLFamily_OGZ       .         Gradient Inverted 225         : 
TLFamily_PHIE      .         Effective Porosity            : 
TLFamily_PHIEN     .         Effective Porosity            : 
TLFamily_PHIT      .         Porosity                      : 
TLFamily_PRMB      .         Permeability                  : 
TLFamily_PRMB_DGR  .         Permeability                  : 
TLFamily_RT        .         Formation Resistivity         : 
TLFamily_SOIL_ARCHIE .         Oil Saturation                : 
TLFamily_SOIL_DW   .         Oil Saturation                : 
TLFamily_SP        .         Spontaneous Potential         : 
TLFamily_VSH_FIN   .         Shale Volume                  : 
TLFamily_VSH_GR    .         Shale Volume                  : 
TLFamily_VSH_SP    .         Shale Volume                  : 
~Curve Information
#_______________________________________________________________________________
#
#LOGNAME           .UNIT     LOG_ID                        : DESCRIPTION
#_______________________________________________________________________________
DEPT               .м                                      : Колонка глубины 
CALI               .м                                      : Каверномер 
COLL               .unitless                               : Описание 
CSAT               .unitless                               : Описание 
GR                 .uR/h                                   : Гамма каротаж 
GZ3                .Ohmm                                   : Градиент-зонд  длиной 2.25м 
MINV               .Ohmm                                   : Микро-градиент зонд 
MNOR               .Ohmm                                   : Микро-потенциал зонд 
NGLD               .у.е.                                   : Показания зонда НГК-60 аппаратуры ДРСТ-3-90 
OGZ                .Ohmm                                   : Обращенный градиент-зонд 
PHIE               .v/v                                    : Описание 
PHIEN              .v/v                                    :  
PHIT               .v/v                                    : Описание 
PRMB               .мД                                     :  
PRMB_DGR           .мД                                     :  
RT                 .ohmm                                   : УЭС пласта 
SOIL_ARCHIE        .v/v                                    :  
SOIL_DW            .v/v                                    :  
SP                 .мВ                                     : Потенциал самополяризации 
VSH_FIN            .v/v                                    : Описание 
VSH_GR             .v/v                                    : Shale volume 
VSH_SP             .v/v                                    : Shale Volume 
~Ascii
# ...
1073.8     0.274      -9999      -9999      8.541      0          1.067      2.11       1.586      2.11       0.138021   0.1380207  0.32554    1.983366   2.090083   1.241      0          0.3091399  112.311    0.5201796  0.4801542  0.5201796 
1074       0.284      -9999      -9999      7.843      0          1.308      2.186      1.608      2.186      0.132855   0.1328553  0.32312    1.606205   4.144445   1.254      0          0.3009523  112.626    0.5278324  0.363063   0.5278324 
1074.2     0.292      -9999      -9999      7.64       0          1.753      2.288      1.601      2.288      0.131145   0.1311453  0.32389    1.488782   5.057447   1.266      0          0.3021551  112.94     0.5355597  0.3347153  0.5355597 
1074.4     0.28       -9999      -9999      7.831      0          1.143      2.39       1.697      2.39       0.117034   0.1170344  0.31333    0.8496573  4.193509   1.304      0          0.2730209  113.255    0.543411   0.3613224  0.543411  
1074.6     0.273      -9999      -9999      7.488      0          1.245      2.466      1.787      2.466      0.100961   0.1009612  0.30343    0.4448367  5.870477   1.355      0          0.2394698  113.884    0.5593902  0.3149482  0.5593902 
1074.8     0.271      -9999      -9999      7.64       0          2.413      2.466      1.86       2.466      0.08951    0.08951028 0.2954     0.2815937  5.057447   1.444      0          0.2246897  114.199    0.5675446  0.3347153  0.5675446 
1075       0.274      -9999      -9999      7.171      0          4.292      2.441      1.931      2.441      0.075516   0.07551553 0.28759    0.1597927  8.011149   1.444      0          0.1741174  114.828    0.5841348  0.2773993  0.5841348 
1075.2     0.276      -9999      -9999      7.133      0          2.705      2.492      1.999      2.492      0.064563   0.06456266 0.28011    0.1031047  8.315348   1.418      0          0.1183565  115.143    0.592598   0.2732098  0.592598  
1075.4     0.255      -9999      -9999      6.701      0          3.975      2.593      2.01       2.593      0.057562   0.05756235 0.2789     0.07685164 12.70235   1.393      0          0.08257868 115.772    0.6098111  0.229806   0.6098111 
1075.6     0.234      -9999      -9999      6.79       0          6.159      2.695      1.919      2.695      0.065595   0.06559481 0.28891    0.1041307  11.64062   1.393      0          0.1294619  116.086    0.6185611  0.2381445  0.6185611 
1075.8     0.228      -9999      -9999      6.993      0          2.54       2.771      1.843      2.771      0.068816   0.06881582 0.29727    0.1156544  9.539186   1.444      0          0.1690427  116.716    0.6364369  0.2583134  0.6364369 
1076       0.224      -9999      -9999      6.727      0          1.245      2.873      1.762      2.873      0.072504   0.07250443 0.30618    0.1307619  12.38255   1.532      0          0.2174962  117.345    0.6547139  0.2322113  0.6547139 
1076.2     0.222      -9999      -9999      6.676      0          2.553      2.975      1.69       2.975      0.07808    0.07807996 0.3141     0.1608486  13.01765   1.608      0          0.2621072  117.659    0.6640001  0.2275167  0.6640001 
1076.4     0.218      -9999      -9999      6.714      0          2.172      3.076      1.678      3.076      0.073263   0.07326272 0.31542    0.130307   12.54143   1.697      0          0.2709749  118.289    0.6829615  0.2310055  0.6829615 
1076.6     0.215      -9999      -9999      6.638      0          1.549      2.797      1.686      2.797      0.069129   0.06912949 0.31454    0.1096206  13.51196   1.824      0          0.2848606  118.603    0.6925773  0.2240805  0.6925773 
1076.8     0.228      -9999      -9999      6.879      0          1.829      2.542      1.616      2.542      0.071062   0.07106239 0.32224    0.115539   10.66763   2.013      0          0.3333946  119.232    0.7121745  0.2467856  0.7121745 
1077       0.245      -9999      -9999      7.082      0          1.181      2.415      1.536      2.415      0.09345    0.09344955 0.33104    0.2901181  8.741844   2.216      0          0.4201993  117.974    0.6734256  0.2676863  0.6734256 
1077.2     0.248      -9999      -9999      7.069      0          0.698      2.314      1.46       2.314      0.114776   0.1147758  0.3394     0.6974488  8.854017   2.368      0.1141414  0.4806459  116.716    0.6364369  0.2662963  0.6364369 
1077.4     0.246      -9999      -9999      7.348      0          0.419      2.186      1.386      2.186      0.135304   0.1353043  0.34754    1.62197    6.734483   2.533      0.2417687  0.5303555  115.457    0.6011385  0.2977761  0.6011385 
1077.6     0.242      -9999      -9999      7.729      0          0.597      1.958      1.301      1.958      0.159281   0.1592812  0.35689    4.349201   4.634713   2.685      0.3492638  0.574994   113.884    0.5593902  0.3468604  0.5593902 
1077.8     0.238      -9999      -9999      8.059      0          0.597      1.831      1.267      1.831      0.168634   0.1686344  0.36063    6.387851   3.353238   2.748      0.384269   0.5906608  113.255    0.543411   0.3958672  0.543411  
1078       0.251      -9999      -9999      8.059      0          0.584      1.729      1.328      1.729      0.161314   0.1613144  0.35392    4.798101   3.353238   2.824      0.3718033  0.5855492  113.255    0.543411   0.3958672  0.543411  
1078.2     0.265      -9999      -9999      8.135      0          0.444      1.602      1.385      1.602      0.154474   0.1544744  0.34765    3.672262   3.112384   2.786      0.3473352  0.5721592  113.255    0.543411   0.4081011  0.543411  
1078.4     0.279      -9999      -9999      8.414      0          0.356      1.5        1.44       1.5        0.147874   0.1478744  0.3416     2.837089   2.367323   2.748      0.3218361  0.5583915  113.255    0.543411   0.456344   0.543411  
1078.6     0.294      -9999      -9999      8.757      0          0.381      1.475      1.438      1.475      0.148114   0.1481144  0.34182    2.863834   1.69107    2.735      0.3211269  0.5577475  113.255    0.543411   0.5235379  0.543411  
1078.8     0.293      -9999      -9999      8.795      0          0.381      1.5        1.4        1.5        0.152674   0.1526744  0.346      3.422722   1.629206   2.799      0.343148   0.5702848  113.255    0.543411   0.5315661  0.543411  
1079       0.287      -9999      -9999      8.554      0          0.483      1.525      1.445      1.525      0.149865   0.1498653  0.34105    3.095108   2.063605   2.887      0.3445331  0.5707688  112.94     0.5355597  0.4826604  0.5355597 
1079.2     0.279      -9999      -9999      8.402      0          0.711      1.551      1.517      1.551      0.148786   0.1487858  0.33313    3.048013   2.395346   2.913      0.3460387  0.5660755  111.997    0.5126492  0.4541563  0.5126492 
1079.4     0.287      -9999      -9999      8.148      0          0.66       1.525      1.578      1.525      0.143927   0.1439266  0.32642    2.542792   3.072954   2.862      0.3253414  0.5522156  111.682    0.5051923  0.4102312  0.5051923 
1079.6     0.299      -9999      -9999      8.097      0          0.483      1.5        1.625      1.5        0.14547    0.1454699  0.32125    2.770786   3.230567   2.647      0.3077535  0.5320359  110.738    0.4834245  0.4019376  0.4834245 
1079.8     0.289      -9999      -9999      8.186      0          0.521      1.475      1.576      1.475      0.153676   0.1536765  0.32664    3.850632   2.960537   2.482      0.3149114  0.5301772  110.424    0.4763744  0.4165218  0.4763744 
1080       0.28       -9999      -9999      8.046      0          0.597      1.525      1.487      1.525      0.171165   0.1711652  0.33643    7.815957   3.396266   2.457      0.3654596  0.5528327  109.48     0.4557417  0.3938116  0.4557417 
1080.2     0.287      -9999      -9999      7.983      0          0.787      1.653      1.462      1.653      0.178549   0.1785495  0.33918    10.59559   3.61273    2.431      0.3828465  0.5592477  108.851    0.4424562  0.3840001  0.4424562 
1080.4     0.294      -9999      -9999      7.666      0          0.571      1.729      1.46       1.729      0.174405   0.1744052  0.3394     8.87143    4.930114   2.406      0.3679621  0.5533129  109.48     0.4557417  0.3382187  0.4557417 
