~Version
 VERS              .         2.0                           : CWLS LOG ASCII STANDARD - VERSION 2.0
 WRAP              .         NO                            : ONE LINE PER DEPTH STEP
 DLM               .         SPACE                         : DELIMITING CHARACTER(SPACE TAB OR COMMA)
~Well Information
#_______________________________________________________________________________
#
#PARAMETER_NAME    .UNIT     VALUE                         : DESCRIPTION
#_______________________________________________________________________________
STRT               .м        900                           : First reference value
STOP               .м        1475.8                        : Last reference value
STEP               .м        0.2                           : Step increment
NULL               .         -9999                         : Missing value
COMP               .                                       : Company
WELL               .         275                           : Well name
FLD                .         УЗЕНЬ                         : Field
LOC                .                                       : Location
CNTY               .                                       : County
STAT               .                                       : State
CTRY               .                                       : Country
SRVC               .                                       : Service Company
DATE               .         26.08.1966                    : Date
UWI                .                                       : Unique Well ID
Block              .         4                             : 
Cartographic_reference_system .         GCS_WGS_1984                  : ESRI,PE_10_3_1- <?xml version="1.0" encoding="utf-16"?><ILateBoundCoordinateReferenceSystem name="GCS_WGS_1984"><AuthorityCode>EPSG,4326</AuthorityCode></ILateBoundCoordinateReferenceSystem>
Category           .         Нагнетательная                : 
Condition          .         Ликвидированная               : 
Date               .         20.05.1967                    : 
EREF               .m        222                           : 100.8
Gorizont           .         17                            : 14
HZCS               .GCS_WGS_1984 WGS_1984_EASE_Grid_Global     : ESRI,PE_10_3_1- <?xml version="1.0" encoding="utf-16"?><ILateBoundCoordinateReferenceSystem name="WGS_1984_EASE_Grid_Global"><AuthorityCode>EPSG,3975</AuthorityCode></ILateBoundCoordinateReferenceSystem>
Interpretator      .         Ткачева И.Г.                  : 
Kupol              .         Основной                      : osnovnoi
LATI               .dega     0.6454540436                  : GCS_WGS_1984
LONG               .dega     0.5622768321                  : GCS_WGS_1984
Mud                .         0                             : 
Mud_density        .         0                             : 
Mud_resistivity    .         0                             : 
NGDU               .         НГДУ-1                        : 
ORIGINALWELLNAME   .         275                           : 
Spud_date          .         1966                          : 1961
Uslovie            .         55                            : 
Viscosity          .         0                             : 
X                  .m        54252                         : 46154
Y                  .m        82341                         : 85761.93
YEAR               .         2018                          : 
~Parameter Information Block
#_______________________________________________________________________________
#
#PARAMETER_NAME    .UNIT     VALUE                         : DESCRIPTION
#_______________________________________________________________________________
SET                .         LQC_KAZNIPI_Petrel            : 
GSDD               .         CSAT                          : CSATкрив,0,DEPT,BOTTOM,,,,0
PBBOTTOM           .м        1396                          : Глубина подошвы планшета
PBSCALE            .         1                             : Вертикальный масштаб планшета
PBTOP              .м        985                           : Глубина кровли планшета
TLFamily_CALI      .         Caliper                       : 
TLFamily_COLL      .         Net Reservoir Flag            : 
TLFamily_CSAT      .         Fluid Code                    : 
TLFamily_DEPT      .         Measured Depth                : 
TLFamily_GR        .         Russian Gamma Ray             : 
TLFamily_GZ3       .         Gradient 225                  : 
TLFamily_MINV      .         Micro Gradient Resistivity    : 
TLFamily_MNOR      .         Micro Resistivity             : 
TLFamily_NGLD      .         Neutron Gamma                 : 
TLFamily_OGZ       .         Gradient Inverted 225         : 
TLFamily_PHIE      .         Effective Porosity            : 
TLFamily_PHIEN     .         Effective Porosity            : 
TLFamily_PHIT      .         Porosity                      : 
TLFamily_PRMB      .         Permeability                  : 
TLFamily_PRMB_DGR  .         Permeability                  : 
TLFamily_RT        .         Formation Resistivity         : 
TLFamily_SOIL_ARCHIE .         Oil Saturation                : 
TLFamily_SOIL_DW   .         Oil Saturation                : 
TLFamily_SP        .         Spontaneous Potential         : 
TLFamily_VSH_FIN   .         Shale Volume                  : 
TLFamily_VSH_GR    .         Shale Volume                  : 
TLFamily_VSH_SP    .         Shale Volume                  : 
~Curve Information
#_______________________________________________________________________________
#
#LOGNAME           .UNIT     LOG_ID                        : DESCRIPTION
#_______________________________________________________________________________
DEPT               .м                                      : Колонка глубины 
CALI               .м                                      : Каверномер 
COLL               .unitless                               : Описание 
CSAT               .unitless                               : Описание 
GR                 .uR/h                                   : Гамма каротаж 
GZ3                .Ohmm                                   : Градиент-зонд  длиной 2.25м 
MINV               .Ohmm                                   : Микро-градиент зонд 
MNOR               .Ohmm                                   : Микро-потенциал зонд 
NGLD               .у.е.                                   : Показания зонда НГК-60 аппаратуры ДРСТ-3-90 
OGZ                .Ohmm                                   : Обращенный градиент-зонд 
PHIE               .v/v                                    : Описание 
PHIEN              .v/v                                    :  
PHIT               .v/v                                    : Описание 
PRMB               .мД                                     :  
PRMB_DGR           .мД                                     :  
RT                 .ohmm                                   : УЭС пласта 
SOIL_ARCHIE        .v/v                                    :  
SOIL_DW            .v/v                                    :  
SP                 .мВ                                     : Потенциал самополяризации 
VSH_FIN            .v/v                                    : Описание 
VSH_GR             .v/v                                    : Shale volume 
VSH_SP             .v/v                                    : Shale Volume 
~Ascii
# ...
1243.8     0.214      8          2          9.734      1          2.502      6.102      1.824      6.102      0.204341   0.2043412  0.29936    37.14519   7.102268   19.945     0.7996578  0.8457611  74.874     0.2493167  0.324688   0.1739454 
1244       0.214      8          2          9.278      1          2.616      4.874      1.747      4.874      0.225051   0.2250508  0.30783    86.94228   14.14642   17.982     0.80482    0.8458264  75.189     0.2177626  0.2596328  0.1758925 
1244.2     0.215      8          2          8.897      1          2.756      4.451      1.752      4.451      0.231725   0.2317247  0.30728    115.8176   25.15804   15.26      0.7941543  0.8343943  75.503     0.196635   0.2153895  0.1778805 
1244.4     0.217      8          2          9.1        1          2.832      4.029      1.716      4.029      0.231535   0.231535   0.31124    113.1341   18.51221   13.423     0.7809632  0.8245603  76.133     0.2099733  0.2379327  0.1820139 
1244.6     0.217      8          2          9.658      1          2.934      3.606      1.705      3.606      0.219492   0.2194924  0.31245    67.37481   7.966583   11.334     0.7522906  0.8054409  76.133     0.2474124  0.3128108  0.1820139 
1244.8     0.218      8          2          9.633      1          3.137      3.184      1.667      3.184      0.222908   0.2229075  0.31663    76.6857    8.273287   10.131     0.7417814  0.7968842  77.706     0.2511042  0.3089997  0.1932088 
1245       0.215      8          2          9.874      1          2.654      2.761      1.633      2.761      0.217242   0.2172419  0.32037    59.35753   5.748078   9.434      0.7270287  0.7887167  79.593     0.2780698  0.34776    0.2083796 
1245.2     0.213      8          2          10.306     1          3.188      2.339      1.603      2.339      0.201484   0.2014843  0.32367    29.92614   2.992425   8.991      0.7029293  0.778432   81.795     0.3292365  0.4298088  0.2286641 
1245.4     0.21       8          2          10.394     1          4.178      2.186      1.775      2.186      0.172593   0.172593   0.30475    9.392321   2.619832   8.611      0.6594875  0.7522432  84.312     0.3521465  0.4487612  0.2555318 
1245.6     0.214      8          2          10.09      0          5.575      2.136      1.8        2.136      0.178167   0.1781665  0.302      12.04031   4.14737    8.421      0.6648176  0.7511848  86.2       0.3325353  0.386614   0.2784566 
1245.8     0.217      8          2          9.658      0          4.915      2.059      1.79       2.059      0.183426   0.1834264  0.3031     15.00412   7.966583   8.041      0.6651341  0.748606   88.402     0.310608   0.3128108  0.3084051 
1246       0.222      8          2          9.531      0          3.937      1.958      1.843      1.958      0.165971   0.1659714  0.29727    7.28987    9.651962   7.598      0.628777   0.7288539  90.604     0.3179756  0.2939252  0.342026  
1246.2     0.223      -9999      -9999      9.493      0          5.499      1.932      1.836      1.932      0.15443    0.1544302  0.29804    4.44274    10.2224    7.864      0.6134351  0.726834   92.806     0.3340222  0.2884991  0.3795452 
1246.4     0.224      -9999      -9999      9.074      0          4.61       1.856      1.769      1.856      0.148728   0.1487276  0.30541    3.385447   19.25399   6.99       0.5778697  0.7102001  95.008     0.3280535  0.2349185  0.4211885 
1246.6     0.224      -9999      -9999      9.011      0          2.578      1.831      1.699      1.831      0.141943   0.141943   0.31311    2.460272   21.17702   6.256      0.5371268  0.6927874  97.211     0.3474879  0.2277724  0.4672034 
1246.8     0.225      -9999      -9999      9.328      0          2.502      1.805      1.65       1.805      0.131135   0.1311346  0.3185     1.519528   13.11698   5.572      0.4788624  0.6686089  99.413     0.3919256  0.266077   0.5177743 
1247       0.225      -9999      -9999      9.646      0          3.086      1.805      1.682      1.805      0.109021   0.1090215  0.31498    0.5998569  8.112355   4.913      0.3646437  0.6227604  101.615    0.4420611  0.3109756  0.5731465 
1247.2     0.227      -9999      -9999      9.671      0          3.022      1.831      1.711      1.831      0.133545   0.1335453  0.31179    1.728462   7.811622   4.293      0.4213242  0.6204128  98.154     0.401549   0.3148111  0.4882869 
1247.4     0.229      -9999      -9999      9.455      0          3.442      1.881      1.743      1.881      0.153893   0.1538933  0.30827    4.173316   10.82656   3.672      0.4432609  0.6069496  94.694     0.41499    0.2831733  0.4149896 
1247.6     0.231      8          2          9.481      0          3.619      1.958      1.787      1.958      0.169289   0.1692891  0.30343    8.199726   10.40946   3.166      0.4473776  0.5875358  91.233     0.352336   0.2868066  0.3523358 
1247.8     0.233      8          2          9.062      0          3.391      2.059      1.671      2.059      0.20065    0.2006496  0.31619    29.72936   19.60631   2.773      0.483755   0.5953913  87.773     0.299486   0.2335403  0.2994856 
1248       0.234      8          2          9.341      1          3.315      2.161      1.735      2.161      0.207474   0.2074744  0.30915    40.87448   12.86184   2.533      0.4769628  0.5770061  84.312     0.255532   0.2677784  0.2555318 
1248.2     0.231      8          2          10.267     1          2.654      2.314      1.707      2.314      0.218664   0.2186643  0.31223    65.09236   3.174071   2.444      0.4896143  0.5802474  82.11      0.231805   0.4216676  0.2318054 
1248.4     0.223      8          2          10.331     1          2.311      2.466      1.671      2.466      0.220853   0.2208529  0.31619    70.37185   2.881488   2.545      0.5025802  0.5929815  82.739     0.238264   0.4351102  0.2382641 
1248.6     0.217      8          2          10.356     1          3.454      2.593      1.663      2.593      0.218457   0.2184574  0.31707    63.321     2.774667   2.697      0.5115018  0.6035217  83.683     0.248432   0.4404768  0.2484324 
1248.8     0.215      8          2          10.534     1          3.759      2.72       1.728      2.72       0.208314   0.2083144  0.30992    42.23906   2.120305   2.837      0.5055296  0.6014588  84.312     0.255532   0.4806498  0.2555318 
1249       0.218      8          2          10.153     1          3.721      2.72       1.798      2.72       0.196234   0.1962336  0.30222    25.99645   3.770764   2.824      0.4816102  0.5858079  85.256     0.266686   0.3987435  0.2666864 
1249.2     0.222      8          2          10.483     1          2.857      2.568      1.866      2.568      0.185508   0.1855082  0.29474    16.93747   2.290169   2.773      0.4548227  0.567313   85.885     0.27446    0.4687789  0.2744596 
1249.4     0.223      8          2          10.927     1          2.68       2.39       1.849      2.39       0.186229   0.1862292  0.29661    17.34021   1.170828   2.672      0.4465483  0.5613329  86.2       0.278457   0.5827996  0.2784566 
1249.6     0.223      8          2          10.458     1          3.048      2.263      1.832      2.263      0.194628   0.1946283  0.29848    24.6307    2.378336   2.609      0.4592013  0.5648608  84.627     0.259187   0.4630675  0.2591866 
1249.8     0.222      8          2          10.356     1          2.883      2.212      1.834      2.212      0.199078   0.1990782  0.29826    29.8038    2.774667   2.647      0.4724896  0.5715294  83.368     0.244975   0.4404768  0.2449751 
1250       0.22       8          2          10.826     1          3.327      2.314      1.906      2.314      0.194784   0.1947843  0.29034    25.59023   1.363873   2.773      0.4763716  0.5718086  82.11      0.231805   0.5546398  0.2318054 
1250.2     0.219      8          2          10.217     1          4.153      2.415      1.974      2.415      0.189671   0.1896706  0.28286    21.18117   3.423176   2.963      0.4830579  0.5757242  81.166     0.222574   0.4114552  0.2225742 
1250.4     0.219      8          2          10.369     1          4.064      2.568      2.046      2.568      0.172497   0.1724974  0.27494    10.50021   2.720691   3.166      0.4618691  0.5682358  83.683     0.248432   0.4432937  0.2484324 
