~Version
 VERS              .         2.0                           : CWLS LOG ASCII STANDARD - VERSION 2.0
 WRAP              .         NO                            : ONE LINE PER DEPTH STEP
 DLM               .         SPACE                         : DELIMITING CHARACTER(SPACE TAB OR COMMA)
~Well Information
#_______________________________________________________________________________
#
#PARAMETER_NAME    .UNIT     VALUE                         : DESCRIPTION
#_______________________________________________________________________________
STRT               .м        900                           : First reference value
STOP               .м        1475.8                        : Last reference value
STEP               .м        0.2                           : Step increment
NULL               .         -9999                         : Missing value
COMP               .                                       : Company
WELL               .         275                           : Well name
FLD                .         УЗЕНЬ                         : Field
LOC                .                                       : Location
CNTY               .                                       : County
STAT               .                                       : State
CTRY               .                                       : Country
SRVC               .                                       : Service Company
DATE               .         26.08.1966                    : Date
UWI                .                                       : Unique Well ID
Block              .         4                             : 
Cartographic_reference_system .         GCS_WGS_1984                  : ESRI,PE_10_3_1- <?xml version="1.0" encoding="utf-16"?><ILateBoundCoordinateReferenceSystem name="GCS_WGS_1984"><AuthorityCode>EPSG,4326</AuthorityCode></ILateBoundCoordinateReferenceSystem>
Category           .         Нагнетательная                : 
Condition          .         Ликвидированная               : 
Date               .         20.05.1967                    : 
EREF               .m        222                           : 100.8
Gorizont           .         17                            : 14
HZCS               .GCS_WGS_1984 WGS_1984_EASE_Grid_Global     : ESRI,PE_10_3_1- <?xml version="1.0" encoding="utf-16"?><ILateBoundCoordinateReferenceSystem name="WGS_1984_EASE_Grid_Global"><AuthorityCode>EPSG,3975</AuthorityCode></ILateBoundCoordinateReferenceSystem>
Interpretator      .         Ткачева И.Г.                  : 
Kupol              .         Основной                      : osnovnoi
LATI               .dega     0.6454540436                  : GCS_WGS_1984
LONG               .dega     0.5622768321                  : GCS_WGS_1984
Mud                .         0                             : 
Mud_density        .         0                             : 
Mud_resistivity    .         0                             : 
NGDU               .         НГДУ-1                        : 
ORIGINALWELLNAME   .         275                           : 
Spud_date          .         1966                          : 1961
Uslovie            .         55                            : 
Viscosity          .         0                             : 
X                  .m        54252                         : 46154
Y                  .m        82341                         : 85761.93
YEAR               .         2018                          : 
~Parameter Information Block
#_______________________________________________________________________________
#
#PARAMETER_NAME    .UNIT     VALUE                         : DESCRIPTION
#_______________________________________________________________________________
SET                .         LQC_KAZNIPI_Petrel            : 
GSDD               .         CSAT                          : CSATкрив,0,DEPT,BOTTOM,,,,0
PBBOTTOM           .м        1396                          : Глубина подошвы планшета
PBSCALE            .         1                             : Вертикальный масштаб планшета
PBTOP              .м        985                           : Глубина кровли планшета
TLFamily_CALI      .         Caliper                       : 
TLFamily_COLL      .         Net Reservoir Flag            : 
TLFamily_CSAT      .         Fluid Code                    : 
TLFamily_DEPT      .         Measured Depth                : 
TLFamily_GR        .         Russian Gamma Ray             : 
TLFamily_GZ3       .         Gradient 225                  : 
TLFamily_MINV      .         Micro Gradient Resistivity    : 
TLFamily_MNOR      .         Micro Resistivity             : 
TLFamily_NGLD      .         Neutron Gamma                 : 
TLFamily_OGZ       .         Gradient Inverted 225         : 
TLFamily_PHIE      .         Effective Porosity            : 
TLFamily_PHIEN     .         Effective Porosity            : 
TLFamily_PHIT      .         Porosity                      : 
TLFamily_PRMB      .         Permeability                  : 
TLFamily_PRMB_DGR  .         Permeability                  : 
TLFamily_RT        .         Formation Resistivity         : 
TLFamily_SOIL_ARCHIE .         Oil Saturation                : 
TLFamily_SOIL_DW   .         Oil Saturation                : 
TLFamily_SP        .         Spontaneous Potential         : 
TLFamily_VSH_FIN   .         Shale Volume                  : 
TLFamily_VSH_GR    .         Shale Volume                  : 
TLFamily_VSH_SP    .         Shale Volume                  : 
~Curve Information
#_______________________________________________________________________________
#
#LOGNAME           .UNIT     LOG_ID                        : DESCRIPTION
#_______________________________________________________________________________
DEPT               .м                                      : Колонка глубины 
CALI               .м                                      : Каверномер 
COLL               .unitless                               : Описание 
CSAT               .unitless                               : Описание 
GR                 .uR/h                                   : Гамма каротаж 
GZ3                .Ohmm                                   : Градиент-зонд  длиной 2.25м 
MINV               .Ohmm                                   : Микро-градиент зонд 
MNOR               .Ohmm                                   : Микро-потенциал зонд 
NGLD               .у.е.                                   : Показания зонда НГК-60 аппаратуры ДРСТ-3-90 
OGZ                .Ohmm                                   : Обращенный градиент-зонд 
PHIE               .v/v                                    : Описание 
PHIEN              .v/v                                    :  
PHIT               .v/v                                    : Описание 
PRMB               .мД                                     :  
PRMB_DGR           .мД                                     :  
RT                 .ohmm                                   : УЭС пласта 
SOIL_ARCHIE        .v/v                                    :  
SOIL_DW            .v/v                                    :  
SP                 .мВ                                     : Потенциал самополяризации 
VSH_FIN            .v/v                                    : Описание 
VSH_GR             .v/v                                    : Shale volume 
VSH_SP             .v/v                                    : Shale Volume 
~Ascii
# ...
1386.6     0.213      1          3          6.308      0          1.753      1.449      2.185      1.449      0.172617   0.1726172  0.25965    11.19855   1258.066   1.836      0.3503904  0.4508701  95.638     0.2077573  0.05565565 0.3598589 
1386.8     0.213      1          3          6.727      1          1.435      1.195      2.071      1.195      0.200868   0.2008682  0.27219    35.58961   667.9368   2.102      0.4558579  0.5276976  88.716     0.1643258  0.06748343 0.2611682 
1387       0.205      1          3          7.425      1          2.007      0.966      2.022      0.966      0.217814   0.2178143  0.27758    71.8009    232.6346   2.52       0.5304822  0.5864787  78.02      0.1312989  0.09302728 0.1695705 
1387.2     0.205      1          3          7.767      1          1.714      0.712      1.982      0.712      0.224161   0.2241614  0.28198    92.53059   138.7514   2.989      0.5758363  0.6276865  72.357     0.1262986  0.1088727  0.1437246 
1387.4     0.206      1          3          7.678      1          1.6        0.89       2.179      0.89       0.203466   0.2034665  0.26031    41.63466   158.7243   3.482      0.5767236  0.6263511  67.638     0.1175039  0.1045063  0.1305014 
1387.6     0.208      1          3          8.135      1          2.235      1.068      2.181      1.068      0.200144   0.2001441  0.26009    36.16484   79.56791   3.938      0.5953032  0.64621    62.919     0.1257195  0.1289497  0.1224892 
1387.8     0.209      1          3          8.402      1          2.21       1.271      2.209      1.271      0.194708   0.1947083  0.25701    29.02608   53.15199   4.369      0.6065829  0.658368   55.998     0.1307055  0.1457971  0.1156138 
1388       0.21       1          3          8.161      1          2.375      1.449      2.133      1.449      0.207314   0.2073143  0.26537    48.10672   76.50246   4.635      0.6346701  0.681718   52.223     0.1213432  0.1305009  0.1121856 
1388.2     0.21       1          3          8.11       0          2.464      1.627      2.143      1.627      0.206568   0.2065685  0.26427    46.79973   82.6313    4.394      0.6244764  0.6719351  52.852     0.1201642  0.1274755  0.1128529 
1388.4     0.21       1          3          8.694      0          2.337      2.695      2.113      2.695      0.202358   0.2023584  0.26757    38.61053   34.18968   3.318      0.5640498  0.6218283  53.796     0.1402656  0.1667519  0.1137794 
1388.6     0.209      1          3          8.783      0          2.629      2.466      2.158      2.466      0.195385   0.195385   0.26262    29.2332    29.88747   2.533      0.4922394  0.5569171  54.74      0.1441878  0.1737188  0.1146568 
1388.8     0.208      1          3          9.252      1          2.337      2.186      2.048      2.186      0.199517   0.1995168  0.27472    33.2684    14.71326   1.824      0.4147628  0.4940697  55.369     0.1653858  0.2155367  0.1152348 
1389       0.208      1          3          9.696      1          1.981      1.932      2.132      1.932      0.178044   0.1780441  0.26548    13.79954   7.522019   1.304      0.2535928  0.3634485  56.313     0.1902194  0.2643641  0.1160746 
1389.2     0.208      1          3          9.341      1          3.48       1.627      2.236      1.627      0.174708   0.1747081  0.25404    12.51229   12.86184   0.912      0.1082856  0.215576   56.942     0.1705941  0.2245419  0.1166463 
1389.4     0.208      1          3          8.77       1          2.832      1.373      2.206      1.373      0.189322   0.189322   0.25734    23.03909   30.48037   0.874      0.14419    0.2282927  58.201     0.1452355  0.1726833  0.1177876 
1389.6     0.208      1          3          8.491      1          2.121      1.347      2.249      1.347      0.188255   0.1882552  0.25261    22.4218    46.46368   1.051      0.2130726  0.2879103  58.83      0.1351451  0.1518885  0.1184016 
1389.8     0.208      1          3          8.668      1          3.111      1.475      2.336      1.475      0.175081   0.1750812  0.24304    13.26691   35.55966   1.152      0.2056917  0.2864216  59.773     0.1420625  0.1647698  0.1193553 
1390       0.208      1          3          8.63       0          3.213      1.627      2.416      1.627      0.165888   0.165888   0.23424    9.274861   37.66129   1.241      0.2035302  0.2846958  60.717     0.1411515  0.1619153  0.1203878 
1390.2     0.208      1          3          8.376      0          2.591      1.754      2.475      1.754      0.162386   0.1623865  0.22775    8.191803   55.28178   1.304      0.2112906  0.2862305  60.403     0.1320759  0.1440641  0.1200877 
1390.4     0.208      1          3          8.072      0          2.629      1.881      2.46       1.881      0.167898   0.167898   0.2294     10.29645   87.51492   1.317      0.2340318  0.3012815  59.459     0.1222102  0.1252671  0.1191532 
1390.6     0.208      1          3          7.729      0          3.276      2.034      2.522      2.034      0.163938   0.1639383  0.22258    8.92954    146.9518   1.33       0.2258435  0.2873445  58.201     0.1124891  0.1069865  0.1179918 
1390.8     0.208      6          6          7.501      0          4.597      2.161      2.634      2.161      0.152463   0.1524633  0.21026    5.741554   207.3956   1.292      0.175803   0.2347879  57.257     0.1067583  0.0963363  0.1171802 
1391       0.208      6          6          7.666      0          4.026      2.288      2.727      2.288      0.140134   0.1401338  0.20003    3.530879   161.6287   1.266      0.118764   0.1817575  56.313     0.1101629  0.1039312  0.1163947 
1391.2     0.208      6          6          7.793      0          2.807      2.415      2.767      2.415      0.134368   0.1343677  0.19563    2.808602   133.4059   1.292      0.102008   0.1680869  55.369     0.1129009  0.1101823  0.1156195 
1391.4     0.208      6          6          7.716      0          2.807      2.39       2.636      2.39       0.150667   0.1506673  0.21004    5.322707   149.867    1.38       0.1939197  0.2559228  55.998     0.1112689  0.1063488  0.116189  
1391.6     0.208      6          6          7.539      0          2.578      2.186      2.522      2.186      0.16573    0.1657295  0.22258    9.638412   195.8222   1.545      0.2843086  0.3414981  56.313     0.1072629  0.09803469 0.1164911 
1391.8     0.208      6          6          7.374      0          2.553      2.008      2.367      2.008      0.185436   0.1854355  0.23963    20.90733   251.2714   1.722      0.3715584  0.4249282  56.942     0.1039694  0.09087072 0.1170681 
1392       0.208      1          3          7.348      1          2.337      1.754      2.255      1.754      0.198957   0.1989565  0.25195    35.48099   261.3397   1.95       0.4361912  0.487696   57.571     0.1037243  0.08979061 0.117658  
1392.2     0.208      1          3          7.437      1          2.146      1.831      2.225      1.831      0.201928   0.2019283  0.25525    39.7635    228.4544   2.178      0.4702621  0.5213048  57.571     0.1056168  0.09354208 0.1176916 
1392.4     0.208      1          3          7.45       1          1.981      1.907      2.278      1.907      0.195606   0.1956064  0.24942    31.06012   224.0104   2.368      0.4789052  0.5295484  56.628     0.1054976  0.09410302 0.1168922 
1392.6     0.208      1          3          7.234      1          1.905      1.983      2.289      1.983      0.195836   0.1958364  0.24821    31.51384   310.4686   2.558      0.4981209  0.5464262  55.998     0.1007927  0.08520429 0.1163811 
1392.8     0.208      1          3          6.98       1          2.146      2.034      2.327      2.034      0.192895   0.1928955  0.24403    28.25316   455.7271   2.837      0.5169897  0.5629263  55.055     0.09570865 0.07581051 0.1156068 
1393       0.208      1          3          6.638      1          2.426      2.034      2.38       2.034      0.188292   0.1882915  0.2382     23.74694   764.085    3.293      0.5420938  0.5853236  54.425     0.08993749 0.06477701 0.115098  
1393.2     0.208      1          3          6.828      1          2.375      1.831      2.317      1.831      0.195051   0.1950512  0.24513    30.84213   573.3958   3.685      0.5762808  0.6190506  53.796     0.09263757 0.07069197 0.1145832 
