~Version
 VERS              .         2.0                           : CWLS LOG ASCII STANDARD - VERSION 2.0
 WRAP              .         YES                            : ONE LINE PER DEPTH STEP
 DLM               .         SPACE                         : DELIMITING CHARACTER(SPACE TAB OR COMMA)
~Well Information
#_______________________________________________________________________________
#
#PARAMETER_NAME    .UNIT     VALUE                         : DESCRIPTION
#_______________________________________________________________________________
STRT               .M        7                             : First reference value
STOP               .M        1232                          : Last reference value
STEP               .M        0.2                           : Step increment
NULL               .         -9999                         : Missing value
COMP               .                                       : Company
WELL               .         2796                          : Well name
FLD                .                                       : Field
LOC                .                                       : Location
CNTY               .                                       : County
STAT               .                                       : State
CTRY               .                                       : Country
SRVC               .                                       : Service Company
DATE               .                                       : Date
API                .                                       : API number
~Parameter Information Block
#_______________________________________________________________________________
#
#PARAMETER_NAME    .UNIT     VALUE                         : DESCRIPTION
#_______________________________________________________________________________
SET                .         LQC_KAZNIPI_Petrel            : 
TLFamily_CALI      .         Caliper                       : 
TLFamily_CILD      .         Conductivity                  : 
TLFamily_COLL      .         Net Reservoir Flag            : 
TLFamily_CSAT      .         Fluid Code                    : 
TLFamily_DEPT      .         Measured Depth                : 
TLFamily_GR        .         Russian Gamma Ray             : 
TLFamily_GZ3       .         Gradient 225                  : 
TLFamily_IK1       .         Resistivity 05                : 
TLFamily_IK2       .         Resistivity 07                : 
TLFamily_IK3       .         Resistivity 10                : 
TLFamily_IK4       .         Resistivity 14                : 
TLFamily_IK5       .         Resistivity 20                : 
TLFamily_LLS       .         Lateral Log Resistivity       : 
TLFamily_MBK       .         Micro Lateral Log Resistivity : 
TLFamily_MINV      .         Micro Gradient Resistivity    : 
TLFamily_NNKTB     .         Neutron Far                   : 
TLFamily_NNKTM     .         Neutron Near                  : 
TLFamily_NPHI      .         Neutron Porosity              : 
TLFamily_OGZ       .         Gradient Inverted 225         : 
TLFamily_PHIE      .         Effective Porosity            : 
TLFamily_PHIEN     .         Effective Porosity            : 
TLFamily_PHIT      .         Porosity                      : 
TLFamily_PRMB      .         Permeability                  : 
TLFamily_PRMB_DGR  .         Permeability                  : 
TLFamily_RT        .         Formation Resistivity         : 
TLFamily_SOIL_ARCHIE .         Oil Saturation                : 
TLFamily_SOIL_DW   .         Oil Saturation                : 
TLFamily_SP        .         Spontaneous Potential         : 
TLFamily_VSH_FIN   .         Shale Volume                  : 
TLFamily_VSH_GR    .         Shale Volume                  : 
TLFamily_VSH_SP    .         Shale Volume                  : 
~Curve Information
#_______________________________________________________________________________
#
#LOGNAME           .UNIT     LOG_ID                        : DESCRIPTION
#_______________________________________________________________________________
DEPT               .M                                      :  
CALI               .м                                      :  
CILD               .мСм/м                                  :  
COLL               .unitless                               :  
CSAT               .unitless                               :  
GR                 .uR/h                                   :  
GZ3                .Ohmm                                   :  
IK1                .Ohmm                                   :  
IK2                .Ohmm                                   :  
IK3                .Ohmm                                   :  
IK4                .Ohmm                                   :  
IK5                .Ohmm                                   :  
LLS                .Ohmm                                   :  
MBK                .Ohmm                                   :  
MINV               .Ohmm                                   :  
NNKTB              .у.е.                                   :  
NNKTM              .у.е.                                   :  
NPHI               .v/v                                    :  
OGZ                .Ohmm                                   :  
PHIE               .v/v                                    :  
PHIEN              .v/v                                    :  
PHIT               .v/v                                    :  
PRMB               .mD                                     :  
PRMB_DGR           .mD                                     :  
RT                 .ohmm                                   :  
SOIL_ARCHIE        .v/v                                    :  
SOIL_DW            .v/v                                    :  
SP                 .мВ                                     :  
VSH_FIN            .v/v                                    :  
VSH_GR             .v/v                                    :  
VSH_SP             .v/v                                    :  
~Ascii
# ...
1154.2     
  0.262      595.23     0          0          6.51       2.81       
  1.228996342547928 1.394920861821577 1.495893969525353 1.602974984058699 
  1.624931883346856 1.61       -9999      -9999      1.75       1.19       
  0.272      2.06       0.1721209  0.1721209  0.272      4.317714   
  5.459607   1.624932   0.1756156  0.3554775  662.6678   0.3026641  
  0.3244193  0.280909  
1154.4     
  0.271      609.75     0          0          6.93       2.56       
  1.197984877246385 1.559885992795131 1.616508415463178 1.812244496578455 
  1.738675877050422 1.66       -9999      -9999      2.02       1.21       
  0.202      2.07       0.09316394 0.09316394 0.202      0.1488608  
  3.177917   1.738676   0          0.0505771  656.9943   0.3298063  
  0.4046436  0.254969  
1154.6     
  0.244      529.1      0          0          6.6        2.7        
  2.102786666080313 2.459697702287692 2.39904042300402 2.305909499222222 
  2.0355501738212 1.99       -9999      -9999      2.23       1.26       
  0.175      2.17       0.07689288 0.07689288 0.175      0.07437051 
  4.861835   2.03555    0          0          656.8707   0.2972943  
  0.3401502  0.2544384 
1154.8     
  0.243      490.19     0          0          6.71       2.68       
  1.708962642998736 1.866318817456254 1.83059608707023 1.969846571237111 
  1.895418351141867 2.05       -9999      -9999      2.13       1.27       
  0.2        2.09       0.1002785  0.1002785  0.2        0.201632   
  4.219368   1.895418   0          0.1103473  654.3571   0.3021863  
  0.3604166  0.2439561 
1155       
  0.25       588.23     0          0          7.16       2.31       
  1.236826950573593 1.391554767844992 1.410629386277705 1.45795796664746 
  1.544376611470732 1.54       -9999      -9999      1.94       1.23       
  0.232      1.88       0.112453   0.112453   0.232      0.3388913  
  2.36288    1.544377   0          0.1392681  659.8936   0.3622636  
  0.4566942  0.2678331 
1155.2     
  0.272      689.65     0          0          6.95       2.12       
  1.104900597041909 1.35899667568512 1.378996724086024 1.417987209703415 
  1.421987435874384 1.38       -9999      -9999      2.02       1.23       
  0.211      1.69       0.08967774 0.08967774 0.211      0.1282943  
  3.097071   1.421987   0          0          671.2499   0.3676432  
  0.4089238  0.3263625 
1155.4     
  0.264      704.22     0          0          7.15       2.06       
  1.174901973696254 1.353947646475681 1.428996839138696 1.430996867013686 
  1.428996839138696 1.39       -9999      -9999      2.08       1.25       
  0.204      1.68       0.06700137 0.06700137 0.204      0.04877374 
  2.393521   1.428997   0          0          679.2463   0.4151473  
  0.4542978  0.3759969 
1155.6     
  0.255      704.22     0          0          7.14       1.92       
  1.090995927821952 1.234910824066224 1.363948024425414 1.391987167148681 
  1.42       1.42       -9999      -9999      1.83       1.26       
  0.28       1.69       0.1388841  0.1388841  0.28       1.046234   
  2.424561   1.42       0          0.2627754  683.2028   0.4276239  
  0.4519139  0.403334  
1155.8     
  0.275      699.3      0          0          7.28       1.9        
  1.100653711258302 1.338574539377538 1.393881043927564 1.444920675849011 
  1.474922319155486 1.44       -9999      -9999      1.75       1.21       
  0.282      1.83       0.1336016  0.1336016  0.282      0.8351868  
  2.024385   1.474922   0          0.2690732  684.5291   0.4496922  
  0.486457   0.4129274 
1156       
  0.27       653.59     0          0          7.58       2.01       
  1.211985314119617 1.467987648538519 1.52595214691232 1.602859149154767 
  1.593896277962292 1.54       -9999      -9999      1.93       1.18       
  0.213      1.94       0.04504426 0.04504426 0.213      0.01911996 
  1.37538    1.593896   0          0          689.1756   0.5089568  
  0.5696284  0.4482852 
1156.2     
  0.277      609.75     0          0          7.28       2.11       
  1.268996420808328 1.51       1.577988515416893 1.621988974995695 1.64       
  1.59       -9999      -9999      1.81       1.22       0.267      
  2.01       0.1222077  0.1222077  0.267      0.5137369  2.024385   
  1.64       0          0.2582908  681.462    0.4387646  0.486457   
  0.3910722 
1156.4     
  0.285      613.49     0          0          7.43       2.11       
  1.211985314119612 1.442972240578241 1.522973683628752 1.553954293671713 
  1.620997233033478 1.57       -9999      -9999      1.88       1.21       
  0.24       2.01       0.09073747 0.09073747 0.24       0.1342258  
  1.668622   1.620997   0          0.109691   679.5784   0.4523107  
  0.5264025  0.3782189 
1156.6     
  0.27       621.11     0          0          7.6        2.09       
  1.206966022594011 1.43       1.518997027079017 1.567988441670301 
  1.618997211313762 1.53       -9999      -9999      1.9        1.2        
  0.23       1.89       0.07555428 0.07555428 0.23       0.07024358 
  1.34039    1.618997   0          0.02348086 676.8548   0.4680173  
  0.5756539  0.3603809 
1156.8     
  0.262      613.49     0          0          7.31       2.15       
  1.18099616521602 1.420996845048246 1.53       1.608997193924246 1.63       
  1.55       -9999      -9999      1.74       1.23       0.296      
  1.54       0.1671406  0.1671406  0.296      3.491464   1.947629   
  1.63       0.1554972  0.3811278  663.8612   0.390483   0.4941959  
  0.2867702 
1157       
  0.27       609.75     0          0          7.34       2.25       
  1.261763735724186 1.475950501958086 1.548997084855783 1.628997228489076 
  1.612975137631035 1.54       -9999      -9999      1.77       1.24       
  0.291      1.15       0.1647786  0.1647786  0.291      3.156874   
  1.873781   1.612975   0.1407403  0.367881   658.8076   0.3824891  
  0.502058   0.2629203 
1157.2     
  0.271      632.91     0          0          7.61       2.12       
  1.202966819761411 1.414921959847573 1.466853404921282 1.564929315308323 
  1.534927957277103 1.5        -9999      -9999      1.73       1.24       
  0.305      0.89       0.160084   0.160084   0.305      2.584053   
  1.32323    1.534928   0.09808576 0.3630913  666.374    0.4391395  
  0.5786905  0.2995885 
1157.4     
  0.259      684.93     0          0          8          2.01       
  1.076802124337337 1.267780216636628 1.297785136790884 1.371548561773106 
  1.387798658471152 1.41       -9999      -9999      1.67       1.26       
  0.34       0.83       0.1632266  0.1632266  0.34       2.954682   
  0.8005776  1.387799   0.07029028 0.378158   676.9304   0.535677   
  0.7104895  0.3608644 
1157.6     
  0.243      757.57     0          0          7.84       1.94       
  0.9629586105496945 1.135861279997302 1.184907143460975 1.224910111476334 
  1.264912895616242 1.33       -9999      -9999      1.53       1.2        
  0.368      0.89       0.1935133  0.1935133  0.368      10.75212   
  0.9838625  1.264913   0.1627369  0.4189332  683.3469   0.5287476  
  0.6531293  0.4043657 
1157.8     
  0.245      813        0          0          7.97       1.86       
  0.8819798284715651 1.106962876468565 1.13       1.180996206784001 
  1.211985277851598 1.27       -9999      -9999      1.55       1.17       
  0.34       0.93       0.1614808  0.1614808  0.34       2.742669   
  0.8321293  1.211985   0          0.3318557  680.2233   0.5409674  
  0.6993634  0.3825714 
1158       
  0.247      826.44     0          0          8.35       1.84       
  1.025928303211575 1.170996174537634 1.197984839728257 1.2        1.21       
  1.3        -9999      -9999      1.76       1.21       0.279      
  1.1        0.09452682 0.09452682 0.279      0.1577699  0.5099812  
  1.21       0          0.07868032 669.7797   0.5590097  0.8        
  0.3180194 
1158.2     
  0.237      826.44     0          0          8.99       1.91       
  0.9439254065777832 1.12       1.17       1.180996206783999 
  1.218996292212812 1.32       -9999      -9999      1.78       1.24       
  0.287      1.39       0.1097403  0.1097403  0.287      0.3018665  
  0.2235786  1.218996   0          0.1449304  661.2861   0.5371506  
  0.8        0.2743011 
