~Version
 VERS              .         2.0                           : CWLS LOG ASCII STANDARD - VERSION 2.0
 WRAP              .         YES                            : ONE LINE PER DEPTH STEP
 DLM               .         SPACE                         : DELIMITING CHARACTER(SPACE TAB OR COMMA)
~Well Information
#_______________________________________________________________________________
#
#PARAMETER_NAME    .UNIT     VALUE                         : DESCRIPTION
#_______________________________________________________________________________
STRT               .M        7                             : First reference value
STOP               .M        1232                          : Last reference value
STEP               .M        0.2                           : Step increment
NULL               .         -9999                         : Missing value
COMP               .                                       : Company
WELL               .         2796                          : Well name
FLD                .                                       : Field
LOC                .                                       : Location
CNTY               .                                       : County
STAT               .                                       : State
CTRY               .                                       : Country
SRVC               .                                       : Service Company
DATE               .                                       : Date
API                .                                       : API number
~Parameter Information Block
#_______________________________________________________________________________
#
#PARAMETER_NAME    .UNIT     VALUE                         : DESCRIPTION
#_______________________________________________________________________________
SET                .         LQC_KAZNIPI_Petrel            : 
TLFamily_CALI      .         Caliper                       : 
TLFamily_CILD      .         Conductivity                  : 
TLFamily_COLL      .         Net Reservoir Flag            : 
TLFamily_CSAT      .         Fluid Code                    : 
TLFamily_DEPT      .         Measured Depth                : 
TLFamily_GR        .         Russian Gamma Ray             : 
TLFamily_GZ3       .         Gradient 225                  : 
TLFamily_IK1       .         Resistivity 05                : 
TLFamily_IK2       .         Resistivity 07                : 
TLFamily_IK3       .         Resistivity 10                : 
TLFamily_IK4       .         Resistivity 14                : 
TLFamily_IK5       .         Resistivity 20                : 
TLFamily_LLS       .         Lateral Log Resistivity       : 
TLFamily_MBK       .         Micro Lateral Log Resistivity : 
TLFamily_MINV      .         Micro Gradient Resistivity    : 
TLFamily_NNKTB     .         Neutron Far                   : 
TLFamily_NNKTM     .         Neutron Near                  : 
TLFamily_NPHI      .         Neutron Porosity              : 
TLFamily_OGZ       .         Gradient Inverted 225         : 
TLFamily_PHIE      .         Effective Porosity            : 
TLFamily_PHIEN     .         Effective Porosity            : 
TLFamily_PHIT      .         Porosity                      : 
TLFamily_PRMB      .         Permeability                  : 
TLFamily_PRMB_DGR  .         Permeability                  : 
TLFamily_RT        .         Formation Resistivity         : 
TLFamily_SOIL_ARCHIE .         Oil Saturation                : 
TLFamily_SOIL_DW   .         Oil Saturation                : 
TLFamily_SP        .         Spontaneous Potential         : 
TLFamily_VSH_FIN   .         Shale Volume                  : 
TLFamily_VSH_GR    .         Shale Volume                  : 
TLFamily_VSH_SP    .         Shale Volume                  : 
~Curve Information
#_______________________________________________________________________________
#
#LOGNAME           .UNIT     LOG_ID                        : DESCRIPTION
#_______________________________________________________________________________
DEPT               .M                                      :  
CALI               .м                                      :  
CILD               .мСм/м                                  :  
COLL               .unitless                               :  
CSAT               .unitless                               :  
GR                 .uR/h                                   :  
GZ3                .Ohmm                                   :  
IK1                .Ohmm                                   :  
IK2                .Ohmm                                   :  
IK3                .Ohmm                                   :  
IK4                .Ohmm                                   :  
IK5                .Ohmm                                   :  
LLS                .Ohmm                                   :  
MBK                .Ohmm                                   :  
MINV               .Ohmm                                   :  
NNKTB              .у.е.                                   :  
NNKTM              .у.е.                                   :  
NPHI               .v/v                                    :  
OGZ                .Ohmm                                   :  
PHIE               .v/v                                    :  
PHIEN              .v/v                                    :  
PHIT               .v/v                                    :  
PRMB               .mD                                     :  
PRMB_DGR           .mD                                     :  
RT                 .ohmm                                   :  
SOIL_ARCHIE        .v/v                                    :  
SOIL_DW            .v/v                                    :  
SP                 .мВ                                     :  
VSH_FIN            .v/v                                    :  
VSH_GR             .v/v                                    :  
VSH_SP             .v/v                                    :  
~Ascii
# ...
969.4      
  0.234      606.06     -9999      -9999      5.21       2.72       
  1.306968573688143 1.44       1.43       1.482972981358359 1.612975137631032 
  1.67       -9999      -9999      1.59       1.13       0.3        
  3.02       -9999      -9999      -9999      -9999      -9999      
  1.65       -9999      -9999      733.1913   -9999      0.03525016 
  0.8       
969.6      
  0.24       641.02     -9999      -9999      5.34       2.61       
  1.364915943137869 1.468996925521168 1.431987522965936 1.405887332093036 
  1.487811816674447 1.65       -9999      -9999      1.5        1.13       
  0.339      3.08       -9999      -9999      -9999      -9999      
  -9999      1.56       -9999      -9999      732.303    -9999      
  0.03845032 0.8       
969.8      
  0.253      719.42     -9999      -9999      4.93       2.44       
  0.9285491376314228 1.089903588022722 1.072666467469435 1.100210322135871 
  1.271514740462779 1.53       -9999      -9999      1.49       1.14       
  0.35       3.12       -9999      -9999      -9999      -9999      
  -9999      1.39       -9999      -9999      727.6447   -9999      
  0.02923327 0.8       
970        
  0.268      833.33     -9999      -9999      4.21       2.3        
  0.66264733995168 0.83695066610504 0.9538242520887683 1.03488841390464 
  1.19       1.33       -9999      -9999      1.49       1.11       
  0.331      3.34       -9999      -9999      -9999      -9999      
  -9999      1.2        -9999      -9999      718.7964   -9999      
  0.02       0.8       
970.2000000000001 
  0.267      819.67     -9999      -9999      3.81       2.41       
  1.021602428248743 1.389152724667962 1.39395165128852 1.334192565313207 
  1.319644609273076 1.41       -9999      -9999      1.38       1.06       
  0.353      3.66       -9999      -9999      -9999      -9999      
  -9999      1.22       -9999      -9999      710.988    -9999      
  0.02       0.8       
970.4      
  0.269      719.42     -9999      -9999      3.99       2.49       
  1.048995641533559 1.386845168904091 1.444923550916735 1.325880693335199 
  1.4        1.5        -9999      -9999      1.39       1.04       
  0.334      3.8        -9999      -9999      -9999      -9999      
  -9999      1.39       -9999      -9999      703.6998   -9999      
  0.02       0.8       
970.6      
  0.297      746.26     -9999      -9999      4.04       2.46       
  1.043932379650879 1.171475437925275 1.185981065363974 1.158697913274078 
  1.275876131580783 1.46       -9999      -9999      1.43       1.09       
  0.347      3.71       -9999      -9999      -9999      -9999      
  -9999      1.34       -9999      -9999      696.4526   -9999      
  0.02       0.8       
970.8      
  0.367      806.45     -9999      -9999      4.12       2.28       
  0.7437703326097214 0.9477091755709336 0.9848887815061423 1.071983374054197 
  1.248996381653544 1.37       -9999      -9999      1.46       1.1        
  0.339      3.62       -9999      -9999      -9999      -9999      
  -9999      1.24       -9999      -9999      694.0453   -9999      
  0.02       0.8       
971        
  0.324      757.57     -9999      -9999      4.25       2.2        
  0.9942666160403044 1.244877687027163 1.302593337209923 1.347393070101743 
  1.464268460258817 1.45       -9999      -9999      1.37       1.06       
  0.358      3.83       -9999      -9999      -9999      -9999      
  -9999      1.32       -9999      -9999      701.7582   -9999      
  0.02       0.8       
971.2000000000001 
  0.221      602.4      -9999      -9999      4.57       2.18       
  1.387929294329727 1.787510526403363 1.888816927744053 1.86994891531429 
  1.885649449668231 1.74       -9999      -9999      1.48       1.12       
  0.342      4.54       -9999      -9999      -9999      -9999      
  -9999      1.66       -9999      -9999      714.601    -9999      
  0.02298106 0.8       
971.4      
  0.213      469.48     -9999      -9999      4.83       2.25       
  1.866978127273465 2.082980704868482 2.205967042386971 2.204948353435583 
  2.131862145301016 2.07       -9999      -9999      1.84       1.22       
  0.257      5.47       -9999      -9999      -9999      -9999      
  -9999      2.13       -9999      -9999      725.7138   -9999      
  0.02734309 0.8       
971.6      
  0.213      460.82     -9999      -9999      5.3        2.31       
  1.722976736143931 1.881990489547291 2.025921278901903 2.140997903398505 
  2.178997929762832 2.26       -9999      -9999      2.11       1.27       
  0.205      6.69       -9999      -9999      -9999      -9999      
  -9999      2.17       -9999      -9999      729.4266   -9999      
  0.03743588 0.8       
971.8      
  0.219      446.42     -9999      -9999      5.66       2.42       
  2.015545509776553 2.296970755366062 2.304809086990013 2.45378777846597 
  2.393500872487189 2.58       -9999      -9999      2.08       1.27       
  0.212      8.6        -9999      -9999      -9999      -9999      
  -9999      2.24       -9999      -9999      725.8294   -9999      
  0.04762066 0.8       
972        
  0.213      371.74     -9999      -9999      5.09       2.7        
  3.282415105109561 3.57552009297248 3.439131780816914 3.36289478488203 
  3.201494281789456 3.52       -9999      -9999      2.32       1.31       
  0.174      10.66      -9999      -9999      -9999      -9999      
  -9999      2.69       -9999      -9999      722.8522   -9999      
  0.03253309 0.8       
972.2000000000001 
  0.22       241.54     -9999      -9999      4.62       3.06       
  3.841351639819889 4.455086874819626 4.557377617217322 4.278228522961854 
  4.141555673937671 4.73       -9999      -9999      2.82       1.42       
  0.126      11.97      -9999      -9999      -9999      -9999      
  -9999      4.14       -9999      -9999      723.405    -9999      
  0.0237621  0.8       
972.4      
  0.221      213.67     -9999      -9999      4.03       3.47       
  5.944596185772199 6.039385596748981 5.888189088404549 5.16423252824888 
  4.678565416582399 6.12       -9999      -9999      3.09       1.55       
  0.125      11.84      -9999      -9999      -9999      -9999      
  -9999      4.68       -9999      -9999      724.8278   -9999      
  0.02       0.8       
972.6      
  0.223      207.9      -9999      -9999      3.53       3.8        
  6.361767387688768 6.755608902146149 6.425861127612738 5.638902422987076 
  4.837996271229543 6.26       -9999      -9999      3.23       1.63       
  0.127      11         -9999      -9999      -9999      -9999      
  -9999      4.81       -9999      -9999      723.2806   -9999      
  0.02       0.8       
972.8      
  0.214      210.52     -9999      -9999      3.53       3.81       
  6.198404359917446 6.637480156637553 6.279718146738073 5.411606064432887 
  4.559614244386567 5.29       -9999      -9999      3.18       1.6        
  0.126      9.7        -9999      -9999      -9999      -9999      
  -9999      4.75       -9999      -9999      719.0533   -9999      
  0.02       0.8       
973        
  0.214      232.55     -9999      -9999      4.06       3.57       
  4.20388219070024 4.598719744105858 5.001191150005534 4.548571595446886 
  3.989959200711067 4.05       -9999      -9999      2.87       1.56       
  0.157      8.68       -9999      -9999      -9999      -9999      
  -9999      4.3        -9999      -9999      714.4062   -9999      
  0.02       0.8       
973.2000000000001 
  0.213      271        -9999      -9999      3.85       3.21       
  3.215891997376305 3.613549256743965 3.929176037134437 3.769900989547802 
  3.370698662179767 3.16       -9999      -9999      2.67       1.49       
  0.169      8.19       -9999      -9999      -9999      -9999      
  -9999      3.69       -9999      -9999      719.009    -9999      
  0.02       0.8       
973.4      
  0.215      313.47     -9999      -9999      3.98       2.84       
  3.013976265830276 3.382988084676861 3.561821279273543 3.49987335250785 
  3.107908587343435 2.78       -9999      -9999      2.54       1.4        
  0.163      8.74       -9999      -9999      -9999      -9999      
  -9999      3.19       -9999      -9999      723.8018   -9999      
  0.02       0.8       
