~Version
 VERS              .         2.0                           : CWLS LOG ASCII STANDARD - VERSION 2.0
 WRAP              .         YES                            : ONE LINE PER DEPTH STEP
 DLM               .         SPACE                         : DELIMITING CHARACTER(SPACE TAB OR COMMA)
~Well Information
#_______________________________________________________________________________
#
#PARAMETER_NAME    .UNIT     VALUE                         : DESCRIPTION
#_______________________________________________________________________________
STRT               .M        7                             : First reference value
STOP               .M        1232                          : Last reference value
STEP               .M        0.2                           : Step increment
NULL               .         -9999                         : Missing value
COMP               .                                       : Company
WELL               .         2796                          : Well name
FLD                .                                       : Field
LOC                .                                       : Location
CNTY               .                                       : County
STAT               .                                       : State
CTRY               .                                       : Country
SRVC               .                                       : Service Company
DATE               .                                       : Date
API                .                                       : API number
~Parameter Information Block
#_______________________________________________________________________________
#
#PARAMETER_NAME    .UNIT     VALUE                         : DESCRIPTION
#_______________________________________________________________________________
SET                .         LQC_KAZNIPI_Petrel            : 
TLFamily_CALI      .         Caliper                       : 
TLFamily_CILD      .         Conductivity                  : 
TLFamily_COLL      .         Net Reservoir Flag            : 
TLFamily_CSAT      .         Fluid Code                    : 
TLFamily_DEPT      .         Measured Depth                : 
TLFamily_GR        .         Russian Gamma Ray             : 
TLFamily_GZ3       .         Gradient 225                  : 
TLFamily_IK1       .         Resistivity 05                : 
TLFamily_IK2       .         Resistivity 07                : 
TLFamily_IK3       .         Resistivity 10                : 
TLFamily_IK4       .         Resistivity 14                : 
TLFamily_IK5       .         Resistivity 20                : 
TLFamily_LLS       .         Lateral Log Resistivity       : 
TLFamily_MBK       .         Micro Lateral Log Resistivity : 
TLFamily_MINV      .         Micro Gradient Resistivity    : 
TLFamily_NNKTB     .         Neutron Far                   : 
TLFamily_NNKTM     .         Neutron Near                  : 
TLFamily_NPHI      .         Neutron Porosity              : 
TLFamily_OGZ       .         Gradient Inverted 225         : 
TLFamily_PHIE      .         Effective Porosity            : 
TLFamily_PHIEN     .         Effective Porosity            : 
TLFamily_PHIT      .         Porosity                      : 
TLFamily_PRMB      .         Permeability                  : 
TLFamily_PRMB_DGR  .         Permeability                  : 
TLFamily_RT        .         Formation Resistivity         : 
TLFamily_SOIL_ARCHIE .         Oil Saturation                : 
TLFamily_SOIL_DW   .         Oil Saturation                : 
TLFamily_SP        .         Spontaneous Potential         : 
TLFamily_VSH_FIN   .         Shale Volume                  : 
TLFamily_VSH_GR    .         Shale Volume                  : 
TLFamily_VSH_SP    .         Shale Volume                  : 
~Curve Information
#_______________________________________________________________________________
#
#LOGNAME           .UNIT     LOG_ID                        : DESCRIPTION
#_______________________________________________________________________________
DEPT               .M                                      :  
CALI               .м                                      :  
CILD               .мСм/м                                  :  
COLL               .unitless                               :  
CSAT               .unitless                               :  
GR                 .uR/h                                   :  
GZ3                .Ohmm                                   :  
IK1                .Ohmm                                   :  
IK2                .Ohmm                                   :  
IK3                .Ohmm                                   :  
IK4                .Ohmm                                   :  
IK5                .Ohmm                                   :  
LLS                .Ohmm                                   :  
MBK                .Ohmm                                   :  
MINV               .Ohmm                                   :  
NNKTB              .у.е.                                   :  
NNKTM              .у.е.                                   :  
NPHI               .v/v                                    :  
OGZ                .Ohmm                                   :  
PHIE               .v/v                                    :  
PHIEN              .v/v                                    :  
PHIT               .v/v                                    :  
PRMB               .mD                                     :  
PRMB_DGR           .mD                                     :  
RT                 .ohmm                                   :  
SOIL_ARCHIE        .v/v                                    :  
SOIL_DW            .v/v                                    :  
SP                 .мВ                                     :  
VSH_FIN            .v/v                                    :  
VSH_GR             .v/v                                    :  
VSH_SP             .v/v                                    :  
~Ascii
# ...
948.4      
  0.226      436.68     -9999      -9999      5.1        3.17       
  1.664931290937225 1.741641103341427 1.880719228910326 2.048826161579961 
  2.253968355715946 2.02       -9999      -9999      1.5        1.13       
  0.339      3.33       -9999      -9999      -9999      -9999      
  -9999      2.29       -9999      -9999      667.9044   -9999      
  0.03275127 0.8       
948.6      
  0.236      460.82     -9999      -9999      4.81       3.06       
  1.494283983164471 1.736543813948633 1.862879211933919 1.987990896776741 
  2.150997913121523 1.93       -9999      -9999      1.45       1.14       
  0.37       3.33       -9999      -9999      -9999      -9999      
  -9999      2.17       -9999      -9999      682.2261   -9999      
  0.02697998 0.8       
948.8      
  0.232      456.62     -9999      -9999      4.96       3.15       
  1.733904814158308 1.961849932828079 2.05494453379195 2.168741943402783 
  2.225967341378877 1.94       -9999      -9999      1.52       1.12       
  0.324      3.27       -9999      -9999      -9999      -9999      
  -9999      2.19       -9999      -9999      685.2678   -9999      
  0.02982541 0.8       
949        
  0.23       440.52     -9999      -9999      5.23       3.24       
  1.621634966300447 1.848807829263874 1.96591891465984 2.172981498199047 
  2.288998029482555 2.03       -9999      -9999      1.53       1.11       
  0.313      3.38       -9999      -9999      -9999      -9999      
  -9999      2.27       -9999      -9999      676.2195   -9999      
  0.03572457 0.8       
949.2000000000001 
  0.224      434.78     -9999      -9999      5.2        3.31       
  1.8555046953668 1.925962197144103 2.006979658195391 2.168997920194619 
  2.281992148845768 2.11       -9999      -9999      1.57       1.13       
  0.308      3.35       -9999      -9999      -9999      -9999      
  -9999      2.3        -9999      -9999      662.0912   -9999      
  0.03501531 0.8       
949.4      
  0.221      438.59     -9999      -9999      5.23       3.34       
  1.592542389089789 1.82396098159211 1.950997699775005 2.150997913121523 
  2.28       2.14       -9999      -9999      1.47       1.13       
  0.354      3.38       -9999      -9999      -9999      -9999      
  -9999      2.28       -9999      -9999      646.2429   -9999      
  0.03572457 0.8       
949.6      
  0.221      440.52     -9999      -9999      5.13       3.34       
  1.798687010657794 1.95391570804574 2.064944805926434 2.178997929762832 
  2.296982244451492 2.16       -9999      -9999      1.48       1.15       
  0.361      3.51       -9999      -9999      -9999      -9999      
  -9999      2.27       -9999      -9999      641.9845   -9999      
  0.03341467 0.8       
949.8      
  0.22       432.9      -9999      -9999      5.06       3.29       
  1.604398861613538 1.827846027765926 1.967856750702868 2.115924577578738 
  2.282982383470666 2.15       -9999      -9999      1.75       1.14       
  0.247      3.58       -9999      -9999      -9999      -9999      
  -9999      2.31       -9999      -9999      645.0162   -9999      
  0.03188719 0.8       
950        
  0.222      446.42     -9999      -9999      5.25       3.28       
  1.667595826682783 1.824937439276509 1.964941958211022 2.098997850657879 
  2.23       2.12       -9999      -9999      1.69       1.11       
  0.252      3.73       -9999      -9999      -9999      -9999      
  -9999      2.24       -9999      -9999      655.6279   -9999      
  0.03620537 0.8       
950.2000000000001 
  0.222      446.42     -9999      -9999      5.33       3.31       
  1.727837351313319 1.910997651761809 2.020997779236864 2.167991656324295 
  2.258998003251676 2.14       -9999      -9999      1.49       1.13       
  0.344      3.96       -9999      -9999      -9999      -9999      
  -9999      2.24       -9999      -9999      663.4596   -9999      
  0.03819415 0.8       
950.4      
  0.224      440.52     -9999      -9999      5.26       3.34       
  1.733904814158315 1.880997614415613 1.961990875241194 2.112980976764873 
  2.260998014411638 2.15       -9999      -9999      1.6        1.15       
  0.307      4.21       -9999      -9999      -9999      -9999      
  -9999      2.27       -9999      -9999      667.8613   -9999      
  0.0364482  0.8       
950.6      
  0.223      444.44     -9999      -9999      5.26       3.26       
  1.698997391679878 1.83099754946029 1.930997676016367 2.11       
  2.240997996733114 2.15       -9999      -9999      1.62       1.13       
  0.288      4.2        -9999      -9999      -9999      -9999      
  -9999      2.25       -9999      -9999      667.663    -9999      
  0.0364482  0.8       
950.8      
  0.225      444.44     -9999      -9999      5.24       3.25       
  1.763906446847135 1.87       1.948997684784645 2.090997853391979 
  2.231991973803572 2.14       -9999      -9999      1.54       1.11       
  0.309      4.17       -9999      -9999      -9999      -9999      
  -9999      2.25       -9999      -9999      663.6647   -9999      
  0.03596416 0.8       
951        
  0.232      452.48     -9999      -9999      5.25       3.24       
  1.605954581108502 1.79       1.90297889495799 2.061991315488546 
  2.190997951128204 2.12       -9999      -9999      1.61       1.16       
  0.309      4.12       -9999      -9999      -9999      -9999      
  -9999      2.21       -9999      -9999      659.8663   -9999      
  0.03620537 0.8       
951.2000000000001 
  0.246      469.48     -9999      -9999      5.22       3.18       
  1.628782618967856 1.757840040817632 1.882978672676242 2.02199114458776 
  2.133966593824957 2.04       -9999      -9999      1.65       1.19       
  0.309      4.19       -9999      -9999      -9999      -9999      
  -9999      2.13       -9999      -9999      654.858    -9999      
  0.03548657 0.8       
951.4      
  0.29       495.04     -9999      -9999      4.95       3.1        
  1.408749751913672 1.532525196553597 1.71879368691869 1.877850036891796 
  2.025921278901903 1.95       -9999      -9999      1.62       1.16       
  0.305      4.18       -9999      -9999      -9999      -9999      
  -9999      2.02       -9999      -9999      655.2598   -9999      
  0.0296267  0.8       
951.6      
  0.348      512.82     -9999      -9999      4.86       2.95       
  0.9323587737905182 1.272968579304217 1.487811816674447 1.715907316291026 
  1.92199068638563 1.8        -9999      -9999      1.46       1.13       
  0.359      4.35       -9999      -9999      -9999      -9999      
  -9999      1.95       -9999      -9999      658.1214   -9999      
  0.02789694 0.8       
951.8      
  0.307      515.46     -9999      -9999      4.63       2.92       
  1.420899340232898 1.717763880361031 1.848966714634375 1.905518221496312 
  1.993917426723788 1.76       -9999      -9999      1.44       1.09       
  0.342      4.66       -9999      -9999      -9999      -9999      
  -9999      1.94       -9999      -9999      661.0131   -9999      
  0.02392147 0.8       
952        
  0.316      480.76     -9999      -9999      4.52       3          
  1.32899664421693 1.72       1.860997588851131 2.020997779236864 
  2.152895770931348 1.88       -9999      -9999      1.49       1.08       
  0.313      4.96       -9999      -9999      -9999      -9999      
  -9999      2.08       -9999      -9999      670.2247   -9999      
  0.02222568 0.8       
952.2000000000001 
  0.305      456.62     -9999      -9999      4.91       3.04       
  1.206880696244362 1.441477621097776 1.644412783164074 1.963963733193146 
  2.207991808213068 2          -9999      -9999      1.55       1.13       
  0.316      5.04       -9999      -9999      -9999      -9999      
  -9999      2.19       -9999      -9999      669.4965   -9999      
  0.02884506 0.8       
952.4      
  0.302      431.03     -9999      -9999      4.79       3.1        
  1.328864344462552 1.610762535871578 1.961893329258185 2.213647800249233 
  2.527096082422466 2.2        -9999      -9999      1.59       1.15       
  0.311      5.1        -9999      -9999      -9999      -9999      
  -9999      2.32       -9999      -9999      664.8981   -9999      
  0.02662169 0.8       
