~Version
 VERS              .         2.0                           : CWLS LOG ASCII STANDARD - VERSION 2.0
 WRAP              .         YES                            : ONE LINE PER DEPTH STEP
 DLM               .         SPACE                         : DELIMITING CHARACTER(SPACE TAB OR COMMA)
~Well Information
#_______________________________________________________________________________
#
#PARAMETER_NAME    .UNIT     VALUE                         : DESCRIPTION
#_______________________________________________________________________________
STRT               .M        7                             : First reference value
STOP               .M        1232                          : Last reference value
STEP               .M        0.2                           : Step increment
NULL               .         -9999                         : Missing value
COMP               .                                       : Company
WELL               .         2796                          : Well name
FLD                .                                       : Field
LOC                .                                       : Location
CNTY               .                                       : County
STAT               .                                       : State
CTRY               .                                       : Country
SRVC               .                                       : Service Company
DATE               .                                       : Date
API                .                                       : API number
~Parameter Information Block
#_______________________________________________________________________________
#
#PARAMETER_NAME    .UNIT     VALUE                         : DESCRIPTION
#_______________________________________________________________________________
SET                .         LQC_KAZNIPI_Petrel            : 
TLFamily_CALI      .         Caliper                       : 
TLFamily_CILD      .         Conductivity                  : 
TLFamily_COLL      .         Net Reservoir Flag            : 
TLFamily_CSAT      .         Fluid Code                    : 
TLFamily_DEPT      .         Measured Depth                : 
TLFamily_GR        .         Russian Gamma Ray             : 
TLFamily_GZ3       .         Gradient 225                  : 
TLFamily_IK1       .         Resistivity 05                : 
TLFamily_IK2       .         Resistivity 07                : 
TLFamily_IK3       .         Resistivity 10                : 
TLFamily_IK4       .         Resistivity 14                : 
TLFamily_IK5       .         Resistivity 20                : 
TLFamily_LLS       .         Lateral Log Resistivity       : 
TLFamily_MBK       .         Micro Lateral Log Resistivity : 
TLFamily_MINV      .         Micro Gradient Resistivity    : 
TLFamily_NNKTB     .         Neutron Far                   : 
TLFamily_NNKTM     .         Neutron Near                  : 
TLFamily_NPHI      .         Neutron Porosity              : 
TLFamily_OGZ       .         Gradient Inverted 225         : 
TLFamily_PHIE      .         Effective Porosity            : 
TLFamily_PHIEN     .         Effective Porosity            : 
TLFamily_PHIT      .         Porosity                      : 
TLFamily_PRMB      .         Permeability                  : 
TLFamily_PRMB_DGR  .         Permeability                  : 
TLFamily_RT        .         Formation Resistivity         : 
TLFamily_SOIL_ARCHIE .         Oil Saturation                : 
TLFamily_SOIL_DW   .         Oil Saturation                : 
TLFamily_SP        .         Spontaneous Potential         : 
TLFamily_VSH_FIN   .         Shale Volume                  : 
TLFamily_VSH_GR    .         Shale Volume                  : 
TLFamily_VSH_SP    .         Shale Volume                  : 
~Curve Information
#_______________________________________________________________________________
#
#LOGNAME           .UNIT     LOG_ID                        : DESCRIPTION
#_______________________________________________________________________________
DEPT               .M                                      :  
CALI               .м                                      :  
CILD               .мСм/м                                  :  
COLL               .unitless                               :  
CSAT               .unitless                               :  
GR                 .uR/h                                   :  
GZ3                .Ohmm                                   :  
IK1                .Ohmm                                   :  
IK2                .Ohmm                                   :  
IK3                .Ohmm                                   :  
IK4                .Ohmm                                   :  
IK5                .Ohmm                                   :  
LLS                .Ohmm                                   :  
MBK                .Ohmm                                   :  
MINV               .Ohmm                                   :  
NNKTB              .у.е.                                   :  
NNKTM              .у.е.                                   :  
NPHI               .v/v                                    :  
OGZ                .Ohmm                                   :  
PHIE               .v/v                                    :  
PHIEN              .v/v                                    :  
PHIT               .v/v                                    :  
PRMB               .mD                                     :  
PRMB_DGR           .mD                                     :  
RT                 .ohmm                                   :  
SOIL_ARCHIE        .v/v                                    :  
SOIL_DW            .v/v                                    :  
SP                 .мВ                                     :  
VSH_FIN            .v/v                                    :  
VSH_GR             .v/v                                    :  
VSH_SP             .v/v                                    :  
~Ascii
# ...
1024       
  0.224      408.16     1          3          2.9        5.97       
  1.970810444022465 2.320267824584545 2.361356341566673 2.338761187018742 
  2.484954236191426 2.46       -9999      -9999      2.24       1.3        
  0.187      2.85       0.1360901  0.1360901  0.187      0.9287042  
  464.2351   2.484954   0.1712916  0.2840625  657.1585   0.1542724  
  0.0528684  0.2556763 
1024.2     
  0.224      392.15     1          3          3.22       5.85       
  2.114946017929378 2.45       2.573936268596815 2.531884299459807 
  2.585971925780433 2.66       -9999      -9999      2.32       1.3        
  0.171      3.09       0.1170677  0.1170677  0.171      0.412607   
  311.1441   2.585972   0.07267491 0.2129399  659.184    0.1634311  
  0.06225222 0.26461   
1024.4     
  0.223      386.1      1          3          3.9        5.85       
  2.143966849262526 2.382983117812337 2.554956422548079 2.54       
  2.562984296115327 2.68       -9999      -9999      2.33       1.31       
  0.172      3.25       0.08188315 0.08188315 0.172      0.09200948 
  11.12484   2.562984   0          0.09258192 667.1294   0.2730814  
  0.2425926  0.3035702 
1024.6     
  0.223      398.4      1          3          4.36       5.78       
  2.119999885559082 2.407992491627086 2.463971029606501 2.56       
  2.473971145708272 2.63       -9999      -9999      2.28       1.29       
  0.175      3.24       0.05605754 0.05605754 0.175      0.03058296 
  4.173968   2.473971   0          0          676.6149   0.3604317  
  0.3620123  0.3588512 
1024.8     
  0.223      403.22     1          3          4.38       5.37       
  2.101991382658797 2.447992614850806 2.504954605520054 2.626984488582907 
  2.497992763307087 2.65       -9999      -9999      2.2        1.29       
  0.192      3.17       0.05837317 0.05837317 0.192      0.03375754 
  3.999802   2.497993   0          0.03323089 688.3104   0.4049298  
  0.3683679  0.4414917 
1025       
  0.231      395.25     1          3          3.81       4.83       
  2.259163637932659 2.569821175729099 2.698793755345823 2.715973280212905 
  2.575971815883444 2.69       -9999      -9999      2.12       1.3        
  0.214      2.99       0.08380823 0.08380823 0.214      0.09988258 
  13.47695   2.575972   0          0.2179041  702.4058   0.3945205  
  0.224318   0.564723  
1025.2     
  0.225      387.59     1          3          3.38       4.39       
  1.989866570476056 2.410213116924101 2.548386873826991 2.562711051683468 
  2.525936667244817 2.61       -9999      -9999      2.09       1.26       
  0.206      2.73       0.06414979 0.06414979 0.206      0.04318847 
  33.69538   2.525937   0          0.1111195  715.5413   0.4298491  
  0.1542966  0.7054017 
1025.4     
  0.253      411.52     1          3          3.23       4.02       
  1.717836436718874 2.031690780478666 2.183609416413221 2.253621162459293 
  2.311727232109027 2.24       -9999      -9999      1.91       1.22       
  0.236      2.54       0.08165649 0.08165649 0.236      0.09112434 
  46.38742   2.311727   0          0.2177308  724.3467   0.4677076  
  0.1354152  0.8       
1025.6     
  0.286      452.48     1          3          3.56       3.74       
  1.506185464130149 1.857848458561266 2.02689317869781 2.123966438103126 
  2.14592561654767 2          -9999      -9999      1.79       1.17       
  0.249      2.52       0.08722397 0.08722397 0.249      0.1155467  
  22.96016   2.145926   0          0.2337697  723.4823   0.4902304  
  0.1804608  0.8       
1025.8     
  0.354      473.93     1          3          3.86       3.49       
  1.506972829761295 1.907990512939571 2.026979860505996 2.098997850657878 
  2.090997853391979 1.91       -9999      -9999      1.71       1.16       
  0.271      2.58       0.1049762  0.1049762  0.271      0.246361   
  12.11477   2.090998   0          0.3118043  721.0078   0.5031024  
  0.2342936  0.7719112 
1026       
  0.371      471.69     1          3          3.5        3.41       
  1.541807843361662 1.927990611901818 2.096980537968328 2.166981171335801 
  2.164947387266262 1.97       -9999      -9999      1.75       1.16       
  0.257      2.53       0.1024201  0.1024201  0.257      0.2209158  
  26.09196   2.164947   0          0.2941001  720.5032   0.4684239  
  0.1712802  0.7655676 
1026.2     
  0.31       454.54     1          3          2.9        3.47       
  1.510997021822506 1.936978916932593 2.146980994619763 2.235967488849645 
  2.253927089631647 2.12       -9999      -9999      1.78       1.18       
  0.257      2.52       0.1205205  0.1205205  0.257      0.478069   
  93.71855   2.253927   0.03562759 0.3486935  717.2386   0.4135742  
  0.1016136  0.7255347 
1026.4     
  0.257      425.53     1          3          3.06       3.66       
  2.01896937994383 2.324819938164055 2.489244448970365 2.483519609938575 
  2.440847668275096 2.35       -9999      -9999      1.9        1.14       
  0.203      2.7        0.07387019 0.07387019 0.203      0.06537522 
  66.64088   2.440848   0          0.1304742  712.0841   0.3913024  
  0.1167939  0.665811  
1026.6     
  0.222      390.62     1          3          3.74       3.81       
  2.265597396066714 2.620858326545523 2.70393936948681 2.73983249278308 
  2.669828010952602 2.65       -9999      -9999      1.94       1.15       
  0.197      2.7        0.0555853  0.0555853  0.197      0.02997317 
  15.64512   2.669828   0          0.06584249 710.2896   0.4285294  
  0.2110617  0.645997  
1026.8     
  0.222      364.96     1          3          3.91       3.97       
  2.252982147718663 2.612984594786403 2.720998349430181 2.790998390748596 
  2.758998365814026 2.84       -9999      -9999      1.96       1.25       
  0.235      2.47       0.08988049 0.08988049 0.235      0.1294085  
  10.89027   2.758998   0          0.3059347  709.2551   0.4397561  
  0.2447129  0.6347994 
1027       
  0.223      363.63     1          3          3.82       3.98       
  2.334951181242845 2.665972775036035 2.747993424236821 2.75       
  2.704958815548797 2.78       -9999      -9999      2.04       1.29       
  0.231      2.32       0.08425383 0.08425383 0.231      0.101799   
  13.19279   2.704959   0          0.2747277  711.8405   0.4446854  
  0.2262786  0.6630921 
1027.2     
  0.223      381.67     1          3          3.71       3.92       
  2.232669638231908 2.53270771968601 2.565565409135163 2.609831024911878 
  2.501747434641759 2.58       -9999      -9999      2.03       1.27       
  0.225      2.18       0.0830055  0.0830055  0.225      0.09652089 
  16.67804   2.501747   0          0.2288565  711.106    0.4302863  
  0.205623   0.6549497 
1027.4     
  0.233      423.72     1          3          3.9        3.71       
  1.750833950003712 1.986347673536084 2.083731208601808 2.230152609744636 
  2.195494886770339 2.23       -9999      -9999      1.87       1.21       
  0.243      2.1        0.09843154 0.09843154 0.243      0.1863584  
  11.12484   2.195495   0          0.2630241  709.1415   0.4380862  
  0.2425926  0.6335799 
1027.6     
  0.309      483.09     1          3          4.22       3.5        
  1.321532205184851 1.684934271319706 1.843961399967846 1.94881745458262 
  1.987858161819871 1.88       -9999      -9999      1.66       1.14       
  0.278      1.99       0.1257332  0.1257332  0.278      0.5970925  
  5.625016   1.987858   0.01410805 0.350055   706.1669   0.4614146  
  0.3204893  0.6023398 
1027.8     
  0.357      512.82     1          3          4.31       3.28       
  1.393949108201144 1.76       1.907990512939571 1.967990803759032 1.94       
  1.77       -9999      -9999      1.61       1.08       0.264      
  2.16       0.1108417  0.1108417  0.264      0.3163846  4.64329    
  1.94       0          0.2877763  704.1224   0.464116   0.3465987  
  0.5816334 
1028       
  0.355      510.2      1          3          4.35       3.12       
  1.322969802313339 1.72       1.898997623653961 2.007990987931574 
  1.977990850504295 1.81       -9999      -9999      1.61       1.06       
  0.253      2.39       0.09604824 0.09604824 0.253      0.1683467  
  4.263876   1.977991   0          0.236571   705.1879   0.4756114  
  0.3588756  0.5923471 
