~Version
 VERS              .         2.0                           : CWLS LOG ASCII STANDARD - VERSION 2.0
 WRAP              .         YES                            : ONE LINE PER DEPTH STEP
 DLM               .         SPACE                         : DELIMITING CHARACTER(SPACE TAB OR COMMA)
~Well Information
#_______________________________________________________________________________
#
#PARAMETER_NAME    .UNIT     VALUE                         : DESCRIPTION
#_______________________________________________________________________________
STRT               .M        7                             : First reference value
STOP               .M        1232                          : Last reference value
STEP               .M        0.2                           : Step increment
NULL               .         -9999                         : Missing value
COMP               .                                       : Company
WELL               .         2796                          : Well name
FLD                .                                       : Field
LOC                .                                       : Location
CNTY               .                                       : County
STAT               .                                       : State
CTRY               .                                       : Country
SRVC               .                                       : Service Company
DATE               .                                       : Date
API                .                                       : API number
~Parameter Information Block
#_______________________________________________________________________________
#
#PARAMETER_NAME    .UNIT     VALUE                         : DESCRIPTION
#_______________________________________________________________________________
SET                .         LQC_KAZNIPI_Petrel            : 
TLFamily_CALI      .         Caliper                       : 
TLFamily_CILD      .         Conductivity                  : 
TLFamily_COLL      .         Net Reservoir Flag            : 
TLFamily_CSAT      .         Fluid Code                    : 
TLFamily_DEPT      .         Measured Depth                : 
TLFamily_GR        .         Russian Gamma Ray             : 
TLFamily_GZ3       .         Gradient 225                  : 
TLFamily_IK1       .         Resistivity 05                : 
TLFamily_IK2       .         Resistivity 07                : 
TLFamily_IK3       .         Resistivity 10                : 
TLFamily_IK4       .         Resistivity 14                : 
TLFamily_IK5       .         Resistivity 20                : 
TLFamily_LLS       .         Lateral Log Resistivity       : 
TLFamily_MBK       .         Micro Lateral Log Resistivity : 
TLFamily_MINV      .         Micro Gradient Resistivity    : 
TLFamily_NNKTB     .         Neutron Far                   : 
TLFamily_NNKTM     .         Neutron Near                  : 
TLFamily_NPHI      .         Neutron Porosity              : 
TLFamily_OGZ       .         Gradient Inverted 225         : 
TLFamily_PHIE      .         Effective Porosity            : 
TLFamily_PHIEN     .         Effective Porosity            : 
TLFamily_PHIT      .         Porosity                      : 
TLFamily_PRMB      .         Permeability                  : 
TLFamily_PRMB_DGR  .         Permeability                  : 
TLFamily_RT        .         Formation Resistivity         : 
TLFamily_SOIL_ARCHIE .         Oil Saturation                : 
TLFamily_SOIL_DW   .         Oil Saturation                : 
TLFamily_SP        .         Spontaneous Potential         : 
TLFamily_VSH_FIN   .         Shale Volume                  : 
TLFamily_VSH_GR    .         Shale Volume                  : 
TLFamily_VSH_SP    .         Shale Volume                  : 
~Curve Information
#_______________________________________________________________________________
#
#LOGNAME           .UNIT     LOG_ID                        : DESCRIPTION
#_______________________________________________________________________________
DEPT               .M                                      :  
CALI               .м                                      :  
CILD               .мСм/м                                  :  
COLL               .unitless                               :  
CSAT               .unitless                               :  
GR                 .uR/h                                   :  
GZ3                .Ohmm                                   :  
IK1                .Ohmm                                   :  
IK2                .Ohmm                                   :  
IK3                .Ohmm                                   :  
IK4                .Ohmm                                   :  
IK5                .Ohmm                                   :  
LLS                .Ohmm                                   :  
MBK                .Ohmm                                   :  
MINV               .Ohmm                                   :  
NNKTB              .у.е.                                   :  
NNKTM              .у.е.                                   :  
NPHI               .v/v                                    :  
OGZ                .Ohmm                                   :  
PHIE               .v/v                                    :  
PHIEN              .v/v                                    :  
PHIT               .v/v                                    :  
PRMB               .mD                                     :  
PRMB_DGR           .mD                                     :  
RT                 .ohmm                                   :  
SOIL_ARCHIE        .v/v                                    :  
SOIL_DW            .v/v                                    :  
SP                 .мВ                                     :  
VSH_FIN            .v/v                                    :  
VSH_GR             .v/v                                    :  
VSH_SP             .v/v                                    :  
~Ascii
# ...
1061.8     
  0.224      363.63     -9999      -9999      2.6        3.3        
  2.86984596459716 2.778871057119529 2.8        2.82899840632631 
  2.777993495523533 2.29       -9999      -9999      2.38       1.39       
  0.19       3.94       0.07775486 0.07775486 0.19       0.07715545 
  177.6173   2.777993   0          0.1651982  706.1346   0.3401368  
  0.07826621 0.6020073 
1062       
  0.224      363.63     -9999      -9999      2.78       3.3        
  2.44459898039984 2.406479172884741 2.524611249067204 2.621758720973427 
  2.685940395660701 2.39       -9999      -9999      2.35       1.37       
  0.189      3.95       0.07359232 0.07359232 0.189      0.06460503 
  121.029    2.685941   0          0.1309645  706.706    0.3497202  
  0.09153789 0.6079026 
1062.2     
  0.229      375.93     -9999      -9999      2.88       3.28       
  2.320839557299695 2.231717725011657 2.403970312889344 2.597993043006038 
  2.650998305934103 2.27       -9999      -9999      2.41       1.34       
  0.167      3.89       0.05606597 0.05606597 0.167      0.03059396 
  97.79939   2.650998   0          0          703.1973   0.3361637  
  0.09986045 0.572467  
1062.4     
  0.173      371.74     -9999      -9999      2.67       3.27       
  3.307572080592115 2.803467379190751 2.728422891241553 2.776719093456793 
  2.761894086383824 2.26       -9999      -9999      2.58       1.33       
  0.135      3.79       0.03457819 0.03457819 0.135      0.01223573 
  153.0023   2.761894   0          0          698.2386   0.3043085  
  0.08318196 0.5254351 
1062.6     
  0.166      349.65     -9999      -9999      2.44       3.27       
  2.794796260351635 2.934083021944179 3          3.054659613889576 
  2.914961049525554 2.38       -9999      -9999      2.84       1.39       
  0.115      3.88       0.02367165 0.02367165 0.115      0.007684478 
  249.7872   2.914961   0          0          693.7      0.2767526  
  0.0680936  0.4854116 
1062.8     
  0.176      336.7      -9999      -9999      2.31       3.34       
  2.846985601528351 2.85298588349342 3.01       3.11       2.987993954305714 
  2.52       -9999      -9999      2.89       1.41       0.114      
  3.97       0.0109547  0.0109547  0.114      0.004467512 329.5259   
  2.987994   0          0          702.3013   0.3122585  0.06081013 
  0.5637069 
1063       
  0.225      336.7      -9999      -9999      2.18       3.51       
  2.697753982061871 2.8        2.921993862224834 3.034963254737621 
  2.923975554287431 2.62       -9999      -9999      2.83       1.43       
  0.127      3.97       0.01662519 0.01662519 0.127      0.005689798 
  434.7189   2.923975   0          0          707.3526   0.3344691  
  0.05430573 0.6146325 
1063.2     
  0.224      350.87     -9999      -9999      2.1        3.62       
  2.352828664464515 2.461155235534784 2.67558272838114 2.858874606001793 
  2.785942510903618 2.53       -9999      -9999      2.96       1.45       
  0.116      3.89       0.01232659 0.01232659 0.116      0.004736706 
  515.5268   2.785943   0          0          703.7239   0.3141618  
  0.05065374 0.5776699 
1063.4     
  0.222      362.31     -9999      -9999      2.26       3.53       
  2.388766393808078 2.517735904843182 2.709830600925923 2.833942182618548 
  2.76       2.42       -9999      -9999      3.04       1.51       
  0.121      3.84       0.02537754 0.02537754 0.121      0.008264406 
  366.5777   2.76       0          0          697.7853   0.289765   
  0.058221   0.5213091 
1063.6     
  0.218      358.42     -9999      -9999      2.05       3.55       
  2.608786371991501 2.716985005446233 2.791993577526193 2.873975132120998 
  2.816985540782071 2.42       -9999      -9999      2.89       1.55       
  0.152      3.74       0.06618204 0.06618204 0.152      0.04709882 
  573.4926   2.816986   0          0          692.0566   0.2600544  
  0.04849705 0.4716118 
1063.8     
  0.223      357.14     -9999      -9999      2.2        3.63       
  2.138997996813832 2.351731749449349 2.537888394682454 2.714958965771469 
  2.771993531365348 2.5        -9999      -9999      3.06       1.56       
  0.131      3.55       0.04505688 0.04505688 0.131      0.01913026 
  416.5796   2.771994   0          0          691.3279   0.2604337  
  0.05525914 0.4656082 
1064       
  0.224      361.01     -9999      -9999      2.31       3.68       
  2.51668922970157 2.615652877277526 2.719831236275751 2.832921125072796 
  2.778998377597622 2.34       -9999      -9999      3.32       1.56       
  0.101      3.44       0.01533333 0.01533333 0.101      0.005384786 
  329.5259   2.778998   0          0          690.4392   0.259596   
  0.06081013 0.4583819 
1064.2     
  0.224      359.71     -9999      -9999      2.15       3.71       
  2.193925119591022 2.515971137998596 2.643972986139445 2.773974242478917 
  2.807993565281209 2.48       -9999      -9999      3.27       1.58       
  0.111      3.2        0.03092712 0.03092712 0.111      0.01047136 
  463.4197   2.807994   0          0          687.1306   0.2426451  
  0.05290636 0.4323838 
1064.4     
  0.225      357.14     -9999      -9999      2.09       3.76       
  2.583538765820498 2.714958151672089 2.841897113497768 2.893943394785293 
  2.826985592220745 2.49       -9999      -9999      3.24       1.55       
  0.107      2.88       0.03282298 0.03282298 0.107      0.01135322 
  526.6312   2.826986   0          0          682.6419   0.2247789  
  0.05021486 0.3993429 
1064.6     
  0.223      353.35     -9999      -9999      2.01       3.7        
  2.289807930611029 2.576915653753173 2.706919649574145 2.775942306159511 
  2.83       2.6        -9999      -9999      3.18       1.57       
  0.119      2.62       0.05068222 0.05068222 0.119      0.02431732 
  624.5238   2.83       0          0          677.9132   0.2070236  
  0.04683799 0.3672092 
1064.8     
  0.225      358.42     -9999      -9999      2.1        3.66       
  2.355932080653979 2.524955910184268 2.623972781896182 2.740998361450371 
  2.79       2.45       -9999      -9999      3.08       1.58       
  0.133      2.44       0.05267321 0.05267321 0.133      0.02647242 
  515.5268   2.79       0          0          687.6245   0.2434145  
  0.05065374 0.4361753 
1065       
  0.227      352.11     -9999      -9999      2.03       3.72       
  2.320839557299674 2.735005650610308 2.736714880293667 2.85776804971595 
  2.929843558009945 2.45       -9999      -9999      3.18       1.6        
  0.126      2.39       0.03901205 0.03901205 0.126      0.01478277 
  598.4645   2.929844   0          0          693.0059   0.2635998  
  0.0476603  0.4795394 
1065.2     
  0.225      322.58     -9999      -9999      1.83       4          
  3.312032865215688 3.571173767225213 3.427759671301274 3.370904778652053 
  3.290490594837146 2.78       -9999      -9999      3.51       1.62       
  0.094      2.31       0.01       0.009012902 0.094      0.004289259 
  916.5258   3.290491   0          0          692.4672   0.2575366  
  0.04004716 0.4750261 
1065.4     
  0.225      294.11     -9999      -9999      1.63       4.27       
  3.018881130366144 3.218801221369547 3.392322718509449 3.426630244300149 
  3.382988084676857 3.08       -9999      -9999      3.55       1.68       
  0.103      2.21       0.0218422  0.0218422  0.103      0.007107691 
  1403.625   3.382988   0          0          690.4186   0.2459327  
  0.03365012 0.4582153 
1065.6     
  0.225      307.69     -9999      -9999      1.62       4.41       
  2.442991786051695 2.746541604780189 2.907514545273632 3.012753245731143 
  3.094681060818951 2.74       -9999      -9999      3.16       1.61       
  0.131      2.1        0.05247003 0.05247003 0.131      0.02624401 
  1433.859   3.094681   0          0          688.4499   0.2379696  
  0.03335856 0.4425806 
1065.8     
  0.224      330.03     -9999      -9999      2.03       4.56       
  2.663888505925835 2.991496434739218 3.056745425675144 3.060879017981031 
  3.046986637997327 2.53       -9999      -9999      2.91       1.51       
  0.138      1.95       0.05806949 0.05806949 0.138      0.03332314 
  598.4645   3.046987   0          0          687.7012   0.2422137  
  0.0476603  0.436767  
