~Version
 VERS              .         2.0                           : CWLS LOG ASCII STANDARD - VERSION 2.0
 WRAP              .         YES                            : ONE LINE PER DEPTH STEP
 DLM               .         SPACE                         : DELIMITING CHARACTER(SPACE TAB OR COMMA)
~Well Information
#_______________________________________________________________________________
#
#PARAMETER_NAME    .UNIT     VALUE                         : DESCRIPTION
#_______________________________________________________________________________
STRT               .M        7                             : First reference value
STOP               .M        1232                          : Last reference value
STEP               .M        0.2                           : Step increment
NULL               .         -9999                         : Missing value
COMP               .                                       : Company
WELL               .         2796                          : Well name
FLD                .                                       : Field
LOC                .                                       : Location
CNTY               .                                       : County
STAT               .                                       : State
CTRY               .                                       : Country
SRVC               .                                       : Service Company
DATE               .                                       : Date
API                .                                       : API number
~Parameter Information Block
#_______________________________________________________________________________
#
#PARAMETER_NAME    .UNIT     VALUE                         : DESCRIPTION
#_______________________________________________________________________________
SET                .         LQC_KAZNIPI_Petrel            : 
TLFamily_CALI      .         Caliper                       : 
TLFamily_CILD      .         Conductivity                  : 
TLFamily_COLL      .         Net Reservoir Flag            : 
TLFamily_CSAT      .         Fluid Code                    : 
TLFamily_DEPT      .         Measured Depth                : 
TLFamily_GR        .         Russian Gamma Ray             : 
TLFamily_GZ3       .         Gradient 225                  : 
TLFamily_IK1       .         Resistivity 05                : 
TLFamily_IK2       .         Resistivity 07                : 
TLFamily_IK3       .         Resistivity 10                : 
TLFamily_IK4       .         Resistivity 14                : 
TLFamily_IK5       .         Resistivity 20                : 
TLFamily_LLS       .         Lateral Log Resistivity       : 
TLFamily_MBK       .         Micro Lateral Log Resistivity : 
TLFamily_MINV      .         Micro Gradient Resistivity    : 
TLFamily_NNKTB     .         Neutron Far                   : 
TLFamily_NNKTM     .         Neutron Near                  : 
TLFamily_NPHI      .         Neutron Porosity              : 
TLFamily_OGZ       .         Gradient Inverted 225         : 
TLFamily_PHIE      .         Effective Porosity            : 
TLFamily_PHIEN     .         Effective Porosity            : 
TLFamily_PHIT      .         Porosity                      : 
TLFamily_PRMB      .         Permeability                  : 
TLFamily_PRMB_DGR  .         Permeability                  : 
TLFamily_RT        .         Formation Resistivity         : 
TLFamily_SOIL_ARCHIE .         Oil Saturation                : 
TLFamily_SOIL_DW   .         Oil Saturation                : 
TLFamily_SP        .         Spontaneous Potential         : 
TLFamily_VSH_FIN   .         Shale Volume                  : 
TLFamily_VSH_GR    .         Shale Volume                  : 
TLFamily_VSH_SP    .         Shale Volume                  : 
~Curve Information
#_______________________________________________________________________________
#
#LOGNAME           .UNIT     LOG_ID                        : DESCRIPTION
#_______________________________________________________________________________
DEPT               .M                                      :  
CALI               .м                                      :  
CILD               .мСм/м                                  :  
COLL               .unitless                               :  
CSAT               .unitless                               :  
GR                 .uR/h                                   :  
GZ3                .Ohmm                                   :  
IK1                .Ohmm                                   :  
IK2                .Ohmm                                   :  
IK3                .Ohmm                                   :  
IK4                .Ohmm                                   :  
IK5                .Ohmm                                   :  
LLS                .Ohmm                                   :  
MBK                .Ohmm                                   :  
MINV               .Ohmm                                   :  
NNKTB              .у.е.                                   :  
NNKTM              .у.е.                                   :  
NPHI               .v/v                                    :  
OGZ                .Ohmm                                   :  
PHIE               .v/v                                    :  
PHIEN              .v/v                                    :  
PHIT               .v/v                                    :  
PRMB               .mD                                     :  
PRMB_DGR           .mD                                     :  
RT                 .ohmm                                   :  
SOIL_ARCHIE        .v/v                                    :  
SOIL_DW            .v/v                                    :  
SP                 .мВ                                     :  
VSH_FIN            .v/v                                    :  
VSH_GR             .v/v                                    :  
VSH_SP             .v/v                                    :  
~Ascii
# ...
986.2000000000001 
  0.228      416.66     -9999      -9999      8.26       3.54       
  1.754392673312226 2.04639288001964 2.198293515577784 2.265509932471931 
  2.33690712712497 2.38       -9999      -9999      1.82       1.23       
  0.268      6.3        0.04738246 0.04738246 0.268      0.02112497 
  0.5701426  2.336907   0          0.1561186  699.501    0.668538   
  0.8        0.5370761 
986.4      
  0.23       436.68     -9999      -9999      7.15       3.2        
  1.631050014571332 1.965533515044604 2.084945342261909 2.22494882333402 
  2.29       2.31       -9999      -9999      1.82       1.2        
  0.254      6.62       0.1065911  0.1065911  0.254      0.2639266  
  2.284391   2.29       0          0.3185283  686.8639   0.4466938  
  0.4630376  0.43035   
986.6      
  0.235      427.35     -9999      -9999      6.11       3.08       
  1.561012717273238 1.752155461780451 2.137867919935071 2.34799229888344 
  2.421878949774367 2.44       -9999      -9999      1.7        1.18       
  0.285      6.98       0.1781124  0.1781124  0.285      5.57484    
  8.385783   2.421879   0.336478   0.4936062  679.1767   0.3239017  
  0.2722705  0.375533  
986.8      
  0.269      378.78     -9999      -9999      5.34       3.29       
  2.022528161844376 2.77312552819312 2.980163923646987 2.961088698516781 
  2.839341260181098 2.77       -9999      -9999      1.91       1.19       
  0.223      7.73       0.1311624  0.1311624  0.223      0.7526699  
  21.96307   2.839341   0.1961371  0.3875802  678.7694   0.2782957  
  0.1837622  0.3728292 
987        
  0.22       308.64     -9999      -9999      4.92       3.66       
  4.044401385286669 4.555703774972575 4.646725477182578 4.49384387999027 
  3.593381659952581 3.57       -9999      -9999      2.36       1.29       
  0.16       8.31       0.0533045  0.0533045  0.16       0.02719486 
  37.13425   3.593382   0          0.06231044 695.2022   0.3233197  
  0.1482938  0.4983456 
987.2000000000001 
  0.221      277        -9999      -9999      4.74       3.84       
  2.28401990458095 2.994270259300095 3.12285924976522 3.468303367706788 
  3.247919445281213 3.85       -9999      -9999      2.5        1.44       
  0.183      7.9        0.0453225  0.0453225  0.183      0.01934821 
  46.50761   3.24792    0          0.04957337 715.005    0.4172045  
  0.1352722  0.6991369 
987.4      
  0.258      349.65     -9999      -9999      4.99       3.52       
  1.682568022932689 2.03098516602622 2.320149580476088 2.452911087463574 
  2.585798101944659 2.92       -9999      -9999      2.15       1.37       
  0.235      7.14       0.07764118 0.07764118 0.235      0.07678229 
  34.0221    2.585798   0          0.2452367  727.0878   0.4768449  
  0.1536898  0.8       
987.6      
  0.31       413.22     -9999      -9999      5.37       3.18       
  1.683747982289494 1.971222402881304 2.108997860875029 2.240997996733114 
  2.38199247698255 2.51       -9999      -9999      1.77       1.22       
  0.28       7.09       0.1172112  0.1172112  0.28       0.4151397  
  21.15444   2.381993   0.03724984 0.3933099  731.6306   0.4932993  
  0.1865986  0.8       
987.8      
  0.298      414.93     -9999      -9999      5.44       3.31       
  1.079009949844941 1.76164503630643 2.14199163823616 2.435626406436244 
  2.545643041515804 2.62       -9999      -9999      1.74       1.15       
  0.255      8.1        0.09109089 0.09109089 0.255      0.1362644  
  19.38152   2.545643   0          0.3177465  731.8635   0.4966943  
  0.1933886  0.8       
988        
  0.277      325.73     -9999      -9999      5.33       4.08       
  2.196653680735283 3.184621411073874 3.516844903316625 3.631005703043335 
  3.672822170972162 3.67       -9999      -9999      2.14       1.19       
  0.167      10.22      0.01       0.004833657 0.167      0.004289259 
  22.23942   3.672822   0          0          733.0662   0.4914131  
  0.1828263  0.8       
988.2000000000001 
  0.23       216.91     -9999      -9999      4.49       5.62       
  5.671930993580197 6.924750136247735 7.246468904193341 6.559552185079841 
  6.005632296112335 6.65       -9999      -9999      2.71       1.34       
  0.119      11.91      0.01       0          0.119      0.004289259 
  63.57507   6.005632   0          0          731.7391   0.4595309  
  0.1190617  0.8       
988.4      
  0.216      137.17     -9999      -9999      3.49       7.21       
  11.00693030162218 12.25227870377591 12.2407521987039 11.10968862454129 
  8.651168989034048 14.41      -9999      -9999      3.74       1.59       
  0.068      11.75      0.01       0          0.068      0.004289259 
  221.9922   8.651169   0          0          728.2519   0.435727   
  0.07145394 0.8       
988.6      
  0.215      103.95     -9999      -9999      2.69       8.52       
  14.38888283938515 14.83403472801203 13.16968869141255 11.89      
  9.952665547569714 26.17      -9999      -9999      4.99       1.84       
  0.029      10.3       0.01       0          0.029      0.004289259 
  603.6409   9.952665   0          0          722.0447   0.4162865  
  0.04749299 0.78508   
988.8      
  0.21       101.52     -9999      -9999      2.14       9.16       
  12.78876372981228 14.00748390462326 12.53622258821394 10.84838248626354 
  9.542495747583709 19.48      -9999      -9999      4.97       1.94       
  0.043      8.47       0.01       0          0.043      0.004289259 
  1200.762   9.542496   0          0          710.4275   0.3416834  
  0.03586487 0.6475018 
989        
  0.212      108.57     -9999      -9999      2.47       9.36       
  10.06419330706601 12.56842920190671 12.05064599344167 10.07057751170377 
  8.855355378162866 12.13      -9999      -9999      4.36       1.84       
  0.066      6.32       0.01       0          0.066      0.004289259 
  794.7856   8.855355   0          0          700.4703   0.2943068  
  0.04244684 0.5461668 
989.2000000000001 
  0.212      118.62     -9999      -9999      2.73       9.32       
  8.012419060430146 11.02129409163688 11.57095317984197 9.612995793953385 
  8.136603827654179 8.58       -9999      -9999      3.87       1.76       
  0.089      4.83       0.01       0          0.089      0.004289259 
  574.1914   8.136603   0          0          695.0231   0.27263    
  0.04847294 0.4967871 
989.4      
  0.212      126.9      -9999      -9999      2.92       9.39       
  7.49512530465526 10.07749259651137 11.26806285118544 9.575983139012585 
  7.696833000548192 7.31       -9999      -9999      3.7        1.7        
  0.093      3.78       0.01       0.004826857 0.093      0.004289259 
  452.7693   7.696833   0          0          693.1759   0.2671914  
  0.05341104 0.4809716 
989.6      
  0.212      137.17     -9999      -9999      2.99       9.26       
  6.910921983146797 9.096337115519701 9.887850990400008 8.911131022437786 
  6.943269831865504 6.53       -9999      -9999      3.67       1.68       
  0.092      3.01       0.01       0          0.092      0.004289259 
  414.8235   6.94327    0          0          698.4987   0.2915848  
  0.05535454 0.527815  
989.8      
  0.212      152.67     -9999      -9999      2.75       8.87       
  6.335803649852013 7.493259338073918 7.579072962860912 7.075053054275532 
  6.049148195071737 5.58       -9999      -9999      3.49       1.67       
  0.107      2.49       0.01       0          0.107      0.004289259 
  560.0098   6.049148   0          0          709.7314   0.3444529  
  0.04897046 0.6399353 
990        
  0.212      183.15     -9999      -9999      2.54       8.33       
  3.416600727365059 4.632520770095406 4.96936264525035 5.111287173916308 
  4.920570301580875 4.05       -9999      -9999      3.16       1.63       
  0.136      2.15       0.01       0.0006951403 0.136      0.004289259 
  728.1761   4.92057    0          0          721.3342   0.4100147  
  0.04399138 0.7760381 
990.2000000000001 
  0.212      217.86     -9999      -9999      2.69       8.08       
  4.786900943013708 5.111008508838827 5.034928150673188 4.832954020423326 
  4.388638185066386 3.14       -9999      -9999      2.99       1.57       
  0.143      2.05       0.01       0.003163663 0.143      0.004289259 
  603.6409   4.388638   0          0          724.347    0.4237465  
  0.04749299 0.8       
