~Version
 VERS              .         2.0                           : CWLS LOG ASCII STANDARD - VERSION 2.0
 WRAP              .         YES                            : ONE LINE PER DEPTH STEP
 DLM               .         SPACE                         : DELIMITING CHARACTER(SPACE TAB OR COMMA)
~Well Information
#_______________________________________________________________________________
#
#PARAMETER_NAME    .UNIT     VALUE                         : DESCRIPTION
#_______________________________________________________________________________
STRT               .M        7                             : First reference value
STOP               .M        1232                          : Last reference value
STEP               .M        0.2                           : Step increment
NULL               .         -9999                         : Missing value
COMP               .                                       : Company
WELL               .         2796                          : Well name
FLD                .                                       : Field
LOC                .                                       : Location
CNTY               .                                       : County
STAT               .                                       : State
CTRY               .                                       : Country
SRVC               .                                       : Service Company
DATE               .                                       : Date
API                .                                       : API number
~Parameter Information Block
#_______________________________________________________________________________
#
#PARAMETER_NAME    .UNIT     VALUE                         : DESCRIPTION
#_______________________________________________________________________________
SET                .         LQC_KAZNIPI_Petrel            : 
TLFamily_CALI      .         Caliper                       : 
TLFamily_CILD      .         Conductivity                  : 
TLFamily_COLL      .         Net Reservoir Flag            : 
TLFamily_CSAT      .         Fluid Code                    : 
TLFamily_DEPT      .         Measured Depth                : 
TLFamily_GR        .         Russian Gamma Ray             : 
TLFamily_GZ3       .         Gradient 225                  : 
TLFamily_IK1       .         Resistivity 05                : 
TLFamily_IK2       .         Resistivity 07                : 
TLFamily_IK3       .         Resistivity 10                : 
TLFamily_IK4       .         Resistivity 14                : 
TLFamily_IK5       .         Resistivity 20                : 
TLFamily_LLS       .         Lateral Log Resistivity       : 
TLFamily_MBK       .         Micro Lateral Log Resistivity : 
TLFamily_MINV      .         Micro Gradient Resistivity    : 
TLFamily_NNKTB     .         Neutron Far                   : 
TLFamily_NNKTM     .         Neutron Near                  : 
TLFamily_NPHI      .         Neutron Porosity              : 
TLFamily_OGZ       .         Gradient Inverted 225         : 
TLFamily_PHIE      .         Effective Porosity            : 
TLFamily_PHIEN     .         Effective Porosity            : 
TLFamily_PHIT      .         Porosity                      : 
TLFamily_PRMB      .         Permeability                  : 
TLFamily_PRMB_DGR  .         Permeability                  : 
TLFamily_RT        .         Formation Resistivity         : 
TLFamily_SOIL_ARCHIE .         Oil Saturation                : 
TLFamily_SOIL_DW   .         Oil Saturation                : 
TLFamily_SP        .         Spontaneous Potential         : 
TLFamily_VSH_FIN   .         Shale Volume                  : 
TLFamily_VSH_GR    .         Shale Volume                  : 
TLFamily_VSH_SP    .         Shale Volume                  : 
~Curve Information
#_______________________________________________________________________________
#
#LOGNAME           .UNIT     LOG_ID                        : DESCRIPTION
#_______________________________________________________________________________
DEPT               .M                                      :  
CALI               .м                                      :  
CILD               .мСм/м                                  :  
COLL               .unitless                               :  
CSAT               .unitless                               :  
GR                 .uR/h                                   :  
GZ3                .Ohmm                                   :  
IK1                .Ohmm                                   :  
IK2                .Ohmm                                   :  
IK3                .Ohmm                                   :  
IK4                .Ohmm                                   :  
IK5                .Ohmm                                   :  
LLS                .Ohmm                                   :  
MBK                .Ohmm                                   :  
MINV               .Ohmm                                   :  
NNKTB              .у.е.                                   :  
NNKTM              .у.е.                                   :  
NPHI               .v/v                                    :  
OGZ                .Ohmm                                   :  
PHIE               .v/v                                    :  
PHIEN              .v/v                                    :  
PHIT               .v/v                                    :  
PRMB               .mD                                     :  
PRMB_DGR           .mD                                     :  
RT                 .ohmm                                   :  
SOIL_ARCHIE        .v/v                                    :  
SOIL_DW            .v/v                                    :  
SP                 .мВ                                     :  
VSH_FIN            .v/v                                    :  
VSH_GR             .v/v                                    :  
VSH_SP             .v/v                                    :  
~Ascii
# ...
1007.2     
  0.211      347.22     -9999      -9999      1.25       2.56       
  3.226759131669421 4.305379489296448 4.705809548011025 3.942943542518309 
  2.915975126394401 2.63       -9999      -9999      3.22       1.57       
  0.114      2.74       0.02796025 0.02796025 0.114      0.009226771 
  3654.033   2.915975   0          0          695.2412   0.2607265  
  0.0227675  0.4986855 
1007.4     
  0.21       336.7      -9999      -9999      1.19       2.72       
  3.579481591348344 4.699608084779853 4.977868127314316 4.142946292835627 
  3.005975876451967 2.77       -9999      -9999      3.2        1.61       
  0.126      2.61       0.05316059 0.05316059 0.126      0.02702845 
  3938.724   3.005976   0          0          685.4033   0.2207255  
  0.02208059 0.4193704 
1007.6     
  0.21       333.33     -9999      -9999      1.12       2.89       
  3.575979672346602 4.528191798097702 4.836736063680151 3.960864535099727 
  2.95496226880716 2.78       -9999      -9999      3.13       1.64       
  0.142      2.48       0.08104065 0.08104065 0.142      0.08876209 
  4299.017   2.954962   0          0.04589889 674.9055   0.1847253  
  0.02130534 0.3481453 
1007.8     
  0.211      343.64     -9999      -9999      1.12       2.96       
  3.218801274212551 4.009028482706021 4.180167055168564 3.654728890165136 
  2.837900018652591 2.59       -9999      -9999      2.96       1.61       
  0.158      2.33       0.1043532  0.1043532  0.158      0.2399014  
  4299.017   2.8379     0.01876241 0.1748535  667.1777   0.162566   
  0.02130534 0.3038267 
1008       
  0.211      363.63     -9999      -9999      1.11       2.92       
  3.035976082231901 3.810998820857245 3.790858552457082 3.342777113113217 
  2.676918761437569 2.39       -9999      -9999      2.85       1.57       
  0.163      2.12       0.1143486  0.1143486  0.163      0.3674279  
  4353.11    2.676919   0.06872731 0.1965569  661.1498   0.1474284  
  0.02119683 0.2736599 
1008.2     
  0.212      384.61     -9999      -9999      1.1        2.91       
  2.924961956902896 3.666940473882668 3.580850390428505 3.098884169888106 
  2.54495625308846 2.22       -9999      -9999      2.74       1.58       
  0.184      1.97       0.1342949  0.1342949  0.184      0.8602508  
  4407.884   2.544956   0.1709854  0.2818798  662.512    0.1506216  
  0.02108888 0.2801543 
1008.4     
  0.211      396.82     -9999      -9999      0.98       2.92       
  2.666528380927672 3.358530453872436 3.293738148965076 2.862740620480991 
  2.474955028934817 2.14       -9999      -9999      2.66       1.58       
  0.198      1.89       0.1450601  0.1450601  0.198      1.361519   
  5121.49    2.474955   0.2146208  0.324344   666.6141   0.1604238  
  0.02       0.3008477 
1008.6     
  0.211      418.41     -9999      -9999      1.04       2.84       
  2.648998394141692 3.176931399123013 3.135948862569263 2.697894910863901 
  2.334952362907137 2.02       -9999      -9999      2.63       1.54       
  0.191      1.88       0.1234702  0.1234702  0.191      0.5421568  
  4751.309   2.334952   0.07124478 0.2408943  681.1363   0.2046359  
  0.02045261 0.3888192 
1008.8     
  0.212      438.59     -9999      -9999      1.1        2.74       
  2.413645610519246 2.943707781344627 2.949850156802286 2.575937881522063 
  2.233968075088359 1.93       -9999      -9999      2.53       1.51       
  0.201      1.85       0.1310225  0.1310225  0.201      0.7481912  
  4407.884   2.233968   0.09955934 0.2650291  683.1584   0.2120531  
  0.02108888 0.4030172 
1009       
  0.213      458.71     -9999      -9999      1.19       2.67       
  2.191712774351852 2.717895672270348 2.776921648250207 2.425934090472319 
  2.116897641854894 1.83       -9999      -9999      2.45       1.5        
  0.214      1.74       0.1244075  0.1244075  0.214      0.5642687  
  3938.724   2.116898   0.03390222 0.2574662  697.7407   0.2714926  
  0.02208059 0.5209045 
1009.2     
  0.213      485.43     -9999      -9999      1.18       2.67       
  2.227991903098838 2.766985277979177 2.758998365814027 2.380998114259844 
  2.032980234014231 1.74       -9999      -9999      2.44       1.48       
  0.209      1.74       0.1051793  0.1051793  0.209      0.2485039  
  3988.284   2.03298    0          0.179134   706.6428   0.3146083  
  0.02196813 0.6072484 
1009.4     
  0.212      500        -9999      -9999      1.16       2.66       
  2.206981556132649 2.656918158357527 2.666918461012704 2.313969168757378 
  1.954943227500694 1.71       -9999      -9999      2.55       1.5        
  0.194      1.71       0.1015886  0.1015886  0.194      0.2132188  
  4089.282   1.954943   0          0.1119396  699.6349   0.2800345  
  0.02174494 0.5383241 
1009.6     
  0.21       526.31     -9999      -9999      1.31       2.57       
  1.943562901148005 2.395535620576188 2.431740349588541 2.15786912048535 
  1.836882348606147 1.67       -9999      -9999      2.62       1.52       
  0.187      1.65       0.1077622  0.1077622  0.187      0.2774446  
  3389.92    1.836882   0          0.08460464 690.2371   0.2401144  
  0.02347578 0.4567531 
1009.8     
  0.21       561.79     -9999      -9999      1.38       2.47       
  1.838997580233519 2.21298183022587 2.292982459767228 2.023964797130646 
  1.724935772404417 1.56       -9999      -9999      2.56       1.53       
  0.201      1.62       0.125467   0.125467   0.201      0.5903513  
  3105.817   1.724936   0          0.1487936  687.2693   0.228888   
  0.02433001 0.433446  
1010       
  0.21       595.23     -9999      -9999      1.2        2.33       
  1.799999952316284 2.23       2.261992079753148 1.982979739604587 
  1.660997299454241 1.51       -9999      -9999      2.5        1.52       
  0.21       1.68       0.1271369  0.1271369  0.21       0.6339309  
  3889.78    1.660997   0          0.159479   693.0615   0.2511003  
  0.02219362 0.480007  
1010.2     
  0.212      617.28     -9999      -9999      1.13       2.23       
  1.87596117708271 2.22       2.241992009433654 1.941990781780597 
  1.592974828577341 1.5        -9999      -9999      2.4        1.51       
  0.228      1.66       0.1470639  0.1470639  0.228      1.482989   
  4245.596   1.592975   0.04569376 0.2294096  691.7537   0.245261   
  0.0214144  0.4691076 
1010.4     
  0.212      649.35     -9999      -9999      1.07       2.15       
  1.881990482889627 2.143966748108389 2.098830210824674 1.845913732889248 
  1.512973511506143 1.5        -9999      -9999      2.39       1.53       
  0.237      1.65       0.1713248  0.1713248  0.237      4.173581   
  4576.375   1.512974   0.1440819  0.2740307  679.4358   0.1990158  
  0.02076831 0.3772633 
1010.6     
  0.212      675.67     -9999      -9999      1.1        2.16       
  1.853961625909415 2.054945954950531 1.96591891465984 1.72590784357403 
  1.452972429555611 1.48       -9999      -9999      2.62       1.49       
  0.178      1.68       0.1239124  0.1239124  0.178      0.5524805  
  4407.884   1.452972   0          0          667.718    0.1639017  
  0.02108888 0.3067146 
1010.8     
  0.212      694.44     -9999      -9999      1.18       2.11       
  1.803960514310127 1.973963914959817 1.844939890645742 1.64395676396043 
  1.430996867013688 1.46       -9999      -9999      2.68       1.47       
  0.161      1.8        0.1066234  0.1066234  0.161      0.2642908  
  3988.284   1.430997   0          0          667.8801   0.1647776  
  0.02196813 0.307587  
1011       
  0.213      699.3      -9999      -9999      1.14       2.01       
  1.7259078666376 1.863961809466436 1.790997494892502 1.638997245454123 
  1.448996882928291 1.45       -9999      -9999      2.66       1.47       
  0.165      1.92       0.09375691 0.09375691 0.165      0.1526735  
  4192.838   1.448997   0          0          684.1623   0.2158882  
  0.02152402 0.4102523 
1011.2     
  0.211      666.66     -9999      -9999      1.15       1.99       
  1.951214035968969 2.09126919716077 1.977661365223865 1.789740833324831 
  1.563894246495752 1.49       -9999      -9999      2.52       1.44       
  0.18       1.99       0.07432065 0.07432065 0.18       0.06664335 
  4140.737   1.563894   0          0          707.7545   0.3202405  
  0.0216342  0.6188468 
