~Version
 VERS              .         2.0                           : CWLS LOG ASCII STANDARD - VERSION 2.0
 WRAP              .         YES                            : ONE LINE PER DEPTH STEP
 DLM               .         SPACE                         : DELIMITING CHARACTER(SPACE TAB OR COMMA)
~Well Information
#_______________________________________________________________________________
#
#PARAMETER_NAME    .UNIT     VALUE                         : DESCRIPTION
#_______________________________________________________________________________
STRT               .M        7                             : First reference value
STOP               .M        1232                          : Last reference value
STEP               .M        0.2                           : Step increment
NULL               .         -9999                         : Missing value
COMP               .                                       : Company
WELL               .         2796                          : Well name
FLD                .                                       : Field
LOC                .                                       : Location
CNTY               .                                       : County
STAT               .                                       : State
CTRY               .                                       : Country
SRVC               .                                       : Service Company
DATE               .                                       : Date
API                .                                       : API number
~Parameter Information Block
#_______________________________________________________________________________
#
#PARAMETER_NAME    .UNIT     VALUE                         : DESCRIPTION
#_______________________________________________________________________________
SET                .         LQC_KAZNIPI_Petrel            : 
TLFamily_CALI      .         Caliper                       : 
TLFamily_CILD      .         Conductivity                  : 
TLFamily_COLL      .         Net Reservoir Flag            : 
TLFamily_CSAT      .         Fluid Code                    : 
TLFamily_DEPT      .         Measured Depth                : 
TLFamily_GR        .         Russian Gamma Ray             : 
TLFamily_GZ3       .         Gradient 225                  : 
TLFamily_IK1       .         Resistivity 05                : 
TLFamily_IK2       .         Resistivity 07                : 
TLFamily_IK3       .         Resistivity 10                : 
TLFamily_IK4       .         Resistivity 14                : 
TLFamily_IK5       .         Resistivity 20                : 
TLFamily_LLS       .         Lateral Log Resistivity       : 
TLFamily_MBK       .         Micro Lateral Log Resistivity : 
TLFamily_MINV      .         Micro Gradient Resistivity    : 
TLFamily_NNKTB     .         Neutron Far                   : 
TLFamily_NNKTM     .         Neutron Near                  : 
TLFamily_NPHI      .         Neutron Porosity              : 
TLFamily_OGZ       .         Gradient Inverted 225         : 
TLFamily_PHIE      .         Effective Porosity            : 
TLFamily_PHIEN     .         Effective Porosity            : 
TLFamily_PHIT      .         Porosity                      : 
TLFamily_PRMB      .         Permeability                  : 
TLFamily_PRMB_DGR  .         Permeability                  : 
TLFamily_RT        .         Formation Resistivity         : 
TLFamily_SOIL_ARCHIE .         Oil Saturation                : 
TLFamily_SOIL_DW   .         Oil Saturation                : 
TLFamily_SP        .         Spontaneous Potential         : 
TLFamily_VSH_FIN   .         Shale Volume                  : 
TLFamily_VSH_GR    .         Shale Volume                  : 
TLFamily_VSH_SP    .         Shale Volume                  : 
~Curve Information
#_______________________________________________________________________________
#
#LOGNAME           .UNIT     LOG_ID                        : DESCRIPTION
#_______________________________________________________________________________
DEPT               .M                                      :  
CALI               .м                                      :  
CILD               .мСм/м                                  :  
COLL               .unitless                               :  
CSAT               .unitless                               :  
GR                 .uR/h                                   :  
GZ3                .Ohmm                                   :  
IK1                .Ohmm                                   :  
IK2                .Ohmm                                   :  
IK3                .Ohmm                                   :  
IK4                .Ohmm                                   :  
IK5                .Ohmm                                   :  
LLS                .Ohmm                                   :  
MBK                .Ohmm                                   :  
MINV               .Ohmm                                   :  
NNKTB              .у.е.                                   :  
NNKTM              .у.е.                                   :  
NPHI               .v/v                                    :  
OGZ                .Ohmm                                   :  
PHIE               .v/v                                    :  
PHIEN              .v/v                                    :  
PHIT               .v/v                                    :  
PRMB               .mD                                     :  
PRMB_DGR           .mD                                     :  
RT                 .ohmm                                   :  
SOIL_ARCHIE        .v/v                                    :  
SOIL_DW            .v/v                                    :  
SP                 .мВ                                     :  
VSH_FIN            .v/v                                    :  
VSH_GR             .v/v                                    :  
VSH_SP             .v/v                                    :  
~Ascii
# ...
1116.4     
  0.234      316.45     -9999      -9999      4.57       3.49       
  2.397882089569302 2.652142022991369 2.719500715876599 2.785880199980715 
  2.915003723603515 2.98       -9999      -9999      2.66       1.48       
  0.168      2.97       0.07197675 0.07197675 0.168      0.06030344 
  15.05473   2.915004   0          0.09374486 677.9664   0.2909795  
  0.2144031  0.367556  
1116.6     
  0.249      366.3      -9999      -9999      4.92       3.57       
  1.948997733426515 2.334952362907143 2.461992720382141 2.544956253088466 
  2.637892558465415 2.45       -9999      -9999      2.4        1.36       
  0.176      2.64       0.0719722  0.0719722  0.176      0.06029173 
  8.368761   2.637892   0          0.0749206  676.477    0.3152358  
  0.2724964  0.3579751 
1116.8     
  0.263      384.61     -9999      -9999      4.85       3.59       
  1.961680129208594 2.365932441240979 2.566984123745678 2.59597203482369 
  2.598998265003002 2.35       -9999      -9999      2.4        1.34       
  0.169      2.63       0.06323779 0.06323779 0.169      0.04154085 
  9.411607   2.598998   0          0          680.0276   0.3204915  
  0.2597376  0.3812455 
1117       
  0.247      377.35     -9999      -9999      4.73       3.68       
  2.156827927841047 2.713945541010438 2.788258422260125 2.805677031789148 
  2.70393936948681 2.42       -9999      -9999      2.39       1.35       
  0.174      2.81       0.08099915 0.08099915 0.174      0.08860512 
  11.51055   2.703939   0          0.1192559  670.9081   0.2818207  
  0.2392396  0.3244019 
1117.2     
  0.24       367.64     -9999      -9999      4.68       3.94       
  2.280534773068079 2.73216607739637 2.787494336999482 2.866924076395269 
  2.720998349430179 2.68       -9999      -9999      2.37       1.36       
  0.182      2.76       0.08748516 0.08748516 0.182      0.116841   
  12.51776   2.720998   0          0.1707663  673.8387   0.2864086  
  0.2311838  0.3416334 
1117.4     
  0.246      377.35     -9999      -9999      4.76       3.8        
  2.206901788189831 2.001442890296961 1.996644956873837 2.323681078029658 
  2.350171628341777 2.46       -9999      -9999      2.11       1.29       
  0.213      2.44       0.1066066  0.1066066  0.213      0.2641013  
  10.94556   2.350172   0          0.2492919  682.8193   0.3224043  
  0.2442073  0.4006013 
1117.6     
  0.298      469.48     -9999      -9999      4.7        3.39       
  1.333968867891388 1.978308677607115 1.534925409622572 1.821656334350642 
  2.091991439396968 1.98       -9999      -9999      1.92       1.18       
  0.215      2.43       0.1049734  0.1049734  0.215      0.2463318  
  12.10472   2.091991   0          0.2041923  687.1398   0.3334139  
  0.2343731  0.4324548 
1117.8     
  0.245      454.54     -9999      -9999      4.49       3.43       
  2.672722719003885 3.551994947595541 3.210413760047614 2.825312531574451 
  2.424871355378769 1.95       -9999      -9999      2.03       1.19       
  0.192      2.74       0.07749937 0.07749937 0.192      0.07631932 
  17.21717   2.424871   0          0.1113349  694.3504   0.3469716  
  0.202969   0.4909741 
1118       
  0.251      373.13     -9999      -9999      4.75       3.71       
  1.43156663910918 2.031527323125985 2.181234571490766 2.604373856652427 
  2.7        2.26       -9999      -9999      2.08       1.32       
  0.233      2.94       0.1031736  0.1031736  0.233      0.2281302  
  11.13074   2.7        0          0.3293188  700.271    0.3934134  
  0.24254    0.5442868 
1118.2     
  0.274      396.82     -9999      -9999      5.21       4          
  1.471798485586202 1.840796679838936 2.194521137768751 2.266653881274122 
  2.32833133382419 2.01       -9999      -9999      2.01       1.26       
  0.226      3.12       0.08826696 0.08826696 0.226      0.1208026  
  5.144769   2.328331   0          0.2202763  695.6616   0.4173728  
  0.3323837  0.502362  
1118.4     
  0.231      434.78     -9999      -9999      5.05       4.11       
  2.122466339101756 2.252982150545776 2.52       2.473971145708263 
  2.352904774005521 2.03       -9999      -9999      2.14       1.23       
  0.182      3.08       0.06129018 0.06129018 0.182      0.0382297  
  6.728875   2.352905   0          0          687.3021   0.3657873  
  0.2978774  0.4336972 
1118.6     
  0.247      454.54     -9999      -9999      5.15       3.87       
  0.9466090277055438 1.237916045241362 1.529846349608854 1.732968829680387 
  1.917172863263559 2.12       -9999      -9999      2.04       1.25       
  0.214      2.47       0.08481663 0.08481663 0.214      0.104272   
  5.689606   1.917173   0          0.0973478  691.1227   0.3914648  
  0.3189987  0.4639308 
1118.8     
  0.296      578.03     -9999      -9999      5.26       3.28       
  1.096259309285808 1.42752471500811 1.530754162191914 1.616974702795774 
  1.637828616766696 1.67       -9999      -9999      1.75       1.17       
  0.262      1.99       0.1235188  0.1235188  0.262      0.5432828  
  4.730808   1.637829   0          0.2520368  694.8533   0.41964    
  0.343966   0.495314  
1119       
  0.274      625        -9999      -9999      5.66       2.68       
  0.760301290262124 1.210570958490668 1.396846248669999 1.526859028918677 
  1.581988698096476 1.48       -9999      -9999      1.47       1.1        
  0.334      1.86       0.1861556  0.1861556  0.334      7.856171   
  2.418208   1.581989   0.2202799  0.4404097  688.5839   0.4480134  
  0.4523982  0.4436286 
1119.2     
  0.341      641.02     -9999      -9999      5.84       2.47       
  0.8638052346015108 1.28       1.504923895752861 1.53697337218092 
  1.541988406929817 1.41       -9999      -9999      1.47       1.08       
  0.322      1.83       0.1680907  0.1680907  0.322      3.635845   
  1.787905   1.541988   0.1374795  0.3968279  685.6245   0.4663918  
  0.5117683  0.4210154 
1119.4     
  0.373      649.35     -9999      -9999      5.77       2.41       
  0.9305869566135947 1.284910587864561 1.491988021172099 1.533953705889919 
  1.54       1.41       -9999      -9999      1.43       1.09       
  0.347      1.8        0.1961529  0.1961529  0.347      12.03332   
  2.0107     1.54       0.2455437  0.4571134  686.345    0.4571124  
  0.4878063  0.4264186 
1119.6     
  0.359      680.27     -9999      -9999      5.87       2.38       
  0.6104844432671897 0.9331594087281272 1.120239313761727 1.293355180934714 
  1.38779865847117 1.4        -9999      -9999      1.36       1.12       
  0.406      1.74       0.2516399  0.2516399  0.406      128.2741   
  1.700148   1.387799   0.3622973  0.5288402  684.5556   0.4677579  
  0.5223947  0.4131212 
1119.8     
  0.394      746.26     -9999      -9999      5.59       2.26       
  0.5799999833106995 0.9027451870788188 1.093847429518353 1.264909143522843 
  1.303945671161771 1.32       -9999      -9999      1.39       1.07       
  0.355      1.74       0.2209677  0.2209677  0.355      34.675     
  2.719543   1.303946   0.2646643  0.4450474  680.0062   0.4061584  
  0.4312161  0.3811006 
1120       
  0.443      729.92     -9999      -9999      5.44       2.11       
  0.7698345128880325 1.286135766714492 1.427490972808184 1.478616506794672 
  1.442843112458771 1.29       -9999      -9999      1.34       1.04       
  0.361      1.9        0.2363759  0.2363759  0.361      66.89796   
  3.497733   1.442843   0.338758   0.4917271  677.7568   0.3776488  
  0.389106   0.3661917 
1120.2     
  0.357      684.93     -9999      -9999      5.5        2.18       
  0.6536190150157727 1.046723655791475 1.32518313313029 1.426849399446243 
  1.47798773271659 1.34       -9999      -9999      1.38       1.1        
  0.381      2.1        0.2470389  0.2470389  0.381      105.4185   
  3.16279    1.477988   0.3708321  0.5222705  683.6373   0.4059429  
  0.4054326  0.4064531 
1120.4     
  0.373      671.14     -9999      -9999      4.81       2.43       
  0.6589931368141389 1.078465994393757 1.504115749547062 1.505383452238881 
  1.570760621494249 1.37       -9999      -9999      1.45       1.09       
  0.338      2.43       0.2285913  0.2285913  0.338      47.99812   
  10.06487   1.570761   0.3457925  0.4865318  684.1779   0.3315414  
  0.2527169  0.4103659 
