~Version
 VERS              .         2.0                           : CWLS LOG ASCII STANDARD - VERSION 2.0
 WRAP              .         YES                            : ONE LINE PER DEPTH STEP
 DLM               .         SPACE                         : DELIMITING CHARACTER(SPACE TAB OR COMMA)
~Well Information
#_______________________________________________________________________________
#
#PARAMETER_NAME    .UNIT     VALUE                         : DESCRIPTION
#_______________________________________________________________________________
STRT               .M        7                             : First reference value
STOP               .M        1232                          : Last reference value
STEP               .M        0.2                           : Step increment
NULL               .         -9999                         : Missing value
COMP               .                                       : Company
WELL               .         2796                          : Well name
FLD                .                                       : Field
LOC                .                                       : Location
CNTY               .                                       : County
STAT               .                                       : State
CTRY               .                                       : Country
SRVC               .                                       : Service Company
DATE               .                                       : Date
API                .                                       : API number
~Parameter Information Block
#_______________________________________________________________________________
#
#PARAMETER_NAME    .UNIT     VALUE                         : DESCRIPTION
#_______________________________________________________________________________
SET                .         LQC_KAZNIPI_Petrel            : 
TLFamily_CALI      .         Caliper                       : 
TLFamily_CILD      .         Conductivity                  : 
TLFamily_COLL      .         Net Reservoir Flag            : 
TLFamily_CSAT      .         Fluid Code                    : 
TLFamily_DEPT      .         Measured Depth                : 
TLFamily_GR        .         Russian Gamma Ray             : 
TLFamily_GZ3       .         Gradient 225                  : 
TLFamily_IK1       .         Resistivity 05                : 
TLFamily_IK2       .         Resistivity 07                : 
TLFamily_IK3       .         Resistivity 10                : 
TLFamily_IK4       .         Resistivity 14                : 
TLFamily_IK5       .         Resistivity 20                : 
TLFamily_LLS       .         Lateral Log Resistivity       : 
TLFamily_MBK       .         Micro Lateral Log Resistivity : 
TLFamily_MINV      .         Micro Gradient Resistivity    : 
TLFamily_NNKTB     .         Neutron Far                   : 
TLFamily_NNKTM     .         Neutron Near                  : 
TLFamily_NPHI      .         Neutron Porosity              : 
TLFamily_OGZ       .         Gradient Inverted 225         : 
TLFamily_PHIE      .         Effective Porosity            : 
TLFamily_PHIEN     .         Effective Porosity            : 
TLFamily_PHIT      .         Porosity                      : 
TLFamily_PRMB      .         Permeability                  : 
TLFamily_PRMB_DGR  .         Permeability                  : 
TLFamily_RT        .         Formation Resistivity         : 
TLFamily_SOIL_ARCHIE .         Oil Saturation                : 
TLFamily_SOIL_DW   .         Oil Saturation                : 
TLFamily_SP        .         Spontaneous Potential         : 
TLFamily_VSH_FIN   .         Shale Volume                  : 
TLFamily_VSH_GR    .         Shale Volume                  : 
TLFamily_VSH_SP    .         Shale Volume                  : 
~Curve Information
#_______________________________________________________________________________
#
#LOGNAME           .UNIT     LOG_ID                        : DESCRIPTION
#_______________________________________________________________________________
DEPT               .M                                      :  
CALI               .м                                      :  
CILD               .мСм/м                                  :  
COLL               .unitless                               :  
CSAT               .unitless                               :  
GR                 .uR/h                                   :  
GZ3                .Ohmm                                   :  
IK1                .Ohmm                                   :  
IK2                .Ohmm                                   :  
IK3                .Ohmm                                   :  
IK4                .Ohmm                                   :  
IK5                .Ohmm                                   :  
LLS                .Ohmm                                   :  
MBK                .Ohmm                                   :  
MINV               .Ohmm                                   :  
NNKTB              .у.е.                                   :  
NNKTM              .у.е.                                   :  
NPHI               .v/v                                    :  
OGZ                .Ohmm                                   :  
PHIE               .v/v                                    :  
PHIEN              .v/v                                    :  
PHIT               .v/v                                    :  
PRMB               .mD                                     :  
PRMB_DGR           .mD                                     :  
RT                 .ohmm                                   :  
SOIL_ARCHIE        .v/v                                    :  
SOIL_DW            .v/v                                    :  
SP                 .мВ                                     :  
VSH_FIN            .v/v                                    :  
VSH_GR             .v/v                                    :  
VSH_SP             .v/v                                    :  
~Ascii
# ...
1192       
  0.214      313.47     1          5          5.85       5.73       
  2.764959686511758 3.187910851130688 3.285951174478146 3.205949968117412 
  3.144964529177317 3.02       -9999      -9999      1.79       1.32       
  0.324      3.55       0.2491361  0.2491361  0.324      115.2825   
  12.77842   3.144964   0.5617959  0.6410192  649.2661   0.2268602  
  0.2292465  0.224474  
1192.2     
  0.215      321.54     1          5          6.08       5.42       
  2.612716354891028 3.097908296260127 3.176931399123005 3.142987179419977 
  3.110998555994428 2.89       -9999      -9999      1.79       1.29       
  0.309      3.49       0.2210199  0.2210199  0.309      34.75221   
  9.501146   3.110999   0.511141   0.6099902  661.3235   0.2666064  
  0.2587352  0.2744775 
1192.4     
  0.215      317.46     1          5          5.72       5.3        
  2.648998394141693 3.057994093181481 3.090998546667219 3.15       
  3.147994262629911 2.87       -9999      -9999      1.72       1.26       
  0.32       3.67       0.2147555  0.2147555  0.32       26.60427   
  15.10848   3.147994   0.5015174  0.6156852  685.9908   0.3189226  
  0.2140912  0.4237541 
1192.6     
  0.215      313.47     1          5          5.76       5.3        
  2.631759513589999 2.968879178358229 3.035947195695969 3.17       
  3.235977602453443 2.89       -9999      -9999      1.76       1.25       
  0.299      3.76       0.172184   0.172184   0.299      4.32935    
  14.34954   3.235978   0.4035123  0.5685431  700.8682   0.384291   
  0.2186445  0.5499375 
1192.8     
  0.217      303.95     1          5          5.82       5.41       
  2.434954360234915 2.84298583411711 2.94199390379951 3.196987268088992 
  3.316987730931834 2.9        -9999      -9999      1.92       1.27       
  0.256      3.72       0.1418905  0.1418905  0.256      1.189363   
  13.28201   3.316988   0.3021587  0.4946908  691.3655   0.3457864  
  0.2256566  0.4659162 
1193       
  0.222      300.3      1          5          5.95       5.18       
  2.492910210308045 2.801993600360437 2.903975387152681 3.18298733972898 
  3.320998647158324 2.8        -9999      -9999      2.02       1.27       
  0.227      3.57       0.1329545  0.1329545  0.227      0.8124517  
  11.23363   3.320999   0.2619002  0.4427757  671.5928   0.2849864  
  0.2416305  0.3283424 
1193.2     
  0.224      305.81     1          5          5.76       5.03       
  2.035494503495024 2.352037953666081 2.588395995200415 2.899401175408133 
  3.169860385140292 2.53       -9999      -9999      1.89       1.27       
  0.265      3.34       0.1815089  0.1815089  0.265      6.443805   
  14.34954   3.16986    0.4247464  0.5413688  663.9802   0.2530034  
  0.2186445  0.2873624 
1193.4     
  0.236      328.94     1          5          5.58       4.74       
  1.790705534520438 2.138833316871462 2.376908665968988 2.657893354213926 
  2.948878371989749 2.28       -9999      -9999      1.88       1.28       
  0.273      3.08       0.1760837  0.1760837  0.273      5.112753   
  18.09508   2.948878   0.3889674  0.5269819  681.0875   0.2936859  
  0.1988888  0.3884829 
1193.6     
  0.242      344.82     1          5          5.66       4.47       
  1.779739303672055 2.142895275875093 2.467730410454143 2.695973080408742 
  2.890998446310353 2.21       -9999      -9999      1.87       1.3        
  0.286      2.84       0.1675659  0.1675659  0.286      3.555365   
  16.32282   2.890998   0.3560398  0.5260379  696.5648   0.3588914  
  0.2074386  0.5103442 
1193.8     
  0.239      342.46     1          5          5.35       4.42       
  2.128737046915395 2.403931700673701 2.637993148923939 2.836985643294714 
  2.901993820079203 2.32       -9999      -9999      1.91       1.29       
  0.268      2.41       0.1492386  0.1492386  0.268      1.62712    
  24.33669   2.901994   0.2889535  0.4849064  700.1922   0.359883   
  0.1762209  0.543545  
1194       
  0.236      354.6      1          5          5.12       4.24       
  1.915424141200043 2.124540691989542 2.232901959103825 2.488372663076806 
  2.701765700957208 2.33       -9999      -9999      1.94       1.25       
  0.241      1.97       0.147657   0.147657   0.241      1.520983   
  32.73123   2.701766   0.2578391  0.4284785  684.0695   0.2828575  
  0.1561365  0.4095784 
1194.2     
  0.238      386.1      1          5          5          4.08       
  1.868997591127749 2.07       1.997858857003064 2.323969300219663 
  2.525936667244817 2.15       -9999      -9999      1.95       1.22       
  0.225      1.68       0.1606412  0.1606412  0.225      2.646205   
  38.20415   2.525937   0.288241   0.4051329  654.2368   0.1950265  
  0.1465837  0.2434693 
1194.4     
  0.237      396.82     1          5          5.4        3.82       
  1.64348660579711 1.968819265074926 1.884941148484285 2.263968494187712 
  2.510998211682024 2.14       -9999      -9999      1.91       1.24       
  0.245      1.47       0.176295   0.176295   0.245      5.159033   
  22.81828   2.510998   0.3417812  0.4538404  652.2142   0.2081971  
  0.1809181  0.2354762 
1194.6     
  0.238      396.82     1          5          5.67       3.61       
  1.725465676169736 1.984942551023142 1.961849932828079 2.211991901581572 
  2.528998216878576 2.13       -9999      -9999      1.71       1.26       
  0.324      1.48       0.2317848  0.2317848  0.324      55.00145   
  16.11385   2.528998   0.4831004  0.5874876  675.2615   0.2794401  
  0.2085328  0.3503474 
1194.8     
  0.237      398.4      1          5          5.27       3.65       
  1.656869828572072 2          2.074945075403501 2.190997951128205 2.51       
  2.19       -9999      -9999      1.64       1.25       0.347      
  1.53       0.2363809  0.2363809  0.347      66.91216   26.97906   
  2.51       0.4900636  0.6055119  695.5588   0.3352095  0.1689578  
  0.5014613 
1195       
  0.237      398.4      1          5          4.99       3.79       
  1.906782596905225 2.228749079653867 2.195966890828562 2.200997960414548 
  2.491992807645127 2.2        -9999      -9999      1.8        1.23       
  0.275      1.58       0.1783054  0.1783054  0.275      5.620907   
  38.69959   2.491993   0.3459219  0.4902704  688.1462   0.293014   
  0.1458145  0.4402135 
1195.2     
  0.238      408.16     1          5          5.43       4.2        
  1.721637120825883 2.03452113565019 2.019782928727296 2.057862889073646 
  2.422983394687897 2.17       -9999      -9999      1.9        1.24       
  0.248      1.75       0.1686286  0.1686286  0.248      3.72022    
  21.9531    2.422983   0.3042409  0.4377852  665.9236   0.2405194  
  0.1837962  0.2972426 
1195.4     
  0.237      411.52     6          6          5.32       4.64       
  1.747989641141508 2.126630321497255 2.163445609383789 2.292587438172437 
  2.501882887923622 2.27       -9999      -9999      2.05       1.27       
  0.22       2.19       0.1546921  0.1546921  0.22       2.053203   
  25.2958    2.501883   0.261149   0.3848352  648.6709   0.1979026  
  0.1734613  0.2223438 
1195.6     
  0.235      374.53     6          6          5.35       5.31       
  1.871842538963445 2.630577908919112 2.810642067086898 2.928536920517598 
  2.832525663656081 3.11       -9999      -9999      2.25       1.31       
  0.189      2.49       0.116497   0.116497   0.189      0.4026839  
  24.33669   2.832526   0.1076785  0.2899743  658.8682   0.2197062  
  0.1762209  0.2631915 
1195.8     
  0.262      342.46     6          6          5.39       5.91       
  4.269820543339155 4.028388638096722 3.690136483895053 3.178998582080897 
  2.820810899529183 4.09       -9999      -9999      2.14       1.28       
  0.202      2.53       0.1110974  0.1110974  0.202      0.3198536  
  23.11419   2.820811   0.06821236 0.3034516  678.4855   0.2754625  
  0.1799687  0.3709562 
1196       
  0.237      400        6          6          6.09       6.06       
  1.594496418522826 2.147190250242007 1.970601068316767 2.074004627564565 
  1.922769131243883 2.72       -9999      -9999      1.85       1.25       
  0.268      2.3        0.14631    0.14631    0.268      1.436066   
  9.379512   1.922769   0.1224248  0.362248   692.7529   0.3687575  
  0.2601001  0.477415  
