~Version
 VERS              .         2.0                           : CWLS LOG ASCII STANDARD - VERSION 2.0
 WRAP              .         YES                            : ONE LINE PER DEPTH STEP
 DLM               .         SPACE                         : DELIMITING CHARACTER(SPACE TAB OR COMMA)
~Well Information
#_______________________________________________________________________________
#
#PARAMETER_NAME    .UNIT     VALUE                         : DESCRIPTION
#_______________________________________________________________________________
STRT               .M        7                             : First reference value
STOP               .M        1232                          : Last reference value
STEP               .M        0.2                           : Step increment
NULL               .         -9999                         : Missing value
COMP               .                                       : Company
WELL               .         2796                          : Well name
FLD                .                                       : Field
LOC                .                                       : Location
CNTY               .                                       : County
STAT               .                                       : State
CTRY               .                                       : Country
SRVC               .                                       : Service Company
DATE               .                                       : Date
API                .                                       : API number
~Parameter Information Block
#_______________________________________________________________________________
#
#PARAMETER_NAME    .UNIT     VALUE                         : DESCRIPTION
#_______________________________________________________________________________
SET                .         LQC_KAZNIPI_Petrel            : 
TLFamily_CALI      .         Caliper                       : 
TLFamily_CILD      .         Conductivity                  : 
TLFamily_COLL      .         Net Reservoir Flag            : 
TLFamily_CSAT      .         Fluid Code                    : 
TLFamily_DEPT      .         Measured Depth                : 
TLFamily_GR        .         Russian Gamma Ray             : 
TLFamily_GZ3       .         Gradient 225                  : 
TLFamily_IK1       .         Resistivity 05                : 
TLFamily_IK2       .         Resistivity 07                : 
TLFamily_IK3       .         Resistivity 10                : 
TLFamily_IK4       .         Resistivity 14                : 
TLFamily_IK5       .         Resistivity 20                : 
TLFamily_LLS       .         Lateral Log Resistivity       : 
TLFamily_MBK       .         Micro Lateral Log Resistivity : 
TLFamily_MINV      .         Micro Gradient Resistivity    : 
TLFamily_NNKTB     .         Neutron Far                   : 
TLFamily_NNKTM     .         Neutron Near                  : 
TLFamily_NPHI      .         Neutron Porosity              : 
TLFamily_OGZ       .         Gradient Inverted 225         : 
TLFamily_PHIE      .         Effective Porosity            : 
TLFamily_PHIEN     .         Effective Porosity            : 
TLFamily_PHIT      .         Porosity                      : 
TLFamily_PRMB      .         Permeability                  : 
TLFamily_PRMB_DGR  .         Permeability                  : 
TLFamily_RT        .         Formation Resistivity         : 
TLFamily_SOIL_ARCHIE .         Oil Saturation                : 
TLFamily_SOIL_DW   .         Oil Saturation                : 
TLFamily_SP        .         Spontaneous Potential         : 
TLFamily_VSH_FIN   .         Shale Volume                  : 
TLFamily_VSH_GR    .         Shale Volume                  : 
TLFamily_VSH_SP    .         Shale Volume                  : 
~Curve Information
#_______________________________________________________________________________
#
#LOGNAME           .UNIT     LOG_ID                        : DESCRIPTION
#_______________________________________________________________________________
DEPT               .M                                      :  
CALI               .м                                      :  
CILD               .мСм/м                                  :  
COLL               .unitless                               :  
CSAT               .unitless                               :  
GR                 .uR/h                                   :  
GZ3                .Ohmm                                   :  
IK1                .Ohmm                                   :  
IK2                .Ohmm                                   :  
IK3                .Ohmm                                   :  
IK4                .Ohmm                                   :  
IK5                .Ohmm                                   :  
LLS                .Ohmm                                   :  
MBK                .Ohmm                                   :  
MINV               .Ohmm                                   :  
NNKTB              .у.е.                                   :  
NNKTM              .у.е.                                   :  
NPHI               .v/v                                    :  
OGZ                .Ohmm                                   :  
PHIE               .v/v                                    :  
PHIEN              .v/v                                    :  
PHIT               .v/v                                    :  
PRMB               .mD                                     :  
PRMB_DGR           .mD                                     :  
RT                 .ohmm                                   :  
SOIL_ARCHIE        .v/v                                    :  
SOIL_DW            .v/v                                    :  
SP                 .мВ                                     :  
VSH_FIN            .v/v                                    :  
VSH_GR             .v/v                                    :  
VSH_SP             .v/v                                    :  
~Ascii
# ...
1133.2     
  0.391      549.45     -9999      -9999      4.89       2.64       
  1.019244879704727 1.497084633487534 1.688997414221954 1.760700705449451 
  1.765909894042214 1.62       -9999      -9999      1.44       1.13       
  0.369      2.67       0.2522038  0.2522038  0.369      131.3965   
  8.800748   1.76591    0.4315831  0.5583292  688.2347   0.3539279  
  0.2669533  0.4409025 
1133.4     
  0.402      584.79     -9999      -9999      4.88       2.48       
  0.8282923158776195 1.217985090872783 1.402971458031446 1.546860808891058 
  1.645903449301135 1.5        -9999      -9999      1.45       1.09       
  0.338      2.67       0.2359528  0.2359528  0.338      65.70173   
  8.949636   1.645903   0.3774086  0.5048691  675.7411   0.3092339  
  0.2651308  0.3533369 
1133.6     
  0.43       636.94     -9999      -9999      5.02       2.43       
  0.6966995643950776 1.108684849429831 1.364919155594382 1.520997051750674 
  1.551988481118976 1.43       -9999      -9999      1.46       1.06       
  0.314      2.7        0.2094018  0.2094018  0.314      21.17326   
  7.076212   1.551988   0.2898811  0.4407577  673.9176   0.3169642  
  0.291818   0.3421104 
1133.8     
  0.432      649.35     -9999      -9999      4.87       2.43       
  0.6148246283777924 1.088995847411051 1.386970458699303 1.53595246286936 
  1.548997084855783 1.41       -9999      -9999      1.44       1.05       
  0.317      2.91       0.2137199  0.2137199  0.317      25.4548    
  9.101053   1.548997   0.3017617  0.4479789  677.204    0.3129699  
  0.2633207  0.3626191 
1134       
  0.399      632.91     -9999      -9999      4.95       2.36       
  0.6848290534583345 1.219614122545286 1.539697230432553 1.643899495669849 
  1.606974543787337 1.43       -9999      -9999      1.43       1.03       
  0.308      3.24       0.1907614  0.1907614  0.308      9.561412   
  7.957987   1.606975   0.2422946  0.4226643  687.1304   0.3552685  
  0.2781545  0.4323824 
1134.2     
  0.303      609.75     -9999      -9999      4.98       2.37       
  0.734852274945631 1.21964646915404 1.490648530486979 1.65590402136861 
  1.603955699832717 1.46       -9999      -9999      1.35       1.03       
  0.348      3.38       0.2217899  0.2217899  0.348      35.91247   
  7.567372   1.603956   0.3349127  0.4944119  693.1768   0.3824548  
  0.2839302  0.4809794 
1134.4     
  0.377      649.35     -9999      -9999      4.85       2.29       
  0.5748129376407307 0.9767825552547507 1.228714482404316 1.429696548543485 
  1.503952795312821 1.43       -9999      -9999      1.46       1.02       
  0.289      3.22       0.1676593  0.1676593  0.289      3.569569   
  9.411607   1.503953   0.1253559  0.3471348  692.5432   0.367699   
  0.2597376  0.4756604 
1134.6     
  0.404      675.67     -9999      -9999      4.71       2.13       
  0.5748129376407417 0.97       1.265942149729894 1.473887644789022 
  1.515951826726967 1.42       -9999      -9999      1.44       1.04       
  0.31       3.13       0.1901663  0.1901663  0.31       9.321805   
  11.90332   1.515952   0.2191537  0.4071371  694.2697   0.3631323  
  0.2359842  0.4902805 
1134.8     
  0.424      613.49     -9999      -9999      4.8        2.22       
  0.6168271885805924 1.425371191160501 1.728975117946621 1.916529617174423 
  1.801144822376726 1.52       -9999      -9999      1.41       1.13       
  0.385      3.27       0.2619128  0.2619128  0.385      198.8009   
  10.23514   1.801145   0.4550552  0.5800424  694.816    0.3729915  
  0.2509916  0.4949915 
1135       
  0.365      505.05     -9999      -9999      4.93       2.33       
  0.9906132679503412 1.658980363539028 2.122653038026985 2.268998012072554 
  2.062891139427677 1.71       -9999      -9999      1.48       1.15       
  0.361      3.35       0.2406494  0.2406494  0.361      80.27273   
  8.229536   2.062891   0.4495389  0.5780128  690.0224   0.3646989  
  0.2743695  0.4550283 
1135.2     
  0.365      497.51     -9999      -9999      4.76       2.33       
  0.7900000214576721 1.292969059405578 1.734936137023035 1.894487168569389 
  1.918814669786524 1.64       -9999      -9999      1.59       1.1        
  0.283      3.31       0.1676969  0.1676969  0.283      3.575293   
  10.94556   1.918815   0.2199919  0.4147097  689.9689   0.3494033  
  0.2442073  0.4545993 
1135.4     
  0.354      537.63     -9999      -9999      5.14       2.3        
  1.032783643776678 1.708563497537799 2.08578718429684 2.119105452861461 
  1.904940104020282 1.62       -9999      -9999      1.66       1.14       
  0.278      3.45       0.1529621  0.1529621  0.278      1.907164   
  5.785864   1.90494    0.1520605  0.3842124  688.2452   0.3789026  
  0.3168208  0.4409843 
1135.6     
  0.285      510.2      -9999      -9999      5.41       2.34       
  1.139622747214546 1.878810821794011 2.139794807940017 2.15786912048536 
  1.987990896776739 1.74       -9999      -9999      1.83       1.18       
  0.241      3.68       0.1082324  0.1082324  0.241      0.2830641  
  3.678282   1.987991   0          0.2483101  685.9517   0.402326   
  0.3811908  0.4234612 
1135.8     
  0.292      502.51     -9999      -9999      5.39       2.28       
  1.323874633835102 1.76297723402481 2.04       2.042980330014601 
  1.998997742849071 1.82       -9999      -9999      1.9        1.2        
  0.23       3.93       0.09456112 0.09456112 0.23       0.1580009  
  3.803796   1.998998   0          0.188417   688.7381   0.4104209  
  0.3760037  0.444838  
1136       
  0.285      490.19     -9999      -9999      5.66       2.32       
  1.3528323857673 1.865507456047614 2.063920271567373 2.186640800231657 
  2.156635636204953 2.05       -9999      -9999      2.12       1.24       
  0.191      4.32       0.04651693 0.04651693 0.191      0.02035937 
  2.418208   2.156636   0          0          685.9244   0.4378275  
  0.4523982  0.4232568 
1136.2     
  0.228      418.41     -9999      -9999      5.69       2.66       
  2.016104373114567 2.924965109431505 3.049005929881028 3.037648907820883 
  2.899774618613233 2.74       -9999      -9999      2.63       1.35       
  0.134      5          0.01       0          0.134      0.004289259 
  2.299511   2.899775   0          0          678.8209   0.417481   
  0.4617919  0.37317   
1136.4     
  0.221      289.01     -9999      -9999      4.7        3.04       
  4.329772607964939 4.978989382237045 4.82640433549775 4.426053580209859 
  3.859125107004329 4.56       -9999      -9999      3.24       1.56       
  0.109      5.25       0.01382058 0.01382058 0.109      0.005048342 
  12.10472   3.859125   0          0          673.9773   0.2884225  
  0.2343731  0.3424719 
1136.6     
  0.223      246.3      -9999      -9999      4.41       3.44       
  3.95051153926557 4.356659985843065 4.281155070580752 4.327211850776478 
  4.034972301766663 5.7        -9999      -9999      3.32       1.67       
  0.126      5.06       0.03539046 0.03539046 0.126      0.01266704 
  19.69019   4.034972   0          0          676.3237   0.2745744  
  0.1921448  0.3570039 
1136.8     
  0.223      261.78     -9999      -9999      4.74       3.63       
  3.186229677182982 3.64447967373294 3.713325197444809 3.72521266028669 
  3.619516913376776 4.12       -9999      -9999      2.9        1.6        
  0.164      4.63       0.06016284 0.06016284 0.164      0.03643508 
  11.31906   3.619517   0          0.118675   681.0801   0.3146581  
  0.2408842  0.388432  
1137       
  0.231      287.35     -9999      -9999      4.81       3.51       
  3.028816645395199 3.708850827700741 3.692939681403026 3.535954595665797 
  3.343741979446155 3.26       -9999      -9999      2.56       1.51       
  0.195      4.22       0.09453914 0.09453914 0.195      0.1578528  
  10.06487   3.343742   0.009841545 0.3041019  676.1865   0.3044268  
  0.2527169  0.3561368 
1137.2     
  0.247      314.46     -9999      -9999      4.81       3.34       
  2.39462245294201 2.919050435164576 3.206995391145425 3.079667168450284 
  2.961292492715964 2.89       -9999      -9999      2.4        1.45       
  0.207      3.73       0.1150954  0.1150954  0.207      0.3793187  
  10.06487   2.961293   0.1168402  0.3394321  667.263    0.2784988  
  0.2527169  0.3042807 
