~Version
 VERS              .         2.0                           : CWLS LOG ASCII STANDARD - VERSION 2.0
 WRAP              .         YES                            : ONE LINE PER DEPTH STEP
 DLM               .         SPACE                         : DELIMITING CHARACTER(SPACE TAB OR COMMA)
~Well Information
#_______________________________________________________________________________
#
#PARAMETER_NAME    .UNIT     VALUE                         : DESCRIPTION
#_______________________________________________________________________________
STRT               .M        7                             : First reference value
STOP               .M        1232                          : Last reference value
STEP               .M        0.2                           : Step increment
NULL               .         -9999                         : Missing value
COMP               .                                       : Company
WELL               .         2796                          : Well name
FLD                .                                       : Field
LOC                .                                       : Location
CNTY               .                                       : County
STAT               .                                       : State
CTRY               .                                       : Country
SRVC               .                                       : Service Company
DATE               .                                       : Date
API                .                                       : API number
~Parameter Information Block
#_______________________________________________________________________________
#
#PARAMETER_NAME    .UNIT     VALUE                         : DESCRIPTION
#_______________________________________________________________________________
SET                .         LQC_KAZNIPI_Petrel            : 
TLFamily_CALI      .         Caliper                       : 
TLFamily_CILD      .         Conductivity                  : 
TLFamily_COLL      .         Net Reservoir Flag            : 
TLFamily_CSAT      .         Fluid Code                    : 
TLFamily_DEPT      .         Measured Depth                : 
TLFamily_GR        .         Russian Gamma Ray             : 
TLFamily_GZ3       .         Gradient 225                  : 
TLFamily_IK1       .         Resistivity 05                : 
TLFamily_IK2       .         Resistivity 07                : 
TLFamily_IK3       .         Resistivity 10                : 
TLFamily_IK4       .         Resistivity 14                : 
TLFamily_IK5       .         Resistivity 20                : 
TLFamily_LLS       .         Lateral Log Resistivity       : 
TLFamily_MBK       .         Micro Lateral Log Resistivity : 
TLFamily_MINV      .         Micro Gradient Resistivity    : 
TLFamily_NNKTB     .         Neutron Far                   : 
TLFamily_NNKTM     .         Neutron Near                  : 
TLFamily_NPHI      .         Neutron Porosity              : 
TLFamily_OGZ       .         Gradient Inverted 225         : 
TLFamily_PHIE      .         Effective Porosity            : 
TLFamily_PHIEN     .         Effective Porosity            : 
TLFamily_PHIT      .         Porosity                      : 
TLFamily_PRMB      .         Permeability                  : 
TLFamily_PRMB_DGR  .         Permeability                  : 
TLFamily_RT        .         Formation Resistivity         : 
TLFamily_SOIL_ARCHIE .         Oil Saturation                : 
TLFamily_SOIL_DW   .         Oil Saturation                : 
TLFamily_SP        .         Spontaneous Potential         : 
TLFamily_VSH_FIN   .         Shale Volume                  : 
TLFamily_VSH_GR    .         Shale Volume                  : 
TLFamily_VSH_SP    .         Shale Volume                  : 
~Curve Information
#_______________________________________________________________________________
#
#LOGNAME           .UNIT     LOG_ID                        : DESCRIPTION
#_______________________________________________________________________________
DEPT               .M                                      :  
CALI               .м                                      :  
CILD               .мСм/м                                  :  
COLL               .unitless                               :  
CSAT               .unitless                               :  
GR                 .uR/h                                   :  
GZ3                .Ohmm                                   :  
IK1                .Ohmm                                   :  
IK2                .Ohmm                                   :  
IK3                .Ohmm                                   :  
IK4                .Ohmm                                   :  
IK5                .Ohmm                                   :  
LLS                .Ohmm                                   :  
MBK                .Ohmm                                   :  
MINV               .Ohmm                                   :  
NNKTB              .у.е.                                   :  
NNKTM              .у.е.                                   :  
NPHI               .v/v                                    :  
OGZ                .Ohmm                                   :  
PHIE               .v/v                                    :  
PHIEN              .v/v                                    :  
PHIT               .v/v                                    :  
PRMB               .mD                                     :  
PRMB_DGR           .mD                                     :  
RT                 .ohmm                                   :  
SOIL_ARCHIE        .v/v                                    :  
SOIL_DW            .v/v                                    :  
SP                 .мВ                                     :  
VSH_FIN            .v/v                                    :  
VSH_GR             .v/v                                    :  
VSH_SP             .v/v                                    :  
~Ascii
# ...
1171       
  0.206      31.32      1          2          6.3        21.28      
  8.811838569871773 13.25083024439145 18.93978434185839 26.92038542231539 
  31.61383638999726 21.5       -9999      -9999      2.26       1.38       
  0.212      54.21      0.1275806  0.1275806  0.212      0.6460413  
  7.156007   31.61384   0.734236   0.8086978  648.3329   0.2558163  
  0.2904849  0.2211478 
1171.2     
  0.205      31.43      1          2          6.05       24.52      
  8.441551348441646 14.16784498735899 19.85990887559735 27.06299184108616 
  31.91199096309604 21.45      -9999      -9999      2.28       1.38       
  0.208      51.26      0.131648   0.131648   0.208      0.7684212  
  9.875587   31.91199   0.7425386  0.8098268  644.44     0.2313696  
  0.2546836  0.2080556 
1171.4     
  0.205      31.01      1          2          5.34       26.77      
  7.964985979917603 14.19      19.79599635897696 26.58351167355199 
  32.36098871970528 20.85      -9999      -9999      2.1        1.41       
  0.265      49.52      0.2045935  0.2045935  0.265      17.24748   
  24.65228   32.36099   0.8257804  0.8634054  638.6471   0.18305    
  0.1752962  0.1908039 
1171.6     
  0.206      31.2       1          2          5.43       28.79      
  7.610000133514405 13.78085715638332 20.70878949439031 26.96681708248631 
  31.62273877618085 19.92      -9999      -9999      2.12       1.42       
  0.263      48.41      0.2025915  0.2025915  0.263      15.83593   
  21.9531    31.62274   0.8223686  0.8606378  635.4341   0.1830562  
  0.1837962  0.1823162 
1171.8     
  0.206      31.74      1          2          5.87       30.41      
  7.02845779553142 12.4887148276348 19.50792207050297 26.12465436546923 
  31.18383414697133 18.82      -9999      -9999      2.11       1.41       
  0.262      48.22      0.1915267  0.1915267  0.262      9.878658   
  12.45333   31.18383   0.8122361  0.8560193  640.2912   0.2135553  
  0.2316715  0.1954392 
1172       
  0.205      31.86      1          2          6.02       32.06      
  6.60598920283253 11.60181414944102 19.11599622931264 26.63074096104027 
  31.4809884039012 17.85      -9999      -9999      2.02       1.38       
  0.275      48.85      0.1988043  0.1988043  0.275      13.47397   
  10.2648    31.48099   0.8190439  0.8628435  645.3782   0.2308962  
  0.2506953  0.2110971 
1172.2     
  0.206      29.9       1          2          6.13       33.97      
  6.930947084697252 11.90883177617701 19.77586807703468 29.48853651519491 
  33.42937867552065 18.53      -9999      -9999      2.05       1.36       
  0.257      49.58      0.1808117  0.1808117  0.257      6.255019   
  8.908356   33.42938   0.8089191  0.8559716  640.5253   0.2308737  
  0.2656319  0.1961156 
1172.4     
  0.207      28         1          2          6.08       35.75      
  6.878706813689588 11.80288896184522 20.00198557064692 31.37029550155052 
  35.71632118094872 19.91      -9999      -9999      2.14       1.35       
  0.229      49.42      0.1547461  0.1547461  0.229      2.057935   
  9.501146   35.71632   0.7878643  0.8410124  638.8223   0.2250118  
  0.2587352  0.1912883 
1172.6     
  0.206      26.6       1          2          6.16       37.08      
  7.22179517824922 12.14499071653601 20.63696302440258 33.0435690305229 
  38.62495701646171 20.65      -9999      -9999      2.13       1.35       
  0.232      48.33      0.1551983  0.1551983  0.232      2.098011   
  8.570589   38.62496   0.7960356  0.8484689  640.3494   0.2327323  
  0.2698577  0.1956069 
1172.8     
  0.208      24.88      1          2          6.22       38.83      
  7.451516845096634 13.15667962603697 21.07305399330846 32.94458309252709 
  40.69083092812192 21.69      -9999      -9999      2.05       1.35       
  0.253      46.88      0.1643076  0.1643076  0.253      3.094093   
  7.932981   40.69083   0.810608   0.8629779  657.9265   0.2687648  
  0.2785122  0.2590174 
1173       
  0.209      23.62      1          2          5.9        40.85      
  9.523178067442414 17.96975336788957 26.88778301256375 36.40429228805439 
  45.02083535050009 22.88      -9999      -9999      2.19       1.38       
  0.229      45.72      0.1417748  0.1417748  0.229      1.183507   
  11.98114   45.02084   0.7946262  0.8532723  665.1534   0.2643189  
  0.2353571  0.2932807 
1173.2     
  0.21       21.18      -9999      -9999      5.46       43.09      
  13.07268736499049 23.30623352264514 33.59916293370018 42.80743700976849 
  48.34600116914743 26.29      -9999      -9999      2.33       1.38       
  0.197      44.09      0.1036163  0.1036163  0.197      0.2324791  
  21.12072   48.346     0.7390117  0.8244426  679.7305   0.2829808  
  0.1867202  0.3792413 
1173.4     
  0.216      20.57      -9999      -9999      5.18       44.77      
  18.49738480313192 27.3775540657937 36.52219534738282 42.97423537210053 
  48.62000000000001 29.37      -9999      -9999      2.43       1.36       
  0.17       41.53      0.0797422  0.0797422  0.17       0.08398023 
  30.29621   48.62      0.6730123  0.7880225  680.7076   0.2735085  
  0.1611439  0.385873  
1173.6     
  0.214      20.83      -9999      -9999      5.15       45.74      
  30.12608733842576 37.51058784194551 42.29249995173588 44.41090298636456 
  46.4243475105579 27.37      -9999      -9999      2.39       1.37       
  0.181      39.12      0.1045847  0.1045847  0.181      0.2422818  
  31.49018   46.42435   0.7361432  0.812078   667.3046   0.2315615  
  0.1586205  0.3045024 
1173.8     
  0.209      22.56      -9999      -9999      5.05       46.4       
  23.21212152083985 32.01944325225593 36.7386079749164 39.50415729037808 
  41.66144382948599 23.69      -9999      -9999      2.18       1.33       
  0.212      37.62      0.147292   0.147292   0.212      1.497491   
  35.82052   41.66145   0.7939803  0.8427883  653.7917   0.1960847  
  0.1504909  0.2416785 
1174       
  0.204      26.5       -9999      -9999      5.23       46.74      
  14.23093853656456 21.60954112006752 25.88414013620315 30.89997900966442 
  34.63603985961256 20.36      -9999      -9999      2.2        1.29       
  0.192      36.79      0.1303317  0.1303317  0.192      0.7264693  
  28.40597   34.63604   0.7500693  0.8077958  644.5187   0.1868737  
  0.1654392  0.2083081 
1174.2     
  0.203      31.69      -9999      -9999      5.3        46.46      
  9.894120303983456 15.02569867849916 19.36505232154452 24.80281747250076 
  28.40743093423721 18.87      -9999      -9999      2.25       1.32       
  0.192      36.06      0.1238318  0.1238318  0.192      0.5505849  
  25.95612   28.40743   0.7132047  0.7832985  653.7457   0.2065702  
  0.1716457  0.2414946 
1174.4     
  0.204      37.28      1          2          5.59       45.89      
  6.977014492481033 11.28266655297812 15.91858199389129 20.74811467727464 
  26.03014101700146 17.23      -9999      -9999      2.1        1.29       
  0.215      35.62      0.1378787  0.1378787  0.215      1.00232    
  17.86342   26.03014   0.7278927  0.7973698  659.8128   0.2337009  
  0.1999379  0.2674638 
1174.6     
  0.205      40.12      1          2          5.34       45.36      
  5.973533194292819 9.46429794501058 14.56117995838816 19.77196733205396 
  25.28649445446863 16.71      -9999      -9999      1.88       1.31       
  0.287      35.81      0.2093835  0.2093835  0.287      21.15674   
  24.65228   25.2865    0.8083023  0.8539156  665.5099   0.2352015  
  0.1752962  0.2951067 
1174.8     
  0.205      39.54      1          2          5.52       45.04      
  5.531884169604941 8.581473490855448 14.06690814087301 20.4143234611722 
  25.66667290090339 17.14      -9999      -9999      1.91       1.28       
  0.263      36.66      0.1824791  0.1824791  0.263      6.716033   
  19.54946   25.66667   0.7854161  0.8384569  665.5469   0.2440029  
  0.1927085  0.2952973 
1175       
  0.206      37.62      1          2          5.57       45.16      
  5.462992619702802 8.185860720752983 14.03195402931832 21.75450972154651 
  27.33508530598892 18.04      -9999      -9999      1.85       1.27       
  0.278      37.89      0.2011703  0.2011703  0.278      14.90461   
  18.32973   27.33508   0.8086287  0.8544567  659.884    0.2328172  
  0.1978451  0.2677892 
