~Version
 VERS              .         2.0                           : CWLS LOG ASCII STANDARD - VERSION 2.0
 WRAP              .         YES                            : ONE LINE PER DEPTH STEP
 DLM               .         SPACE                         : DELIMITING CHARACTER(SPACE TAB OR COMMA)
~Well Information
#_______________________________________________________________________________
#
#PARAMETER_NAME    .UNIT     VALUE                         : DESCRIPTION
#_______________________________________________________________________________
STRT               .M        7                             : First reference value
STOP               .M        1232                          : Last reference value
STEP               .M        0.2                           : Step increment
NULL               .         -9999                         : Missing value
COMP               .                                       : Company
WELL               .         2796                          : Well name
FLD                .                                       : Field
LOC                .                                       : Location
CNTY               .                                       : County
STAT               .                                       : State
CTRY               .                                       : Country
SRVC               .                                       : Service Company
DATE               .                                       : Date
API                .                                       : API number
~Parameter Information Block
#_______________________________________________________________________________
#
#PARAMETER_NAME    .UNIT     VALUE                         : DESCRIPTION
#_______________________________________________________________________________
SET                .         LQC_KAZNIPI_Petrel            : 
TLFamily_CALI      .         Caliper                       : 
TLFamily_CILD      .         Conductivity                  : 
TLFamily_COLL      .         Net Reservoir Flag            : 
TLFamily_CSAT      .         Fluid Code                    : 
TLFamily_DEPT      .         Measured Depth                : 
TLFamily_GR        .         Russian Gamma Ray             : 
TLFamily_GZ3       .         Gradient 225                  : 
TLFamily_IK1       .         Resistivity 05                : 
TLFamily_IK2       .         Resistivity 07                : 
TLFamily_IK3       .         Resistivity 10                : 
TLFamily_IK4       .         Resistivity 14                : 
TLFamily_IK5       .         Resistivity 20                : 
TLFamily_LLS       .         Lateral Log Resistivity       : 
TLFamily_MBK       .         Micro Lateral Log Resistivity : 
TLFamily_MINV      .         Micro Gradient Resistivity    : 
TLFamily_NNKTB     .         Neutron Far                   : 
TLFamily_NNKTM     .         Neutron Near                  : 
TLFamily_NPHI      .         Neutron Porosity              : 
TLFamily_OGZ       .         Gradient Inverted 225         : 
TLFamily_PHIE      .         Effective Porosity            : 
TLFamily_PHIEN     .         Effective Porosity            : 
TLFamily_PHIT      .         Porosity                      : 
TLFamily_PRMB      .         Permeability                  : 
TLFamily_PRMB_DGR  .         Permeability                  : 
TLFamily_RT        .         Formation Resistivity         : 
TLFamily_SOIL_ARCHIE .         Oil Saturation                : 
TLFamily_SOIL_DW   .         Oil Saturation                : 
TLFamily_SP        .         Spontaneous Potential         : 
TLFamily_VSH_FIN   .         Shale Volume                  : 
TLFamily_VSH_GR    .         Shale Volume                  : 
TLFamily_VSH_SP    .         Shale Volume                  : 
~Curve Information
#_______________________________________________________________________________
#
#LOGNAME           .UNIT     LOG_ID                        : DESCRIPTION
#_______________________________________________________________________________
DEPT               .M                                      :  
CALI               .м                                      :  
CILD               .мСм/м                                  :  
COLL               .unitless                               :  
CSAT               .unitless                               :  
GR                 .uR/h                                   :  
GZ3                .Ohmm                                   :  
IK1                .Ohmm                                   :  
IK2                .Ohmm                                   :  
IK3                .Ohmm                                   :  
IK4                .Ohmm                                   :  
IK5                .Ohmm                                   :  
LLS                .Ohmm                                   :  
MBK                .Ohmm                                   :  
MINV               .Ohmm                                   :  
NNKTB              .у.е.                                   :  
NNKTM              .у.е.                                   :  
NPHI               .v/v                                    :  
OGZ                .Ohmm                                   :  
PHIE               .v/v                                    :  
PHIEN              .v/v                                    :  
PHIT               .v/v                                    :  
PRMB               .mD                                     :  
PRMB_DGR           .mD                                     :  
RT                 .ohmm                                   :  
SOIL_ARCHIE        .v/v                                    :  
SOIL_DW            .v/v                                    :  
SP                 .мВ                                     :  
VSH_FIN            .v/v                                    :  
VSH_GR             .v/v                                    :  
VSH_SP             .v/v                                    :  
~Ascii
# ...
1208.8     
  0.206      60.67      8          2          6.98       17.87      
  5.309667609301633 6.346993602897999 9.463982824387157 14.33506583704111 
  16.63393038676356 7.71       -9999      -9999      2.15       1.34       
  0.223      4.27       0.1058932  0.1058932  0.223      0.2561866  
  2.979641   16.63393   0.5774871  0.7250046  665.3545   0.3548692  
  0.4154294  0.294309  
1209       
  0.206      61.57      8          2          7.06       20.47      
  5.943401935875239 6.696637884417812 9.217968900592229 13.46553857186006 
  15.44104821271089 7.58       -9999      -9999      2.06       1.39       
  0.267      3.96       0.1501268  0.1501268  0.267      1.689938   
  2.687809   15.44105   0.6771672  0.7767126  661.4414   0.3541611  
  0.4332878  0.2750345 
1209.2     
  0.206      69.78      8          2          6.93       22.49      
  6.131952577913466 6.722993990199337 8.424699611065242 11.51192347464339 
  12.8898874698938 6.97       -9999      -9999      2.15       1.41       
  0.251      3.66       0.1237785  0.1237785  0.251      0.5493333  
  3.177917   12.88989   0.5843018  0.7264284  677.7882   0.3855197  
  0.4046436  0.3663959 
1209.4     
  0.207      87.79      -9999      -9999      7.22       23.62      
  5.648097699969621 6.091016580621995 6.487085974029546 8.342556078085099 
  9.183044283529156 6.01       -9999      -9999      2.23       1.38       
  0.219      3.23       0.05091638 0.05091638 0.219      0.02456139 
  2.187094   9.183044   0          0.5184177  700.5952   0.5093443  
  0.4713407  0.5473478 
1209.6     
  0.206      132.1      -9999      -9999      7.51       23.41      
  4.555845210901168 4.579365566475232 4.770102621985592 5.613752311615655 
  6.320686655515797 4.79       -9999      -9999      2.3        1.39       
  0.207      2.8        0.01       0          0.207      0.004289259 
  1.505193   6.320687   0          0.1475596  718.3021   0.6437081  
  0.5490316  0.7383846 
1209.8     
  0.206      184.5      -9999      -9999      7.79       21.56      
  4.35748640815982 4.198998926952989 3.957140814958915 4.152925343690691 
  4.750379207557939 3.85       -9999      -9999      2.25       1.38       
  0.214      2.42       0.02369611 0.02369611 0.214      0.0076925  
  1.049332   4.750379   0          0.1702816  697.3289   0.5766785  
  0.6361721  0.5171848 
1210       
  0.208      234.74     -9999      -9999      8.14       19.2       
  4.084667061233125 3.877633071328051 3.434391572926452 3.563297767971403 
  3.8391355529142 3.65       -9999      -9999      2.25       1.37       
  0.211      2.17       0.0266166  0.0266166  0.211      0.008712885 
  0.6684421  3.839136   0          0.09038738 675.6357   0.5587376  
  0.7647975  0.3526776 
1210.2     
  0.209      288.18     -9999      -9999      8.4        16.59      
  3.888999569313709 3.314210871744863 2.771337025742627 2.763701167089368 
  2.959099266603267 3.35       -9999      -9999      1.98       1.31       
  0.256      1.89       0.05569357 0.05569357 0.256      0.0301119  
  0.4781635  2.959099   0          0.2596605  684.6726   0.6069892  
  0.8        0.4139783 
1210.4     
  0.211      395.25     -9999      -9999      8.36       13.64      
  2.037788323514684 2.08521347306641 1.802960461563988 1.843133067224188 
  2.171788674846961 2.42       -9999      -9999      1.78       1.21       
  0.272      1.69       0.04949315 0.04949315 0.272      0.02311485 
  0.5034529  2.171789   0          0.1442202  700.7195   0.6742632  
  0.8        0.5485264 
1210.6     
  0.241      520.83     -9999      -9999      -9999      10.14      
  1.227777438116976 1.526195542300278 1.445890381887826 1.498764336070829 
  1.772587087950112 1.66       -9999      -9999      1.77       1.17       
  0.255      1.52       1          1          0.255      
  9323613800000000.0000000 -9999      1.772587   0.8290568  0.4568804  
  709.6464   -4999.181  -9999      0.6390154 
1210.8     
  0.264      581.39     -9999      -9999      -9999      7.29       
  1.608648686515366 1.817630459004851 1.694372753799835 1.553893551539036 
  1.700997362760903 1.52       -9999      -9999      1.87       1.2        
  0.239      1.6        1          1          0.239      
  9323613800000000.0000000 -9999      1.700997   0.8257176  0.4084523  
  694.5532   -4999.253  -9999      0.4927204 
1211       
  0.258      584.79     -9999      -9999      -9999      5.64       
  1.513890664758196 1.73099740832674 1.701989489990647 1.553954293671722 
  1.700997362760903 1.66       -9999      -9999      1.93       1.22       
  0.23       1.6        1          1          0.23       
  9323613800000000.0000000 -9999      1.700997   0.8257176  0.3853048  
  681.5901   -4999.304  -9999      0.391962  
1211.2     
  0.263      602.4      -9999      -9999      -9999      4.98       
  1.684934225831829 1.558020827772021 1.497984056191105 1.466853404921282 
  1.614931468378301 1.7        -9999      -9999      2.04       1.24       
  0.21       1.72       1          1          0.21       
  9323613800000000.0000000 -9999      1.614931   0.8214191  0.3090556  
  684.717    -4999.293  -9999      0.4143043 
1211.4     
  0.259      632.91     -9999      -9999      -9999      4.52       
  1.184198907498793 1.290996528658605 1.344914657882312 1.43594910226288 
  1.623898232846884 1.66       -9999      -9999      2.38       1.28       
  0.153      1.85       1          1          0.153      
  9323613800000000.0000000 -9999      1.623898   0.8218825  0.05426682 
  694.0197   -4999.256  -9999      0.4881385 
1211.6     
  0.273      564.97     -9999      -9999      -9999      4.52       
  2.50867600028174 2.409783333796852 2.158979930255149 2.054877967863038 
  1.977936292195021 1.87       -9999      -9999      2.58       1.42       
  0.163      2.18       1          1          0.163      
  9323613800000000.0000000 -9999      1.977936   0.8376275  0.1956488  
  701.2397   -4999.223  -9999      0.5534787 
1211.8     
  0.231      458.71     -9999      -9999      -9999      4.88       
  2.289695585280392 2.76495970074058 2.53       2.467992674958289 
  2.289798784506809 2.48       -9999      -9999      2.44       1.52       
  0.223      2.44       1          1          0.223      
  9323613800000000.0000000 -9999      2.289799   0.8484086  0.4535682  
  697.0696   -4999.243  -9999      0.5148546 
1212       
  0.219      442.47     -9999      -9999      -9999      4.93       
  2.929602615707525 2.895613530701422 2.537888394682454 2.280767244516871 
  2.133600570222344 2.39       -9999      -9999      -9999      1.49       
  -9999      2.49       -9999      -9999      -9999      -9999      
  -9999      2.1336     -9999      -9999      682.5497   -4999.301  
  -9999      0.3986903 
1212.2     
  0.214      546.44     -9999      -9999      -9999      4.48       
  2.279245494429048 2.492703155600021 2.203612846115116 1.975440941171344 
  1.836325042363946 2.19       -9999      -9999      -9999      -9999      
  -9999      2.31       -9999      -9999      -9999      -9999      
  -9999      1.836325   -9999      -9999      682.4297   -4999.301  
  -9999      0.3978428 
1212.4     
  0.209      606.06     -9999      -9999      -9999      3.59       
  2.123966343353471 2.240763194933732 2.045922036638107 1.814938911405329 
  1.65590402136861 1.99       -9999      -9999      -9999      -9999      
  -9999      2.04       -9999      -9999      -9999      -9999      
  -9999      1.655904   -9999      -9999      696.6096   -4999.245  
  -9999      0.510743  
1212.6     
  0.215      613.49     -9999      -9999      -9999      2.98       
  2.254949507693088 2.200997960414548 2.057991208026887 1.79       
  1.602974984058706 2.02       -9999      -9999      -9999      -9999      
  -9999      1.85       -9999      -9999      -9999      -9999      
  -9999      1.602975   -9999      -9999      708.6296   -4999.186  
  -9999      0.6281091 
1212.8     
  0.213      625        -9999      -9999      -9999      2.6        
  2.458154077790272 2.403503026316718 2.066980253289967 1.80899750507779 
  1.59       2.1        -9999      -9999      -9999      -9999      
  -9999      1.77       -9999      -9999      -9999      -9999      
  -9999      1.59       -9999      -9999      680.5997   -4999.308  
  -9999      0.385135  
