~Version
 VERS              .         2.0                           : CWLS LOG ASCII STANDARD - VERSION 2.0
 WRAP              .         YES                            : ONE LINE PER DEPTH STEP
 DLM               .         SPACE                         : DELIMITING CHARACTER(SPACE TAB OR COMMA)
~Well Information
#_______________________________________________________________________________
#
#PARAMETER_NAME    .UNIT     VALUE                         : DESCRIPTION
#_______________________________________________________________________________
STRT               .M        7                             : First reference value
STOP               .M        1232                          : Last reference value
STEP               .M        0.2                           : Step increment
NULL               .         -9999                         : Missing value
COMP               .                                       : Company
WELL               .         2796                          : Well name
FLD                .                                       : Field
LOC                .                                       : Location
CNTY               .                                       : County
STAT               .                                       : State
CTRY               .                                       : Country
SRVC               .                                       : Service Company
DATE               .                                       : Date
API                .                                       : API number
~Parameter Information Block
#_______________________________________________________________________________
#
#PARAMETER_NAME    .UNIT     VALUE                         : DESCRIPTION
#_______________________________________________________________________________
SET                .         LQC_KAZNIPI_Petrel            : 
TLFamily_CALI      .         Caliper                       : 
TLFamily_CILD      .         Conductivity                  : 
TLFamily_COLL      .         Net Reservoir Flag            : 
TLFamily_CSAT      .         Fluid Code                    : 
TLFamily_DEPT      .         Measured Depth                : 
TLFamily_GR        .         Russian Gamma Ray             : 
TLFamily_GZ3       .         Gradient 225                  : 
TLFamily_IK1       .         Resistivity 05                : 
TLFamily_IK2       .         Resistivity 07                : 
TLFamily_IK3       .         Resistivity 10                : 
TLFamily_IK4       .         Resistivity 14                : 
TLFamily_IK5       .         Resistivity 20                : 
TLFamily_LLS       .         Lateral Log Resistivity       : 
TLFamily_MBK       .         Micro Lateral Log Resistivity : 
TLFamily_MINV      .         Micro Gradient Resistivity    : 
TLFamily_NNKTB     .         Neutron Far                   : 
TLFamily_NNKTM     .         Neutron Near                  : 
TLFamily_NPHI      .         Neutron Porosity              : 
TLFamily_OGZ       .         Gradient Inverted 225         : 
TLFamily_PHIE      .         Effective Porosity            : 
TLFamily_PHIEN     .         Effective Porosity            : 
TLFamily_PHIT      .         Porosity                      : 
TLFamily_PRMB      .         Permeability                  : 
TLFamily_PRMB_DGR  .         Permeability                  : 
TLFamily_RT        .         Formation Resistivity         : 
TLFamily_SOIL_ARCHIE .         Oil Saturation                : 
TLFamily_SOIL_DW   .         Oil Saturation                : 
TLFamily_SP        .         Spontaneous Potential         : 
TLFamily_VSH_FIN   .         Shale Volume                  : 
TLFamily_VSH_GR    .         Shale Volume                  : 
TLFamily_VSH_SP    .         Shale Volume                  : 
~Curve Information
#_______________________________________________________________________________
#
#LOGNAME           .UNIT     LOG_ID                        : DESCRIPTION
#_______________________________________________________________________________
DEPT               .M                                      :  
CALI               .м                                      :  
CILD               .мСм/м                                  :  
COLL               .unitless                               :  
CSAT               .unitless                               :  
GR                 .uR/h                                   :  
GZ3                .Ohmm                                   :  
IK1                .Ohmm                                   :  
IK2                .Ohmm                                   :  
IK3                .Ohmm                                   :  
IK4                .Ohmm                                   :  
IK5                .Ohmm                                   :  
LLS                .Ohmm                                   :  
MBK                .Ohmm                                   :  
MINV               .Ohmm                                   :  
NNKTB              .у.е.                                   :  
NNKTM              .у.е.                                   :  
NPHI               .v/v                                    :  
OGZ                .Ohmm                                   :  
PHIE               .v/v                                    :  
PHIEN              .v/v                                    :  
PHIT               .v/v                                    :  
PRMB               .mD                                     :  
PRMB_DGR           .mD                                     :  
RT                 .ohmm                                   :  
SOIL_ARCHIE        .v/v                                    :  
SOIL_DW            .v/v                                    :  
SP                 .мВ                                     :  
VSH_FIN            .v/v                                    :  
VSH_GR             .v/v                                    :  
VSH_SP             .v/v                                    :  
~Ascii
# ...
1099.6     
  0.303      478.46     -9999      -9999      5.21       2.38       
  1.761736486264607 2.40661946507461 2.748998359857805 2.623937498060397 
  2.262401123730729 1.82       -9999      -9999      1.68       1.17       
  0.287      2.46       0.2130694  0.2130694  0.287      24.75823   
  5.144769   2.262401   0.4139238  0.5151389  571.8735   0.2240322  
  0.3323837  0.1156808 
1099.8     
  0.284      458.71     -9999      -9999      5.5        2.48       
  1.233782426190731 1.52504769601518 1.840617328614431 1.935805810465191 
  1.952754069285448 1.78       -9999      -9999      1.69       1.22       
  0.31       2.42       0.2241379  0.2241379  0.31       39.69495   
  3.16279    1.952754   0.3991108  0.5115018  569.5874   0.2601883  
  0.4054326  0.1149438 
1100       
  0.329      564.97     -9999      -9999      5.84       2.28       
  0.9104380189314539 1.25       1.493952483774047 1.605901091165578 
  1.686872112202464 1.52       -9999      -9999      1.62       1.21       
  0.333      2.19       0.2298419  0.2298419  0.333      50.62771   
  1.787905   1.686872   0.3703232  0.501257   565.0913   0.3126002  
  0.5117683  0.1134321 
1100.2     
  0.341      588.23     -9999      -9999      5.73       2.13       
  1.214107057488622 1.615427496452536 1.7676196095733 1.80549037415767 
  1.753905916737828 1.51       -9999      -9999      1.63       1.17       
  0.306      2.04       0.2093319  0.2093319  0.306      21.11018   
  2.150262   1.753906   0.3292955  0.4657735  559.3552   0.2929338  
  0.4746209  0.1112466 
1100.4     
  0.318      543.47     -9999      -9999      5.78       2.12       
  1.001391676707278 1.454924066952388 1.718997374046555 1.86099758885113 
  1.893912991550276 1.6        -9999      -9999      1.79       1.17       
  0.249      2.06       0.1495331  0.1495331  0.249      1.647683   
  1.977247   1.893913   0.1327906  0.3339923  560.3892   0.3014149  
  0.4911596  0.1116702 
1100.6     
  0.34       512.82     -9999      -9999      5.6        2.32       
  1.423067251724159 1.853364434464646 2.135817334357353 2.128015499884407 
  2.012888383999292 1.65       -9999      -9999      1.72       1.16       
  0.267      2.06       0.1761177  0.1761177  0.267      5.120183   
  2.674299   2.012888   0.2691764  0.419914   574.8032   0.2754008  
  0.4341802  0.1166214 
1100.8     
  0.235      487.8      -9999      -9999      5.67       2.52       
  1.186863130530261 1.624273948630467 1.921835454973862 2.053585551282291 
  2.013964624164141 1.68       -9999      -9999      1.6        1.22       
  0.348      2.08       0.2526234  0.2526234  0.348      133.7695   
  2.377976   2.013965   0.4663568  0.572218   590.1071   0.2890198  
  0.4555081  0.1225316 
1101       
  0.247      531.91     -9999      -9999      5.96       2.57       
  0.8605769808047483 1.243330699262695 1.507090348805151 1.656255451436389 
  1.734441925405685 1.53       -9999      -9999      1.56       1.21       
  0.36       2          0.2485674  0.2485674  0.36       112.52     
  1.461881   1.734442   0.4194699  0.5451006  583.711    0.3376745  
  0.5556164  0.1197327 
1101.2     
  0.291      617.28     -9999      -9999      5.97       2.39       
  1.0027438178236 1.286968134298407 1.413949835167457 1.495893969525353 
  1.528768820943489 1.33       -9999      -9999      1.52       1.16       
  0.348      1.92       0.2361293  0.2361293  0.348      66.1981    
  1.437561   1.528769   0.355881   0.4951631  580.585    0.3390021  
  0.5594355  0.1185686 
1101.4     
  0.392      699.3      -9999      -9999      5.5        2.22       
  0.7885641944084882 0.9849232856185213 1.105912845782212 1.253335743293167 
  1.320605192443962 1.23       -9999      -9999      1.38       1.08       
  0.367      1.73       0.2790276  0.2790276  0.367      412.5028   
  3.16279    1.320605   0.403439   0.5086136  598.879    0.266583   
  0.4054326  0.1277333 
1101.6     
  0.4        819.67     -9999      -9999      5.3        1.96       
  0.4769100240821033 0.6994020336826113 0.9129564020874895 1.082963146717634 
  1.200996269672864 1.14       -9999      -9999      1.31       1.01       
  0.356      1.72       0.2736096  0.2736096  0.356      327.3953   
  4.423759   1.200996   0.3655169  0.4712003  616.5229   0.2496678  
  0.3535216  0.1458139 
1101.8     
  0.385      800        -9999      -9999      5.91       1.97       
  0.661127817035538 1.040624153252312 1.329007381493383 1.462883731064613 
  1.34071801869505 1.14       -9999      -9999      1.59       1.04       
  0.249      1.84       0.1299127  0.1299127  0.249      0.7136041  
  1.5898     1.340718   0          0.1633171  636.4169   0.3608705  
  0.5369073  0.1848337 
1102       
  0.375      689.65     -9999      -9999      6.15       2.16       
  0.7179745755855029 1.150996108371672 1.47       1.61       
  1.540755809485632 1.25       -9999      -9999      1.65       1.14       
  0.282      1.96       0.144938   0.144938   0.282      1.354447   
  1.062863   1.540756   0.01827922 0.3068316  641.1108   0.4153393  
  0.6328527  0.1978259 
1102.2     
  0.371      632.91     -9999      -9999      6.52       2.36       
  1.016196608566016 1.310711316938754 1.593896277962305 1.646975168121428 
  1.58       1.35       -9999      -9999      1.63       1.15       
  0.295      2.05       0.1318206  0.1318206  0.295      0.7740971  
  0.5713384  1.58       0          0.3098746  637.9747   0.494483   
  0.8        0.1889659 
1102.4     
  0.326      645.16     -9999      -9999      6.32       2.26       
  0.9440109545174127 1.116797449891785 1.358771379767616 1.464344297406578 
  1.495893969525353 1.4        -9999      -9999      1.46       1.12       
  0.352      2.07       0.205901   0.205901   0.352      18.2366    
  0.7991241  1.495894   0.26682    0.4643015  632.1686   0.4427243  
  0.711017   0.1744315 
1102.6     
  0.349      714.28     -9999      -9999      5.84       2.13       
  0.7057803910621868 0.9039221817195772 1.076802078181585 1.264912895616242 
  1.362970630083075 1.3        -9999      -9999      1.43       1.11       
  0.361      2.09       0.2472956  0.2472956  0.361      106.579    
  1.787905   1.362971   0.3470432  0.4866003  633.4127   0.3445589  
  0.5117683  0.1773495 
1102.8     
  0.429      735.29     -9999      -9999      5.61       2.02       
  0.7782431101113022 1.086252002479776 1.305283171363245 1.380726484751834 
  1.413882765810695 1.28       -9999      -9999      1.54       1.09       
  0.297      2.04       0.1913745  0.1913745  0.297      9.814734   
  2.629806   1.413883   0.1976283  0.3718266  642.8265   0.3200772  
  0.4371649  0.2029894 
1103       
  0.41       680.27     -9999      -9999      5.86       2.1        
  0.7959070521617545 1.204904516229727 1.425948739881583 1.504923895752849 
  1.496972652962354 1.3        -9999      -9999      1.66       1.09       
  0.252      2.04       0.13183    0.13183    0.252      0.7744071  
  1.728911   1.496973   0          0.2184249  644.8805   0.3641515  
  0.5188283  0.2094748 
1103.2     
  0.389      662.25     -9999      -9999      5.98       2.12       
  0.8399999737739563 1.183940261653423 1.451987693576336 1.53       
  1.500997012605759 1.33       -9999      -9999      1.65       1.09       
  0.255      2.16       0.1160381  0.1160381  0.255      0.3948807  
  1.413644   1.500997   0          0.186445   662.2544   0.4210965  
  0.5632812  0.2789118 
1103.4     
  0.388      666.66     -9999      -9999      6.03       2.09       
  0.8738075396023105 1.18       1.412971657775599 1.491988021172099 
  1.480996972407376 1.34       -9999      -9999      1.58       1.12       
  0.298      2.11       0.1441692  0.1441692  0.298      1.310756   
  1.299899   1.480997   0          0.3152145  675.1084   0.4661539  
  0.5829093  0.3493984 
1103.6     
  0.435      689.65     -9999      -9999      5.53       1.97       
  0.708518084228296 1.006788805018464 1.248718887653951 1.394920861821589 
  1.431987522965939 1.33       -9999      -9999      1.5        1.08       
  0.308      2.08       0.1881893  0.1881893  0.308      8.56803    
  3.007545   1.431988   0.19066    0.3850613  668.7423   0.3630626  
  0.4138512  0.3122742 
