~Version
 VERS              .         2.0                           : CWLS LOG ASCII STANDARD - VERSION 2.0
 WRAP              .         YES                            : ONE LINE PER DEPTH STEP
 DLM               .         SPACE                         : DELIMITING CHARACTER(SPACE TAB OR COMMA)
~Well Information
#_______________________________________________________________________________
#
#PARAMETER_NAME    .UNIT     VALUE                         : DESCRIPTION
#_______________________________________________________________________________
STRT               .M        7                             : First reference value
STOP               .M        1232                          : Last reference value
STEP               .M        0.2                           : Step increment
NULL               .         -9999                         : Missing value
COMP               .                                       : Company
WELL               .         2796                          : Well name
FLD                .                                       : Field
LOC                .                                       : Location
CNTY               .                                       : County
STAT               .                                       : State
CTRY               .                                       : Country
SRVC               .                                       : Service Company
DATE               .                                       : Date
API                .                                       : API number
~Parameter Information Block
#_______________________________________________________________________________
#
#PARAMETER_NAME    .UNIT     VALUE                         : DESCRIPTION
#_______________________________________________________________________________
SET                .         LQC_KAZNIPI_Petrel            : 
TLFamily_CALI      .         Caliper                       : 
TLFamily_CILD      .         Conductivity                  : 
TLFamily_COLL      .         Net Reservoir Flag            : 
TLFamily_CSAT      .         Fluid Code                    : 
TLFamily_DEPT      .         Measured Depth                : 
TLFamily_GR        .         Russian Gamma Ray             : 
TLFamily_GZ3       .         Gradient 225                  : 
TLFamily_IK1       .         Resistivity 05                : 
TLFamily_IK2       .         Resistivity 07                : 
TLFamily_IK3       .         Resistivity 10                : 
TLFamily_IK4       .         Resistivity 14                : 
TLFamily_IK5       .         Resistivity 20                : 
TLFamily_LLS       .         Lateral Log Resistivity       : 
TLFamily_MBK       .         Micro Lateral Log Resistivity : 
TLFamily_MINV      .         Micro Gradient Resistivity    : 
TLFamily_NNKTB     .         Neutron Far                   : 
TLFamily_NNKTM     .         Neutron Near                  : 
TLFamily_NPHI      .         Neutron Porosity              : 
TLFamily_OGZ       .         Gradient Inverted 225         : 
TLFamily_PHIE      .         Effective Porosity            : 
TLFamily_PHIEN     .         Effective Porosity            : 
TLFamily_PHIT      .         Porosity                      : 
TLFamily_PRMB      .         Permeability                  : 
TLFamily_PRMB_DGR  .         Permeability                  : 
TLFamily_RT        .         Formation Resistivity         : 
TLFamily_SOIL_ARCHIE .         Oil Saturation                : 
TLFamily_SOIL_DW   .         Oil Saturation                : 
TLFamily_SP        .         Spontaneous Potential         : 
TLFamily_VSH_FIN   .         Shale Volume                  : 
TLFamily_VSH_GR    .         Shale Volume                  : 
TLFamily_VSH_SP    .         Shale Volume                  : 
~Curve Information
#_______________________________________________________________________________
#
#LOGNAME           .UNIT     LOG_ID                        : DESCRIPTION
#_______________________________________________________________________________
DEPT               .M                                      :  
CALI               .м                                      :  
CILD               .мСм/м                                  :  
COLL               .unitless                               :  
CSAT               .unitless                               :  
GR                 .uR/h                                   :  
GZ3                .Ohmm                                   :  
IK1                .Ohmm                                   :  
IK2                .Ohmm                                   :  
IK3                .Ohmm                                   :  
IK4                .Ohmm                                   :  
IK5                .Ohmm                                   :  
LLS                .Ohmm                                   :  
MBK                .Ohmm                                   :  
MINV               .Ohmm                                   :  
NNKTB              .у.е.                                   :  
NNKTM              .у.е.                                   :  
NPHI               .v/v                                    :  
OGZ                .Ohmm                                   :  
PHIE               .v/v                                    :  
PHIEN              .v/v                                    :  
PHIT               .v/v                                    :  
PRMB               .mD                                     :  
PRMB_DGR           .mD                                     :  
RT                 .ohmm                                   :  
SOIL_ARCHIE        .v/v                                    :  
SOIL_DW            .v/v                                    :  
SP                 .мВ                                     :  
VSH_FIN            .v/v                                    :  
VSH_GR             .v/v                                    :  
VSH_SP             .v/v                                    :  
~Ascii
# ...
1040.8     
  0.302      613.49     1          3          4.15       1.96       
  1.040995660151828 1.244911525445865 1.35968151047512 1.461575206568571 
  1.538770278199367 1.51       -9999      -9999      1.75       1.14       
  0.247      2.57       0.09576725 0.09576725 0.247      0.1663412  
  6.529965   1.53877    0          0.1201053  707.3889   0.458281   
  0.3015497  0.6150124 
1041       
  0.297      666.66     1          3          4.5        1.9        
  0.903922159939125 1.253867411978883 1.355946051141668 1.4549212312895 
  1.53595246286936 1.46       -9999      -9999      1.57       1.1        
  0.291      2.5        0.09863766 0.09863766 0.291      0.1880039  
  3.097239   1.535952   0          0.2161075  719.8097   0.5829162  
  0.4089148  0.7569177 
1041.2     
  0.3        606.06     1          3          4.08       1.92       
  1.388437255418282 1.93210996781418 1.953406843117259 1.897668455799381 
  1.831159619130259 1.63       -9999      -9999      1.7        1.07       
  0.228      2.7        0.04918467 0.04918467 0.228      0.02281274 
  7.580506   1.83116    0          0          723.8505   0.5418646  
  0.2837292  0.8       
1041.4     
  0.25       502.51     1          3          3.77       1.98       
  1.565898563714902 2.038825328440806 2.261992079753146 2.289798784506832 
  2.107682911492478 1.95       -9999      -9999      1.9        1.13       
  0.199      2.91       0.03198342 0.03198342 0.199      0.01095389 
  14.67617   2.107683   0          0          722.8613   0.5061108  
  0.2166443  0.7955775 
1041.6     
  0.244      469.48     1          3          3.84       2.11       
  1.654930878703378 1.880719228910338 2.079789035449736 2.176900415698845 
  2.075923146279254 1.98       -9999      -9999      1.99       1.2        
  0.206      3.05       0.04222869 0.04222869 0.206      0.01695648 
  12.64229   2.075923   0          0          720.2421   0.4962767  
  0.2302512  0.7623022 
1041.8     
  0.263      490.19     1          3          3.78       2.13       
  1.462845337108035 1.894441929314198 1.96899770836525 2.091991439396968 
  2.03       1.9        -9999      -9999      1.74       1.22       
  0.291      3.03       0.1352788  0.1352788  0.291      0.8971178  
  14.36672   2.03       0.08404249 0.3918915  717.213    0.4718825  
  0.2185377  0.7252272 
1042       
  0.247      485.43     1          3          3.93       2.13       
  1.755958486545812 2.113966280922677 2.182897228408077 2.186981344795798 
  2.068997819412309 1.92       -9999      -9999      1.65       1.22       
  0.326      3.02       0.1669806  0.1669806  0.326      3.467725   
  10.43585   2.068998   0.2442806  0.481879   716.3338   0.4818769  
  0.2490091  0.7147446 
1042.2     
  0.268      487.8      1          3          4.3        2.12       
  1.324765377648258 1.697186810261632 1.873547246063404 1.971681664259938 
  2.004944624790896 1.84       -9999      -9999      1.62       1.23       
  0.345      3.01       0.1745349  0.1745349  0.345      4.78595    
  4.743304   2.004945   0.2620394  0.5002683  714.1746   0.5165609  
  0.3435957  0.6895259 
1042.4     
  0.265      505.05     1          3          4.25       2.23       
  1.512960566534234 1.935686737790099 2.091269197160791 2.039773456782755 
  2.006979658195395 1.77       -9999      -9999      1.75       1.18       
  0.267      3.01       0.1001384  0.1001384  0.267      0.2004307  
  5.276642   2.00698    0          0.2787168  713.5454   0.5056412  
  0.3289663  0.6823159 
1042.6     
  0.257      490.19     1          3          3.96       2.34       
  1.524368823699332 1.942621988256822 2.070744286353774 2.151991676900681 
  2.057991208026887 1.88       -9999      -9999      1.91       1.22       
  0.236      3.12       0.08630449 0.08630449 0.236      0.1111032  
  9.789531   2.057991   0          0.1868801  710.8062   0.4536228  
  0.2555954  0.6516501 
1042.8     
  0.28       487.8      1          3          4.27       2.34       
  1.441987664195521 1.803960554047416 1.960997711473083 2.040997800941729 
  2.022980137072192 1.82       -9999      -9999      1.99       1.21       
  0.21       3.18       0.04877489 0.04877489 0.21       0.02241751 
  5.056464   2.02298    0          0          709.9571   0.4885609  
  0.3347418  0.6423801 
1043       
  0.288      497.51     1          3          4.35       2.32       
  1.63076968021328 1.966599136231916 2.09978009996963 2.132894776093368 
  2.045964437786556 1.85       -9999      -9999      1.96       1.22       
  0.222      3.28       0.04293523 0.04293523 0.222      0.01747522 
  4.263876   2.045964   0          0          717.3079   0.5426205  
  0.3588756  0.7263655 
1043.2     
  0.249      476.19     1          3          3.98       2.33       
  1.762872198987175 2.145966111635417 2.226981682301111 2.227991882102408 
  2.136980905011938 1.96       -9999      -9999      2.05       1.28       
  0.224      3.4        0.06061883 0.06061883 0.224      0.0371506  
  9.381043   2.136981   0          0.0692128  717.6187   0.4950945  
  0.2600828  0.7301062 
1043.4     
  0.266      469.48     1          3          3.97       2.39       
  1.587133670293879 1.946361509563156 2.044523390452461 2.052641589373812 
  2.084946722807609 1.94       -9999      -9999      2.14       1.28       
  0.202      3.41       0.04303146 0.04303146 0.202      0.01754709 
  9.583114   2.084947   0          0          715.5596   0.4817229  
  0.2578293  0.7056164 
1043.6     
  0.268      497.51     1          3          4.09       2.46       
  1.431792719370778 1.74       1.852978330333414 1.931990734328647 
  1.981990966825669 1.83       -9999      -9999      2.14       1.26       
  0.194      3.46       0.03219297 0.03219297 0.194      0.01105223 
  7.420663   1.981991   0          0          714.6003   0.4903243  
  0.2862091  0.6944396 
1043.8     
  0.251      502.51     1          3          4.07       2.48       
  1.614929176650551 1.99554080329143 2.084494849572256 2.116628515297587 
  2.071858068718715 1.87       -9999      -9999      2.05       1.23       
  0.203      3.56       0.03889702 0.03889702 0.203      0.01471042 
  7.743783   2.071858   0          0          716.2112   0.4972818  
  0.281271   0.7132925 
1044       
  0.236      462.96     1          3          4          2.59       
  1.794936335033971 2.221867839195732 2.310838915892637 2.313929006799258 
  2.214948589458538 2.04       -9999      -9999      2.09       1.25       
  0.202      3.7        0.03298546 0.03298546 0.202      0.01143217 
  8.989607   2.214949   0          0          720.032    0.5121653  
  0.2646489  0.7596817 
1044.2     
  0.244      448.43     1          3          3.56       2.66       
  1.838997580233522 2.181991790778183 2.312982610394726 2.303969036164329 
  2.211991901581567 2.09       -9999      -9999      2.09       1.26       
  0.206      3.79       0.05456972 0.05456972 0.206      0.02870262 
  22.96016   2.211992   0          0          718.2128   0.4588796  
  0.1804608  0.7372985 
1044.4     
  0.25       465.11     1          3          3.54       2.61       
  1.742580267445833 2.004514241352977 2.087332151767449 2.129793867898872 
  2.067863538792524 1.96       -9999      -9999      2.14       1.26       
  0.194      3.71       0.05535849 0.05535849 0.194      0.02968462 
  23.95991   2.067863   0          0          711.8237   0.4201258  
  0.1773472  0.6629044 
1044.6     
  0.278      500        1          3          3.53       2.52       
  1.467809355346864 1.786879123555072 1.8649405262152 1.946888871497056 
  1.953963549585987 1.81       -9999      -9999      2.12       1.21       
  0.179      3.7        0.05307604 0.05307604 0.179      0.02693116 
  24.47602   1.953964   0          0          704.6945   0.3815878  
  0.1758106  0.587365  
1044.8     
  0.306      507.61     1          3          3.56       2.52       
  1.527557167092444 1.93337657942725 2.043411618730632 2.048726379488944 
  2.068729102572927 1.84       -9999      -9999      2.01       1.2        
  0.201      3.94       0.07874949 0.07874949 0.201      0.08049885 
  22.96016   2.068729   0          0.07096546 701.9652   0.3704561  
  0.1804608  0.5604514 
