~Version
 VERS              .         2.0                           : CWLS LOG ASCII STANDARD - VERSION 2.0
 WRAP              .         YES                            : ONE LINE PER DEPTH STEP
 DLM               .         SPACE                         : DELIMITING CHARACTER(SPACE TAB OR COMMA)
~Well Information
#_______________________________________________________________________________
#
#PARAMETER_NAME    .UNIT     VALUE                         : DESCRIPTION
#_______________________________________________________________________________
STRT               .M        7                             : First reference value
STOP               .M        1232                          : Last reference value
STEP               .M        0.2                           : Step increment
NULL               .         -9999                         : Missing value
COMP               .                                       : Company
WELL               .         2796                          : Well name
FLD                .                                       : Field
LOC                .                                       : Location
CNTY               .                                       : County
STAT               .                                       : State
CTRY               .                                       : Country
SRVC               .                                       : Service Company
DATE               .                                       : Date
API                .                                       : API number
~Parameter Information Block
#_______________________________________________________________________________
#
#PARAMETER_NAME    .UNIT     VALUE                         : DESCRIPTION
#_______________________________________________________________________________
SET                .         LQC_KAZNIPI_Petrel            : 
TLFamily_CALI      .         Caliper                       : 
TLFamily_CILD      .         Conductivity                  : 
TLFamily_COLL      .         Net Reservoir Flag            : 
TLFamily_CSAT      .         Fluid Code                    : 
TLFamily_DEPT      .         Measured Depth                : 
TLFamily_GR        .         Russian Gamma Ray             : 
TLFamily_GZ3       .         Gradient 225                  : 
TLFamily_IK1       .         Resistivity 05                : 
TLFamily_IK2       .         Resistivity 07                : 
TLFamily_IK3       .         Resistivity 10                : 
TLFamily_IK4       .         Resistivity 14                : 
TLFamily_IK5       .         Resistivity 20                : 
TLFamily_LLS       .         Lateral Log Resistivity       : 
TLFamily_MBK       .         Micro Lateral Log Resistivity : 
TLFamily_MINV      .         Micro Gradient Resistivity    : 
TLFamily_NNKTB     .         Neutron Far                   : 
TLFamily_NNKTM     .         Neutron Near                  : 
TLFamily_NPHI      .         Neutron Porosity              : 
TLFamily_OGZ       .         Gradient Inverted 225         : 
TLFamily_PHIE      .         Effective Porosity            : 
TLFamily_PHIEN     .         Effective Porosity            : 
TLFamily_PHIT      .         Porosity                      : 
TLFamily_PRMB      .         Permeability                  : 
TLFamily_PRMB_DGR  .         Permeability                  : 
TLFamily_RT        .         Formation Resistivity         : 
TLFamily_SOIL_ARCHIE .         Oil Saturation                : 
TLFamily_SOIL_DW   .         Oil Saturation                : 
TLFamily_SP        .         Spontaneous Potential         : 
TLFamily_VSH_FIN   .         Shale Volume                  : 
TLFamily_VSH_GR    .         Shale Volume                  : 
TLFamily_VSH_SP    .         Shale Volume                  : 
~Curve Information
#_______________________________________________________________________________
#
#LOGNAME           .UNIT     LOG_ID                        : DESCRIPTION
#_______________________________________________________________________________
DEPT               .M                                      :  
CALI               .м                                      :  
CILD               .мСм/м                                  :  
COLL               .unitless                               :  
CSAT               .unitless                               :  
GR                 .uR/h                                   :  
GZ3                .Ohmm                                   :  
IK1                .Ohmm                                   :  
IK2                .Ohmm                                   :  
IK3                .Ohmm                                   :  
IK4                .Ohmm                                   :  
IK5                .Ohmm                                   :  
LLS                .Ohmm                                   :  
MBK                .Ohmm                                   :  
MINV               .Ohmm                                   :  
NNKTB              .у.е.                                   :  
NNKTM              .у.е.                                   :  
NPHI               .v/v                                    :  
OGZ                .Ohmm                                   :  
PHIE               .v/v                                    :  
PHIEN              .v/v                                    :  
PHIT               .v/v                                    :  
PRMB               .mD                                     :  
PRMB_DGR           .mD                                     :  
RT                 .ohmm                                   :  
SOIL_ARCHIE        .v/v                                    :  
SOIL_DW            .v/v                                    :  
SP                 .мВ                                     :  
VSH_FIN            .v/v                                    :  
VSH_GR             .v/v                                    :  
VSH_SP             .v/v                                    :  
~Ascii
# ...
1078.6     
  0.25       386.1      -9999      -9999      3.07       3.17       
  2.01592087937348 2.37       2.546983998289243 2.585971925780424 
  2.562984296115333 2.3        -9999      -9999      2.04       1.23       
  0.206      2.91       0.08611813 0.08611813 0.206      0.1102237  
  65.23569   2.562984   0          0.2046291  706.787    0.3632784  
  0.1178147  0.6087421 
1078.8     
  0.253      393.7      -9999      -9999      3          3.28       
  2.005543164793471 2.374952092425422 2.447884361357892 2.415539335422134 
  2.42269481576885 2.19       -9999      -9999      1.8        1.22       
  0.27       2.64       0.141769   0.141769   0.27       1.183217   
  75.73079   2.422695   0.1907004  0.4274124  712.1283   0.3885787  
  0.1108523  0.6663052 
1079       
  0.272      456.62     -9999      -9999      2.97       3.3        
  1.311457279967017 1.350497411190275 1.461612802226137 1.60083759681305 
  1.869740846733774 1.8        -9999      -9999      1.64       1.19       
  0.313      2.13       0.1799102  0.1799102  0.313      6.019094   
  80.73064   1.869741   0.257343   0.457378   714.9597   0.4033025  
  0.1079958  0.6986092 
1079.2     
  0.314      628.93     -9999      -9999      3.38       3.04       
  0.5718131450973817 0.8429528488021072 1.040995699244451 1.232967572970316 
  1.434331298301924 1.37       -9999      -9999      1.56       1.11       
  0.3        1.64       0.161609   0.161609   0.3        2.757709   
  33.69538   1.434331   0.07659254 0.33691    713.7311   0.4193668  
  0.1542966  0.684437  
1079.4     
  0.331      714.28     -9999      -9999      3.87       2.92       
  0.8099563402078348 1.272529757754324 1.492930536599548 1.559885992795131 
  1.453886064224631 1.31       -9999      -9999      1.68       1.1        
  0.25       1.5        0.1058404  0.1058404  0.25       0.2556103  
  11.85932   1.453886   0          0.1338663  709.4924   0.4368474  
  0.2363413  0.6373534 
1079.6     
  0.386      653.59     -9999      -9999      3.99       2.92       
  0.7858018652090744 1.156835904625245 1.347878778470955 1.454340020924524 
  1.520997051750674 1.32       -9999      -9999      1.6        1.17       
  0.318      1.39       0.1781122  0.1781122  0.318      5.574794   
  9.18324    1.520997   0.1746118  0.4017466  704.5037   0.4239023  
  0.2623559  0.5854487 
1079.8     
  0.386      709.21     -9999      -9999      3.89       2.7        
  0.7057803910621868 0.8138668302038833 1.023196440009835 1.142372273083227 
  1.273345606516147 1.19       -9999      -9999      1.53       1.13       
  0.325      1.29       0.1962333  0.1962333  0.325      12.07464   
  11.36446   1.273346   0.1754286  0.3790431  699.8051   0.3902022  
  0.2404907  0.5399138 
1080       
  0.397      877.19     -9999      -9999      3.54       2.32       
  0.5257094611381589 0.7019747415918305 0.8648738085965131 1.014891985475562 
  1.07585376556931 1.07       -9999      -9999      1.32       1.05       
  0.379      1.27       0.2574525  0.2574525  0.379      164.3623   
  23.95991   1.075854   0.2955203  0.4476861  701.8464   0.3683259  
  0.1773472  0.5593047 
1080.2     
  0.505      980.39     -9999      -9999      3.66       2.07       
  0.4138345231991382 0.6338901083183139 0.7739094585499765 0.9148805113009905 
  0.9929598591819792 1.07       -9999      -9999      1.21       1.03       
  0.434      1.35       0.3003175  0.3003175  0.434      1022.745   
  18.55331   0.9929599  0.3603292  0.5017441  707.2278   0.4050983  
  0.1968681  0.6133286 
1080.4     
  0.432      1000       -9999      -9999      3.6        2.07       
  0.4089888491908421 0.6937551713107308 0.8337979398289165 0.9916965051523914 
  1.125160211979949 1.21       -9999      -9999      1.41       1.04       
  0.324      1.73       0.1840553  0.1840553  0.324      7.183056   
  21.08402   1.12516    0.07599087 0.321106   711.6792   0.4240748  
  0.1868529  0.6612967 
1080.6     
  0.306      714.28     -9999      -9999      3.26       2.58       
  0.6205428179466687 1.334956632393076 1.453325772060021 1.7240832756321 
  1.906551047832404 1.85       -9999      -9999      1.88       1.08       
  0.182      2.65       0.05304874 0.05304874 0.182      0.02689982 
  43.51453   1.906551   0          0          709.9705   0.3907614  
  0.1389969  0.6425258 
1080.8     
  0.226      350.87     -9999      -9999      2.24       3.57       
  3.541492226549131 5.050973074237772 4.619908374952924 4.885554524182613 
  4.132318281308504 3.74       -9999      -9999      2.78       1.25       
  0.086      3.64       0.01       0          0.086      0.004289259 
  382.5399   4.132318   0          0          711.9319   0.3606637  
  0.05721648 0.6641109 
1081       
  0.221      182.81     -9999      -9999      1.74       4.63       
  6.378807231566094 6.421954853805102 6.307954650012041 6.814983556587219 
  5.95874674975578 7.76       -9999      -9999      3.62       1.57       
  0.074      4.06       0.01       0          0.074      0.004289259 
  1110.306   5.958747   0          0          714.7733   0.366737   
  0.0370304  0.6964436 
1081.2     
  0.223      180.18     -9999      -9999      1.83       4.98       
  6.274539466577967 6.151895750635443 5.424320382372993 5.394384953833342 
  4.884033153835723 7.87       -9999      -9999      3.5        1.65       
  0.102      3.55       0.01       0          0.102      0.004289259 
  916.5258   4.884033   0          0          716.9545   0.3810898  
  0.04004716 0.7221324 
1081.4     
  0.225      234.74     -9999      -9999      2.21       4.59       
  4.285512687448534 4.471532000946617 3.97516280566434 3.895850850480144 
  3.527714400722427 4.06       -9999      -9999      2.88       1.55       
  0.153      2.76       0.02242249 0.02242249 0.153      0.007285793 
  407.7957   3.527714   0          0          718.0759   0.3956894  
  0.05574211 0.7356367 
1081.6     
  0.272      362.31     -9999      -9999      2.74       3.41       
  1.231517031649272 1.399559519873094 1.861154735525229 1.903982144047313 
  2.040855004061629 2.1        -9999      -9999      1.99       1.36       
  0.275      1.96       0.1376828  0.1376828  0.275      0.9939777  
  131.7986   2.040855   0.1002418  0.3761115  718.7473   0.4161129  
  0.08840644 0.7438194 
1081.8     
  0.394      645.16     -9999      -9999      3.08       2.38       
  0.605920804697541 0.7912421117431192 0.9849232856185555 1.109374511189572 
  1.254653279697801 1.19       -9999      -9999      1.3        1.11       
  0.437      1.38       0.2998     0.2998     0.437      1000.417   
  63.86017   1.254653   0.4259688  0.5582263  716.1586   0.4157577  
  0.1188444  0.712671  
1082       
  0.448      877.19     -9999      -9999      3.19       1.66       
  0.4738545858177 0.8438004298249056 1.110656960997324 1.151740306781685 
  1.13       1.03       -9999      -9999      1.29       1.02       
  0.375      1.22       0.2405474  0.2405474  0.375      79.92429   
  50.51511   1.13       0.2696158  0.4424733  713.7      0.4074322  
  0.1307827  0.6840817 
1082.2     
  0.433      854.7      -9999      -9999      3.57       1.46       
  0.476912115187167 0.8448709120870269 1.15296535367589 1.277985796743964 
  1.178996165845829 1.01       -9999      -9999      1.18       1.02       
  0.447      1.25       0.3064443  0.3064443  0.447      1328.161   
  22.47602   1.178996   0.420145   0.5543386  712.4413   0.4259262  
  0.182038   0.6698144 
1082.4     
  0.44       854.7      -9999      -9999      3.78       1.39       
  0.4689902942706787 0.7239033826753464 1.008655009498752 1.148695387904045 
  1.106807269236368 0.98       -9999      -9999      1.27       1.02       
  0.387      1.37       0.2540388  0.2540388  0.387      142.0933   
  56.65926   1.106807   0.2967065  0.459218   713.4327   0.4029126  
  0.1247944  0.6810308 
1082.6     
  0.572      970.87     -9999      -9999      3.87       1.34       
  0.4165139873154051 0.607556982707617 0.7512048667469178 0.8922088819080511 
  0.9567781790533454 0.95       -9999      -9999      1.38       1.01       
  0.319      1.36       0.1861292  0.1861292  0.319      7.847328   
  48.71881   0.9567782  0.01263946 0.2601369  712.6841   0.4026389  
  0.1327307  0.6725471 
