~Version
 VERS              .         2.0                           : CWLS LOG ASCII STANDARD - VERSION 2.0
 WRAP              .         YES                            : ONE LINE PER DEPTH STEP
 DLM               .         SPACE                         : DELIMITING CHARACTER(SPACE TAB OR COMMA)
~Well Information
#_______________________________________________________________________________
#
#PARAMETER_NAME    .UNIT     VALUE                         : DESCRIPTION
#_______________________________________________________________________________
STRT               .M        7                             : First reference value
STOP               .M        1232                          : Last reference value
STEP               .M        0.2                           : Step increment
NULL               .         -9999                         : Missing value
COMP               .                                       : Company
WELL               .         2796                          : Well name
FLD                .                                       : Field
LOC                .                                       : Location
CNTY               .                                       : County
STAT               .                                       : State
CTRY               .                                       : Country
SRVC               .                                       : Service Company
DATE               .                                       : Date
API                .                                       : API number
~Parameter Information Block
#_______________________________________________________________________________
#
#PARAMETER_NAME    .UNIT     VALUE                         : DESCRIPTION
#_______________________________________________________________________________
SET                .         LQC_KAZNIPI_Petrel            : 
TLFamily_CALI      .         Caliper                       : 
TLFamily_CILD      .         Conductivity                  : 
TLFamily_COLL      .         Net Reservoir Flag            : 
TLFamily_CSAT      .         Fluid Code                    : 
TLFamily_DEPT      .         Measured Depth                : 
TLFamily_GR        .         Russian Gamma Ray             : 
TLFamily_GZ3       .         Gradient 225                  : 
TLFamily_IK1       .         Resistivity 05                : 
TLFamily_IK2       .         Resistivity 07                : 
TLFamily_IK3       .         Resistivity 10                : 
TLFamily_IK4       .         Resistivity 14                : 
TLFamily_IK5       .         Resistivity 20                : 
TLFamily_LLS       .         Lateral Log Resistivity       : 
TLFamily_MBK       .         Micro Lateral Log Resistivity : 
TLFamily_MINV      .         Micro Gradient Resistivity    : 
TLFamily_NNKTB     .         Neutron Far                   : 
TLFamily_NNKTM     .         Neutron Near                  : 
TLFamily_NPHI      .         Neutron Porosity              : 
TLFamily_OGZ       .         Gradient Inverted 225         : 
TLFamily_PHIE      .         Effective Porosity            : 
TLFamily_PHIEN     .         Effective Porosity            : 
TLFamily_PHIT      .         Porosity                      : 
TLFamily_PRMB      .         Permeability                  : 
TLFamily_PRMB_DGR  .         Permeability                  : 
TLFamily_RT        .         Formation Resistivity         : 
TLFamily_SOIL_ARCHIE .         Oil Saturation                : 
TLFamily_SOIL_DW   .         Oil Saturation                : 
TLFamily_SP        .         Spontaneous Potential         : 
TLFamily_VSH_FIN   .         Shale Volume                  : 
TLFamily_VSH_GR    .         Shale Volume                  : 
TLFamily_VSH_SP    .         Shale Volume                  : 
~Curve Information
#_______________________________________________________________________________
#
#LOGNAME           .UNIT     LOG_ID                        : DESCRIPTION
#_______________________________________________________________________________
DEPT               .M                                      :  
CALI               .м                                      :  
CILD               .мСм/м                                  :  
COLL               .unitless                               :  
CSAT               .unitless                               :  
GR                 .uR/h                                   :  
GZ3                .Ohmm                                   :  
IK1                .Ohmm                                   :  
IK2                .Ohmm                                   :  
IK3                .Ohmm                                   :  
IK4                .Ohmm                                   :  
IK5                .Ohmm                                   :  
LLS                .Ohmm                                   :  
MBK                .Ohmm                                   :  
MINV               .Ohmm                                   :  
NNKTB              .у.е.                                   :  
NNKTM              .у.е.                                   :  
NPHI               .v/v                                    :  
OGZ                .Ohmm                                   :  
PHIE               .v/v                                    :  
PHIEN              .v/v                                    :  
PHIT               .v/v                                    :  
PRMB               .mD                                     :  
PRMB_DGR           .mD                                     :  
RT                 .ohmm                                   :  
SOIL_ARCHIE        .v/v                                    :  
SOIL_DW            .v/v                                    :  
SP                 .мВ                                     :  
VSH_FIN            .v/v                                    :  
VSH_GR             .v/v                                    :  
VSH_SP             .v/v                                    :  
~Ascii
# ...
931.6      
  0.237      -9999      -9999      -9999      5.22       3.86       
  -9999      -9999      -9999      -9999      -9999      2.17       
  -9999      -9999      1.65       1.15       0.287      3.79       
  -9999      -9999      -9999      -9999      -9999      -9999      
  -9999      -9999      683.5656   -9999      0.03548657 0.8       
931.8      
  0.235      -9999      -9999      -9999      4.86       3.73       
  -9999      -9999      -9999      -9999      -9999      2.12       
  -9999      -9999      1.51       1.13       0.334      3.6        
  -9999      -9999      -9999      -9999      -9999      -9999      
  -9999      -9999      691.0056   -9999      0.02789694 0.8       
932        
  0.248      -9999      -9999      -9999      4.82       3.66       
  -9999      -9999      -9999      -9999      -9999      2.09       
  -9999      -9999      1.63       1.09       0.262      3.53       
  -9999      -9999      -9999      -9999      -9999      -9999      
  -9999      -9999      703.5356   -9999      0.02716093 0.8       
932.2000000000001 
  0.257      -9999      -9999      -9999      4.62       3.52       
  1.467964656130869 2665.620099999999 2666.030000000001 2665.620099999999 
  2666.030000000001 2.01       -9999      -9999      1.56       1.07       
  0.277      3.44       -9999      -9999      -9999      -9999      
  -9999      -9999      -9999      -9999      710.7356   -9999      
  0.0237621  0.8       
932.4      
  0.308      0.37       -9999      -9999      4.99       3.47       
  1.891765397002986 1.950040195308705 2666.030000000001 2665.620099999999 
  2666.030000000001 2.03       -9999      -9999      1.48       1.1        
  0.33       3.55       -9999      -9999      -9999      -9999      
  -9999      2666.03    -9999      -9999      710.4956   -9999      
  0.03042953 0.8       
932.6      
  0.323      0.37       -9999      -9999      4.92       3.57       
  1.779999971389771 1.968997708365251 2.093965962103179 2665.620099999999 
  2666.030000000001 2.15       -9999      -9999      1.55       1.12       
  0.311      3.76       -9999      -9999      -9999      -9999      
  -9999      2666.03    -9999      -9999      711.5456   -9999      
  0.02903852 0.8       
932.8      
  0.273      0.37       -9999      -9999      5.02       3.66       
  1.853911089060256 1.944942939537493 2.035921659602336 4.657307120124088 
  2666.030000000001 2.2        -9999      -9999      1.59       1.14       
  0.305      3.98       -9999      -9999      -9999      -9999      
  -9999      2666.03    -9999      -9999      710.9556   -9999      
  0.0310459  0.8       
933        
  0.283      0.37       -9999      -9999      4.91       3.73       
  1.714935437100281 1.838997545896512 1.968997708365251 2.192981665715569 
  2666.030000000001 2.18       -9999      -9999      1.54       1.12       
  0.315      4          -9999      -9999      -9999      -9999      
  -9999      2666.03    -9999      -9999      715.0856   -9999      
  0.02884506 0.8       
933.2000000000001 
  0.353      0.37       -9999      -9999      4.76       3.72       
  1.847982457330476 1.775380820629489 1.975919318513471 2.2        
  4.78475841181008 2.15       -9999      -9999      1.55       1.13       
  0.316      3.86       -9999      -9999      -9999      -9999      
  -9999      2666.03    -9999      -9999      715.8256   -9999      
  0.02609316 0.8       
933.4      
  0.288      423.72     -9999      -9999      4.84       3.68       
  1.942313019225975 1.818690613894853 2.00185299706094 2.245967634994546 
  2.386982918441199 2.12       -9999      -9999      1.54       1.13       
  0.321      3.78       -9999      -9999      -9999      -9999      
  -9999      2.36       -9999      -9999      720.7056   -9999      
  0.02752648 0.8       
933.6      
  0.26       418.41     -9999      -9999      5.08       3.66       
  1.939761490592822 1.775910392480142 2.0059205062913 2.273968631452873 
  2.41698313187564 2.15       -9999      -9999      1.44       1.15       
  0.382      3.69       -9999      -9999      -9999      -9999      
  -9999      2.39       -9999      -9999      715.9956   -9999      
  0.03231634 0.8       
933.8      
  0.234      416.66     -9999      -9999      5.22       3.75       
  1.566214937800748 1.540659522401506 1.808803688757321 2.14592561654767 
  2.363969815045732 2.22       -9999      -9999      1.46       1.16       
  0.378      3.65       -9999      -9999      -9999      -9999      
  -9999      2.4        -9999      -9999      710.9456   -9999      
  0.03548657 0.8       
934        
  0.23       427.35     -9999      -9999      5.14       3.81       
  1.596527181849903 1.717763880361056 1.964462668774115 2.192897705217153 
  2.34       2.24       -9999      -9999      1.54       1.15       
  0.333      3.65       -9999      -9999      -9999      -9999      
  -9999      2.34       -9999      -9999      709.3956   -9999      
  0.03363877 0.8       
934.2000000000001 
  0.231      423.72     -9999      -9999      4.99       3.77       
  1.705356656762458 1.88494114848429 2.062980519244654 2.240997996733114 
  2.368998096176278 2.28       -9999      -9999      1.5        1.13       
  0.339      3.65       -9999      -9999      -9999      -9999      
  -9999      2.36       -9999      -9999      704.4856   -9999      
  0.03042953 0.8       
934.4      
  0.233      431.03     -9999      -9999      4.56       3.57       
  1.230895087895257 1.564213029977614 1.806314362012077 2.013577610036912 
  2.237873712078447 2.21       -9999      -9999      1.33       1.08       
  0.395      3.46       -9999      -9999      -9999      -9999      
  -9999      2.32       -9999      -9999      701.3656   -9999      
  0.02282795 0.8       
934.6      
  0.27       450.45     -9999      -9999      4.34       3.39       
  1.709728339205048 1.807829555440015 1.960125932043616 2.109781169467685 
  2.22       2          -9999      -9999      1.35       1.05       
  0.362      3.26       -9999      -9999      -9999      -9999      
  -9999      2.22       -9999      -9999      697.8756   -9999      
  0.02       0.8       
934.8      
  0.325      444.44     -9999      -9999      4.35       3.27       
  1.405730229921676 1.744934526374358 1.934942648638051 2.22       
  2.321873638261331 1.93       -9999      -9999      1.4        1.04       
  0.329      3.15       -9999      -9999      -9999      -9999      
  -9999      2.25       -9999      -9999      689.0756   -9999      
  0.02       0.8       
935        
  0.321      418.41     -9999      -9999      4.28       3.42       
  1.931847602247692 2.145574075134678 2.193453501950732 2.309800568210802 
  2.425970057739983 1.99       -9999      -9999      1.46       1.07       
  0.32       3.3        -9999      -9999      -9999      -9999      
  -9999      2.39       -9999      -9999      683.4156   -9999      
  0.02       0.8       
935.2000000000001 
  0.293      406.5      -9999      -9999      4.34       3.78       
  1.637158636949312 1.8988127655614 2.10979196173489 2.261992079753148 
  2.450998167999321 2.17       -9999      -9999      1.45       1.07       
  0.325      3.55       -9999      -9999      -9999      -9999      
  -9999      2.46       -9999      -9999      683.5856   -9999      
  0.02       0.8       
935.4      
  0.303      408.16     -9999      -9999      4.47       3.95       
  1.657830613043012 1.901990588995611 2.14494689049734 2.285968206666934 
  2.421992600683461 2.25       -9999      -9999      1.37       1.07       
  0.365      3.76       -9999      -9999      -9999      -9999      
  -9999      2.45       -9999      -9999      679.1156   -9999      
  0.02149512 0.8       
935.6      
  0.276      404.85     -9999      -9999      4.4        3.98       
  1.891765397002986 2.251443060549185 2.542734461165504 2.430847028926548 
  2.515971137998592 2.26       -9999      -9999      1.42       1.05       
  0.326      3.72       -9999      -9999      -9999      -9999      
  -9999      2.47       -9999      -9999      669.4256   -9999      
  0.02051253 0.8       
