~Version
 VERS              .         2.0                           : CWLS LOG ASCII STANDARD - VERSION 2.0
 WRAP              .         NO                            : ONE LINE PER DEPTH STEP
 DLM               .         SPACE                         : DELIMITING CHARACTER(SPACE TAB OR COMMA)
~Well Information
#_______________________________________________________________________________
#
#PARAMETER_NAME    .UNIT     VALUE                         : DESCRIPTION
#_______________________________________________________________________________
STRT               .M        850                           : First reference value
STOP               .M        1307                          : Last reference value
STEP               .M        0.2                           : Step increment
NULL               .         -9999                         : Missing value
COMP               .         UPGF                          : Company
WELL               .         2904                          : Well name
FLD                .         УЗЕНЬ                         : Field
LOC                .                                       : Location
CNTY               .                                       : County
STAT               .                                       : State
CTRY               .                                       : Country
SRVC               .                                       : Service Company
DATE               .         08.06.1978г                   : Date
UWI                .                                       : Unique Well ID
Block              .         4                             : 
Category           .         Нефтяная                      : 
Condition          .         Ликвидированная               : 
EREF               .m        224                           : 100.8
Gorizont           .         15                            : 14
Interpretator      .         Кушнир И.Е.                   : 
Kupol              .         основной                      : osnovnoi
Mud                .                                       : 
Mud_density        .                                       : 
Mud_resistivity    .                                       : 
NGDU               .         НГДУ-1                        : 
ORIGINALWELLNAME   .         2904                          : 
Spud_date          .         1979                          : 1961
Viscosity          .                                       : 
X                  .m        53912.7                       : 46154
Y                  .m        82063.3                       : 85761.93
YEAR               .         2019г                         : 
~Parameter Information Block
#_______________________________________________________________________________
#
#PARAMETER_NAME    .UNIT     VALUE                         : DESCRIPTION
#_______________________________________________________________________________
SET                .         LQC_KAZNIPI_Petrel            : 
TLFamily_CALI      .         Caliper                       : 
TLFamily_CILD      .         Conductivity                  : 
TLFamily_COLL      .         Net Reservoir Flag            : 
TLFamily_CSAT      .         Fluid Code                    : 
TLFamily_DEPT      .         Measured Depth                : 
TLFamily_GZ3       .         Gradient 225                  : 
TLFamily_LLS       .         Lateral Log Resistivity       : 
TLFamily_MINV      .         Micro Gradient Resistivity    : 
TLFamily_MNOR      .         Micro Resistivity             : 
TLFamily_OGZ       .         Gradient Inverted 225         : 
TLFamily_RT        .         Formation Resistivity         : 
TLFamily_SP        .         Spontaneous Potential         : 
TLFamily_VSH_FIN   .         Shale Volume                  : 
TLFamily_VSH_SP    .         Shale Volume                  : 
~Curve Information
#_______________________________________________________________________________
#
#LOGNAME           .UNIT     LOG_ID                        : DESCRIPTION
#_______________________________________________________________________________
DEPT               .M                                      : Колонка глубины 
CALI               .м                                      : Каверномер 
CILD               .мСм/м                                  : Индукционный каротаж 
COLL               .v/v                                    :  
CSAT               .v/v                                    :  
GZ3                .ohmm                                   : Градиент-зонд  длиной 2.25м 
LLS                .Ohmm                                   : Боковой каротаж 
MINV               .Ohmm                                   : Микро-градиент зонд 
MNOR               .Ohmm                                   : Микро-потенциал зонд 
OGZ                .ohmm                                   : Обращенный градиент-зонд 
RT                 .ohmm                                   : Description 
SP                 .mV                                     : Потенциал самополяризации 
VSH_FIN            .v/v                                    : Описание 
VSH_SP             .v/v                                    : Shale Volume 
~Ascii
# ...
1078.8     0.246      432.106    0          0          2.794      1.872      0.844      0.857      1.561      1.872      76.0564    0.5653005  0.5653005 
1079       0.254      443.534    0          0          2.616      1.758      1.054      1.105      1.472      1.758      75.9152    0.5574924  0.5574924 
1079.2     0.258      451.788    0          0          2.401      1.644      1.594      1.67       1.371      1.644      75.838     0.5532632  0.5532632 
1079.4     0.254      456.233    0          0          2.273      1.675      1.428      1.238      1.295      1.675      75.76078   0.549061   0.549061  
1079.6     0.254      458.773    0          0          2.197      1.779      1.282      1.371      1.257      1.779      75.55757   0.5381352  0.5381352 
1079.8     0.246      456.233    0          0          2.134      1.893      1.409      0.959      1.269      1.893      75.48037   0.5340346  0.5340346 
1080       0.235      452.423    0          0          2.108      1.964      1.225      1.454      1.345      1.964      75.34016   0.5266572  0.5266572 
1080.2     0.23       447.979    0          0          2.045      1.964      1.448      1.257      1.434      1.964      75.19895   0.5193186  0.5193186 
1080.4     0.24       448.614    0          0          2.019      1.933      1.327      0.965      1.511      1.933      75.31174   0.5251732  0.5251732 
1080.6     0.248      456.868    0          0          1.994      2.513      1.124      1.168      1.587      2.513      75.29754   0.5244327  0.5244327 
1080.8     0.248      467.027    0          0          2.07       2.616      1.149      1.155      1.612      2.616      75.28333   0.5236927  0.5236927 
1081       0.237      476.55     0          0          2.032      2.057      1.32       1.111      1.561      2.057      75.26912   0.5229539  0.5229539 
1081.2     0.232      483.534    0          0          1.943      1.758      1.399      1.094      1.472      1.758      75.38091   0.5287923  0.5287923 
1081.4     0.24       490.519    0          0          1.816      1.705      1.473      1.079      1.434      1.705      75.49271   0.534688   0.534688  
1081.6     0.238      495.598    0          0          1.765      1.705      1.492      1.098      1.409      1.705      75.7935    0.5508379  0.5508379 
1081.8     0.232      500.677    0          0          1.626      1.696      1.422      1.111      1.396      1.696      75.90629   0.5570028  0.5570028 
1082       0.227      504.487    0          0          1.486      1.655      1.098      1.263      1.485      1.655      76.01808   0.5631721  0.5631721 
1082.2     0.223      508.296    0          0          1.461      1.644      1.549      1.676      1.472      1.644      76.12988   0.5694004  0.5694004 
1082.4     0.227      510.836    0          0          1.41       1.665      2.006      1.073      1.434      1.665      76.17866   0.5721368  0.5721368 
1082.6     0.233      512.106    0          0          1.372      1.686      1.695      1.657      1.384      1.686      76.10146   0.5678114  0.5678114 
1082.8     0.238      512.106    0          0          1.334      1.675      1.016      0.946      1.358      1.675      75.96125   0.5600285  0.5600285 
1083       0.242      513.376    0          0          1.296      1.644      0.87       1.028      1.333      1.644      75.88404   0.5557821  0.5557821 
1083.2     0.246      513.376    0          0          1.257      1.644      0.584      1.276      1.32       1.644      75.55383   0.537936   0.537936  
1083.4     0.246      515.915    0          0          1.321      1.655      1.022      1.301      1.32       1.655      75.22462   0.5206462  0.5206462 
1083.6     0.238      519.725    0          0          1.334      1.717      1.505      1.27       1.345      1.717      74.89442   0.5038001  0.5038001 
1083.8     0.233      524.169    0          0          1.346      1.769      1.219      1.193      1.371      1.769      74.62821   0.490576   0.490576  
1084       0.229      528.614    0          0          1.359      1.655      1.282      1.117      1.396      1.655      74.614     0.4898788  0.4898788 
1084.2     0.224      533.058    0          0          1.372      1.572      1.282      1.121      1.409      1.572      74.72579   0.4953867  0.4953867 
1084.4     0.222      536.233    0          0          1.384      1.624      1.282      1.124      1.422      1.624      74.90059   0.5041105  0.5041105 
1084.6     0.226      535.598    0          0          1.397      1.562      1.327      1.13       1.422      1.562      75.01338   0.5098125  0.5098125 
1084.8     0.231      531.154    0          0          1.41       1.613      1.289      1.092      1.447      1.613      75.12517   0.5155202  0.5155202 
1085       0.231      526.074    0          0          1.397      1.613      1.333      1.066      1.46       1.613      75.17396   0.5180292  0.5180292 
1085.2     0.228      519.09     0          0          1.334      1.52       1.047      0.997      1.485      1.52       75.34875   0.527107   0.527107  
1085.4     0.225      514.646    0          0          1.27       1.448      1.149      1.086      1.498      1.448      75.52355   0.5363248  0.5363248 
1085.6     0.23       510.836    0          0          1.194      1.458      1.625      1.619      1.523      1.458      75.63634   0.5423474  0.5423474 
1085.8     0.236      504.487    0          0          1.13       1.727      1.898      1.193      1.549      1.727      75.74813   0.5483753  0.5483753 
1086       0.24       493.693    0          0          1.08       1.933      1.251      1.105      1.561      1.933      75.79692   0.5510243  0.5510243 
1086.2     0.246      480.36     0          0          1.041      1.705      1.047      1.054      1.599      1.705      75.90871   0.5571361  0.5571361 
1086.4     0.253      464.487    0          0          1.003      1.499      1.365      1.34       1.727      1.499      75.8945    0.5563558  0.5563558 
1086.6     0.251      448.614    0          0          0.978      1.769      1.428      1.479      1.892      1.769      75.88029   0.5555768  0.5555768 
1086.8     0.248      433.376    0          0          0.978      2.399      2          1.251      2.069      2.399      75.86609   0.5547988  0.5547988 
1087       0.252      425.122    0          0          1.029      3.144      2.953      2.064      2.12       3.144      75.85188   0.5540218  0.5540218 
1087.2     0.242      432.106    0          0          1.118      3.227      2.889      2.324      1.955      3.227      75.83767   0.5532452  0.5532452 
1087.4     0.23       437.185    0          0          1.372      2.74       2.15       2.241      1.574      2.74       75.82346   0.5524701  0.5524701 
1087.6     0.221      431.471    0          0          1.575      2.368      1.365      2.152      1.384      2.368      75.80926   0.5516959  0.5516959 
1087.8     0.216      424.487    0          0          1.677      1.943      1.289      1.555      1.472      1.943      75.79505   0.5509226  0.5509226 
1088       0.237      416.233    0          0          1.727      1.613      1.428      1.213      1.65       1.613      75.78084   0.5501499  0.5501499 
1088.2     0.252      410.519    0          0          1.74       1.85       2.165      1.174      1.815      1.85       75.76663   0.5493785  0.5493785 
1088.4     0.257      418.773    0          0          1.715      2.409      2.451      1.759      1.904      2.409      75.68943   0.5452029  0.5452029 
1088.6     0.246      425.122    0          0          1.677      2.596      2.019      2.203      1.714      2.596      75.61222   0.5410547  0.5410547 
1088.8     0.234      425.757    0          0          1.638      2.245      1.936      1.873      1.574      2.245      75.47201   0.533592   0.533592  
1089       0.231      425.757    0          0          1.613      1.903      1.676      1.517      1.65       1.903      75.39481   0.5295218  0.5295218 
