~Version
 VERS              .         2.0                           : CWLS LOG ASCII STANDARD - VERSION 2.0
 WRAP              .         NO                            : ONE LINE PER DEPTH STEP
 DLM               .         SPACE                         : DELIMITING CHARACTER(SPACE TAB OR COMMA)
~Well Information
#_______________________________________________________________________________
#
#PARAMETER_NAME    .UNIT     VALUE                         : DESCRIPTION
#_______________________________________________________________________________
STRT               .M        850                           : First reference value
STOP               .M        1307                          : Last reference value
STEP               .M        0.2                           : Step increment
NULL               .         -9999                         : Missing value
COMP               .         UPGF                          : Company
WELL               .         2904                          : Well name
FLD                .         УЗЕНЬ                         : Field
LOC                .                                       : Location
CNTY               .                                       : County
STAT               .                                       : State
CTRY               .                                       : Country
SRVC               .                                       : Service Company
DATE               .         08.06.1978г                   : Date
UWI                .                                       : Unique Well ID
Block              .         4                             : 
Category           .         Нефтяная                      : 
Condition          .         Ликвидированная               : 
EREF               .m        224                           : 100.8
Gorizont           .         15                            : 14
Interpretator      .         Кушнир И.Е.                   : 
Kupol              .         основной                      : osnovnoi
Mud                .                                       : 
Mud_density        .                                       : 
Mud_resistivity    .                                       : 
NGDU               .         НГДУ-1                        : 
ORIGINALWELLNAME   .         2904                          : 
Spud_date          .         1979                          : 1961
Viscosity          .                                       : 
X                  .m        53912.7                       : 46154
Y                  .m        82063.3                       : 85761.93
YEAR               .         2019г                         : 
~Parameter Information Block
#_______________________________________________________________________________
#
#PARAMETER_NAME    .UNIT     VALUE                         : DESCRIPTION
#_______________________________________________________________________________
SET                .         LQC_KAZNIPI_Petrel            : 
TLFamily_CALI      .         Caliper                       : 
TLFamily_CILD      .         Conductivity                  : 
TLFamily_COLL      .         Net Reservoir Flag            : 
TLFamily_CSAT      .         Fluid Code                    : 
TLFamily_DEPT      .         Measured Depth                : 
TLFamily_GZ3       .         Gradient 225                  : 
TLFamily_LLS       .         Lateral Log Resistivity       : 
TLFamily_MINV      .         Micro Gradient Resistivity    : 
TLFamily_MNOR      .         Micro Resistivity             : 
TLFamily_OGZ       .         Gradient Inverted 225         : 
TLFamily_RT        .         Formation Resistivity         : 
TLFamily_SP        .         Spontaneous Potential         : 
TLFamily_VSH_FIN   .         Shale Volume                  : 
TLFamily_VSH_SP    .         Shale Volume                  : 
~Curve Information
#_______________________________________________________________________________
#
#LOGNAME           .UNIT     LOG_ID                        : DESCRIPTION
#_______________________________________________________________________________
DEPT               .M                                      : Колонка глубины 
CALI               .м                                      : Каверномер 
CILD               .мСм/м                                  : Индукционный каротаж 
COLL               .v/v                                    :  
CSAT               .v/v                                    :  
GZ3                .ohmm                                   : Градиент-зонд  длиной 2.25м 
LLS                .Ohmm                                   : Боковой каротаж 
MINV               .Ohmm                                   : Микро-градиент зонд 
MNOR               .Ohmm                                   : Микро-потенциал зонд 
OGZ                .ohmm                                   : Обращенный градиент-зонд 
RT                 .ohmm                                   : Description 
SP                 .mV                                     : Потенциал самополяризации 
VSH_FIN            .v/v                                    : Описание 
VSH_SP             .v/v                                    : Shale Volume 
~Ascii
# ...
1245.2     0.215      321.63     0          0          2.858      3.786      2.584      2.889      2.73       3.786      72.37907   0.3910019  0.3910019 
1245.4     0.214      308.296    0          0          3.366      4.903      2.425      2.527      3.073      4.903      71.74808   0.3667727  0.3667727 
1245.6     0.214      302.582    0          0          3.874      4.333      2.876      2.286      3.428      4.333      71.74808   0.3667727  0.3667727 
1245.8     0.213      305.122    0          0          3.81       3.817      2.216      2.273      3.835      3.817      72.19008   0.3835815  0.3835815 
1246       0.213      308.296    0          0          3.378      3.351      2.432      2.381      3.606      3.351      72.88408   0.4115286  0.4115286 
1246.2     0.213      310.201    0          0          2.959      3.092      1.898      2.127      3.213      3.092      73.45207   0.4358576  0.4358576 
1246.4     0.213      314.646    0          0          2.528      3.258      1.327      2.083      3.225      3.258      74.33508   0.4763775  0.4763775 
1246.6     0.212      324.169    0          0          2.324      3.103      1.981      2.584      3.187      3.103      75.28107   0.5235755  0.5235755 
1246.8     0.212      334.328    0          0          2.121      2.854      2.61       2.559      3.009      2.854      75.97507   0.5607918  0.5607918 
1247       0.212      345.122    0          0          1.994      2.73       1.987      2.076      2.806      2.73       76.60608   0.596599   0.596599  
1247.2     0.212      354.646    0          0          1.931      2.451      2.279      1.917      2.565      2.451      77.36308   0.6421063  0.6421063 
1247.4     0.211      362.265    0          0          1.867      2.183      2.26       1.74       2.387      2.183      77.86807   0.6740533  0.6740533 
1247.6     0.211      367.979    0          0          1.804      1.986      2.343      1.721      2.298      1.986      78.18407   0.6947052  0.6947052 
1247.8     0.211      373.693    0          0          1.765      1.862      1.867      1.924      2.349      1.862      77.27464   0.6366439  0.6366439 
1248       0.21       375.598    0          0          1.816      1.903      2.318      2.775      2.717      1.903      73.7162    0.4476292  0.4476292 
1248.2     0.21       364.804    1          2          1.842      2.709      2.254      2.851      3.505      2.709      70.15776   0.3123637  0.3123637 
1248.4     0.21       346.392    1          2          2.058      4.261      2.165      3.092      4.267      4.261      66.53632   0.2202052  0.2202052 
1248.6     0.21       331.154    1          2          2.286      6.206      2.343      2.927      4.737      6.206      63.04088   0.1655768  0.1655768 
1248.8     0.21       314.646    1          2          2.489      6.268      2.203      2.978      4.521      6.268      61.75344   0.1521573  0.1521573 
1249       0.21       300.677    1          2          2.718      5.326      2.572      2.749      4.241      5.326      62.422     0.1587347  0.1587347 
1249.2     0.21       289.249    1          2          2.909      4.375      2.438      3.169      4.076      4.375      62.89856   0.1639366  0.1639366 
1249.4     0.21       282.265    1          2          2.82       3.724      2.883      3.13       4.165      3.724      63.44412   0.1704488  0.1704488 
1249.6     0.209      277.82     1          2          2.693      3.755      2.711      2.876      4.33       3.755      64.49068   0.1847258  0.1847258 
1249.8     0.209      274.011    1          2          2.54       3.672      2.807      2.991      4.533      3.672      65.28524   0.1972531  0.1972531 
1250       0.209      268.296    1          2          2.439      3.051      3.156      3.638      4.826      3.051      65.0708    0.1937216  0.1937216 
1250.2     0.209      260.677    1          2          2.337      3.712      2.876      3.27       5.143      3.712      64.79337   0.1893193  0.1893193 
1250.4     0.209      249.249    1          2          2.261      4.168      2.4        3.016      5.473      4.168      63.88393   0.1761536  0.1761536 
1250.6     0.209      237.82     1          2          2.324      3.919      2.108      2.851      5.6        3.919      62.97548   0.164818   0.164818  
1250.8     0.209      227.661    1          2          2.553      4.168      2.14       2.737      5.562      4.168      62.25604   0.1570254  0.1570254 
1251       0.209      217.503    1          2          2.832      4.375      2.051      2.66       5.765      4.375      61.5366    0.1501956  0.1501956 
1251.2     0.209      212.612    1          2          3.201      4.24       2.21       2.819      6.058      4.24       61.10116   0.1464968  0.1464968 
1251.4     0.209      207.979    1          2          3.493      4.665      2.324      2.953      6.324      4.665      60.72872   0.1435776  0.1435776 
1251.6     0.208      200.36     1          2          3.734      4.82       2.464      3.194      6.566      4.82       60.19829   0.1397866  0.1397866 
1251.8     0.208      194.011    1          2          3.848      4.892      2.4        3.2        6.756      4.892      59.85785   0.1375678  0.1375678 
1252       0.208      187.661    1          2          3.95       5.274      2.514      3.264      6.921      5.274      59.64241   0.1362457  0.1362457 
1252.2     0.208      182.582    1          2          4.141      5.709      2.641      3.175      6.985      5.709      59.17597   0.1335897  0.1335897 
1252.4     0.208      178.773    1          2          4.42       6.237      2.159      3.346      6.794      6.237      58.51953   0.1302964  0.1302964 
1252.6     0.208      176.233    1          2          4.687      6.009      2.064      2.864      6.413      6.009      58.05209   0.1282391  0.1282391 
1252.8     0.208      175.598    1          2          4.852      5.626      1.987      2.864      5.867      5.626      57.52265   0.1261678  0.1261678 
1253       0.208      175.598    1          2          4.979      5.595      2.051      2.552      5.283      5.595      57.05521   0.124544   0.124544  
1253.2     0.209      174.963    1          2          5.106      5.688      2.826      2.997      4.991      5.688      56.71377   0.1234665  0.1234665 
1253.4     0.21       172.423    1          2          5.449      5.369      2.711      3.429      4.533      5.369      56.58933   0.1230948  0.1230948 
1253.6     0.21       169.884    1          2          6.084      5.926      2.565      3.054      4.064      5.926      56.47389   0.1227593  0.1227593 
1253.8     0.21       166.074    1          2          6.63       6.641      2.152      3.169      3.594      6.641      57.20545   0.1250464  0.1250464 
1254       0.21       164.169    1          2          5.715      6.351      2.47       3.061      3.124      6.351      57.87401   0.1275131  0.1275131 
1254.2     0.21       168.061    1          2          6.097      5.906      2.235      3.13       2.882      5.906      58.73257   0.1313113  0.1313113 
1254.4     0.21       175.598    1          2          6.414      6.151      2.565      3.124      2.781      6.151      59.52713   0.1355634  0.1355634 
1254.6     0.21       184.487    1          2          6.668      6.617      3.283      2.921      2.717      6.617      60.06969   0.1389294  0.1389294 
1254.8     0.211      194.646    1          2          6.986      7.341      2.895      2.826      2.577      7.341      61.11625   0.1466198  0.1466198 
1255       0.211      209.884    1          2          7.303      7.394      2.47       2.038      2.438      7.394      62.85781   0.1634743  0.1634743 
1255.2     0.211      240.36     1          2          7.557      6.255      2.483      1.74       2.298      6.255      64.72437   0.1882532  0.1882532 
1255.4     0.211      274.646    1          2          7.684      4.962      2.432      1.689      2.146      4.962      66.21394   0.2138954  0.2138954 
