~Version
 VERS              .         2.0                           : CWLS LOG ASCII STANDARD - VERSION 2.0
 WRAP              .         NO                            : ONE LINE PER DEPTH STEP
 DLM               .         SPACE                         : DELIMITING CHARACTER(SPACE TAB OR COMMA)
~Well Information
#_______________________________________________________________________________
#
#PARAMETER_NAME    .UNIT     VALUE                         : DESCRIPTION
#_______________________________________________________________________________
STRT               .M        850                           : First reference value
STOP               .M        1307                          : Last reference value
STEP               .M        0.2                           : Step increment
NULL               .         -9999                         : Missing value
COMP               .         UPGF                          : Company
WELL               .         2904                          : Well name
FLD                .         УЗЕНЬ                         : Field
LOC                .                                       : Location
CNTY               .                                       : County
STAT               .                                       : State
CTRY               .                                       : Country
SRVC               .                                       : Service Company
DATE               .         08.06.1978г                   : Date
UWI                .                                       : Unique Well ID
Block              .         4                             : 
Category           .         Нефтяная                      : 
Condition          .         Ликвидированная               : 
EREF               .m        224                           : 100.8
Gorizont           .         15                            : 14
Interpretator      .         Кушнир И.Е.                   : 
Kupol              .         основной                      : osnovnoi
Mud                .                                       : 
Mud_density        .                                       : 
Mud_resistivity    .                                       : 
NGDU               .         НГДУ-1                        : 
ORIGINALWELLNAME   .         2904                          : 
Spud_date          .         1979                          : 1961
Viscosity          .                                       : 
X                  .m        53912.7                       : 46154
Y                  .m        82063.3                       : 85761.93
YEAR               .         2019г                         : 
~Parameter Information Block
#_______________________________________________________________________________
#
#PARAMETER_NAME    .UNIT     VALUE                         : DESCRIPTION
#_______________________________________________________________________________
SET                .         LQC_KAZNIPI_Petrel            : 
TLFamily_CALI      .         Caliper                       : 
TLFamily_CILD      .         Conductivity                  : 
TLFamily_COLL      .         Net Reservoir Flag            : 
TLFamily_CSAT      .         Fluid Code                    : 
TLFamily_DEPT      .         Measured Depth                : 
TLFamily_GZ3       .         Gradient 225                  : 
TLFamily_LLS       .         Lateral Log Resistivity       : 
TLFamily_MINV      .         Micro Gradient Resistivity    : 
TLFamily_MNOR      .         Micro Resistivity             : 
TLFamily_OGZ       .         Gradient Inverted 225         : 
TLFamily_RT        .         Formation Resistivity         : 
TLFamily_SP        .         Spontaneous Potential         : 
TLFamily_VSH_FIN   .         Shale Volume                  : 
TLFamily_VSH_SP    .         Shale Volume                  : 
~Curve Information
#_______________________________________________________________________________
#
#LOGNAME           .UNIT     LOG_ID                        : DESCRIPTION
#_______________________________________________________________________________
DEPT               .M                                      : Колонка глубины 
CALI               .м                                      : Каверномер 
CILD               .мСм/м                                  : Индукционный каротаж 
COLL               .v/v                                    :  
CSAT               .v/v                                    :  
GZ3                .ohmm                                   : Градиент-зонд  длиной 2.25м 
LLS                .Ohmm                                   : Боковой каротаж 
MINV               .Ohmm                                   : Микро-градиент зонд 
MNOR               .Ohmm                                   : Микро-потенциал зонд 
OGZ                .ohmm                                   : Обращенный градиент-зонд 
RT                 .ohmm                                   : Description 
SP                 .mV                                     : Потенциал самополяризации 
VSH_FIN            .v/v                                    : Описание 
VSH_SP             .v/v                                    : Shale Volume 
~Ascii
# ...
1006       0.217      435.915    1          3          1.562      2.254      3.245      2.483      1.485      2.254      60.3402    0.1407601  0.1407601 
1006.2     0.216      435.915    1          3          1.55       2.399      2.464      2.33       1.472      2.399      60.29707   0.1404611  0.1404611 
1006.4     0.216      437.82     1          3          1.524      2.378      2.102      2.114      1.447      2.378      60.25392   0.1401648  0.1401648 
1006.6     0.216      440.995    1          3          1.511      2.245      2.292      2.114      1.447      2.245      60.21078   0.1398712  0.1398712 
1006.8     0.216      445.439    1          3          1.435      2.109      2.114      2.121      1.447      2.109      60.16764   0.1395802  0.1395802 
1007       0.216      448.614    1          3          1.435      1.986      2.178      2.07       1.447      1.986      60.1245    0.1392919  0.1392919 
1007.2     0.215      451.154    1          3          1.435      1.903      2.07       2.07       1.447      1.903      60.08136   0.1390063  0.1390063 
1007.4     0.215      453.693    1          3          1.435      1.881      2.292      2.044      1.447      1.881      60.03822   0.1387232  0.1387232 
1007.6     0.215      455.598    1          3          1.435      1.955      2.133      2.127      1.447      1.955      59.99507   0.1384427  0.1384427 
1007.8     0.215      456.868    1          3          1.435      2.026      2.546      2.057      1.447      2.026      59.95193   0.1381649  0.1381649 
1008       0.215      457.503    1          3          1.435      2.069      2.349      2.216      1.447      2.069      59.90879   0.1378896  0.1378896 
1008.2     0.214      456.233    1          3          1.435      2.1        2.419      2.229      1.46       2.1        59.86565   0.1376169  0.1376169 
1008.4     0.214      455.598    1          3          1.423      2.183      2.743      2.298      1.46       2.183      59.82251   0.1373467  0.1373467 
1008.6     0.214      454.963    1          3          1.397      2.295      2.889      2.305      1.472      2.295      59.77937   0.137079   0.137079  
1008.8     0.214      454.963    1          3          1.384      2.183      2.368      2.197      1.472      2.183      59.73623   0.1368138  0.1368138 
1009       0.214      456.233    1          3          1.397      2.017      2.572      2.324      1.485      2.017      59.69308   0.1365511  0.1365511 
1009.2     0.213      458.773    1          3          1.41       2.202      2.457      2.318      1.485      2.202      59.64995   0.1362909  0.1362909 
1009.4     0.213      461.312    1          3          1.41       2.233      2.495      2.394      1.498      2.233      59.7328    0.1367929  0.1367929 
1009.6     0.213      463.852    1          3          1.384      2.038      1.873      2.006      1.498      2.038      59.68966   0.1365303  0.1365303 
1009.8     0.213      465.122    1          3          1.41       1.862      2.483      2.197      1.511      1.862      59.64652   0.1362703  0.1362703 
1010       0.212      465.122    1          3          1.397      1.881      2.559      2.21       1.485      1.881      59.66638   0.1363897  0.1363897 
1010.2     0.212      461.947    1          3          1.359      1.976      2.54       2.21       1.511      1.976      59.62324   0.136131   0.136131  
1010.4     0.212      458.773    1          3          1.334      1.995      2.394      2.191      1.561      1.995      59.5801    0.1358748  0.1358748 
1010.6     0.212      455.598    1          3          1.296      2.069      2.648      2.362      1.599      2.069      59.53695   0.1356209  0.1356209 
1010.8     0.212      453.693    1          3          1.27       2.214      2.184      2.133      1.65       2.214      59.55682   0.1357375  0.1357375 
1011       0.211      451.154    1          3          1.232      2.162      1.797      1.822      1.701      2.162      59.76667   0.1370007  0.1370007 
1011.2     0.211      445.439    1          3          1.219      2.038      1.784      1.771      1.765      2.038      59.72353   0.1367362  0.1367362 
1011.4     0.211      438.455    1          3          1.219      2.109      2.076      2.102      1.828      2.109      59.68039   0.1364743  0.1364743 
1011.6     0.211      428.296    1          3          1.245      2.202      2.813      2.349      1.892      2.202      59.70024   0.1365945  0.1365945 
1011.8     0.211      415.598    1          3          1.321      2.285      3.511      2.584      1.981      2.285      59.65711   0.1363339  0.1363339 
1012       0.21       404.169    1          3          1.397      2.502      3.169      2.819      2.082      2.502      59.61396   0.1360757  0.1360757 
1012.2     0.21       390.836    1          3          1.461      2.751      2.737      2.756      2.171      2.751      59.69683   0.1365738  0.1365738 
1012.4     0.21       380.042    1          3          1.537      2.947      2.419      2.356      2.298      2.947      59.65368   0.1363133  0.1363133 
1012.6     0.21       371.788    1          3          1.613      2.834      2.089      1.949      2.412      2.834      59.67154   0.1364208  0.1364208 
1012.8     0.209      366.074    1          3          1.664      2.699      2.508      2.191      2.45       2.699      59.69341   0.136553   0.136553  
1013       0.209      362.9      1          3          1.677      2.637      2.648      2.565      2.336      2.637      59.52426   0.1355467  0.1355467 
1013.2     0.209      362.265    1          3          1.613      2.772      3.092      2.807      2.196      2.772      59.54412   0.1356629  0.1356629 
1013.4     0.209      361.63     1          3          1.575      2.906      3.848      3.099      1.901      2.906      59.50098   0.1354111  0.1354111 
1013.6     0.209      359.09     1          3          1.6        2.968      3.397      3.156      1.901      2.968      59.39483   0.1348016  0.1348016 
1013.8     0.208      355.28     1          3          1.702      2.968      2.851      2.495      1.964      2.968      59.3517    0.1345581  0.1345581 
1014       0.208      351.471    1          3          1.892      3.061      2.927      2.654      2.028      3.061      59.30855   0.1343168  0.1343168 
1014.2     0.208      347.661    1          3          1.981      3.165      2.654      2.368      2.091      3.165      59.26541   0.1340778  0.1340778 
1014.4     0.208      343.852    1          3          2.07       3.227      2.749      2.699      2.282      3.227      59.28527   0.1341875  0.1341875 
1014.6     0.208      341.312    1          3          2.121      3.341      3.276      3.289      2.409      3.341      59.30513   0.1342977  0.1342977 
1014.8     0.208      340.042    1          3          2.121      3.144      2.33       2.578      2.536      3.144      59.32499   0.1344084  0.1344084 
1015       0.207      340.677    1          3          2.083      2.585      3.359      2.8        2.727      2.585      59.34485   0.1345196  0.1345196 
1015.2     0.209      339.407    1          3          1.943      2.865      4.039      3.448      2.854      2.865      59.3017    0.1342787  0.1342787 
1015.4     0.21       337.503    1          3          1.816      3.31       2.883      3.01       3.044      3.31       59.25857   0.1340401  0.1340401 
1015.6     0.212      334.328    1          3          1.727      3.413      2.66       2.66       3.171      3.413      59.27842   0.1341497  0.1341497 
1015.8     0.215      332.423    1          3          1.664      3.144      2.057      1.873      3.362      3.144      59.36129   0.134612   0.134612  
1016       0.218      328.614    1          3          1.638      2.916      2.168      2.401      4.06       2.916      59.38214   0.1347297  0.1347297 
1016.2     0.215      321.63     1          3          1.689      3.196      2.279      2.927      4.695      3.196      59.339     0.1344868  0.1344868 
