~Version
 VERS              .         2.0                           : CWLS LOG ASCII STANDARD - VERSION 2.0
 WRAP              .         NO                            : ONE LINE PER DEPTH STEP
 DLM               .         SPACE                         : DELIMITING CHARACTER(SPACE TAB OR COMMA)
~Well Information
#_______________________________________________________________________________
#
#PARAMETER_NAME    .UNIT     VALUE                         : DESCRIPTION
#_______________________________________________________________________________
STRT               .M        850                           : First reference value
STOP               .M        1307                          : Last reference value
STEP               .M        0.2                           : Step increment
NULL               .         -9999                         : Missing value
COMP               .         UPGF                          : Company
WELL               .         2904                          : Well name
FLD                .         УЗЕНЬ                         : Field
LOC                .                                       : Location
CNTY               .                                       : County
STAT               .                                       : State
CTRY               .                                       : Country
SRVC               .                                       : Service Company
DATE               .         08.06.1978г                   : Date
UWI                .                                       : Unique Well ID
Block              .         4                             : 
Category           .         Нефтяная                      : 
Condition          .         Ликвидированная               : 
EREF               .m        224                           : 100.8
Gorizont           .         15                            : 14
Interpretator      .         Кушнир И.Е.                   : 
Kupol              .         основной                      : osnovnoi
Mud                .                                       : 
Mud_density        .                                       : 
Mud_resistivity    .                                       : 
NGDU               .         НГДУ-1                        : 
ORIGINALWELLNAME   .         2904                          : 
Spud_date          .         1979                          : 1961
Viscosity          .                                       : 
X                  .m        53912.7                       : 46154
Y                  .m        82063.3                       : 85761.93
YEAR               .         2019г                         : 
~Parameter Information Block
#_______________________________________________________________________________
#
#PARAMETER_NAME    .UNIT     VALUE                         : DESCRIPTION
#_______________________________________________________________________________
SET                .         LQC_KAZNIPI_Petrel            : 
TLFamily_CALI      .         Caliper                       : 
TLFamily_CILD      .         Conductivity                  : 
TLFamily_COLL      .         Net Reservoir Flag            : 
TLFamily_CSAT      .         Fluid Code                    : 
TLFamily_DEPT      .         Measured Depth                : 
TLFamily_GZ3       .         Gradient 225                  : 
TLFamily_LLS       .         Lateral Log Resistivity       : 
TLFamily_MINV      .         Micro Gradient Resistivity    : 
TLFamily_MNOR      .         Micro Resistivity             : 
TLFamily_OGZ       .         Gradient Inverted 225         : 
TLFamily_RT        .         Formation Resistivity         : 
TLFamily_SP        .         Spontaneous Potential         : 
TLFamily_VSH_FIN   .         Shale Volume                  : 
TLFamily_VSH_SP    .         Shale Volume                  : 
~Curve Information
#_______________________________________________________________________________
#
#LOGNAME           .UNIT     LOG_ID                        : DESCRIPTION
#_______________________________________________________________________________
DEPT               .M                                      : Колонка глубины 
CALI               .м                                      : Каверномер 
CILD               .мСм/м                                  : Индукционный каротаж 
COLL               .v/v                                    :  
CSAT               .v/v                                    :  
GZ3                .ohmm                                   : Градиент-зонд  длиной 2.25м 
LLS                .Ohmm                                   : Боковой каротаж 
MINV               .Ohmm                                   : Микро-градиент зонд 
MNOR               .Ohmm                                   : Микро-потенциал зонд 
OGZ                .ohmm                                   : Обращенный градиент-зонд 
RT                 .ohmm                                   : Description 
SP                 .mV                                     : Потенциал самополяризации 
VSH_FIN            .v/v                                    : Описание 
VSH_SP             .v/v                                    : Shale Volume 
~Ascii
# ...
1172.4     0.225      463.852    0          0          1.296      1.717      1.759      1.657      1.307      1.717      74.72892   0.4955416  0.4955416 
1172.6     0.229      460.36     0          0          1.397      1.417      1.498      1.943      1.409      1.417      75.21967   0.5203895  0.5203895 
1172.8     0.231      443.534    0          0          1.346      1.675      1.543      1.467      1.701      1.675      75.5854    0.5396199  0.5396199 
1173       0.23       427.661    0          0          1.334      2.585      3.105      3.511      2.031      2.585      75.95014   0.5594159  0.5594159 
1173.2     0.228      414.328    0          0          1.651      2.772      3.562      3.194      2.285      2.772      75.24288   0.521592   0.521592  
1173.4     0.226      412.423    0          0          1.88       2.233      3.575      3.194      2.527      2.233      74.59863   0.4891257  0.4891257 
1173.6     0.223      418.773    0          0          1.981      2.078      2.8        2.578      2.362      2.078      74.14336   0.4672952  0.4672952 
1173.8     0.222      425.122    1          2          1.88       2.048      3.359      2.14       2.057      2.048      72.23811   0.3854539  0.3854539 
1174       0.221      428.296    1          2          1.753      1.85       2.597      2.044      1.828      1.85       68.24985   0.2587098  0.2587098 
1174.2     0.22       432.741    1          2          1.626      1.8        3.696      2.165      1.688      1.8        67.10059   0.2319417  0.2319417 
1174.4     0.221      439.725    1          2          1.524      2.017      3.08       2.171      1.587      2.017      67.40233   0.2385901  0.2385901 
1174.6     0.222      449.884    1          2          1.372      2.245      3.41       3.27       1.485      2.245      68.08307   0.2545781  0.2545781 
1174.8     0.223      460.042    1          2          1.194      1.964      2.914      2.8        1.396      1.964      68.32181   0.2605191  0.2605191 
1175       0.223      467.661    1          2          1.105      1.717      3.511      2.68       1.307      1.717      68.56155   0.2666642  0.2666642 
1175.2     0.224      473.376    1          2          1.08       1.593      3.626      2.343      1.269      1.593      68.67429   0.2696165  0.2696165 
1175.4     0.223      471.471    1          2          1.092      1.489      2.61       2.432      1.561      1.489      67.58803   0.242814   0.242814  
1175.6     0.223      462.582    1          2          1.143      1.417      2.445      1.848      1.866      1.417      67.44876   0.2396367  0.2396367 
1175.8     0.222      445.439    1          2          1.257      1.831      2.686      1.467      2.095      1.831      65.73151   0.2049718  0.2049718 
1176       0.222      420.677    1          2          1.435      2.823      2.533      1.771      2.184      2.823      63.63625   0.1728898  0.1728898 
1176.2     0.221      404.169    1          2          1.651      3.857      2.705      2.705      2.235      3.857      62.99199   0.1650087  0.1650087 
1176.4     0.221      378.773    1          2          1.981      4.789      3.207      3.2        2.298      4.789      61.90673   0.1535938  0.1535938 
1176.6     0.221      357.82     1          2          2.261      4.292      2.991      3.213      2.069      4.292      62.77647   0.1625616  0.1625616 
1176.8     0.221      354.646    1          2          2.337      3.817      2.826      2.991      1.841      3.817      63.83521   0.1755011  0.1755011 
1177       0.22       370.519    1          2          2.197      3.857      2.368      2.787      1.701      3.857      65.02095   0.1929168  0.1929168 
1177.2     0.22       390.201    1          2          1.981      3.289      2.565      2.743      1.384      3.289      66.58469   0.2211764  0.2211764 
1177.4     0.219      411.788    1          2          1.791      2.689      3.003      3.003      1.13       2.689      68.90543   0.2757975  0.2757975 
1177.6     0.219      437.82     1          2          1.664      2.183      2.038      2.343      1.028      2.183      70.28017   0.316226   0.316226  
1177.8     0.219      464.487    1          2          1.537      1.717      1.282      1.365      0.99       1.717      71.02391   0.3408445  0.3408445 
1178       0.219      484.169    1          2          1.397      1.354      1.251      1.422      1.053      1.354      71.89366   0.3722255  0.3722255 
1178.2     0.22       494.963    0          0          1.334      1.21       1.327      1.086      1.218      1.21       72.95339   0.4144264  0.4144264 
1178.4     0.22       501.947    0          0          1.308      1.292      1.32       1.124      1.396      1.292      74.20214   0.4700627  0.4700627 
1178.6     0.221      507.661    0          0          1.321      1.375      1.327      1.295      1.536      1.375      75.44987   0.5324224  0.5324224 
1178.8     0.222      512.741    0          0          1.372      1.468      1.632      1.308      1.815      1.468      76.50962   0.5910017  0.5910017 
1179       0.222      513.376    0          0          1.435      1.52       1.79       1.454      1.942      1.52       77.31635   0.6392155  0.6392155 
1179.2     0.222      513.376    0          0          1.473      1.562      1.898      1.486      1.942      1.562      77.74509   0.6661545  0.6661545 
1179.4     0.223      512.106    0          0          1.511      1.613      1.67       1.486      1.79       1.613      77.73084   0.6652442  0.6652442 
1179.6     0.223      510.836    0          0          1.511      1.624      1.651      1.403      1.663      1.624      77.40258   0.6445591  0.6445591 
1179.8     0.222      506.392    0          0          1.499      1.582      2          1.282      1.625      1.582      77.07332   0.6243536  0.6243536 
1180       0.221      502.665    0          0          1.473      1.53       1.771      1.517      1.612      1.53       76.68205   0.6010394  0.6010394 
1180.2     0.22       499.407    0          0          1.384      1.541      1.676      1.365      1.892      1.541      76.3878    0.583997   0.583997  
1180.4     0.22       491.788    0          0          1.232      1.955      1.695      2.133      2.26       1.955      76.08755   0.5670352  0.5670352 
1180.6     0.22       485.439    0          0          1.067      2.523      2.724      2.629      2.539      2.523      75.44328   0.5320744  0.5320744 
1180.8     0.221      481.63     0          0          1.08       2.15       1.981      1.53       2.654      2.15       74.91118   0.5046433  0.5046433 
1181       0.222      484.169    0          0          1.245      1.819      2.406      1.6        2.476      1.819      74.50507   0.4845655  0.4845655 
1181.2     0.223      487.344    0          0          1.308      1.727      2.349      1.498      2.298      1.727      74.28897   0.4741786  0.4741786 
1181.4     0.224      487.979    0          0          1.169      1.748      2.267      1.467      2.133      1.748      74.13586   0.4669428  0.4669428 
1181.6     0.225      487.344    0          0          0.94       1.705      2.121      1.473      1.993      1.705      74.04475   0.4626857  0.4626857 
1181.8     0.225      485.439    0          0          0.787      1.603      2.184      1.467      1.917      1.603      74.08065   0.4643588  0.4643588 
1182       0.225      483.702    0          0          0.737      1.541      1.956      1.403      1.774      1.541      73.99055   0.4601697  0.4601697 
1182.2     0.226      482.265    0          0          0.775      1.51       2.292      1.213      2.028      1.51       73.71144   0.4474144  0.4474144 
1182.4     0.227      470.518    0          0          0.813      1.458      2.406      1.53       2.599      1.458      73.17934   0.4240091  0.4240091 
1182.6     0.226      446.074    0          0          0.826      1.458      2.165      1.301      3.362      1.458      72.89923   0.4121604  0.4121604 
