~Version
 VERS              .         2.0                           : CWLS LOG ASCII STANDARD - VERSION 2.0
 WRAP              .         NO                            : ONE LINE PER DEPTH STEP
 DLM               .         SPACE                         : DELIMITING CHARACTER(SPACE TAB OR COMMA)
~Well Information
#_______________________________________________________________________________
#
#PARAMETER_NAME    .UNIT     VALUE                         : DESCRIPTION
#_______________________________________________________________________________
STRT               .M        850                           : First reference value
STOP               .M        1307                          : Last reference value
STEP               .M        0.2                           : Step increment
NULL               .         -9999                         : Missing value
COMP               .         UPGF                          : Company
WELL               .         2904                          : Well name
FLD                .         УЗЕНЬ                         : Field
LOC                .                                       : Location
CNTY               .                                       : County
STAT               .                                       : State
CTRY               .                                       : Country
SRVC               .                                       : Service Company
DATE               .         08.06.1978г                   : Date
UWI                .                                       : Unique Well ID
Block              .         4                             : 
Category           .         Нефтяная                      : 
Condition          .         Ликвидированная               : 
EREF               .m        224                           : 100.8
Gorizont           .         15                            : 14
Interpretator      .         Кушнир И.Е.                   : 
Kupol              .         основной                      : osnovnoi
Mud                .                                       : 
Mud_density        .                                       : 
Mud_resistivity    .                                       : 
NGDU               .         НГДУ-1                        : 
ORIGINALWELLNAME   .         2904                          : 
Spud_date          .         1979                          : 1961
Viscosity          .                                       : 
X                  .m        53912.7                       : 46154
Y                  .m        82063.3                       : 85761.93
YEAR               .         2019г                         : 
~Parameter Information Block
#_______________________________________________________________________________
#
#PARAMETER_NAME    .UNIT     VALUE                         : DESCRIPTION
#_______________________________________________________________________________
SET                .         LQC_KAZNIPI_Petrel            : 
TLFamily_CALI      .         Caliper                       : 
TLFamily_CILD      .         Conductivity                  : 
TLFamily_COLL      .         Net Reservoir Flag            : 
TLFamily_CSAT      .         Fluid Code                    : 
TLFamily_DEPT      .         Measured Depth                : 
TLFamily_GZ3       .         Gradient 225                  : 
TLFamily_LLS       .         Lateral Log Resistivity       : 
TLFamily_MINV      .         Micro Gradient Resistivity    : 
TLFamily_MNOR      .         Micro Resistivity             : 
TLFamily_OGZ       .         Gradient Inverted 225         : 
TLFamily_RT        .         Formation Resistivity         : 
TLFamily_SP        .         Spontaneous Potential         : 
TLFamily_VSH_FIN   .         Shale Volume                  : 
TLFamily_VSH_SP    .         Shale Volume                  : 
~Curve Information
#_______________________________________________________________________________
#
#LOGNAME           .UNIT     LOG_ID                        : DESCRIPTION
#_______________________________________________________________________________
DEPT               .M                                      : Колонка глубины 
CALI               .м                                      : Каверномер 
CILD               .мСм/м                                  : Индукционный каротаж 
COLL               .v/v                                    :  
CSAT               .v/v                                    :  
GZ3                .ohmm                                   : Градиент-зонд  длиной 2.25м 
LLS                .Ohmm                                   : Боковой каротаж 
MINV               .Ohmm                                   : Микро-градиент зонд 
MNOR               .Ohmm                                   : Микро-потенциал зонд 
OGZ                .ohmm                                   : Обращенный градиент-зонд 
RT                 .ohmm                                   : Description 
SP                 .mV                                     : Потенциал самополяризации 
VSH_FIN            .v/v                                    : Описание 
VSH_SP             .v/v                                    : Shale Volume 
~Ascii
# ...
1151.6     0.217      232.741    1          2          11.812     6.1        1.962      2.762      2.311      6.1        67.82      0.2482344  0.2482344 
1151.8     0.218      261.312    1          2          11.05      5.634      1.86       2.349      2.196      5.634      69.0462    0.2796462  0.2796462 
1152       0.224      293.058    1          2          10.542     5.737      2.207      2.559      2.057      5.737      70.3994    0.320039   0.320039  
1152.2     0.23       333.058    1          2          8.637      3.175      3.003      3.124      1.828      3.175      71.43659   0.3553784  0.3553784 
1152.4     0.236      354.646    1          2          5.97       1.986      2.711      2.146      1.511      1.986      72.5378    0.3973432  0.3973432 
1152.6     0.241      362.265    0          0          4.572      1.479      1.295      1.568      1.32       1.479      73.764     0.449791   0.449791  
1152.8     0.244      369.249    0          0          3.366      1.458      1.257      0.959      1.333      1.458      74.67619   0.4929362  0.4929362 
1153       0.24       383.852    0          0          2.578      1.841      1.695      1.263      1.447      1.841      75.58739   0.5397267  0.5397267 
1153.2     0.236      392.741    0          0          2.515      2.307      1.479      1.492      1.599      2.307      76.87759   0.6125972  0.6125972 
1153.4     0.234      397.185    0          0          2.566      2.699      2.298      1.968      1.765      2.699      77.91479   0.6770745  0.6770745 
1153.6     0.238      400.36     0          0          2.489      2.566      2.648      2.438      1.879      2.566      78.38399   0.7080367  0.7080367 
1153.8     0.24       399.09     0          0          2.375      2.183      3.016      2.914      1.815      2.183      78.79119   0.7358381  0.7358381 
1154       0.244      394.011    0          0          2.185      2.057      2.502      2.241      1.727      2.057      79.00839   0.7510259  0.7510259 
1154.2     0.246      387.661    0          0          2.083      2.109      2.013      2.432      1.676      2.109      79.09959   0.7574776  0.7574776 
1154.4     0.243      381.312    0          0          2.058      2.131      2.051      2.025      1.752      2.131      79.31679   0.7730241  0.7730241 
1154.6     0.238      374.328    0          0          2.032      2.14       1.759      1.74       1.866      2.14       79.535     0.7888997  0.7888997 
1154.8     0.233      366.709    0          0          1.981      2.183      2.019      1.778      1.993      2.183      79.56319   0.7909701  0.7909701 
1155       0.23       359.09     0          0          2.083      2.347      2.406      1.867      2.082      2.347      79.08639   0.7565411  0.7565411 
1155.2     0.227      347.027    0          0          2.197      2.989      2.406      1.975      2.196      2.989      78.60959   0.7233316  0.7233316 
1155.4     0.224      336.233    0          0          2.299      4.137      2.292      2.318      2.323      4.137      78.25879   0.6996633  0.6996633 
1155.6     0.22       339.407    0          0          2.401      3.474      2.33       2.33       2.425      3.474      77.84348   0.6724673  0.6724673 
1155.8     0.225      346.392    0          0          2.477      2.689      3.207      2.87       2.489      2.689      77.49215   0.6501493  0.6501493 
1156       0.23       357.185    0          0          2.172      2.627      2.603      2.673      2.196      2.627      77.07683   0.6245661  0.6245661 
1156.2     0.235      373.058    0          0          2.159      2.865      3.302      2.038      1.828      2.865      76.66252   0.5998951  0.5998951 
1156.4     0.239      374.963    0          0          2.121      2.627      2.578      2.508      1.854      2.627      76.2472    0.5760006  0.5760006 
1156.6     0.24       387.027    0          0          2.172      2.171      2.464      2.064      1.866      2.171      75.89488   0.5563767  0.5563767 
1156.8     0.237      397.82     0          0          2.007      1.964      2.349      1.632      1.777      1.964      75.60656   0.5407516  0.5407516 
1157       0.233      404.169    0          0          1.905      1.943      2.286      1.854      1.625      1.943      75.31824   0.5255125  0.5255125 
1157.2     0.233      405.439    0          0          1.74       1.933      2.267      1.619      1.561      1.933      74.96593   0.5074065  0.5074065 
1157.4     0.233      403.534    0          0          1.638      2.057      2.111      1.486      1.561      2.057      74.61361   0.4898597  0.4898597 
1157.6     0.231      400.995    0          0          1.829      2.43       1.746      1.594      1.625      2.43       74.38829   0.4789269  0.4789269 
1157.8     0.233      407.979    0          0          1.88       2.554      2.362      2.368      1.714      2.554      74.73097   0.4956433  0.4956433 
1158       0.237      418.138    0          0          1.956      2.316      1.905      1.53       1.828      2.316      75.13566   0.5160587  0.5160587 
1158.2     0.241      425.757    0          0          2.019      2.119      2.051      1.721      1.739      2.119      75.66734   0.544013   0.544013  
1158.4     0.241      429.566    0          0          2.019      2.007      2.191      1.6        1.727      2.007      76.32501   0.5804143  0.5804143 
1158.6     0.237      432.106    0          0          1.892      1.912      2.254      1.663      1.777      1.912      76.85571   0.6112942  0.6112942 
1158.8     0.232      435.28     0          0          1.816      1.841      1.771      1.606      1.828      1.841      77.26138   0.6358283  0.6358283 
1159       0.228      437.185    0          0          1.753      1.769      1.568      2.102      0.99       1.769      77.73006   0.6651945  0.6651945 
1159.2     0.226      434.011    0          0          1.702      1.789      2          1.721      0.964      1.789      77.85074   0.6729353  0.6729353 
1159.4     0.228      427.661    0          0          1.677      2.1        2.787      2.864      1.269      2.1        77.21542   0.6330078  0.6330078 
1159.6     0.231      418.138    0          0          1.816      2.585      3.035      2.978      1.231      2.585      75.98011   0.56107    0.56107   
1159.8     0.232      409.884    0          0          1.969      2.782      2.089      2.025      1.638      2.782      74.05079   0.4629666  0.4629666 
1160       0.231      402.9      0          0          2.032      2.596      1.905      2.368      2.235      2.596      72.94247   0.4139683  0.4139683 
1160.2     0.227      395.28     0          0          2.896      2.326      2.114      1.943      3.174      2.326      72.33815   0.3893832  0.3893832 
1160.4     0.225      395.28     0          0          3.76       2.1        2.807      2.67       4.546      2.1        71.41784   0.3547041  0.3547041 
1160.6     0.223      381.947    0          0          4.61       4.953      1.752      1.917      4.94       4.953      70.56152   0.3253047  0.3253047 
1160.8     0.222      374.328    0          0          5.347      3.455      1.781      1.855      4.673      3.455      70.5252    0.3241169  0.3241169 
1161       0.223      388.296    0          0          3.798      2.192      1.809      1.797      3.809      2.192      70.99387   0.3398114  0.3398114 
1161.2     0.224      403.534    0          0          2.655      1.769      2.324      1.676      2.692      1.769      71.39857   0.3540125  0.3540125 
1161.4     0.224      420.042    0          0          2.68       2.162      1.695      1.79       2.692      2.162      71.61424   0.3618317  0.3618317 
1161.6     0.224      435.28     0          0          1.588      1.893      1.943      1.555      1.625      1.893      71.64092   0.3628112  0.3628112 
1161.8     0.224      449.884    0          0          1.27       1.572      1.905      2          1.282      1.572      71.5416    0.3591785  0.3591785 
