~Version
 VERS              .         2.0                           : CWLS LOG ASCII STANDARD - VERSION 2.0
 WRAP              .         NO                            : ONE LINE PER DEPTH STEP
 DLM               .         SPACE                         : DELIMITING CHARACTER(SPACE TAB OR COMMA)
~Well Information
#_______________________________________________________________________________
#
#PARAMETER_NAME    .UNIT     VALUE                         : DESCRIPTION
#_______________________________________________________________________________
STRT               .M        850                           : First reference value
STOP               .M        1307                          : Last reference value
STEP               .M        0.2                           : Step increment
NULL               .         -9999                         : Missing value
COMP               .         UPGF                          : Company
WELL               .         2904                          : Well name
FLD                .         УЗЕНЬ                         : Field
LOC                .                                       : Location
CNTY               .                                       : County
STAT               .                                       : State
CTRY               .                                       : Country
SRVC               .                                       : Service Company
DATE               .         08.06.1978г                   : Date
UWI                .                                       : Unique Well ID
Block              .         4                             : 
Category           .         Нефтяная                      : 
Condition          .         Ликвидированная               : 
EREF               .m        224                           : 100.8
Gorizont           .         15                            : 14
Interpretator      .         Кушнир И.Е.                   : 
Kupol              .         основной                      : osnovnoi
Mud                .                                       : 
Mud_density        .                                       : 
Mud_resistivity    .                                       : 
NGDU               .         НГДУ-1                        : 
ORIGINALWELLNAME   .         2904                          : 
Spud_date          .         1979                          : 1961
Viscosity          .                                       : 
X                  .m        53912.7                       : 46154
Y                  .m        82063.3                       : 85761.93
YEAR               .         2019г                         : 
~Parameter Information Block
#_______________________________________________________________________________
#
#PARAMETER_NAME    .UNIT     VALUE                         : DESCRIPTION
#_______________________________________________________________________________
SET                .         LQC_KAZNIPI_Petrel            : 
TLFamily_CALI      .         Caliper                       : 
TLFamily_CILD      .         Conductivity                  : 
TLFamily_COLL      .         Net Reservoir Flag            : 
TLFamily_CSAT      .         Fluid Code                    : 
TLFamily_DEPT      .         Measured Depth                : 
TLFamily_GZ3       .         Gradient 225                  : 
TLFamily_LLS       .         Lateral Log Resistivity       : 
TLFamily_MINV      .         Micro Gradient Resistivity    : 
TLFamily_MNOR      .         Micro Resistivity             : 
TLFamily_OGZ       .         Gradient Inverted 225         : 
TLFamily_RT        .         Formation Resistivity         : 
TLFamily_SP        .         Spontaneous Potential         : 
TLFamily_VSH_FIN   .         Shale Volume                  : 
TLFamily_VSH_SP    .         Shale Volume                  : 
~Curve Information
#_______________________________________________________________________________
#
#LOGNAME           .UNIT     LOG_ID                        : DESCRIPTION
#_______________________________________________________________________________
DEPT               .M                                      : Колонка глубины 
CALI               .м                                      : Каверномер 
CILD               .мСм/м                                  : Индукционный каротаж 
COLL               .v/v                                    :  
CSAT               .v/v                                    :  
GZ3                .ohmm                                   : Градиент-зонд  длиной 2.25м 
LLS                .Ohmm                                   : Боковой каротаж 
MINV               .Ohmm                                   : Микро-градиент зонд 
MNOR               .Ohmm                                   : Микро-потенциал зонд 
OGZ                .ohmm                                   : Обращенный градиент-зонд 
RT                 .ohmm                                   : Description 
SP                 .mV                                     : Потенциал самополяризации 
VSH_FIN            .v/v                                    : Описание 
VSH_SP             .v/v                                    : Shale Volume 
~Ascii
# ...
933.2000000000001 0.273      -9999      -9999      -9999      3.163      -9999      -9999      -9999      3.162      -9999      78.47684   0.7142997  0.7142997 
933.4      0.274      -9999      -9999      -9999      3.112      -9999      -9999      -9999      3.124      -9999      78.47684   0.7142997  0.7142997 
933.6      0.274      -9999      -9999      -9999      3.074      -9999      -9999      -9999      3.086      -9999      78.47684   0.7142997  0.7142997 
933.8      0.275      -9999      -9999      -9999      3.074      -9999      -9999      -9999      3.06       -9999      78.47684   0.7142997  0.7142997 
934        0.278      -9999      -9999      -9999      3.086      -9999      -9999      -9999      3.098      -9999      78.47684   0.7142997  0.7142997 
934.2000000000001 0.279      -9999      -9999      -9999      3.086      -9999      -9999      -9999      3.136      -9999      78.47684   0.7142997  0.7142997 
934.4      0.274      -9999      -9999      -9999      3.086      -9999      -9999      -9999      3.174      -9999      78.47684   0.7142997  0.7142997 
934.6      0.264      -9999      -9999      -9999      3.086      -9999      -9999      -9999      3.251      -9999      78.53985   0.7185749  0.7185749 
934.8      0.257      -9999      -9999      -9999      3.099      -9999      -9999      -9999      3.34       -9999      78.53985   0.7185749  0.7185749 
935        0.256      -9999      -9999      -9999      3.099      -9999      -9999      -9999      3.378      -9999      78.53985   0.7185749  0.7185749 
935.2000000000001 0.256      -9999      -9999      -9999      3.124      -9999      -9999      -9999      3.39       -9999      78.53985   0.7185749  0.7185749 
935.4      0.254      -9999      -9999      -9999      3.124      -9999      -9999      -9999      3.352      -9999      78.53985   0.7185749  0.7185749 
935.6      0.257      278.455    -9999      -9999      3.124      -9999      -9999      -9999      3.289      -9999      78.53985   0.7185749  0.7185749 
935.8      0.264      279.09     -9999      -9999      3.15       -9999      -9999      -9999      3.251      -9999      78.53985   0.7185749  0.7185749 
936        0.269      279.725    -9999      -9999      3.15       -9999      -9999      -9999      3.225      -9999      78.66685   0.7272561  0.7272561 
936.2000000000001 0.266      280.36     -9999      -9999      3.137      -9999      -9999      -9999      3.187      -9999      78.66685   0.7272561  0.7272561 
936.4      0.263      281.63     -9999      -9999      3.112      -9999      -9999      -9999      3.174      -9999      78.66685   0.7272561  0.7272561 
936.6      0.267      282.265    -9999      -9999      3.099      -9999      -9999      -9999      3.149      -9999      78.79285   0.7359529  0.7359529 
936.8      0.265      282.9      -9999      -9999      3.099      -9999      -9999      -9999      3.124      -9999      78.66685   0.7272561  0.7272561 
937        0.259      283.534    -9999      -9999      3.099      -9999      -9999      -9999      3.086      -9999      78.66685   0.7272561  0.7272561 
937.2000000000001 0.262      284.804    -9999      -9999      3.099      -9999      -9999      -9999      3.035      -9999      78.72985   0.7315943  0.7315943 
937.4      0.268      285.439    -9999      -9999      3.112      -9999      -9999      -9999      2.984      -9999      78.66685   0.7272561  0.7272561 
937.6      0.262      286.074    -9999      -9999      3.137      -9999      -9999      -9999      2.946      -9999      78.79285   0.7359529  0.7359529 
937.8      0.258      287.344    -9999      -9999      3.163      -9999      -9999      -9999      2.933      -9999      78.66685   0.7272561  0.7272561 
938        0.262      287.979    -9999      -9999      3.188      -9999      -9999      -9999      2.946      -9999      78.72985   0.7315943  0.7315943 
938.2000000000001 0.257      288.614    -9999      -9999      3.201      -9999      -9999      -9999      2.933      -9999      78.79285   0.7359529  0.7359529 
938.4      0.243      289.249    -9999      -9999      3.201      -9999      -9999      -9999      2.933      -9999      78.66685   0.7272561  0.7272561 
938.6      0.239      289.884    -9999      -9999      3.163      -9999      -9999      -9999      2.946      -9999      78.66685   0.7272561  0.7272561 
938.8      0.245      290.519    -9999      -9999      3.124      -9999      -9999      -9999      2.959      -9999      78.53985   0.7185749  0.7185749 
939        0.252      291.154    -9999      -9999      3.086      -9999      -9999      -9999      2.959      -9999      78.53985   0.7185749  0.7185749 
939.2000000000001 0.261      291.788    -9999      -9999      3.023      -9999      -9999      -9999      3.022      -9999      78.41385   0.7100459  0.7100459 
939.4      0.262      292.423    -9999      -9999      2.985      -9999      -9999      -9999      3.047      -9999      78.35085   0.7058122  0.7058122 
939.6      0.241      291.788    -9999      -9999      2.934      -9999      -9999      -9999      2.984      -9999      78.35085   0.7058122  0.7058122 
939.8      0.227      290.519    -9999      -9999      2.921      -9999      -9999      -9999      2.959      -9999      78.35085   0.7058122  0.7058122 
940        0.235      289.249    -9999      -9999      2.896      -9999      -9999      -9999      2.946      -9999      78.35085   0.7058122  0.7058122 
940.2000000000001 0.247      289.249    -9999      -9999      2.87       -9999      -9999      -9999      2.946      -9999      78.35085   0.7058122  0.7058122 
940.4      0.258      291.154    -9999      -9999      2.858      -9999      -9999      -9999      2.946      -9999      78.22485   0.6974072  0.6974072 
940.6      0.269      293.058    -9999      -9999      2.858      -9999      -9999      -9999      2.946      -9999      78.28785   0.7015997  0.7015997 
940.8      0.262      294.963    -9999      -9999      2.858      -9999      -9999      -9999      2.959      -9999      78.22485   0.6974072  0.6974072 
941        0.255      296.868    -9999      -9999      2.858      -9999      -9999      -9999      2.971      -9999      78.22485   0.6974072  0.6974072 
941.2000000000001 0.258      297.503    -9999      -9999      2.858      -9999      -9999      -9999      2.959      -9999      78.22485   0.6974072  0.6974072 
941.4      0.26       297.503    -9999      -9999      2.858      -9999      -9999      -9999      2.971      -9999      78.22485   0.6974072  0.6974072 
941.6      0.254      297.503    -9999      -9999      2.858      -9999      -9999      -9999      2.997      -9999      78.22485   0.6974072  0.6974072 
941.8      0.247      297.503    -9999      -9999      2.858      -9999      -9999      -9999      2.997      -9999      78.09885   0.6890846  0.6890846 
942        0.253      297.503    -9999      -9999      2.858      -9999      -9999      -9999      2.997      -9999      78.16185   0.6932359  0.6932359 
942.2000000000001 0.257      297.503    -9999      -9999      2.858      -9999      -9999      -9999      2.997      -9999      78.16185   0.6932359  0.6932359 
942.4      0.247      293.693    -9999      -9999      2.858      -9999      -9999      -9999      3.009      -9999      78.16185   0.6932359  0.6932359 
942.6      0.244      292.423    -9999      -9999      2.883      -9999      -9999      -9999      3.022      -9999      78.16185   0.6932359  0.6932359 
942.8      0.248      291.154    -9999      -9999      2.909      -9999      -9999      -9999      3.022      -9999      78.16185   0.6932359  0.6932359 
943        0.243      289.249    -9999      -9999      2.934      -9999      -9999      -9999      3.022      -9999      78.09885   0.6890846  0.6890846 
943.2000000000001 0.24       288.614    -9999      -9999      2.934      -9999      -9999      -9999      3.022      -9999      78.22485   0.6974072  0.6974072 
943.4      0.24       287.344    -9999      -9999      2.934      -9999      -9999      -9999      3.022      -9999      78.35085   0.7058122  0.7058122 
