~Version
 VERS              .         2.0                           : CWLS LOG ASCII STANDARD - VERSION 2.0
 WRAP              .         NO                            : ONE LINE PER DEPTH STEP
 DLM               .         SPACE                         : DELIMITING CHARACTER(SPACE TAB OR COMMA)
~Well Information
#_______________________________________________________________________________
#
#PARAMETER_NAME    .UNIT     VALUE                         : DESCRIPTION
#_______________________________________________________________________________
STRT               .M        850                           : First reference value
STOP               .M        1307                          : Last reference value
STEP               .M        0.2                           : Step increment
NULL               .         -9999                         : Missing value
COMP               .         UPGF                          : Company
WELL               .         2904                          : Well name
FLD                .         УЗЕНЬ                         : Field
LOC                .                                       : Location
CNTY               .                                       : County
STAT               .                                       : State
CTRY               .                                       : Country
SRVC               .                                       : Service Company
DATE               .         08.06.1978г                   : Date
UWI                .                                       : Unique Well ID
Block              .         4                             : 
Category           .         Нефтяная                      : 
Condition          .         Ликвидированная               : 
EREF               .m        224                           : 100.8
Gorizont           .         15                            : 14
Interpretator      .         Кушнир И.Е.                   : 
Kupol              .         основной                      : osnovnoi
Mud                .                                       : 
Mud_density        .                                       : 
Mud_resistivity    .                                       : 
NGDU               .         НГДУ-1                        : 
ORIGINALWELLNAME   .         2904                          : 
Spud_date          .         1979                          : 1961
Viscosity          .                                       : 
X                  .m        53912.7                       : 46154
Y                  .m        82063.3                       : 85761.93
YEAR               .         2019г                         : 
~Parameter Information Block
#_______________________________________________________________________________
#
#PARAMETER_NAME    .UNIT     VALUE                         : DESCRIPTION
#_______________________________________________________________________________
SET                .         LQC_KAZNIPI_Petrel            : 
TLFamily_CALI      .         Caliper                       : 
TLFamily_CILD      .         Conductivity                  : 
TLFamily_COLL      .         Net Reservoir Flag            : 
TLFamily_CSAT      .         Fluid Code                    : 
TLFamily_DEPT      .         Measured Depth                : 
TLFamily_GZ3       .         Gradient 225                  : 
TLFamily_LLS       .         Lateral Log Resistivity       : 
TLFamily_MINV      .         Micro Gradient Resistivity    : 
TLFamily_MNOR      .         Micro Resistivity             : 
TLFamily_OGZ       .         Gradient Inverted 225         : 
TLFamily_RT        .         Formation Resistivity         : 
TLFamily_SP        .         Spontaneous Potential         : 
TLFamily_VSH_FIN   .         Shale Volume                  : 
TLFamily_VSH_SP    .         Shale Volume                  : 
~Curve Information
#_______________________________________________________________________________
#
#LOGNAME           .UNIT     LOG_ID                        : DESCRIPTION
#_______________________________________________________________________________
DEPT               .M                                      : Колонка глубины 
CALI               .м                                      : Каверномер 
CILD               .мСм/м                                  : Индукционный каротаж 
COLL               .v/v                                    :  
CSAT               .v/v                                    :  
GZ3                .ohmm                                   : Градиент-зонд  длиной 2.25м 
LLS                .Ohmm                                   : Боковой каротаж 
MINV               .Ohmm                                   : Микро-градиент зонд 
MNOR               .Ohmm                                   : Микро-потенциал зонд 
OGZ                .ohmm                                   : Обращенный градиент-зонд 
RT                 .ohmm                                   : Description 
SP                 .mV                                     : Потенциал самополяризации 
VSH_FIN            .v/v                                    : Описание 
VSH_SP             .v/v                                    : Shale Volume 
~Ascii
# ...
985.2000000000001 0.215      118.455    6          6          5.779      17.634     3.588      3.715      17.396     17.634     73.40689   0.4338733  0.4338733 
985.4      0.214      107.027    6          6          6.732      23.943     3.842      4.023      16.063     23.943     72.16576   0.3826368  0.3826368 
985.6      0.214      98.138     6          6          7.367      26.116     4.039      4.153      13.522     26.116     71.36461   0.3527974  0.3527974 
985.8      0.213      100.677    6          6          8.065      26.375     4.039      4.146      10.474     26.375     71.13246   0.3446061  0.3446061 
986        0.214      109.566    6          6          8.51       21.979     4.032      4.146      8.506      21.979     71.59433   0.3611024  0.3611024 
986.2000000000001 0.215      119.725    6          6          9.081      14.789     4.032      4.14       7.235      14.789     72.05618   0.3784094  0.3784094 
986.4      0.215      127.344    0          0          9.653      8.272      4.026      4.134      6.029      8.272      72.32805   0.3889847  0.3889847 
986.6      0.215      133.058    0          0          9.018      5.841      4.019      4.134      4.822      5.841      72.6639    0.4024531  0.4024531 
986.8      0.215      138.138    0          0          8.319      5.323      4.019      4.127      4.187      5.323      73.12476   0.421675   0.421675  
987        0.216      141.947    0          0          8.129      5.53       4.013      4.121      3.997      5.53       73.27162   0.4279836  0.4279836 
987.2000000000001 0.216      145.122    0          0          8.446      5.53       4.013      4.121      3.933      5.53       72.97548   0.4153539  0.4153539 
987.4      0.216      143.852    0          0          9.081      5.634      4.007      4.115      3.933      5.634      72.40934   0.3922034  0.3922034 
987.6      0.216      143.852    1          3          9.716      6.514      4.007      4.108      4.06       6.514      71.8172    0.3693514  0.3693514 
987.8      0.216      144.487    1          3          10.161     8.065      4          4.108      4.124      8.065      71.26905   0.3494013  0.3494013 
988        0.216      147.027    1          3          10.732     9.824      4          4.102      4.187      9.824      70.08991   0.3102455  0.3102455 
988.2000000000001 0.216      153.376    1          3          11.24      11.634     3.264      3.852      3.997      11.634     68.34377   0.2610744  0.2610744 
988.4      0.216      161.63     1          3          12.066     9.41       2.997      2.965      3.806      9.41       67.48064   0.2403589  0.2403589 
988.6      0.217      173.693    1          3          12.13      6.564      2.711      2.775      3.362      6.564      66.86949   0.2270267  0.2270267 
988.8      0.217      188.296    1          3          10.986     5.116      3.08       3.061      3.044      5.116      66.32135   0.2159664  0.2159664 
989        0.217      200.995    1          3          9.399      4.652      2.667      3.041      2.854      4.652      66.02621   0.21035    0.21035   
989.2000000000001 0.217      213.058    1          3          8.129      4.6        2.832      2.699      2.599      4.6        66.10906   0.2119032  0.2119032 
989.4      0.217      224.487    1          3          7.113      4.548      3.194      2.876      2.712      4.548      65.93993   0.2087519  0.2087519 
989.6      0.217      233.376    1          3          6.287      4.496      2.895      2.686      2.793      4.496      66.02278   0.2102862  0.2102862 
989.8      0.217      240.995    1          3          5.779      4.445      3.213      2.902      2.857      4.445      66.10564   0.2118386  0.2118386 
990        0.217      248.614    1          3          5.271      3.712      3.035      2.819      2.895      3.712      65.9365    0.2086888  0.2086888 
990.2000000000001 0.217      253.693    1          3          4.763      3.393      2.667      2.94       2.946      3.393      65.89336   0.2078974  0.2078974 
990.4      0.217      257.503    1          3          4.445      3.362      2.718      2.699      2.984      3.362      66.10222   0.2117742  0.2117742 
990.6      0.217      258.138    1          3          4.064      3.588      3.105      2.902      3.022      3.588      65.87007   0.2074723  0.2074723 
990.8      0.217      257.503    1          3          3.747      3.94       2.527      3.054      3.073      3.94       65.76393   0.2055525  0.2055525 
991        0.217      255.598    1          3          3.594      4.209      2.622      2.597      2.895      4.209      65.7838    0.2059096  0.2059096 
991.2000000000001 0.217      253.058    1          3          3.798      4.23       2.578      2.572      2.704      4.23       65.74065   0.2051352  0.2051352 
991.4      0.217      250.519    1          3          3.874      4.045      2.832      2.902      2.476      4.045      65.5715    0.2021462  0.2021462 
991.6      0.217      248.614    1          3          3.81       4.106      2.749      2.915      2.323      4.106      65.52837   0.2013956  0.2013956 
991.8      0.217      246.074    1          3          3.734      4.168      2.667      2.927      2.209      4.168      65.42223   0.1995688  0.1995688 
992        0.217      244.804    1          3          3.633      4.22       2.381      2.705      2.12       4.22       65.31609   0.1977704  0.1977704 
992.2000000000001 0.217      245.439    1          3          3.582      4.292      2.451      2.654      2.082      4.292      65.20995   0.1960001  0.1960001 
992.4      0.217      247.344    1          3          3.772      4.53       2.851      2.711      2.082      4.53       65.0418    0.1932527  0.1932527 
992.6      0.217      251.788    1          3          3.963      5.162      3.372      3.334      2.146      5.162      64.87067   0.1905272  0.1905272 
992.8      0.217      263.852    1          3          4.217      5.771      2.648      2.68       2.196      5.771      64.38652   0.1831947  0.1831947 
993        0.217      277.82     1          3          4.509      4.53       1.835      2.254      2.12       4.53       64.09039   0.1789773  0.1789773 
993.2000000000001 0.217      293.058    1          3          4.649      3.474      2.4        2.527      2.006      3.474      63.73224   0.1741389  0.1741389 
993.4      0.217      308.931    1          3          4.407      3.02       2.47       2.267      1.854      3.02       63.2471    0.1680263  0.1680263 
993.6      0.217      322.9      1          3          4.026      2.575      2.044      2.648      1.663      2.575      62.88896   0.1638273  0.1638273 
993.8      0.217      336.868    1          3          3.607      2.14       1.924      2.076      1.498      2.14       62.59282   0.1605486  0.1605486 
994        0.216      351.471    1          3          3.175      2.131      2.044      2.114      1.422      2.131      62.42368   0.1587523  0.1587523 
994.2000000000001 0.216      364.804    1          3          2.794      2.421      1.765      2.102      1.384      2.421      62.31754   0.1576527  0.1576527 
994.4      0.216      378.138    1          3          2.477      2.347      1.835      1.809      1.384      2.347      62.27439   0.1572118  0.1572118 
994.6      0.216      389.566    1          3          2.248      1.841      2.127      1.987      1.409      1.841      62.23125   0.1567745  0.1567745 
994.8      0.216      399.09     1          3          2.108      2.026      2.044      2.064      1.422      2.026      62.25111   0.1569754  0.1569754 
995        0.216      407.979    1          3          2.007      2.285      2.121      1.898      1.472      2.285      62.27097   0.1571771  0.1571771 
995.2000000000001 0.216      417.503    1          3          1.969      2.192      2.044      2.006      1.511      2.192      62.22783   0.1567399  0.1567399 
995.4      0.216      412.423    1          3          1.943      2.39       2.292      2.127      1.536      2.39       62.18468   0.1563062  0.1563062 
