~Version
 VERS              .         2.0                           : CWLS LOG ASCII STANDARD - VERSION 2.0
 WRAP              .         NO                            : ONE LINE PER DEPTH STEP
 DLM               .         SPACE                         : DELIMITING CHARACTER(SPACE TAB OR COMMA)
~Well Information
#_______________________________________________________________________________
#
#PARAMETER_NAME    .UNIT     VALUE                         : DESCRIPTION
#_______________________________________________________________________________
STRT               .M        850                           : First reference value
STOP               .M        1307                          : Last reference value
STEP               .M        0.2                           : Step increment
NULL               .         -9999                         : Missing value
COMP               .         UPGF                          : Company
WELL               .         2904                          : Well name
FLD                .         УЗЕНЬ                         : Field
LOC                .                                       : Location
CNTY               .                                       : County
STAT               .                                       : State
CTRY               .                                       : Country
SRVC               .                                       : Service Company
DATE               .         08.06.1978г                   : Date
UWI                .                                       : Unique Well ID
Block              .         4                             : 
Category           .         Нефтяная                      : 
Condition          .         Ликвидированная               : 
EREF               .m        224                           : 100.8
Gorizont           .         15                            : 14
Interpretator      .         Кушнир И.Е.                   : 
Kupol              .         основной                      : osnovnoi
Mud                .                                       : 
Mud_density        .                                       : 
Mud_resistivity    .                                       : 
NGDU               .         НГДУ-1                        : 
ORIGINALWELLNAME   .         2904                          : 
Spud_date          .         1979                          : 1961
Viscosity          .                                       : 
X                  .m        53912.7                       : 46154
Y                  .m        82063.3                       : 85761.93
YEAR               .         2019г                         : 
~Parameter Information Block
#_______________________________________________________________________________
#
#PARAMETER_NAME    .UNIT     VALUE                         : DESCRIPTION
#_______________________________________________________________________________
SET                .         LQC_KAZNIPI_Petrel            : 
TLFamily_CALI      .         Caliper                       : 
TLFamily_CILD      .         Conductivity                  : 
TLFamily_COLL      .         Net Reservoir Flag            : 
TLFamily_CSAT      .         Fluid Code                    : 
TLFamily_DEPT      .         Measured Depth                : 
TLFamily_GZ3       .         Gradient 225                  : 
TLFamily_LLS       .         Lateral Log Resistivity       : 
TLFamily_MINV      .         Micro Gradient Resistivity    : 
TLFamily_MNOR      .         Micro Resistivity             : 
TLFamily_OGZ       .         Gradient Inverted 225         : 
TLFamily_RT        .         Formation Resistivity         : 
TLFamily_SP        .         Spontaneous Potential         : 
TLFamily_VSH_FIN   .         Shale Volume                  : 
TLFamily_VSH_SP    .         Shale Volume                  : 
~Curve Information
#_______________________________________________________________________________
#
#LOGNAME           .UNIT     LOG_ID                        : DESCRIPTION
#_______________________________________________________________________________
DEPT               .M                                      : Колонка глубины 
CALI               .м                                      : Каверномер 
CILD               .мСм/м                                  : Индукционный каротаж 
COLL               .v/v                                    :  
CSAT               .v/v                                    :  
GZ3                .ohmm                                   : Градиент-зонд  длиной 2.25м 
LLS                .Ohmm                                   : Боковой каротаж 
MINV               .Ohmm                                   : Микро-градиент зонд 
MNOR               .Ohmm                                   : Микро-потенциал зонд 
OGZ                .ohmm                                   : Обращенный градиент-зонд 
RT                 .ohmm                                   : Description 
SP                 .mV                                     : Потенциал самополяризации 
VSH_FIN            .v/v                                    : Описание 
VSH_SP             .v/v                                    : Shale Volume 
~Ascii
# ...
1276.4     0.212      414.963    0          0          1.677      1.976      2.648      1.93       2.4        1.976      74.31317   0.4753317  0.4753317 
1276.6     0.212      405.439    0          0          1.613      1.933      2.889      1.936      2.45       1.933      74.44186   0.4815058  0.4815058 
1276.8     0.212      397.185    0          0          1.562      1.912      2.991      2.064      2.641      1.912      74.66754   0.4925099  0.4925099 
1277       0.212      385.757    0          0          1.499      1.924      2.978      2.14       2.895      1.924      74.82924   0.500533   0.500533  
1277.2     0.212      372.423    0          0          1.448      2.078      2.648      2.692      3.149      2.078      73.66592   0.4453657  0.4453657 
1277.4     0.212      352.106    0          0          1.41       2.471      3.391      3.378      3.403      2.471      73.13361   0.4220526  0.4220526 
1277.6     0.212      333.693    1          2          1.435      3.061      2.749      3.238      3.632      3.061      72.7913    0.4076803  0.4076803 
1277.8     0.212      315.915    1          2          1.575      3.681      2.965      3.219      3.86       3.681      71.56499   0.3600304  0.3600304 
1278       0.212      298.138    1          2          1.74       3.869      2.749      3.232      3.771      3.869      69.95967   0.3062243  0.3062243 
1278.2     0.212      282.9      1          2          1.918      3.776      2.819      3.105      3.441      3.776      67.66136   0.2445102  0.2445102 
1278.4     0.212      273.376    1          2          2.121      3.569      3.035      2.953      3.149      3.569      65.80405   0.2062746  0.2062746 
1278.6     0.211      268.296    1          2          2.312      3.382      3.575      3.372      2.844      3.382      65.08273   0.1939151  0.1939151 
1278.8     0.211      269.566    1          2          2.35       3.31       4.096      3.657      2.514      3.31       65.11842   0.1944961  0.1944961 
1279       0.211      272.741    1          2          2.286      3.061      3.74       2.813      2.336      3.061      65.53311   0.2014779  0.2014779 
1279.2     0.211      275.28     1          2          2.21       2.823      3.035      3.219      2.222      2.823      65.9468    0.2088785  0.2088785 
1279.4     0.211      274.011    1          2          2.134      2.689      3.658      3.545      2.209      2.689      66.61349   0.2217578  0.2217578 
1279.6     0.211      272.741    1          2          2.235      2.947      4.273      3.867      2.298      2.947      67.21718   0.2344793  0.2344793 
1279.8     0.211      270.836    1          2          2.362      3.558      4.248      3.378      2.387      3.558      67.94687   0.2512675  0.2512675 
1280       0.211      271.471    1          2          2.464      3.94       4.223      3.486      2.476      3.94       68.67655   0.2696763  0.2696763 
1280.2     0.211      276.55     1          2          2.718      4.447      4.191      4.204      2.552      4.447      69.21724   0.2844102  0.2844102 
1280.4     0.211      289.249    1          2          2.972      5.027      4.166      4.058      2.577      5.027      69.75693   0.3000814  0.3000814 
1280.6     0.211      312.106    1          2          3.239      4.137      3.969      3.664      2.362      4.137      70.42361   0.3208196  0.3208196 
1280.8     0.211      332.423    1          2          3.531      3.248      3.435      3.092      2.146      3.248      71.34331   0.3520374  0.3520374 
1281       0.211      345.122    0          0          3.696      2.566      3.149      2.521      1.942      2.566      72.13599   0.3814836  0.3814836 
1281.2     0.211      356.55     0          0          3.709      2.183      2.743      2.229      1.879      2.183      72.54968   0.3978221  0.3978221 
1281.4     0.21       367.979    0          0          3.429      2.1        2.648      2.21       1.803      2.1        73.37437   0.4324502  0.4324502 
1281.6     0.21       374.328    0          0          2.82       2.109      2.864      2.095      2.158      2.109      73.94606   0.4581143  0.4581143 
1281.8     0.21       384.487    0          0          2.502      2.017      2.267      1.575      2.616      2.017      74.73875   0.4960286  0.4960286 
1282       0.21       387.027    0          0          2.197      2.048      2.496      1.791      3.073      2.048      75.46843   0.5334028  0.5334028 
1282.2     0.21       385.122    0          0          2.489      2.1        2.699      1.778      3.644      2.1        76.45112   0.5876288  0.5876288 
1282.4     0.21       370.519    0          0          2.693      2.057      2.718      1.676      3.997      2.057      77.18081   0.6308906  0.6308906 
1282.6     0.21       356.55     0          0          2.655      1.976      2.667      1.987      5.267      1.976      77.72049   0.6645834  0.6645834 
1282.8     0.21       333.058    0          0          2.502      1.976      2.457      2.032      5.584      1.976      76.74718   0.6048684  0.6048684 
1283       0.21       308.296    0          0          2.401      3.403      2.495      2.889      5.711      3.403      75.89987   0.5566505  0.5566505 
1283.2     0.21       272.106    1          2          2.159      4.652      3.067      3.442      6.664      4.652      73.91656   0.4567559  0.4567559 
1283.4     0.21       255.428    1          2          2.223      7.187      3.207      3.353      8.76       7.187      72.05437   0.3783398  0.3783398 
1283.6     0.21       240.36     1          2          2.337      9.513      2.819      3.607      10.982     9.513      70.00317   0.3075609  0.3075609 
1283.8     0.21       205.439    1          2          2.426      8.996      3.156      3.791      10.157     8.996      67.88898   0.2498774  0.2498774 
1284       0.21       175.598    1          2          2.604      8.531      3.492      3.975      9.395      8.531      65.83778   0.2068852  0.2068852 
1284.2     0.21       147.661    1          2          2.883      22.34      3.391      4.362      8.378      22.34      63.91359   0.1765535  0.1765535 
1284.4     0.211      126.074    1          2          3.366      25.548     3.054      4.375      7.489      25.548     64.07039   0.1786996  0.1786996 
1284.6     0.211      122.265    1          2          4.077      17.375     3.613      4.388      6.854      17.375     64.5432    0.1855074  0.1855074 
1284.8     0.211      134.963    1          2          4.979      12.461     3.321      4.375      6.283      12.461     64.763     0.1888487  0.1888487 
1285       0.211      145.757    1          2          5.601      8.842      3.156      3.569      5.394      8.842      64.66782   0.1873878  0.1873878 
1285.2     0.211      153.376    1          2          6.262      6.669      3.048      3.823      4.505      6.669      64.38261   0.1831378  0.1831378 
1285.4     0.211      164.169    1          2          7.163      6.358      2.934      3.759      3.87       6.358      63.49942   0.1711433  0.1711433 
1285.6     0.211      178.773    1          2          5.652      6.721      3.378      3.423      3.362      6.721      63.56123   0.1719272  0.1719272 
1285.8     0.211      198.455    1          2          7.43       6.564      2.762      3.829      2.727      6.564      64.16003   0.1799513  0.1799513 
1286       0.211      221.947    1          2          8.002      5.737      3.905      4.235      2.472      5.737      65.45284   0.2000927  0.2000927 
1286.2     0.211      244.804    1          2          9.081      4.807      2.851      3.118      2.218      4.807      66.55665   0.2206126  0.2206126 
1286.4     0.211      280.995    1          2          9.462      4.186      3.556      3.111      1.901      4.186      67.97545   0.2519574  0.2519574 
1286.6     0.211      314.011    1          2          9.145      2.523      3.486      3.461      1.71       2.523      69.33126   0.2876397  0.2876397 
