~Version
 VERS              .         2.0                           : CWLS LOG ASCII STANDARD - VERSION 2.0
 WRAP              .         NO                            : ONE LINE PER DEPTH STEP
 DLM               .         SPACE                         : DELIMITING CHARACTER(SPACE TAB OR COMMA)
~Well Information
#_______________________________________________________________________________
#
#PARAMETER_NAME    .UNIT     VALUE                         : DESCRIPTION
#_______________________________________________________________________________
STRT               .M        850                           : First reference value
STOP               .M        1307                          : Last reference value
STEP               .M        0.2                           : Step increment
NULL               .         -9999                         : Missing value
COMP               .         UPGF                          : Company
WELL               .         2904                          : Well name
FLD                .         УЗЕНЬ                         : Field
LOC                .                                       : Location
CNTY               .                                       : County
STAT               .                                       : State
CTRY               .                                       : Country
SRVC               .                                       : Service Company
DATE               .         08.06.1978г                   : Date
UWI                .                                       : Unique Well ID
Block              .         4                             : 
Category           .         Нефтяная                      : 
Condition          .         Ликвидированная               : 
EREF               .m        224                           : 100.8
Gorizont           .         15                            : 14
Interpretator      .         Кушнир И.Е.                   : 
Kupol              .         основной                      : osnovnoi
Mud                .                                       : 
Mud_density        .                                       : 
Mud_resistivity    .                                       : 
NGDU               .         НГДУ-1                        : 
ORIGINALWELLNAME   .         2904                          : 
Spud_date          .         1979                          : 1961
Viscosity          .                                       : 
X                  .m        53912.7                       : 46154
Y                  .m        82063.3                       : 85761.93
YEAR               .         2019г                         : 
~Parameter Information Block
#_______________________________________________________________________________
#
#PARAMETER_NAME    .UNIT     VALUE                         : DESCRIPTION
#_______________________________________________________________________________
SET                .         LQC_KAZNIPI_Petrel            : 
TLFamily_CALI      .         Caliper                       : 
TLFamily_CILD      .         Conductivity                  : 
TLFamily_COLL      .         Net Reservoir Flag            : 
TLFamily_CSAT      .         Fluid Code                    : 
TLFamily_DEPT      .         Measured Depth                : 
TLFamily_GZ3       .         Gradient 225                  : 
TLFamily_LLS       .         Lateral Log Resistivity       : 
TLFamily_MINV      .         Micro Gradient Resistivity    : 
TLFamily_MNOR      .         Micro Resistivity             : 
TLFamily_OGZ       .         Gradient Inverted 225         : 
TLFamily_RT        .         Formation Resistivity         : 
TLFamily_SP        .         Spontaneous Potential         : 
TLFamily_VSH_FIN   .         Shale Volume                  : 
TLFamily_VSH_SP    .         Shale Volume                  : 
~Curve Information
#_______________________________________________________________________________
#
#LOGNAME           .UNIT     LOG_ID                        : DESCRIPTION
#_______________________________________________________________________________
DEPT               .M                                      : Колонка глубины 
CALI               .м                                      : Каверномер 
CILD               .мСм/м                                  : Индукционный каротаж 
COLL               .v/v                                    :  
CSAT               .v/v                                    :  
GZ3                .ohmm                                   : Градиент-зонд  длиной 2.25м 
LLS                .Ohmm                                   : Боковой каротаж 
MINV               .Ohmm                                   : Микро-градиент зонд 
MNOR               .Ohmm                                   : Микро-потенциал зонд 
OGZ                .ohmm                                   : Обращенный градиент-зонд 
RT                 .ohmm                                   : Description 
SP                 .mV                                     : Потенциал самополяризации 
VSH_FIN            .v/v                                    : Описание 
VSH_SP             .v/v                                    : Shale Volume 
~Ascii
# ...
1058       0.21       251.788    0          0          2.807      3.465      3.207      2.718      3.53       3.465      75.04366   0.5113526  0.5113526 
1058.2     0.21       250.519    0          0          2.934      3.32       3.886      2.622      3.467      3.32       75.08221   0.51332    0.51332   
1058.4     0.21       251.788    0          0          3.036      3.486      3.27       2.876      3.416      3.486      74.93076   0.5056303  0.5056303 
1058.6     0.21       250.519    0          0          3.086      3.299      3.797      2.508      3.403      3.299      74.78031   0.498093   0.498093  
1058.8     0.21       249.249    0          0          3.099      3.424      3.397      2.965      3.428      3.424      74.37686   0.4783784  0.4783784 
1059       0.209      248.614    0          0          3.112      3.6        4.058      2.686      3.492      3.6        73.84741   0.4535868  0.4535868 
1059.2     0.209      247.344    0          0          3.124      3.857      4.064      2.978      3.53       3.857      73.38097   0.4327386  0.4327386 
1059.4     0.209      246.074    0          0          3.137      3.869      4.064      3.283      3.568      3.869      73.04152   0.418139   0.418139  
1059.6     0.209      244.804    0          0          3.175      3.672      4.039      3.041      3.594      3.672      72.82706   0.4091597  0.4091597 
1059.8     0.209      243.534    0          0          3.226      3.424      3.785      2.724      3.619      3.424      73.24462   0.4268171  0.4268171 
1060       0.209      242.265    0          0          3.264      3.662      4.083      2.826      3.606      3.662      73.47217   0.4367429  0.4367429 
1060.2     0.209      241.63     0          0          3.328      4.157      3.816      2.775      3.53       4.157      73.63673   0.4440562  0.4440562 
1060.4     0.209      240.995    0          0          3.391      4.199      3.708      3.149      3.441      4.199      73.61227   0.4429623  0.4429623 
1060.6     0.209      241.63     0          0          3.404      3.838      3.581      2.832      3.416      3.838      73.14583   0.4225747  0.4225747 
1060.8     0.209      242.265    0          0          3.404      3.588      3.765      3.245      3.365      3.588      72.67937   0.4030845  0.4030845 
1061       0.21       243.534    0          0          3.442      4.064      3.785      2.787      3.301      4.064      72.14993   0.3820231  0.3820231 
1061.2     0.21       244.804    0          0          3.493      4.19       3.988      3.657      3.263      4.19       71.36848   0.3529356  0.3529356 
1061.4     0.21       245.439    0          0          3.506      3.817      3.765      3.13       3.213      3.817      70.83903   0.3345377  0.3345377 
1061.6     0.21       246.709    0          0          3.518      4.147      4.039      3.226      3.162      4.147      70.43558   0.321206   0.321206  
1061.8     0.21       248.614    0          0          3.531      3.817      3.753      3.638      3.124      3.817      69.97013   0.3065451  0.3065451 
1062       0.21       251.788    0          0          3.531      3.32       4.083      2.845      3.073      3.32       69.44069   0.2907799  0.2907799 
1062.2     0.21       255.598    0          0          3.531      3.505      4.077      3.537      3.022      3.505      68.72124   0.2708581  0.2708581 
1062.4     0.21       260.042    0          0          3.531      3.486      3.683      3.016      2.997      3.486      68.25579   0.2588586  0.2588586 
1062.6     0.21       264.487    0          0          3.518      3.672      4.07       3.721      2.984      3.672      67.72633   0.2460264  0.2460264 
1062.8     0.21       268.931    0          0          3.506      3.61       4.07       3.715      2.959      3.61       67.32289   0.2368142  0.2368142 
1063       0.21       272.106    0          0          3.48       3.227      3.937      2.978      2.946      3.227      66.79344   0.2254424  0.2254424 
1063.2     0.21       275.28     0          0          3.417      2.989      4.058      2.667      2.92       2.989      66.201     0.213648   0.213648  
1063.4     0.21       276.55     0          0          3.366      3.268      3.778      2.826      2.882      3.268      65.67154   0.2039051  0.2039051 
1063.6     0.21       277.185    0          0          3.302      3.631      4          3.213      2.831      3.631      65.20509   0.1959199  0.1959199 
1063.8     0.21       277.185    0          0          3.251      3.517      4.058      3.13       2.819      3.517      64.80264   0.1894635  0.1894635 
1064       0.21       277.185    0          0          3.188      3.103      3.835      3.88       2.806      3.103      64.5882    0.1861822  0.1861822 
1064.2     0.21       278.455    0          0          3.15       3.02       4.051      2.876      2.831      3.02       64.43774   0.1839445  0.1839445 
1064.4     0.21       279.725    0          0          3.112      3.32       3.81       3.302      2.857      3.32       64.4133    0.1835859  0.1835859 
1064.6     0.21       280.995    0          0          3.099      3.362      3.994      3.099      2.895      3.362      64.38786   0.1832142  0.1832142 
1064.8     0.21       282.265    0          0          3.061      3.486      4          2.743      2.92       3.486      64.4264    0.1837779  0.1837779 
1065       0.21       283.534    0          0          3.023      3.289      4.058      3.245      2.933      3.289      64.33896   0.1825039  0.1825039 
1065.2     0.21       284.169    0          0          2.972      2.999      4.051      3.283      2.946      2.999      64.2515    0.1812471  0.1812471 
1065.4     0.21       284.169    0          0          2.896      3.144      4.051      3.448      2.971      3.144      64.03706   0.1782388  0.1782388 
1065.6     0.211      284.804    0          0          2.832      3.165      4.051      3.251      3.047      3.165      63.69761   0.1736859  0.1736859 
1065.8     0.211      283.534    0          0          2.693      3.206      4.051      3.016      3.213      3.206      63.42016   0.1701498  0.1701498 
1066       0.211      281.63     0          0          2.743      3.217      4.045      3.791      3.314      3.217      63.14371   0.1667873  0.1667873 
1066.2     0.211      279.09     0          0          2.68       3.041      3.677      3.346      3.111      3.041      62.92926   0.1642869  0.1642869 
1066.4     0.211      275.28     0          0          2.87       3.134      4.096      2.864      2.793      3.134      62.90481   0.1640077  0.1640077 
1066.6     0.211      272.106    0          0          2.921      3.517      3.727      3.645      2.717      3.517      62.94337   0.1644485  0.1644485 
1066.8     0.211      270.836    0          0          2.959      3.919      4.032      4.108      2.692      3.919      63.17092   0.1671113  0.1671113 
1067       0.211      270.836    0          0          2.87       3.693      3.423      3.283      2.679      3.693      63.39847   0.1698802  0.1698802 
1067.2     0.211      270.836    0          0          2.82       3.32       4.083      2.584      2.628      3.32       63.75302   0.1744119  0.1744119 
1067.4     0.211      269.566    0          0          2.794      3.227      4.077      2.87       2.603      3.227      64.16957   0.1800855  0.1800855 
1067.6     0.211      268.296    0          0          2.858      3.32       4.07       2.857      2.654      3.32       64.58612   0.1861509  0.1861509 
1067.8     0.211      266.392    0          0          2.947      3.465      4.064      3.143      2.666      3.465      64.94067   0.1916336  0.1916336 
1068       0.211      265.757    0          0          3.061      3.826      4.058      4.146      2.692      3.826      65.61023   0.2028241  0.2028241 
1068.2     0.211      265.122    0          0          3.188      3.743      3.905      2.826      2.717      3.743      66.02677   0.2103605  0.2103605 
