~Version
 VERS              .         2.0                           : CWLS LOG ASCII STANDARD - VERSION 2.0
 WRAP              .         NO                            : ONE LINE PER DEPTH STEP
 DLM               .         SPACE                         : DELIMITING CHARACTER(SPACE TAB OR COMMA)
~Well Information
#_______________________________________________________________________________
#
#PARAMETER_NAME    .UNIT     VALUE                         : DESCRIPTION
#_______________________________________________________________________________
STRT               .M        850                           : First reference value
STOP               .M        1307                          : Last reference value
STEP               .M        0.2                           : Step increment
NULL               .         -9999                         : Missing value
COMP               .         UPGF                          : Company
WELL               .         2904                          : Well name
FLD                .         УЗЕНЬ                         : Field
LOC                .                                       : Location
CNTY               .                                       : County
STAT               .                                       : State
CTRY               .                                       : Country
SRVC               .                                       : Service Company
DATE               .         08.06.1978г                   : Date
UWI                .                                       : Unique Well ID
Block              .         4                             : 
Category           .         Нефтяная                      : 
Condition          .         Ликвидированная               : 
EREF               .m        224                           : 100.8
Gorizont           .         15                            : 14
Interpretator      .         Кушнир И.Е.                   : 
Kupol              .         основной                      : osnovnoi
Mud                .                                       : 
Mud_density        .                                       : 
Mud_resistivity    .                                       : 
NGDU               .         НГДУ-1                        : 
ORIGINALWELLNAME   .         2904                          : 
Spud_date          .         1979                          : 1961
Viscosity          .                                       : 
X                  .m        53912.7                       : 46154
Y                  .m        82063.3                       : 85761.93
YEAR               .         2019г                         : 
~Parameter Information Block
#_______________________________________________________________________________
#
#PARAMETER_NAME    .UNIT     VALUE                         : DESCRIPTION
#_______________________________________________________________________________
SET                .         LQC_KAZNIPI_Petrel            : 
TLFamily_CALI      .         Caliper                       : 
TLFamily_CILD      .         Conductivity                  : 
TLFamily_COLL      .         Net Reservoir Flag            : 
TLFamily_CSAT      .         Fluid Code                    : 
TLFamily_DEPT      .         Measured Depth                : 
TLFamily_GZ3       .         Gradient 225                  : 
TLFamily_LLS       .         Lateral Log Resistivity       : 
TLFamily_MINV      .         Micro Gradient Resistivity    : 
TLFamily_MNOR      .         Micro Resistivity             : 
TLFamily_OGZ       .         Gradient Inverted 225         : 
TLFamily_RT        .         Formation Resistivity         : 
TLFamily_SP        .         Spontaneous Potential         : 
TLFamily_VSH_FIN   .         Shale Volume                  : 
TLFamily_VSH_SP    .         Shale Volume                  : 
~Curve Information
#_______________________________________________________________________________
#
#LOGNAME           .UNIT     LOG_ID                        : DESCRIPTION
#_______________________________________________________________________________
DEPT               .M                                      : Колонка глубины 
CALI               .м                                      : Каверномер 
CILD               .мСм/м                                  : Индукционный каротаж 
COLL               .v/v                                    :  
CSAT               .v/v                                    :  
GZ3                .ohmm                                   : Градиент-зонд  длиной 2.25м 
LLS                .Ohmm                                   : Боковой каротаж 
MINV               .Ohmm                                   : Микро-градиент зонд 
MNOR               .Ohmm                                   : Микро-потенциал зонд 
OGZ                .ohmm                                   : Обращенный градиент-зонд 
RT                 .ohmm                                   : Description 
SP                 .mV                                     : Потенциал самополяризации 
VSH_FIN            .v/v                                    : Описание 
VSH_SP             .v/v                                    : Shale Volume 
~Ascii
# ...
1099.6     0.226      354.011    0          0          1.816      2.347      2.546      1.721      2.095      2.347      76.15579   0.5708528  0.5708528 
1099.8     0.232      354.011    0          0          1.88       2.347      2.629      1.568      2.082      2.347      76.33057   0.5807309  0.5807309 
1100       0.233      359.725    0          0          1.943      3.786      4.058      2.165      2.019      3.786      76.50537   0.5907561  0.5907561 
1100.2     0.224      366.074    0          0          2.019      3.217      3.086      1.416      1.955      3.217      76.68117   0.6009874  0.6009874 
1100.4     0.218      369.249    0          0          2.07       2.637      2.343      1.771      1.879      2.637      76.91896   0.6150662  0.6150662 
1100.6     0.225      371.154    0          0          2.134      2.078      2.572      1.6        1.815      2.078      77.09374   0.6255913  0.6255913 
1100.8     0.238      373.693    0          0          2.134      2.421      3.08       1.6        1.828      2.421      77.14254   0.6285567  0.6285567 
1101       0.25       380.677    0          0          2.058      2.471      1.911      1.911      1.854      2.471      77.25533   0.6354564  0.6354564 
1101.2     0.245      392.741    0          0          1.969      2.699      3.016      1.867      1.904      2.699      77.11413   0.6268287  0.6268287 
1101.4     0.24       406.074    0          0          1.956      2.461      2.235      1.663      1.866      2.461      77.03691   0.6221524  0.6221524 
1101.6     0.246      418.773    0          0          1.943      2.078      1.448      1.219      1.663      2.078      76.83371   0.6099871  0.6099871 
1101.8     0.25       427.661    0          0          2.007      1.779      0.863      0.774      1.511      1.779      76.5045    0.5907059  0.5907059 
1102       0.242      432.741    0          0          1.918      1.562      0.768      0.692      1.434      1.562      76.23729   0.5754406  0.5754406 
1102.2     0.233      435.28     0          0          1.829      1.53       1.06       1.035      1.434      1.53       75.90808   0.5571013  0.5571013 
1102.4     0.225      437.185    0          0          1.677      1.634      2.076      1.409      1.65       1.634      75.70388   0.5459824  0.5459824 
1102.6     0.224      435.915    0          0          1.664      1.81       2.495      1.536      1.676      1.81       75.50067   0.5351102  0.5351102 
1102.8     0.232      434.646    0          0          1.677      1.995      2.572      1.543      1.688      1.995      75.29745   0.5244283  0.5244283 
1103       0.237      433.376    0          0          1.689      1.955      2.413      1.721      1.752      1.955      75.22025   0.5204199  0.5204199 
1103.2     0.232      431.471    0          0          1.702      1.933      2.064      1.378      1.79       1.933      75.20605   0.5196853  0.5196853 
1103.4     0.228      425.757    0          0          1.715      2.078      2.044      1.594      1.841      2.078      75.31784   0.5254913  0.5254913 
1103.6     0.232      420.677    0          0          1.765      2.078      2.178      1.263      1.892      2.078      75.49263   0.5346839  0.5346839 
1103.8     0.236      414.963    0          0          1.765      1.995      1.829      1.6        1.942      1.995      75.60442   0.5406373  0.5406373 
1104       0.237      408.614    0          0          1.753      2.14       2.483      1.327      2.006      2.14       75.78021   0.5501159  0.5501159 
1104.2     0.237      403.534    0          0          1.765      2.038      1.975      1.682      1.968      2.038      75.82901   0.5527726  0.5527726 
1104.4     0.235      400.36     0          0          1.727      2.214      1.517      1.409      1.879      2.214      76.00379   0.5623802  0.5623802 
1104.6     0.231      399.09     0          0          1.689      2.73       3.041      2.178      1.765      2.73       76.30559   0.5793098  0.5793098 
1104.8     0.236      400.36     0          0          1.651      2.689      1.975      1.746      1.701      2.689      76.54338   0.5929556  0.5929556 
1105       0.244      401.63     0          0          1.626      2.171      2.406      2.133      1.676      2.171      76.78117   0.6068748  0.6068748 
1105.2     0.249      404.169    0          0          1.626      1.955      2.155      1.741      1.663      1.955      76.95696   0.6173418  0.6173418 
1105.4     0.244      405.439    0          0          1.626      2.007      1.898      1.34       1.739      2.007      77.13176   0.6279005  0.6279005 
1105.6     0.245      404.169    0          0          1.626      2.007      2.114      1.657      1.803      2.007      77.36955   0.6425079  0.6425079 
1105.8     0.242      402.9      0          0          1.651      1.976      2.025      1.524      1.866      1.976      77.54435   0.6534258  0.6534258 
1106       0.235      401.63     0          0          1.677      1.943      2.241      1.498      1.942      1.943      77.84613   0.6726384  0.6726384 
1106.2     0.231      399.09     0          0          1.689      2.017      2.14       1.448      2.006      2.017      78.02093   0.6839789  0.6839789 
1106.4     0.234      397.185    0          0          1.727      2.245      2.229      1.46       2.069      2.245      78.19572   0.6954759  0.6954759 
1106.6     0.237      396.226    0          0          1.753      2.502      2.584      1.498      2.12       2.502      78.37151   0.7071987  0.7071987 
1106.8     0.234      395.28     0          0          1.804      2.647      3.226      1.695      2.12       2.647      78.4833    0.7147368  0.7147368 
1107       0.232      395.28     0          0          1.829      2.451      2.813      1.994      2.044      2.451      78.5321    0.7180479  0.7180479 
1107.2     0.229      398.455    0          0          1.829      2.223      3.08       2.362      1.93       2.223      78.51789   0.7170826  0.7170826 
1107.4     0.227      403.534    0          0          1.829      2.069      2.07       2.095      1.841      2.069      78.50368   0.7161185  0.7161185 
1107.6     0.226      407.979    0          0          1.804      2.007      2.241      1.841      1.777      2.007      78.48947   0.7151549  0.7151549 
1107.8     0.225      407.979    0          0          1.753      2.007      2.489      1.746      1.739      2.007      78.46502   0.7134996  0.7134996 
1108       0.222      404.169    0          0          1.689      1.943      2.559      1.594      1.879      1.943      78.31456   0.7033833  0.7033833 
1108.2     0.22       395.915    0          0          1.588      1.85       2.318      1.759      2.133      1.85       78.16411   0.6933851  0.6933851 
1108.4     0.223      385.122    0          0          1.473      1.81       2.375      1.555      2.4        1.81       78.07664   0.6876267  0.6876267 
1108.6     0.222      374.328    0          0          1.448      2.347      2.375      1.435      2.717      2.347      77.98819   0.681843   0.681843  
1108.8     0.217      362.265    0          0          1.537      3.6        2.552      1.428      2.946      3.6        77.90073   0.6761642  0.6761642 
1109       0.213      353.376    0          0          1.765      5.141      4          3.194      2.971      5.141      77.75028   0.6664862  0.6664862 
1109.2     0.22       354.011    0          0          1.918      4.851      4.013      3.289      2.755      4.851      77.59982   0.6569229  0.6569229 
1109.4     0.228      357.82     0          0          2.21       4.613      2.94       2.286      2.4        4.613      77.44937   0.6474744  0.6474744 
1109.6     0.233      358.455    0          0          2.159      4.365      3.162      1.924      2.222      4.365      77.36191   0.6420339  0.6420339 
1109.8     0.231      353.376    0          0          2.019      4.116      2.724      1.924      2.26       4.116      77.33746   0.6405198  0.6405198 
