~Version
 VERS              .         2.0                           : CWLS LOG ASCII STANDARD - VERSION 2.0
 WRAP              .         NO                            : ONE LINE PER DEPTH STEP
 DLM               .         SPACE                         : DELIMITING CHARACTER(SPACE TAB OR COMMA)
~Well Information
#_______________________________________________________________________________
#
#PARAMETER_NAME    .UNIT     VALUE                         : DESCRIPTION
#_______________________________________________________________________________
STRT               .M        850                           : First reference value
STOP               .M        1307                          : Last reference value
STEP               .M        0.2                           : Step increment
NULL               .         -9999                         : Missing value
COMP               .         UPGF                          : Company
WELL               .         2904                          : Well name
FLD                .         УЗЕНЬ                         : Field
LOC                .                                       : Location
CNTY               .                                       : County
STAT               .                                       : State
CTRY               .                                       : Country
SRVC               .                                       : Service Company
DATE               .         08.06.1978г                   : Date
UWI                .                                       : Unique Well ID
Block              .         4                             : 
Category           .         Нефтяная                      : 
Condition          .         Ликвидированная               : 
EREF               .m        224                           : 100.8
Gorizont           .         15                            : 14
Interpretator      .         Кушнир И.Е.                   : 
Kupol              .         основной                      : osnovnoi
Mud                .                                       : 
Mud_density        .                                       : 
Mud_resistivity    .                                       : 
NGDU               .         НГДУ-1                        : 
ORIGINALWELLNAME   .         2904                          : 
Spud_date          .         1979                          : 1961
Viscosity          .                                       : 
X                  .m        53912.7                       : 46154
Y                  .m        82063.3                       : 85761.93
YEAR               .         2019г                         : 
~Parameter Information Block
#_______________________________________________________________________________
#
#PARAMETER_NAME    .UNIT     VALUE                         : DESCRIPTION
#_______________________________________________________________________________
SET                .         LQC_KAZNIPI_Petrel            : 
TLFamily_CALI      .         Caliper                       : 
TLFamily_CILD      .         Conductivity                  : 
TLFamily_COLL      .         Net Reservoir Flag            : 
TLFamily_CSAT      .         Fluid Code                    : 
TLFamily_DEPT      .         Measured Depth                : 
TLFamily_GZ3       .         Gradient 225                  : 
TLFamily_LLS       .         Lateral Log Resistivity       : 
TLFamily_MINV      .         Micro Gradient Resistivity    : 
TLFamily_MNOR      .         Micro Resistivity             : 
TLFamily_OGZ       .         Gradient Inverted 225         : 
TLFamily_RT        .         Formation Resistivity         : 
TLFamily_SP        .         Spontaneous Potential         : 
TLFamily_VSH_FIN   .         Shale Volume                  : 
TLFamily_VSH_SP    .         Shale Volume                  : 
~Curve Information
#_______________________________________________________________________________
#
#LOGNAME           .UNIT     LOG_ID                        : DESCRIPTION
#_______________________________________________________________________________
DEPT               .M                                      : Колонка глубины 
CALI               .м                                      : Каверномер 
CILD               .мСм/м                                  : Индукционный каротаж 
COLL               .v/v                                    :  
CSAT               .v/v                                    :  
GZ3                .ohmm                                   : Градиент-зонд  длиной 2.25м 
LLS                .Ohmm                                   : Боковой каротаж 
MINV               .Ohmm                                   : Микро-градиент зонд 
MNOR               .Ohmm                                   : Микро-потенциал зонд 
OGZ                .ohmm                                   : Обращенный градиент-зонд 
RT                 .ohmm                                   : Description 
SP                 .mV                                     : Потенциал самополяризации 
VSH_FIN            .v/v                                    : Описание 
VSH_SP             .v/v                                    : Shale Volume 
~Ascii
# ...
1130.8     0.22       327.979    0          0          2.401      3.31       0.959      1.816      2.59       3.31       71.99355   0.3760142  0.3760142 
1131       0.228      323.534    0          0          2.312      2.916      0.965      1.644      2.438      2.916      72.2841    0.3872555  0.3872555 
1131.2     0.234      321.63     0          0          2.185      2.678      0.717      1.651      2.298      2.678      72.63864   0.4014244  0.4014244 
1131.4     0.236      324.169    0          0          2.121      2.979      0.781      1.594      2.222      2.979      72.92918   0.4134121  0.4134121 
1131.6     0.234      329.249    0          0          2.083      2.865      0.704      1.555      2.209      2.865      73.09373   0.4203539  0.4203539 
1131.8     0.231      333.693    0          0          2.07       2.637      0.844      1.581      2.12       2.637      73.19627   0.4247359  0.4247359 
1132       0.229      337.503    0          0          2.083      2.596      1.213      1.911      2.146      2.596      73.23482   0.4263943  0.4263943 
1132.2     0.234      340.042    0          0          2.134      2.761      0.895      1.441      2.222      2.761      73.33636   0.4307927  0.4307927 
1132.4     0.239      341.947    0          0          2.21       2.668      0.616      1.536      2.196      2.668      73.37491   0.4324739  0.4324739 
1132.6     0.242      352.106    0          0          2.35       2.906      0.781      1.543      2.171      2.906      73.35045   0.4314065  0.4314065 
1132.8     0.241      357.185    0          0          2.439      2.699      0.597      1.435      2.133      2.699      73.326     0.430342   0.430342  
1133       0.239      357.185    0          0          2.464      2.347      0.606      1.301      2.108      2.347      73.30154   0.4292796  0.4292796 
1133.2     0.236      357.185    0          0          2.464      2.44       0.616      1.162      2.057      2.44       73.84509   0.4534805  0.4534805 
1133.4     0.238      362.265    0          0          2.426      2.637      0.704      1.441      2.019      2.637      73.88362   0.4552438  0.4552438 
1133.6     0.24       362.9      0          0          2.375      2.523      0.736      1.632      1.993      2.523      74.04817   0.4628448  0.4628448 
1133.8     0.241      367.344    0          0          2.337      2.347      0.565      1.416      1.981      2.347      74.27671   0.4735955  0.4735955 
1134       0.245      370.519    0          0          2.299      2.409      0.647      1.251      1.968      2.409      74.44126   0.4814771  0.4814771 
1134.2     0.246      375.598    0          0          2.223      2.72       0.616      1.422      1.942      2.72       74.4168    0.480298   0.480298  
1134.4     0.24       381.947    0          0          2.134      2.73       0.685      1.32       1.968      2.73       74.32935   0.4761037  0.4761037 
1134.6     0.24       387.027    0          0          2.07       2.502      0.641      1.327      2.044      2.502      74.11489   0.4659599  0.4659599 
1134.8     0.238      389.566    0          0          2.032      2.245      0.717      1.263      2.095      2.245      73.90144   0.4560611  0.4560611 
1135       0.231      389.566    0          0          2.007      2.048      0.692      0.99       2.235      2.048      73.68797   0.446357   0.446357  
1135.2     0.234      388.931    0          0          1.969      1.976      0.844      1.174      2.438      1.976      73.41152   0.4340763  0.4340763 
1135.4     0.237      387.027    0          0          1.931      2.017      0.679      1.06       2.654      2.017      73.19706   0.4247696  0.4247696 
1135.6     0.237      384.487    0          0          1.892      2.192      0.73       1.092      2.857      2.192      72.98361   0.4156959  0.4156959 
1135.8     0.234      380.042    0          0          1.854      2.088      0.635      1.136      3.047      2.088      72.83315   0.409412   0.409412  
1136       0.232      374.963    0          0          1.829      2.254      0.666      1.136      3.174      2.254      72.6827    0.4032203  0.4032203 
1136.2     0.233      367.979    0          0          1.791      2.74       0.641      1.238      3.263      2.74       72.78424   0.407389   0.407389  
1136.4     0.237      362.265    0          0          1.753      2.958      0.768      1.581      3.022      2.958      72.88578   0.4115995  0.4115995 
1136.6     0.241      343.217    0          0          1.727      2.533      0.819      1.606      2.844      2.533      73.11333   0.4211878  0.4211878 
1136.8     0.238      343.852    0          0          1.677      2.347      0.565      1.136      2.984      2.347      73.40487   0.4337847  0.4337847 
1137       0.232      329.249    0          0          1.638      2.44       0.768      1.422      3.263      2.44       73.69541   0.4466919  0.4466919 
1137.2     0.23       317.185    0          0          1.727      2.566      0.882      1.441      3.708      2.566      74.17596   0.468828   0.468828  
1137.4     0.225      303.852    0          0          1.842      2.927      0.774      1.682      4.127      2.927      74.4665    0.4826964  0.4826964 
1137.6     0.218      288.614    0          0          2.223      4.52       2.184      1.467      4.432      4.52       74.63204   0.490764   0.490764  
1137.8     0.213      269.566    0          0          2.591      6.485      3.791      3.873      4.66       6.485      74.79659   0.4989038  0.4989038 
1138       0.209      255.598    0          0          2.883      5.854      3.835      3.981      4.66       5.854      75.02413   0.5103589  0.5103589 
1138.2     0.215      244.169    0          0          3.086      5.7        3.238      3.994      4.191      5.7        75.37868   0.528675   0.528675  
1138.4     0.225      239.09     0          0          3.29       4.437      1.778      3.943      3.454      4.437      75.66922   0.5441144  0.5441144 
1138.6     0.232      239.725    0          0          3.048      3.329      1.016      2.686      3.086      3.329      75.96077   0.560002   0.560002  
1138.8     0.233      249.249    0          0          2.87       2.885      0.92       1.981      2.882      2.885      76.18831   0.5726795  0.5726795 
1139       0.227      258.138    0          0          2.68       3.237      0.793      1.708      2.679      3.237      76.47986   0.5892837  0.5892837 
1139.2     0.223      265.122    0          0          2.769      3.764      1.257      2.216      2.476      3.764      76.8334    0.6099685  0.6099685 
1139.4     0.228      274.646    0          0          2.947      3.536      1.263      2.127      2.273      3.536      77.18794   0.6313264  0.6313264 
1139.6     0.232      283.534    0          0          3.086      3.072      0.793      1.613      2.057      3.072      77.41548   0.6453618  0.6453618 
1139.8     0.234      293.058    0          0          3.264      2.74       0.895      1.835      1.854      2.74       77.70703   0.6637254  0.6637254 
1140       0.236      301.947    0          0          3.417      2.585      0.666      1.378      1.841      2.585      77.74557   0.6661848  0.6661848 
1140.2     0.236      307.033    0          0          3.48       2.461      0.616      1.136      2.108      2.461      77.21612   0.6330504  0.6330504 
1140.4     0.232      311.471    0          0          3.518      2.689      0.59       1.13       2.45       2.689      76.87666   0.6125413  0.6125413 
1140.6     0.226      320.995    0          0          3.556      3.786      0.666      1.213      3.39       3.786      76.41021   0.5852801  0.5852801 
1140.8     0.22       330.519    0          0          3.76       5.234      0.641      1.505      3.695      5.234      76.13374   0.5696169  0.5696169 
1141       0.212      340.042    0          0          4.395      5.657      2.667      2.8        3.632      5.657      76.42429   0.5860873  0.5860873 
