~Version
 VERS              .         2.0                           : CWLS LOG ASCII STANDARD - VERSION 2.0
 WRAP              .         NO                            : ONE LINE PER DEPTH STEP
 DLM               .         SPACE                         : DELIMITING CHARACTER(SPACE TAB OR COMMA)
~Well Information
#_______________________________________________________________________________
#
#PARAMETER_NAME    .UNIT     VALUE                         : DESCRIPTION
#_______________________________________________________________________________
STRT               .M        850                           : First reference value
STOP               .M        1307                          : Last reference value
STEP               .M        0.2                           : Step increment
NULL               .         -9999                         : Missing value
COMP               .         UPGF                          : Company
WELL               .         2904                          : Well name
FLD                .         УЗЕНЬ                         : Field
LOC                .                                       : Location
CNTY               .                                       : County
STAT               .                                       : State
CTRY               .                                       : Country
SRVC               .                                       : Service Company
DATE               .         08.06.1978г                   : Date
UWI                .                                       : Unique Well ID
Block              .         4                             : 
Category           .         Нефтяная                      : 
Condition          .         Ликвидированная               : 
EREF               .m        224                           : 100.8
Gorizont           .         15                            : 14
Interpretator      .         Кушнир И.Е.                   : 
Kupol              .         основной                      : osnovnoi
Mud                .                                       : 
Mud_density        .                                       : 
Mud_resistivity    .                                       : 
NGDU               .         НГДУ-1                        : 
ORIGINALWELLNAME   .         2904                          : 
Spud_date          .         1979                          : 1961
Viscosity          .                                       : 
X                  .m        53912.7                       : 46154
Y                  .m        82063.3                       : 85761.93
YEAR               .         2019г                         : 
~Parameter Information Block
#_______________________________________________________________________________
#
#PARAMETER_NAME    .UNIT     VALUE                         : DESCRIPTION
#_______________________________________________________________________________
SET                .         LQC_KAZNIPI_Petrel            : 
TLFamily_CALI      .         Caliper                       : 
TLFamily_CILD      .         Conductivity                  : 
TLFamily_COLL      .         Net Reservoir Flag            : 
TLFamily_CSAT      .         Fluid Code                    : 
TLFamily_DEPT      .         Measured Depth                : 
TLFamily_GZ3       .         Gradient 225                  : 
TLFamily_LLS       .         Lateral Log Resistivity       : 
TLFamily_MINV      .         Micro Gradient Resistivity    : 
TLFamily_MNOR      .         Micro Resistivity             : 
TLFamily_OGZ       .         Gradient Inverted 225         : 
TLFamily_RT        .         Formation Resistivity         : 
TLFamily_SP        .         Spontaneous Potential         : 
TLFamily_VSH_FIN   .         Shale Volume                  : 
TLFamily_VSH_SP    .         Shale Volume                  : 
~Curve Information
#_______________________________________________________________________________
#
#LOGNAME           .UNIT     LOG_ID                        : DESCRIPTION
#_______________________________________________________________________________
DEPT               .M                                      : Колонка глубины 
CALI               .м                                      : Каверномер 
CILD               .мСм/м                                  : Индукционный каротаж 
COLL               .v/v                                    :  
CSAT               .v/v                                    :  
GZ3                .ohmm                                   : Градиент-зонд  длиной 2.25м 
LLS                .Ohmm                                   : Боковой каротаж 
MINV               .Ohmm                                   : Микро-градиент зонд 
MNOR               .Ohmm                                   : Микро-потенциал зонд 
OGZ                .ohmm                                   : Обращенный градиент-зонд 
RT                 .ohmm                                   : Description 
SP                 .mV                                     : Потенциал самополяризации 
VSH_FIN            .v/v                                    : Описание 
VSH_SP             .v/v                                    : Shale Volume 
~Ascii
# ...
1203.6     0.213      449.884    0          0          1.461      1.841      2.61       1.765      2.196      1.841      79.50864   0.7869682  0.7869682 
1203.8     0.213      444.169    0          0          1.359      2.119      1.987      2.013      2.412      2.119      78.63945   0.7253761  0.7253761 
1204       0.213      439.09     0          0          1.423      2.14       2.318      2.165      2.311      2.14       77.64326   0.6596723  0.6596723 
1204.2     0.213      434.646    0          0          1.448      2.088      2.216      2.165      2.108      2.088      76.83707   0.6101864  0.6101864 
1204.4     0.213      431.471    0          0          1.283      2.359      1.682      1.981      1.942      2.359      76.28644   0.5782226  0.5782226 
1204.6     0.213      433.376    0          0          1.143      2.39       2.229      1.486      1.815      2.39       75.86281   0.5546193  0.5546193 
1204.8     0.214      434.646    1          2          1.118      2.223      1.93       1.695      1.739      2.223      74.93317   0.5057514  0.5057514 
1205       0.214      434.646    1          2          1.219      1.976      1.936      2.006      1.701      1.976      74.57253   0.4878499  0.4878499 
1205.2     0.214      433.376    1          2          1.27       1.705      2.127      2.216      1.765      1.705      73.5799    0.4415176  0.4415176 
1205.4     0.214      431.471    1          2          1.321      1.655      2.165      2.318      1.93       1.655      72.27226   0.386791   0.386791  
1205.6     0.214      427.661    1          2          1.41       2.069      2.044      2.425      2.133      2.069      71.02863   0.341007   0.341007  
1205.8     0.214      425.467    1          2          1.562      2.471      2.241      2.521      2.235      2.471      69.784     0.3008934  0.3008934 
1206       0.214      423.217    1          2          1.765      2.554      2.47       2.622      2.069      2.554      68.47636   0.2644599  0.2644599 
1206.2     0.214      419.407    1          2          1.892      2.606      2.47       2.387      1.866      2.606      68.43073   0.2632884  0.2632884 
1206.4     0.213      411.788    1          2          1.943      2.616      1.956      2.451      1.815      2.616      69.01608   0.2788174  0.2788174 
1206.6     0.214      406.074    1          2          1.816      2.421      2.102      2.21       2.108      2.421      69.97945   0.3068313  0.3068313 
1206.8     0.213      398.455    1          2          1.74       2.183      1.733      1.873      2.552      2.183      71.38482   0.3535201  0.3535201 
1207       0.213      388.296    1          2          1.626      1.986      1.708      1.644      3.073      1.986      72.85318   0.4102431  0.4102431 
1207.2     0.213      372.423    0          0          1.727      2.057      1.524      1.682      3.479      2.057      73.81655   0.452179   0.452179  
1207.4     0.213      352.741    0          0          1.943      2.73       1.416      2.305      3.898      2.73       74.08691   0.4646513  0.4646513 
1207.6     0.214      331.154    0          0          2.159      2.686      2.006      2.94       4.254      2.686      72.14828   0.3819593  0.3819593 
1207.8     0.214      309.566    1          2          2.401      4.496      2.057      2.794      4.521      4.496      70.77764   0.3324713  0.3324713 
1208       0.214      304.487    1          2          2.578      6.771      2.47       2.787      4.343      6.771      68.52401   0.2656899  0.2656899 
1208.2     0.215      321.63     1          2          2.502      6.151      2.127      2.635      3.924      6.151      67.91038   0.2503901  0.2503901 
1208.4     0.215      338.138    1          2          2.286      4.289      2.26       2.267      3.365      4.289      69.63074   0.2963291  0.2963291 
1208.6     0.214      349.566    1          2          1.931      2.893      1.581      1.771      3.009      2.893      70.7841    0.3326882  0.3326882 
1208.8     0.213      358.455    0          0          1.511      1.748      2.006      2.216      2.641      1.748      72.12646   0.3811155  0.3811155 
1209       0.212      365.439    0          0          1.308      1.933      1.962      2.248      2.285      1.933      72.83783   0.409606   0.409606  
1209.2     0.211      367.979    0          0          1.181      2.254      2          2.064      1.79       2.254      72.9112    0.4126602  0.4126602 
1209.4     0.21       365.439    0          0          1.334      2.276      1.676      2.254      1.523      2.276      72.99857   0.4163255  0.4163255 
1209.6     0.211      361.63     0          0          1.524      2.482      2.051      2.47       1.396      2.482      72.57393   0.3988008  0.3988008 
1209.8     0.211      356.55     1          2          1.765      2.74       1.924      2.248      1.371      2.74       71.3933    0.3538236  0.3538236 
1210       0.211      348.931    1          2          2.108      2.782      1.568      2.279      1.409      2.782      70.02266   0.3081617  0.3081617 
1210.2     0.211      343.852    1          2          2.807      2.989      2.057      2.279      1.561      2.989      68.71503   0.2706935  0.2706935 
1210.4     0.212      338.773    1          2          2.807      3.227      1.657      2.248      1.879      3.227      68.10139   0.2550279  0.2550279 
1210.6     0.212      334.328    1          2          2.87       3.154      1.797      2.337      2.438      3.154      67.99275   0.2523764  0.2523764 
1210.8     0.212      327.344    1          2          3.036      3.372      1.809      2.578      3.086      3.372      68.26712   0.2591426  0.2591426 
1211       0.212      329.884    1          2          3.544      3.693      1.111      2.356      3.695      3.693      68.59448   0.2675224  0.2675224 
1211.2     0.212      338.138    1          2          4.026      3.329      1.492      1.784      4.038      3.329      69.87386   0.3036069  0.3036069 
1211.4     0.212      343.852    1          2          3.874      2.596      1.34       1.936      4.292      2.596      72.09922   0.3800642  0.3800642 
1211.6     0.213      345.122    0          0          3.239      2.409      1.682      1.975      4.521      2.409      74.60858   0.4896133  0.4896133 
1211.8     0.213      341.312    0          0          2.832      2.131      1.6        2.051      3.213      2.131      76.73994   0.6044417  0.6044417 
1212       0.213      336.233    0          0          2.35       1.893      2.343      2.61       2.933      1.893      77.51431   0.6515388  0.6515388 
1212.2     0.213      335.598    0          0          1.905      2.575      1.816      2.934      2.679      2.575      77.53168   0.6526291  0.6526291 
1212.4     0.212      341.312    0          0          1.575      3.712      1.994      2.337      2.577      3.712      76.66605   0.6001015  0.6001015 
1212.6     0.212      345.122    0          0          1.435      3.857      1.829      2.514      2.489      3.857      75.29541   0.5243218  0.5243218 
1212.8     0.212      338.773    0          0          1.308      2.885      2.432      2.8        2.285      2.885      74.42978   0.4809232  0.4809232 
1213       0.212      328.614    0          0          1.194      2.131      2.254      2.762      2.171      2.131      74.25714   0.472666   0.472666  
1213.2     0.212      322.577    0          0          1.169      2.026      2.26       2.927      2.628      2.026      74.2115    0.4705049  0.4705049 
1213.4     0.212      315.915    0          0          1.448      2.834      1.962      2.622      2.844      2.834      70.75887   0.331842   0.331842  
1213.6     0.212      305.122    0          0          1.842      3.961      2.248      2.603      2.666      3.961      68.31624   0.2603785  0.2603785 
1213.8     0.211      310.201    0          0          2.235      4.975      2.121      2.641      2.425      4.975      67.1346    0.2326779  0.2326779 
