~Version
 VERS              .         2.0                           : CWLS LOG ASCII STANDARD - VERSION 2.0
 WRAP              .         NO                            : ONE LINE PER DEPTH STEP
 DLM               .         SPACE                         : DELIMITING CHARACTER(SPACE TAB OR COMMA)
~Well Information
#_______________________________________________________________________________
#
#PARAMETER_NAME    .UNIT     VALUE                         : DESCRIPTION
#_______________________________________________________________________________
STRT               .M        850                           : First reference value
STOP               .M        1307                          : Last reference value
STEP               .M        0.2                           : Step increment
NULL               .         -9999                         : Missing value
COMP               .         UPGF                          : Company
WELL               .         2904                          : Well name
FLD                .         УЗЕНЬ                         : Field
LOC                .                                       : Location
CNTY               .                                       : County
STAT               .                                       : State
CTRY               .                                       : Country
SRVC               .                                       : Service Company
DATE               .         08.06.1978г                   : Date
UWI                .                                       : Unique Well ID
Block              .         4                             : 
Category           .         Нефтяная                      : 
Condition          .         Ликвидированная               : 
EREF               .m        224                           : 100.8
Gorizont           .         15                            : 14
Interpretator      .         Кушнир И.Е.                   : 
Kupol              .         основной                      : osnovnoi
Mud                .                                       : 
Mud_density        .                                       : 
Mud_resistivity    .                                       : 
NGDU               .         НГДУ-1                        : 
ORIGINALWELLNAME   .         2904                          : 
Spud_date          .         1979                          : 1961
Viscosity          .                                       : 
X                  .m        53912.7                       : 46154
Y                  .m        82063.3                       : 85761.93
YEAR               .         2019г                         : 
~Parameter Information Block
#_______________________________________________________________________________
#
#PARAMETER_NAME    .UNIT     VALUE                         : DESCRIPTION
#_______________________________________________________________________________
SET                .         LQC_KAZNIPI_Petrel            : 
TLFamily_CALI      .         Caliper                       : 
TLFamily_CILD      .         Conductivity                  : 
TLFamily_COLL      .         Net Reservoir Flag            : 
TLFamily_CSAT      .         Fluid Code                    : 
TLFamily_DEPT      .         Measured Depth                : 
TLFamily_GZ3       .         Gradient 225                  : 
TLFamily_LLS       .         Lateral Log Resistivity       : 
TLFamily_MINV      .         Micro Gradient Resistivity    : 
TLFamily_MNOR      .         Micro Resistivity             : 
TLFamily_OGZ       .         Gradient Inverted 225         : 
TLFamily_RT        .         Formation Resistivity         : 
TLFamily_SP        .         Spontaneous Potential         : 
TLFamily_VSH_FIN   .         Shale Volume                  : 
TLFamily_VSH_SP    .         Shale Volume                  : 
~Curve Information
#_______________________________________________________________________________
#
#LOGNAME           .UNIT     LOG_ID                        : DESCRIPTION
#_______________________________________________________________________________
DEPT               .M                                      : Колонка глубины 
CALI               .м                                      : Каверномер 
CILD               .мСм/м                                  : Индукционный каротаж 
COLL               .v/v                                    :  
CSAT               .v/v                                    :  
GZ3                .ohmm                                   : Градиент-зонд  длиной 2.25м 
LLS                .Ohmm                                   : Боковой каротаж 
MINV               .Ohmm                                   : Микро-градиент зонд 
MNOR               .Ohmm                                   : Микро-потенциал зонд 
OGZ                .ohmm                                   : Обращенный градиент-зонд 
RT                 .ohmm                                   : Description 
SP                 .mV                                     : Потенциал самополяризации 
VSH_FIN            .v/v                                    : Описание 
VSH_SP             .v/v                                    : Shale Volume 
~Ascii
# ...
1224.4     0.209      311.471    1          2          2.121      2.531      1.835      2.356      3.733      2.531      67.83707   0.2486398  0.2486398 
1224.6     0.209      296.868    1          2          1.969      2.841      2.273      2.737      4.953      2.841      67.64708   0.2441786  0.2441786 
1224.8     0.209      277.82     1          2          1.918      4.548      2.68       3.162      6.299      4.548      67.45808   0.2398475  0.2398475 
1225       0.209      258.138    1          2          3.213      6.617      2.558      3.225      6.791      6.617      67.26907   0.2356215  0.2356215 
1225.2     0.209      241.63     1          2          4.064      8.428      2.47       3.27       8.124      8.428      67.20608   0.234236   0.234236  
1225.4     0.209      234.011    1          2          4.979      7.651      2.495      3.511      9.141      7.651      67.07907   0.2314777  0.2314777 
1225.6     0.209      240.36     1          2          4.903      5.221      2.61       3.257      8.506      5.221      66.76408   0.2248349  0.2248349 
1225.8     0.208      244.804    1          2          4.534      4.289      2.584      2.819      7.489      4.289      66.38507   0.2172097  0.2172097 
1226       0.209      245.439    1          2          3.696      3.979      2.27       2.809      6.727      3.979      65.81808   0.2065282  0.2065282 
1226.2     0.21       246.074    1          2          3.099      3.359      2.006      2.8        5.965      3.359      65.18707   0.1956223  0.1956223 
1226.4     0.21       246.074    1          2          2.667      3.566      2.248      2.832      5.203      3.566      64.61908   0.186648   0.186648  
1226.6     0.21       244.804    1          2          2.401      3.875      2.356      3.054      4.695      3.875      64.24008   0.1810843  0.1810843 
1226.8     0.21       240.995    1          2          2.489      3.514      2.686      3.467      5.775      3.514      63.73608   0.1741892  0.1741892 
1227       0.21       223.217    1          2          2.909      3.204      3.619      3.308      7.299      3.204      62.85208   0.1634096  0.1634096 
1227.2     0.21       198.455    1          2          3.34       4.6        3.416      3.702      8.95       4.6        62.03208   0.1547997  0.1547997 
1227.4     0.21       179.408    1          2          4.128      6.617      2.813      2.889      11.046     6.617      61.21207   0.1474091  0.1474091 
1227.6     0.21       161.63     1          2          5.258      8.944      3.823      3.467      12.76      8.944      60.20208   0.1398123  0.1398123 
1227.8     0.21       145.122    1          2          6.097      10.806     3.969      3.912      13.332     10.806     59.19308   0.1336823  0.1336823 
1228       0.21       131.153    1          2          6.63       11.427     3.805      4.175      12.443     11.427     58.37308   0.1296274  0.1296274 
1228.2     0.21       125.439    1          2          7.036      11.117     3.657      4.413      11.49      11.117     57.86808   0.1274895  0.1274895 
1228.4     0.21       134.963    1          2          7.329      10.754     3.556      3.892      10.347     10.754     57.49008   0.1260487  0.1260487 
1228.6     0.21       142.582    1          2          7.278      9.876      3.105      3.657      9.331      9.876      57.23708   0.1251544  0.1251544 
1228.8     0.21       146.308    1          2          7.163      8.842      2.883      3.601      8.378      8.842      56.92208   0.1241136  0.1241136 
1229       0.21       149.566    1          2          6.986      7.91       2.648      3.594      7.489      7.91       56.54308   0.1229593  0.1229593 
1229.2     0.21       158.455    1          2          6.414      7.135      2.756      3.613      6.727      7.135      56.29108   0.1222459  0.1222459 
1229.4     0.21       167.979    1          2          6.414      6.823      2.921      3.638      6.664      6.823      56.41708   0.1225975  0.1225975 
1229.6     0.21       174.963    1          2          6.478      6.876      2.533      3.397      6.854      6.876      56.92208   0.1241136  0.1241136 
1229.8     0.21       179.408    1          2          6.668      6.928      2.876      3.588      7.108      6.928      57.42607   0.1258174  0.1258174 
1230       0.21       176.868    1          2          6.859      6.876      2.387      3.27       7.553      6.876      57.99408   0.1279992  0.1279992 
1230.2     0.21       171.788    1          2          6.986      6.928      2.171      3.372      8.061      6.928      58.49908   0.1302016  0.1302016 
1230.4     0.21       164.169    1          2          7.303      7.444      2.476      3.613      8.633      7.444      59.00408   0.132679   0.132679  
1230.6     0.211      156.55     1          2          7.684      8.478      2.73       3.873      8.061      8.478      59.06708   0.1330087  0.1330087 
1230.8     0.211      151.471    1          2          8.51       9.513      3.118      4.185      7.426      9.513      59.25608   0.1340264  0.1340264 
1231       0.211      152.741    1          2          9.272      9.306      3.677      4.394      6.727      9.306      59.13008   0.1333431  0.1333431 
1231.2     0.211      159.725    1          2          10.034     8.685      3.048      3.715      6.029      8.685      59.25608   0.1340264  0.1340264 
1231.4     0.211      166.074    1          2          11.177     8.478      2.838      3.937      5.267      8.478      59.63507   0.1362018  0.1362018 
1231.6     0.211      170.519    1          2          11.622     8.117      2.857      3.48       4.568      8.117      60.07608   0.1389715  0.1389715 
1231.8     0.211      173.693    1          2          10.605     7.394      2.54       3.471      4.124      7.394      60.58108   0.1424801  0.1424801 
1232       0.211      176.868    1          2          9.145      6.876      2.495      3.397      3.743      6.876      61.27508   0.1479363  0.1479363 
1232.2     0.211      183.217    1          2          8.764      6.41       2.311      2.838      3.362      6.41       61.78008   0.1524039  0.1524039 
1232.4     0.211      191.471    1          2          8.7        5.634      2.699      3.162      3.147      5.634      62.60007   0.1606269  0.1606269 
1232.6     0.211      200.36     1          2          8.827      4.703      3.118      2.705      3.035      4.703      63.10508   0.16633    0.16633   
1232.8     0.211      210.519    1          2          8.827      3.875      1.797      3.035      2.92       3.875      64.24008   0.1810843  0.1810843 
1233       0.211      224.487    1          2          8.7        4.496      2.749      3.372      2.704      4.496      64.74507   0.1885719  0.1885719 
1233.2     0.211      240.995    1          2          8.002      4.496      3.111      3.194      2.514      4.496      65.18707   0.1956223  0.1956223 
1233.4     0.211      265.122    1          2          7.367      3.927      3.346      3.308      2.45       3.927      65.81808   0.2065282  0.2065282 
1233.6     0.211      287.979    1          2          6.732      3.668      3.765      3.315      2.362      3.668      66.63808   0.2222559  0.2222559 
1233.8     0.211      302.582    1          2          5.652      3.927      3.359      3.518      2.26       3.927      67.64708   0.2441786  0.2441786 
1234       0.211      317.185    1          2          4.509      3.668      3.054      3.124      2.133      3.668      68.59407   0.2675116  0.2675116 
1234.2     0.211      332.423    1          2          4.001      3.461      3.575      3.448      2.019      3.461      69.41408   0.2900125  0.2900125 
1234.4     0.211      347.661    1          2          3.429      3.268      3.683      3.892      1.892      3.268      70.48608   0.3228427  0.3228427 
1234.6     0.212      360.36     1          2          3.728      2.896      2.826      3.169      1.803      2.896      71.30708   0.3507486  0.3507486 
