~Version
 VERS              .         2.0                           : CWLS LOG ASCII STANDARD - VERSION 2.0
 WRAP              .         NO                            : ONE LINE PER DEPTH STEP
 DLM               .         SPACE                         : DELIMITING CHARACTER(SPACE TAB OR COMMA)
~Well Information
#_______________________________________________________________________________
#
#PARAMETER_NAME    .UNIT     VALUE                         : DESCRIPTION
#_______________________________________________________________________________
STRT               .M        850                           : First reference value
STOP               .M        1307                          : Last reference value
STEP               .M        0.2                           : Step increment
NULL               .         -9999                         : Missing value
COMP               .         UPGF                          : Company
WELL               .         2904                          : Well name
FLD                .         УЗЕНЬ                         : Field
LOC                .                                       : Location
CNTY               .                                       : County
STAT               .                                       : State
CTRY               .                                       : Country
SRVC               .                                       : Service Company
DATE               .         08.06.1978г                   : Date
UWI                .                                       : Unique Well ID
Block              .         4                             : 
Category           .         Нефтяная                      : 
Condition          .         Ликвидированная               : 
EREF               .m        224                           : 100.8
Gorizont           .         15                            : 14
Interpretator      .         Кушнир И.Е.                   : 
Kupol              .         основной                      : osnovnoi
Mud                .                                       : 
Mud_density        .                                       : 
Mud_resistivity    .                                       : 
NGDU               .         НГДУ-1                        : 
ORIGINALWELLNAME   .         2904                          : 
Spud_date          .         1979                          : 1961
Viscosity          .                                       : 
X                  .m        53912.7                       : 46154
Y                  .m        82063.3                       : 85761.93
YEAR               .         2019г                         : 
~Parameter Information Block
#_______________________________________________________________________________
#
#PARAMETER_NAME    .UNIT     VALUE                         : DESCRIPTION
#_______________________________________________________________________________
SET                .         LQC_KAZNIPI_Petrel            : 
TLFamily_CALI      .         Caliper                       : 
TLFamily_CILD      .         Conductivity                  : 
TLFamily_COLL      .         Net Reservoir Flag            : 
TLFamily_CSAT      .         Fluid Code                    : 
TLFamily_DEPT      .         Measured Depth                : 
TLFamily_GZ3       .         Gradient 225                  : 
TLFamily_LLS       .         Lateral Log Resistivity       : 
TLFamily_MINV      .         Micro Gradient Resistivity    : 
TLFamily_MNOR      .         Micro Resistivity             : 
TLFamily_OGZ       .         Gradient Inverted 225         : 
TLFamily_RT        .         Formation Resistivity         : 
TLFamily_SP        .         Spontaneous Potential         : 
TLFamily_VSH_FIN   .         Shale Volume                  : 
TLFamily_VSH_SP    .         Shale Volume                  : 
~Curve Information
#_______________________________________________________________________________
#
#LOGNAME           .UNIT     LOG_ID                        : DESCRIPTION
#_______________________________________________________________________________
DEPT               .M                                      : Колонка глубины 
CALI               .м                                      : Каверномер 
CILD               .мСм/м                                  : Индукционный каротаж 
COLL               .v/v                                    :  
CSAT               .v/v                                    :  
GZ3                .ohmm                                   : Градиент-зонд  длиной 2.25м 
LLS                .Ohmm                                   : Боковой каротаж 
MINV               .Ohmm                                   : Микро-градиент зонд 
MNOR               .Ohmm                                   : Микро-потенциал зонд 
OGZ                .ohmm                                   : Обращенный градиент-зонд 
RT                 .ohmm                                   : Description 
SP                 .mV                                     : Потенциал самополяризации 
VSH_FIN            .v/v                                    : Описание 
VSH_SP             .v/v                                    : Shale Volume 
~Ascii
# ...
1297.2     0.206      448.931    0          0          1.689      1.81       -9999      -9999      1.638      1.81       74.24997   0.4723258  0.4723258 
1297.4     0.206      438.455    0          0          1.524      1.924      -9999      -9999      1.434      1.924      74.91177   0.5046733  0.5046733 
1297.6     0.206      434.011    0          0          1.372      2.017      -9999      -9999      1.257      2.017      75.32058   0.5256343  0.5256343 
1297.8     0.206      427.027    0          0          1.207      2.1        -9999      -9999      1.015      2.1        74.91039   0.5046034  0.5046034 
1298       0.206      414.328    0          0          1.664      1.779      -9999      -9999      1.231      1.779      74.18419   0.4692159  0.4692159 
1298.2     0.206      394.646    0          0          2.108      1.603      -9999      -9999      1.536      1.603      73.331     0.4305596  0.4305596 
1298.4     0.206      369.884    0          0          2.578      2.048      -9999      -9999      2.133      2.048      72.7838    0.4073708  0.4073708 
1298.6     0.206      345.122    0          0          3.023      3.668      -9999      -9999      2.857      3.668      72.25761   0.3862167  0.3862167 
1298.8     0.206      320.995    0          0          3.493      8.221      -9999      -9999      3.428      8.221      71.53141   0.3588078  0.3588078 
1299       0.206      316.55     0          0          3.95       6.876      -9999      -9999      3.416      6.876      71.37322   0.3531052  0.3531052 
1299.2     0.206      332.423    0          0          4.039      5.273      -9999      -9999      3.111      5.273      71.53003   0.3587576  0.3587576 
1299.4     0.206      350.201    0          0          3.899      2.461      -9999      -9999      2.806      2.461      71.93983   0.3739719  0.3739719 
1299.6     0.206      366.074    0          0          3.594      2.192      -9999      -9999      2.501      2.192      72.41164   0.3922947  0.3922947 
1299.8     0.206      382.582    0          0          3.01       2.017      -9999      -9999      2.196      2.017      72.88445   0.4115438  0.4115438 
1300       0.206      399.09     0          0          2.375      1.943      -9999      -9999      1.777      1.943      73.29425   0.4289636  0.4289636 
1300.2     0.206      407.15     0          0          1.892      1.955      -9999      -9999      1.511      1.955      73.83006   0.4527945  0.4527945 
1300.4     0.206      416.233    0          0          1.473      1.986      -9999      -9999      1.358      1.986      74.36485   0.4778025  0.4778025 
1300.6     0.206      431.471    0          0          1.207      2.017      -9999      -9999      1.142      2.017      74.96367   0.5072923  0.5072923 
1300.8     0.206      445.439    0          0          1.054      2.007      -9999      -9999      0.977      2.007      75.43648   0.5317154  0.5317154 
1301       0.206      456.868    0          0          0.927      1.995      -9999      -9999      0.952      1.995      75.72028   0.5468679  0.5468679 
1301.2     0.206      464.487    0          0          0.826      2.007      -9999      -9999      1.079      2.007      75.87708   0.5554008  0.5554008 
1301.4     0.206      470.201    0          0          1.308      2.026      -9999      -9999      1.282      2.026      75.84489   0.5536398  0.5536398 
1301.6     -9999      475.28     0          0          1.562      2.038      -9999      -9999      1.523      2.038      75.74969   0.54846    0.54846   
1301.8     -9999      479.09     0          0          1.816      2.038      -9999      -9999      1.739      2.038      75.6545    0.5433229  0.5433229 
1302       -9999      480.995    0          0          2.07       2.038      -9999      -9999      1.93       2.038      75.55931   0.5382279  0.5382279 
1302.2     -9999      482.9      0          0          2.096      2.038      -9999      -9999      2.095      2.038      75.71612   0.5466432  0.5466432 
1302.4     -9999      483.534    0          0          2.096      2.048      -9999      -9999      2.069      2.048      76.12492   0.5691233  0.5691233 
1302.6     -9999      484.169    0          0          2.083      2.057      -9999      -9999      2.006      2.057      76.47173   0.588815   0.588815  
1302.8     -9999      484.169    0          0          2.045      2.078      -9999      -9999      1.917      2.078      77.00753   0.6203809  0.6203809 
1303       -9999      484.169    0          0          1.981      2.017      -9999      -9999      1.828      2.017      77.41634   0.645415   0.645415  
1303.2     -9999      483.534    0          0          1.842      1.933      -9999      -9999      1.739      1.933      77.88914   0.6754146  0.6754146 
1303.4     -9999      481.63     0          0          1.715      2.057      -9999      -9999      1.676      2.057      78.36195   0.7065566  0.7065566 
1303.6     -9999      479.09     0          0          1.588      2.162      -9999      -9999      1.599      2.162      78.64475   0.7257397  0.7257397 
1303.8     -9999      476.55     0          0          1.511      2.183      -9999      -9999      1.523      2.183      78.74474   0.7326222  0.7326222 
1304       -9999      474.011    0          0          1.473      2.183      -9999      -9999      1.472      2.183      78.83674   0.7390022  0.7390022 
1304.2     -9999      471.471    0          0          -9999      2.119      -9999      -9999      1.422      2.119      78.96274   0.7478126  0.7478126 
1304.4     -9999      468.931    0          0          -9999      2.088      -9999      -9999      1.396      2.088      78.77374   0.7346283  0.7346283 
1304.6     -9999      466.392    0          0          -9999      2.069      -9999      -9999      1.396      2.069      78.52074   0.7172759  0.7172759 
1304.8     -9999      463.852    0          0          -9999      2.048      -9999      -9999      1.409      2.048      78.26874   0.7003257  0.7003257 
1305       -9999      461.947    0          0          -9999      2.017      -9999      -9999      1.422      2.017      78.07973   0.6878294  0.6878294 
1305.2     -9999      460.677    0          0          -9999      1.995      -9999      -9999      1.422      1.995      77.82674   0.6713898  0.6713898 
1305.4     -9999      458.773    0          0          -9999      1.995      -9999      -9999      1.422      1.995      -9999      -9999      -9999     
1305.6     -9999      457.804    0          0          -9999      2.026      -9999      -9999      -9999      2.026      -9999      -9999      -9999     
1305.8     -9999      456.868    0          0          -9999      2.057      -9999      -9999      -9999      2.057      -9999      -9999      -9999     
1306       -9999      453.058    0          0          -9999      2.1        -9999      -9999      -9999      2.1        -9999      -9999      -9999     
1306.2     -9999      450.519    0          0          -9999      2.15       -9999      -9999      -9999      2.15       -9999      -9999      -9999     
1306.4     -9999      447.344    0          0          -9999      2.183      -9999      -9999      -9999      2.183      -9999      -9999      -9999     
1306.6     -9999      -9999      0          0          -9999      2.285      -9999      -9999      -9999      2.285      -9999      -9999      -9999     
1306.8     -9999      -9999      0          0          -9999      2.359      -9999      -9999      -9999      2.359      -9999      -9999      -9999     
1307       -9999      -9999      0          0          -9999      2.39       -9999      -9999      -9999      2.39       -9999      -9999      -9999     
