~Version
 VERS              .         2.0                           : CWLS LOG ASCII STANDARD - VERSION 2.0
 WRAP              .         NO                            : ONE LINE PER DEPTH STEP
 DLM               .         SPACE                         : DELIMITING CHARACTER(SPACE TAB OR COMMA)
~Well Information
#_______________________________________________________________________________
#
#PARAMETER_NAME    .UNIT     VALUE                         : DESCRIPTION
#_______________________________________________________________________________
STRT               .M        850                           : First reference value
STOP               .M        1307                          : Last reference value
STEP               .M        0.2                           : Step increment
NULL               .         -9999                         : Missing value
COMP               .         UPGF                          : Company
WELL               .         2904                          : Well name
FLD                .         УЗЕНЬ                         : Field
LOC                .                                       : Location
CNTY               .                                       : County
STAT               .                                       : State
CTRY               .                                       : Country
SRVC               .                                       : Service Company
DATE               .         08.06.1978г                   : Date
UWI                .                                       : Unique Well ID
Block              .         4                             : 
Category           .         Нефтяная                      : 
Condition          .         Ликвидированная               : 
EREF               .m        224                           : 100.8
Gorizont           .         15                            : 14
Interpretator      .         Кушнир И.Е.                   : 
Kupol              .         основной                      : osnovnoi
Mud                .                                       : 
Mud_density        .                                       : 
Mud_resistivity    .                                       : 
NGDU               .         НГДУ-1                        : 
ORIGINALWELLNAME   .         2904                          : 
Spud_date          .         1979                          : 1961
Viscosity          .                                       : 
X                  .m        53912.7                       : 46154
Y                  .m        82063.3                       : 85761.93
YEAR               .         2019г                         : 
~Parameter Information Block
#_______________________________________________________________________________
#
#PARAMETER_NAME    .UNIT     VALUE                         : DESCRIPTION
#_______________________________________________________________________________
SET                .         LQC_KAZNIPI_Petrel            : 
TLFamily_CALI      .         Caliper                       : 
TLFamily_CILD      .         Conductivity                  : 
TLFamily_COLL      .         Net Reservoir Flag            : 
TLFamily_CSAT      .         Fluid Code                    : 
TLFamily_DEPT      .         Measured Depth                : 
TLFamily_GZ3       .         Gradient 225                  : 
TLFamily_LLS       .         Lateral Log Resistivity       : 
TLFamily_MINV      .         Micro Gradient Resistivity    : 
TLFamily_MNOR      .         Micro Resistivity             : 
TLFamily_OGZ       .         Gradient Inverted 225         : 
TLFamily_RT        .         Formation Resistivity         : 
TLFamily_SP        .         Spontaneous Potential         : 
TLFamily_VSH_FIN   .         Shale Volume                  : 
TLFamily_VSH_SP    .         Shale Volume                  : 
~Curve Information
#_______________________________________________________________________________
#
#LOGNAME           .UNIT     LOG_ID                        : DESCRIPTION
#_______________________________________________________________________________
DEPT               .M                                      : Колонка глубины 
CALI               .м                                      : Каверномер 
CILD               .мСм/м                                  : Индукционный каротаж 
COLL               .v/v                                    :  
CSAT               .v/v                                    :  
GZ3                .ohmm                                   : Градиент-зонд  длиной 2.25м 
LLS                .Ohmm                                   : Боковой каротаж 
MINV               .Ohmm                                   : Микро-градиент зонд 
MNOR               .Ohmm                                   : Микро-потенциал зонд 
OGZ                .ohmm                                   : Обращенный градиент-зонд 
RT                 .ohmm                                   : Description 
SP                 .mV                                     : Потенциал самополяризации 
VSH_FIN            .v/v                                    : Описание 
VSH_SP             .v/v                                    : Shale Volume 
~Ascii
# ...
1026.8     0.258      373.058    0          0          2.083      2.026      1.784      1.213      1.714      2.026      79.16926   0.7624368  0.7624368 
1027       0.254      366.709    0          0          2.058      2.007      1.486      1.384      1.917      2.007      79.25103   0.7682906  0.7682906 
1027.2     0.254      358.455    0          0          2.058      2.307      2.521      1.879      2.146      2.307      79.3328    0.7741804  0.7741804 
1027.4     0.258      345.757    0          0          2.426      3.175      3.886      2.381      2.4        3.175      79.28857   0.7709903  0.7709903 
1027.6     0.253      334.328    0          0          2.629      4.458      4.064      2.559      2.628      4.458      79.24435   0.7678108  0.7678108 
1027.8     0.246      325.439    0          0          2.782      5.761      4.083      3.689      2.781      5.761      78.88512   0.742375   0.742375  
1028       0.237      329.249    0          0          2.82       4.716      2.845      2.114      2.793      4.716      78.65089   0.7261604  0.7261604 
1028.2     0.227      334.963    0          0          2.667      3.341      2.349      2.356      2.679      3.341      78.29166   0.7018542  0.7018542 
1028.4     0.219      340.042    0          0          2.464      2.596      2.254      1.467      2.476      2.596      77.99543   0.6823149  0.6823149 
1028.6     0.213      344.487    0          0          2.286      2.43       2.286      1.682      2.247      2.43       77.8242    0.6712263  0.6712263 
1028.8     0.221      345.122    0          0          2.096      2.492      1.543      1.314      2.069      2.492      77.65397   0.6603512  0.6603512 
1029       0.239      346.392    0          0          1.892      2.43       2.305      1.695      1.993      2.43       77.73574   0.6655569  0.6655569 
1029.2     0.248      347.661    0          0          2.032      2.596      2.445      1.803      2.044      2.596      77.75452   0.666757   0.666757  
1029.4     0.247      348.296    0          0          2.096      2.709      2.178      1.575      2.133      2.709      77.77428   0.6680224  0.6680224 
1029.6     0.244      348.931    0          0          2.159      2.627      2.464      1.663      2.235      2.627      77.79306   0.6692262  0.6692262 
1029.8     0.239      348.931    0          0          2.235      2.823      3.099      1.975      2.4        2.823      77.81184   0.6704317  0.6704317 
1030       0.237      349.566    0          0          2.312      2.823      2.699      2.019      2.514      2.823      77.8306    0.6716386  0.6716386 
1030.2     0.24       353.376    0          0          2.464      2.566      3.099      1.771      2.476      2.566      77.84938   0.6728478  0.6728478 
1030.4     0.246      360.36     0          0          2.312      2.544      2.597      1.892      2.336      2.544      77.80515   0.6700024  0.6700024 
1030.6     0.25       366.709    0          0          2.248      2.378      2          1.905      2.235      2.378      77.82392   0.6712087  0.6712087 
1030.8     0.249      371.788    0          0          2.185      2.183      1.975      1.644      2.171      2.183      77.8427    0.6724172  0.6724172 
1031       0.245      372.423    0          0          2.121      2.069      2.286      1.517      2.146      2.069      77.86147   0.673627   0.673627  
1031.2     0.241      369.884    0          0          2.134      2.202      2.724      1.746      2.133      2.202      77.88024   0.6748391  0.6748391 
1031.4     0.247      366.074    0          0          2.146      2.359      2.845      1.816      2.171      2.359      77.899     0.6760521  0.6760521 
1031.6     0.254      363.534    0          0          2.172      2.513      2.946      1.771      2.171      2.513      77.79178   0.669144   0.669144  
1031.8     0.26       360.995    0          0          2.197      2.471      2.419      1.835      2.108      2.471      77.87355   0.674407   0.674407  
1032       0.264      360.36     0          0          2.223      2.347      2.222      1.524      2.069      2.347      77.89332   0.6756844  0.6756844 
1032.2     0.262      359.09     0          0          2.248      2.254      2.368      1.651      2.031      2.254      77.91209   0.6768996  0.6768996 
1032.4     0.259      359.725    0          0          2.273      2.39       3.124      1.613      2.019      2.39       77.86787   0.67404    0.67404   
1032.6     0.256      359.725    0          0          2.312      2.566      2.521      1.809      2.031      2.566      77.76064   0.6671485  0.6671485 
1032.8     0.256      359.09     0          0          2.324      2.421      1.829      1.714      2.019      2.421      77.77941   0.6683509  0.6683509 
1033       0.258      357.82     0          0          2.362      2.233      1.613      1.581      2.019      2.233      77.79819   0.6695552  0.6695552 
1033.2     0.257      354.646    0          0          2.375      2.285      2.451      1.644      2.019      2.285      77.75396   0.6667213  0.6667213 
1033.4     0.262      349.566    0          0          2.35       2.544      3.276      1.905      2.006      2.544      77.70973   0.6638975  0.6638975 
1033.6     0.268      343.217    0          0          2.324      2.471      2.089      1.562      2.006      2.471      77.6655    0.6610835  0.6610835 
1033.8     0.264      334.963    0          0          2.299      2.482      3.099      2.07       2.031      2.482      77.62128   0.6582795  0.6582795 
1034       0.258      327.979    0          0          2.223      3.341      3.931      2.775      2.095      3.341      77.57705   0.6554853  0.6554853 
1034.2     0.252      327.344    0          0          2.146      4.095      3.969      3.251      2.146      4.095      77.46981   0.6487513  0.6487513 
1034.4     0.25       322.265    0          0          2.21       3.382      2.197      2.191      2.069      3.382      77.36258   0.6420755  0.6420755 
1034.6     0.246      326.074    0          0          2.324      2.606      1.727      1.543      1.993      2.606      77.25436   0.6353964  0.6353964 
1034.8     0.239      329.249    0          0          2.426      2.39       2.616      2.127      1.917      2.39       77.21013   0.6326836  0.6326836 
1035       0.239      331.788    0          0          2.489      3.041      3.791      2.343      1.879      3.041      77.1029    0.6261467  0.6261467 
1035.2     0.248      335.598    0          0          2.451      3.279      3.384      2.4        1.854      3.279      76.99567   0.6196672  0.6196672 
1035.4     0.255      339.407    0          0          2.413      2.937      2.273      1.917      1.866      2.937      76.88844   0.6132439  0.6132439 
1035.6     0.259      341.312    0          0          2.375      2.554      2.692      1.638      1.904      2.554      76.78122   0.6068774  0.6068774 
1035.8     0.255      360.995    0          0          2.375      2.285      1.575      1.282      1.942      2.285      76.73699   0.6042678  0.6042678 
1036       0.252      375.598    0          0          2.401      2.14       1.702      1.371      1.993      2.14       76.62976   0.5979801  0.5979801 
1036.2     0.253      390.201    0          0          2.362      1.986      1.428      1.105      2.006      1.986      76.45953   0.588113   0.588113  
1036.4     0.256      403.534    0          0          2.261      1.8        1.32       1.371      2.069      1.8        76.16231   0.5712184  0.5712184 
1036.6     0.258      414.328    0          0          2.146      1.655      1.276      1.403      2.108      1.655      75.92908   0.5582557  0.5582557 
1036.8     0.256      410.519    0          0          2.032      1.8        1.149      1.251      2.12       1.8        75.69585   0.5455493  0.5455493 
1037       0.256      402.9      0          0          1.931      2.347      2.654      1.352      2.146      2.347      75.39962   0.5297748  0.5297748 
