~Version
 VERS              .         2.0                           : CWLS LOG ASCII STANDARD - VERSION 2.0
 WRAP              .         NO                            : ONE LINE PER DEPTH STEP
 DLM               .         SPACE                         : DELIMITING CHARACTER(SPACE TAB OR COMMA)
~Well Information
#_______________________________________________________________________________
#
#PARAMETER_NAME    .UNIT     VALUE                         : DESCRIPTION
#_______________________________________________________________________________
STRT               .M        850                           : First reference value
STOP               .M        1307                          : Last reference value
STEP               .M        0.2                           : Step increment
NULL               .         -9999                         : Missing value
COMP               .         UPGF                          : Company
WELL               .         2904                          : Well name
FLD                .         УЗЕНЬ                         : Field
LOC                .                                       : Location
CNTY               .                                       : County
STAT               .                                       : State
CTRY               .                                       : Country
SRVC               .                                       : Service Company
DATE               .         08.06.1978г                   : Date
UWI                .                                       : Unique Well ID
Block              .         4                             : 
Category           .         Нефтяная                      : 
Condition          .         Ликвидированная               : 
EREF               .m        224                           : 100.8
Gorizont           .         15                            : 14
Interpretator      .         Кушнир И.Е.                   : 
Kupol              .         основной                      : osnovnoi
Mud                .                                       : 
Mud_density        .                                       : 
Mud_resistivity    .                                       : 
NGDU               .         НГДУ-1                        : 
ORIGINALWELLNAME   .         2904                          : 
Spud_date          .         1979                          : 1961
Viscosity          .                                       : 
X                  .m        53912.7                       : 46154
Y                  .m        82063.3                       : 85761.93
YEAR               .         2019г                         : 
~Parameter Information Block
#_______________________________________________________________________________
#
#PARAMETER_NAME    .UNIT     VALUE                         : DESCRIPTION
#_______________________________________________________________________________
SET                .         LQC_KAZNIPI_Petrel            : 
TLFamily_CALI      .         Caliper                       : 
TLFamily_CILD      .         Conductivity                  : 
TLFamily_COLL      .         Net Reservoir Flag            : 
TLFamily_CSAT      .         Fluid Code                    : 
TLFamily_DEPT      .         Measured Depth                : 
TLFamily_GZ3       .         Gradient 225                  : 
TLFamily_LLS       .         Lateral Log Resistivity       : 
TLFamily_MINV      .         Micro Gradient Resistivity    : 
TLFamily_MNOR      .         Micro Resistivity             : 
TLFamily_OGZ       .         Gradient Inverted 225         : 
TLFamily_RT        .         Formation Resistivity         : 
TLFamily_SP        .         Spontaneous Potential         : 
TLFamily_VSH_FIN   .         Shale Volume                  : 
TLFamily_VSH_SP    .         Shale Volume                  : 
~Curve Information
#_______________________________________________________________________________
#
#LOGNAME           .UNIT     LOG_ID                        : DESCRIPTION
#_______________________________________________________________________________
DEPT               .M                                      : Колонка глубины 
CALI               .м                                      : Каверномер 
CILD               .мСм/м                                  : Индукционный каротаж 
COLL               .v/v                                    :  
CSAT               .v/v                                    :  
GZ3                .ohmm                                   : Градиент-зонд  длиной 2.25м 
LLS                .Ohmm                                   : Боковой каротаж 
MINV               .Ohmm                                   : Микро-градиент зонд 
MNOR               .Ohmm                                   : Микро-потенциал зонд 
OGZ                .ohmm                                   : Обращенный градиент-зонд 
RT                 .ohmm                                   : Description 
SP                 .mV                                     : Потенциал самополяризации 
VSH_FIN            .v/v                                    : Описание 
VSH_SP             .v/v                                    : Shale Volume 
~Ascii
# ...
954        0.21       242.9      -9999      -9999      3.378      -9999      -9999      -9999      5.778      -9999      68.95085   0.2770322  0.2770322 
954.2000000000001 0.21       239.09     -9999      -9999      2.997      -9999      -9999      -9999      5.143      -9999      69.01385   0.278756   0.278756  
954.4      0.21       249.249    -9999      -9999      2.616      -9999      -9999      -9999      4.521      -9999      69.07684   0.2804927  0.2804927 
954.6      0.21       265.757    -9999      -9999      2.235      -9999      -9999      -9999      3.898      -9999      69.13985   0.2822427  0.2822427 
954.8      0.21       281.63     -9999      -9999      1.854      -9999      -9999      -9999      3.301      -9999      69.20285   0.2840057  0.2840057 
955        0.21       296.233    -9999      -9999      1.524      -9999      -9999      -9999      2.679      -9999      69.26585   0.2857817  0.2857817 
955.2000000000001 0.21       310.836    -9999      -9999      1.423      -9999      -9999      -9999      1.647      -9999      69.32884   0.2875708  0.2875708 
955.4      0.21       323.534    -9999      -9999      1.651      -9999      -9999      -9999      2.79       -9999      69.51785   0.2930183  0.2930183 
955.6      0.21       320.995    -9999      -9999      2.972      -9999      -9999      -9999      4.568      -9999      69.64485   0.2967461  0.2967461 
955.8      0.21       302.582    -9999      -9999      4.445      -9999      -9999      -9999      7.045      -9999      69.83385   0.3023953  0.3023953 
956        0.21       271.471    -9999      -9999      5.69       -9999      -9999      -9999      9.077      -9999      70.14885   0.3120846  0.3120846 
956.2000000000001 0.21       242.9      -9999      -9999      6.935      -9999      -9999      -9999      10.665     -9999      70.52785   0.3242034  0.3242034 
956.4      0.21       216.868    -9999      -9999      6.808      -9999      -9999      -9999      9.903      -9999      71.28485   0.3499605  0.3499605 
956.6      0.21       197.185    -9999      -9999      6.211      -9999      -9999      -9999      8.569      -9999      71.22185   0.3477363  0.3477363 
956.8      0.21       183.217    -9999      -9999      5.614      -9999      -9999      -9999      7.108      -9999      71.34785   0.3521992  0.3521992 
957        0.21       190.836    -9999      -9999      5.017      -9999      -9999      -9999      5.584      -9999      71.85284   0.3706884  0.3706884 
957.2000000000001 0.21       202.9      -9999      -9999      4.407      -9999      -9999      -9999      4.632      -9999      72.67285   0.4028182  0.4028182 
957.4      0.219      213.058    -9999      -9999      3.823      -9999      -9999      -9999      3.87       -9999      73.61885   0.4432562  0.4432562 
957.6      0.235      221.312    -9999      -9999      3.226      -9999      -9999      -9999      3.235      -9999      74.75385   0.4967776  0.4967776 
957.8      0.247      227.661    -9999      -9999      2.629      -9999      -9999      -9999      2.599      -9999      75.82684   0.5526544  0.5526544 
958        0.247      230.201    -9999      -9999      2.032      -9999      -9999      -9999      2.091      -9999      76.39484   0.5843999  0.5843999 
958.2000000000001 0.237      235.28     -9999      -9999      2.616      -9999      -9999      -9999      1.837      -9999      76.71085   0.6027295  0.6027295 
958.4      0.234      244.169    -9999      -9999      3.683      -9999      -9999      -9999      1.52       -9999      76.71085   0.6027295  0.6027295 
958.6      0.234      253.693    -9999      -9999      4.89       -9999      -9999      -9999      1.52       -9999      76.64785   0.5990369  0.5990369 
958.8      0.233      258.138    -9999      -9999      4.915      -9999      -9999      -9999      2.028      -9999      76.64785   0.5990369  0.5990369 
959        0.224      256.233    -9999      -9999      5.182      -9999      -9999      -9999      2.62       -9999      76.33185   0.5808034  0.5808034 
959.2000000000001 0.219      253.058    -9999      -9999      6.135      -9999      -9999      -9999      3.213      -9999      75.95384   0.5596198  0.5596198 
959.4      0.217      248.614    -9999      -9999      6.528      -9999      -9999      -9999      3.657      -9999      75.38585   0.5290514  0.5290514 
959.6      0.214      247.344    -9999      -9999      6.528      -9999      -9999      -9999      4.051      -9999      74.75485   0.4968276  0.4968276 
959.8      0.213      254.963    -9999      -9999      5.868      -9999      2.216      2.038      3.352      -9999      73.99785   0.4605079  0.4605079 
960        0.211      269.566    -9999      -9999      3.734      3.041      2.4        2.127      2.501      3.041      73.30385   0.4293799  0.4293799 
960.2000000000001 0.21       285.439    -9999      -9999      3.721      2.844      2.337      2.076      2.069      2.844      72.67285   0.4028182  0.4028182 
960.4      0.209      298.773    -9999      -9999      3.086      2.616      2.102      2.013      1.892      2.616      72.23085   0.3851704  0.3851704 
960.6      0.209      310.201    -9999      -9999      2.477      2.43       2.508      2.076      1.828      2.43       71.85284   0.3706884  0.3706884 
960.8      0.209      322.265    -9999      -9999      2.096      2.523      2.521      2.038      1.828      2.523      71.72685   0.3659845  0.3659845 
961        0.209      331.154    -9999      -9999      2.007      2.668      2.584      2.191      1.892      2.668      71.72685   0.3659845  0.3659845 
961.2000000000001 0.209      336.868    -9999      -9999      2.07       2.854      2.394      2.279      2.019      2.854      71.72685   0.3659845  0.3659845 
961.4      0.209      340.677    -9999      -9999      2.172      2.958      2.654      2.203      2.069      2.958      72.23085   0.3851704  0.3851704 
961.6      0.209      341.947    -9999      -9999      2.299      2.947      2.66       2.171      2.285      2.947      72.42085   0.3926614  0.3926614 
961.8      0.209      341.947    -9999      -9999      2.375      3.03       2.54       2.184      2.425      3.03       72.73585   0.4053971  0.4053971 
962        0.209      340.677    -9999      -9999      2.426      3.051      2.629      2.229      2.565      3.051      73.05084   0.4185337  0.4185337 
962.2000000000001 0.21       337.503    -9999      -9999      2.413      2.875      0.616      1.784      2.704      2.875      73.87185   0.4547044  0.4547044 
962.4      0.213      331.154    -9999      -9999      2.388      2.834      0.876      0.895      2.844      2.834      74.94385   0.5062905  0.5062905 
962.6      0.224      322.9      -9999      -9999      2.35       2.979      0.727      1.181      2.984      2.979      75.76385   0.5492274  0.5492274 
962.8      0.237      311.471    -9999      -9999      2.337      3.268      0.863      1.073      3.009      3.268      76.26884   0.5772254  0.5772254 
963        0.234      301.312    -9999      -9999      2.401      3.505      1.124      1.619      2.92       3.505      76.64785   0.5990369  0.5990369 
963.2000000000001 0.249      293.058    -9999      -9999      2.464      3.631      1.168      1.162      2.717      3.631      77.15185   0.6291237  0.6291237 
963.4      0.254      289.884    -9999      -9999      2.388      3.393      0.622      0.704      2.552      3.393      77.34185   0.6407917  0.6407917 
963.6      0.262      288.614    -9999      -9999      2.273      3.01       0.565      0.838      2.209      3.01       77.59385   0.6565455  0.6565455 
963.8      0.269      284.804    -9999      -9999      2.223      2.658      0.654      0.838      1.981      2.658      77.78284   0.668571   0.668571  
964        0.273      284.804    -9999      -9999      2.197      2.761      0.647      0.908      1.917      2.761      77.84585   0.6726202  0.6726202 
964.2000000000001 0.274      284.804    -9999      -9999      2.172      3.02       0.959      1.066      2.057      3.02       77.78284   0.668571   0.668571  
