~Version
 VERS              .         2.0                           : CWLS LOG ASCII STANDARD - VERSION 2.0
 WRAP              .         NO                            : ONE LINE PER DEPTH STEP
 DLM               .         SPACE                         : DELIMITING CHARACTER(SPACE TAB OR COMMA)
~Well Information
#_______________________________________________________________________________
#
#PARAMETER_NAME    .UNIT     VALUE                         : DESCRIPTION
#_______________________________________________________________________________
STRT               .м        970                           : First reference value
STOP               .м        1365.2                        : Last reference value
STEP               .м        0.2                           : Step increment
NULL               .         -9999                         : Missing value
COMP               .         AO"RD"KMG"                    : Company
WELL               .         3274                          : Well name
FLD                .         UZEN                          : Field
LOC                .                                       : Location
CNTY               .                                       : County
STAT               .                                       : State
CTRY               .         KAZAKHSTAN                    : Country
SRVC               .         AO"UPGF"                      : Service Company
DATE               .         31.12.1979                    : Date
UWI                .                                       : Unique Well ID
Block              .         4                             : 
Cartographic_reference_system .         GCS_WGS_1984                  : ESRI,PE_10_3_1- <?xml version="1.0" encoding="utf-16"?><ILateBoundCoordinateReferenceSystem name="GCS_WGS_1984"><AuthorityCode>EPSG,4326</AuthorityCode></ILateBoundCoordinateReferenceSystem>
Category           .         Нефтяная                      : 
Condition          .         В работе                      : 
Date               .         17.01.1980                    : 
EREF               .m        232                           : 100.8
Gorizont           .         17                            : 14
HZCS               .GCS_WGS_1984 WGS_1984_EASE-Grid_2.0_Global : ESRI,PE_10_3_1- <?xml version="1.0" encoding="utf-16"?><ILateBoundCoordinateReferenceSystem name="WGS_1984_EASE-Grid_2.0_Global"><AuthorityCode>EPSG,6933</AuthorityCode></ILateBoundCoordinateReferenceSystem>
Interpretator      .         0                             : 
Kupol              .         osnovnoi                      : osnovnoi
LATI               .dega     0.6391521823                  : GCS_WGS_1984
LONG               .dega     0.564246024                   : GCS_WGS_1984
Mud                .         0                             : 
Mud_density        .         0                             : 
Mud_resistivity    .         0                             : 
NGDU               .         НГДУ-1                        : 
ORIGINALWELLNAME   .         3274                          : 
Spud_date          .         1980                          : 1961
Viscosity          .         0                             : 
X                  .m        54442                         : 46154
Y                  .m        81537.1                       : 85761.93
YEAR               .         0                             : 
для_загрузки       .         17                            : 
~Parameter Information Block
#_______________________________________________________________________________
#
#PARAMETER_NAME    .UNIT     VALUE                         : DESCRIPTION
#_______________________________________________________________________________
SET                .         LQC_KAZNIPI_Petrel            : 
TLFamily_CALI      .         Caliper                       : 
TLFamily_COLL      .         Net Reservoir Flag            : 
TLFamily_CSAT      .         Fluid Code                    : 
TLFamily_DEPT      .         Measured Depth                : 
TLFamily_GR        .         Russian Gamma Ray             : 
TLFamily_LLS       .         Lateral Log Resistivity       : 
TLFamily_MINV      .         Micro Gradient Resistivity    : 
TLFamily_MNOR      .         Micro Resistivity             : 
TLFamily_NGLD      .         Neutron Gamma                 : 
TLFamily_PHIE      .         Effective Porosity            : 
TLFamily_PHIEN     .         Effective Porosity            : 
TLFamily_PHIT      .         Porosity                      : 
TLFamily_PRMB      .         Permeability                  : 
TLFamily_PRMB_DGR  .         Permeability                  : 
TLFamily_RT        .         Formation Resistivity         : 
TLFamily_SOIL_ARCHIE .         Oil Saturation                : 
TLFamily_SOIL_DW   .         Oil Saturation                : 
TLFamily_SP        .         Spontaneous Potential         : 
TLFamily_VSH_FIN   .         Shale Volume                  : 
TLFamily_VSH_GR    .         Shale Volume                  : 
TLFamily_VSH_SP    .         Shale Volume                  : 
~Curve Information
#_______________________________________________________________________________
#
#LOGNAME           .UNIT     LOG_ID                        : DESCRIPTION
#_______________________________________________________________________________
DEPT               .м                                      : Колонка глубины 
CALI               .м                                      : Каверномер 
COLL               .unitless                               : Описание 
CSAT               .unitless                               : Описание 
GR                 .uR/h                                   : Гамма каротаж 
LLS                .Ohmm                                   : Боковой каротаж 
MINV               .Ohmm                                   : Микро-градиент зонд 
MNOR               .Ohmm                                   : Микро-потенциал зонд 
NGLD               .у.е.                                   : Показания зонда НГК-60 аппаратуры ДРСТ-3-90 
PHIE               .v/v                                    : Описание 
PHIEN              .v/v                                    :  
PHIT               .v/v                                    : Описание 
PRMB               .mD                                     :  
PRMB_DGR           .mD                                     :  
RT                 .Ohmm                                   : УЭС пласта 
SOIL_ARCHIE        .v/v                                    :  
SOIL_DW            .v/v                                    :  
SP                 .мВ                                     : Потенциал самополяризации 
VSH_FIN            .v/v                                    : Описание 
VSH_GR             .v/v                                    : Shale volume 
VSH_SP             .v/v                                    : Shale Volume 
~Ascii
# ...
1019       0.259      -9999      -9999      8.361      1.65       0.822      0.794      1.054      0.2154783  0.2154783  0.4022596  27.4371    2.298982   2.257      0.182997   0.8004239  67.723     0.5660041  0.4618352  0.6701729 
1019.2     0.258      -9999      -9999      8.24       1.784      1.202      0.686      1.067      0.2193757  0.2193757  0.4000296  32.39871   2.859032   2.303      0.204314   0.8035173  67.789     0.5474362  0.4224981  0.6723742 
1019.4     0.256      -9999      -9999      8.133      1.95       1.372      0.819      1.064      0.2218294  0.2218294  0.3968427  35.97306   3.466941   2.323      0.27126    0.8045691  67.723     0.5303432  0.3905134  0.6701729 
1019.6     0.254      -9999      -9999      8.228      2.135      1.557      1.204      1.063      0.2123024  0.2123024  0.3919804  23.96151   2.921521   2.309      0.257471   0.7985622  67.723     0.5444786  0.4187843  0.6701729 
1019.8     0.244      -9999      -9999      8.354      2.313      1.873      1.216      1.089      0.1996339  0.1996339  0.3860238  13.95928   2.328162   2.273      0.263126   0.789297   67.723     0.5648179  0.4594629  0.6701729 
1020       0.231      -9999      -9999      8.474      2.281      1.671      1.494      1.121      0.1880708  0.1880708  0.3814582  8.524817   1.875481   2.238      0.283604   0.7802308  67.723     0.5860226  0.5018722  0.6701729 
1020.2     0.228      -9999      -9999      8.329      2.096      1.044      1.362      1.117      0.1963046  0.1963046  0.3809452  12.11145   2.435429   2.207      0.237218   0.7829539  67.656     0.5595168  0.4510893  0.6679444 
1020.4     0.24       -9999      -9999      8.373      1.956      0.758      0.996      1.096      0.1978398  0.1978398  0.3849292  12.93096   2.249808   2.195      0.195325   0.7843486  67.656     0.5669376  0.4659308  0.6679444 
1020.6     0.251      -9999      -9999      8.436      1.854      0.803      0.737      1.077      0.2005665  0.2005665  0.3913032  14.52568   2.00839    2.189      0.189078   0.7872971  67.656     0.5779898  0.4880353  0.6679444 
1020.8     0.262      -9999      -9999      8.569      1.784      0.942      0.781      1.053      0.1985396  0.1985396  0.3971876  13.32275   1.580427   2.183      0.18917    0.7876695  67.589     0.6019636  0.5382052  0.665722  
1021       0.259      -9999      -9999      8.771      1.746      0.98       0.964      1.06       0.1872341  0.1872341  0.4008454  8.225974   1.098269   2.174      0.189137   0.7823582  67.723     0.6473069  0.6244409  0.6701729 
1021.2     0.255      -9999      -9999      8.613      1.74       0.904      0.977      1.049      0.1997546  0.1997546  0.402422   14.03132   1.459973   2.162      0.215134   0.7887228  67.789     0.6141436  0.5559129  0.6723742 
1021.4     0.253      -9999      -9999      8.828      1.74       1.044      0.882      1.072      0.1841774  0.1841774  0.4033051  7.220565   0.9910736  2.147      0.226952   0.7800183  67.923     0.6640232  0.6511847  0.6768617 
1021.6     0.252      -9999      -9999      9.119      1.759      1.063      1.027      1.059      0.1609138  0.1609138  0.4045959  2.677142   0.5866739  2.142      0.193225   0.76588    67.923     0.7384309  0.8        0.6768617 
1021.8     0.252      -9999      -9999      8.929      1.784      0.898      1.04       1.043      0.1780791  0.1780791  0.4058667  5.566914   0.8261767  2.142      0.193141   0.7770259  67.99      0.6902657  0.7014165  0.6791148 
1022       0.256      -9999      -9999      8.98       1.816      1.374      0.882      1.045      0.1726631  0.1726631  0.4056225  4.418738   0.7536428  2.133      0.137717   0.7732454  68.124     0.7059373  0.7282349  0.6836396 
1022.2     0.258      -9999      -9999      9.119      1.835      1.056      1.163      1.047      0.1567858  0.1567858  0.4030861  2.244973   0.5866739  2.119      0.152673   0.7612866  68.391     0.7463647  0.8        0.6927293 
1022.4     0.258      -9999      -9999      9.081      1.854      1.044      1.021      1.071      0.1546883  0.1546883  0.3991753  2.052867   0.6282494  2.091      0.170626   0.7569218  68.525     0.7408696  0.7844108  0.6973286 
1022.6     0.255      -9999      -9999      9.207      1.822      1.196      1.21       1.086      0.1482     0.1482     0.3956402  1.556617   0.500653   2.059      0.196906   0.7489478  68.592     0.7498188  0.8        0.6996375 
1022.8     0.255      -9999      -9999      9.479      1.765      1.025      0.869      1.071      0.145943   0.145943   0.3933832  1.413763   0.3066871  2.025      0.165998   0.7442648  68.592     0.7498188  0.8        0.6996375 
1023       0.255      -9999      -9999      9.745      1.714      0.885      0.762      1.076      0.1446944  0.1446944  0.3921346  1.340445   0.1899107  2.017      0.21831    0.7423007  68.592     0.7498188  0.8        0.6996375 
1023.2     0.258      -9999      -9999      9.58       1.701      0.885      0.819      1.086      0.1440745  0.1440745  0.3915147  1.305469   0.2556597  2.035      0.168441   0.7427158  68.592     0.7498188  0.8        0.6996375 
1023.4     0.26       -9999      -9999      9.441      1.695      0.926      0.945      1.077      0.1442776  0.1442776  0.3917178  1.316827   0.3284207  2.069      0.162729   0.7450753  68.592     0.7498188  0.8        0.6996375 
1023.6     0.259      -9999      -9999      9.182      1.701      0.967      0.984      1.084      0.1461644  0.1461644  0.3932236  1.427176   0.52372    2.088      0.160374   0.7482732  68.525     0.7486643  0.8        0.6973286 
1023.8     0.258      -9999      -9999      9.201      1.714      1.24       1.021      1.078      0.1489895  0.1489895  0.3960487  1.609922   0.5060945  2.097      0.145959   0.7519795  68.525     0.7486643  0.8        0.6973286 
1024       0.258      -9999      -9999      9.492      1.733      1.424      1.008      1.06       0.152322   0.152322   0.3990012  1.855797   0.299587   2.097      0.127715   0.755478   68.458     0.7475129  0.8        0.6950258 
1024.2     0.256      -9999      -9999      9.637      1.752      1.354      1.103      1.042      0.1534067  0.1534067  0.4000859  1.943667   0.2307064  2.099      0.191445   0.7567496  68.458     0.7475129  0.8        0.6950258 
1024.4     0.252      -9999      -9999      9.561      1.771      1.405      1.04       1.058      0.1516367  0.1516367  0.398316   1.802348   0.2645637  2.099      0.229973   0.7548586  68.458     0.7475129  0.8        0.6950258 
1024.6     0.251      -9999      -9999      9.46       1.791      1.36       1.015      1.089      0.147323   0.147323   0.3947632  1.49947    0.3173679  2.113      0.222152   0.7512003  68.592     0.7498188  0.8        0.6996375 
1024.8     0.252      -9999      -9999      9.391      1.778      1.113      0.857      1.079      0.1429377  0.1429377  0.3911372  1.243686   0.3593818  2.122      0.169807   0.7469934  68.725     0.7521197  0.8        0.7042394 
1025       0.255      -9999      -9999      9.397      1.765      1.063      0.863      1.082      0.1388874  0.1388874  0.3878561  1.046379   0.3555172  2.127      0.154681   0.7427614  68.859     0.7544506  0.8        0.7089012 
1025.2     0.258      -9999      -9999      9.606      1.752      1.113      1.065      1.09       0.1356808  0.1356808  0.3842644  0.9126334  0.2439592  2.127      0.129191   0.7386766  68.792     0.7532836  0.8        0.7065672 
1025.4     0.259      -9999      -9999      9.435      1.746      1.405      1.097      1.095      0.130954   0.130954   0.3799227  0.746008   0.33199    2.11       0.144788   0.7316808  68.859     0.7544506  0.8        0.7089012 
1025.6     0.258      -9999      -9999      9.258      1.778      1.55       1.122      1.114      0.1255418  0.1255418  0.3752837  0.5922377  0.4566973  2.086      0.197109   0.7230424  68.993     0.7567939  0.8        0.7135879 
1025.8     0.256      -9999      -9999      8.986      1.803      1.443      0.939      1.116      0.1330934  0.1330934  0.3715258  0.8172803  0.7455385  2.076      0.224954   0.7282265  68.993     0.7225224  0.731457   0.7135879 
