~Version
 VERS              .         2.0                           : CWLS LOG ASCII STANDARD - VERSION 2.0
 WRAP              .         NO                            : ONE LINE PER DEPTH STEP
 DLM               .         SPACE                         : DELIMITING CHARACTER(SPACE TAB OR COMMA)
~Well Information
#_______________________________________________________________________________
#
#PARAMETER_NAME    .UNIT     VALUE                         : DESCRIPTION
#_______________________________________________________________________________
STRT               .м        970                           : First reference value
STOP               .м        1365.2                        : Last reference value
STEP               .м        0.2                           : Step increment
NULL               .         -9999                         : Missing value
COMP               .         AO"RD"KMG"                    : Company
WELL               .         3274                          : Well name
FLD                .         UZEN                          : Field
LOC                .                                       : Location
CNTY               .                                       : County
STAT               .                                       : State
CTRY               .         KAZAKHSTAN                    : Country
SRVC               .         AO"UPGF"                      : Service Company
DATE               .         31.12.1979                    : Date
UWI                .                                       : Unique Well ID
Block              .         4                             : 
Cartographic_reference_system .         GCS_WGS_1984                  : ESRI,PE_10_3_1- <?xml version="1.0" encoding="utf-16"?><ILateBoundCoordinateReferenceSystem name="GCS_WGS_1984"><AuthorityCode>EPSG,4326</AuthorityCode></ILateBoundCoordinateReferenceSystem>
Category           .         Нефтяная                      : 
Condition          .         В работе                      : 
Date               .         17.01.1980                    : 
EREF               .m        232                           : 100.8
Gorizont           .         17                            : 14
HZCS               .GCS_WGS_1984 WGS_1984_EASE-Grid_2.0_Global : ESRI,PE_10_3_1- <?xml version="1.0" encoding="utf-16"?><ILateBoundCoordinateReferenceSystem name="WGS_1984_EASE-Grid_2.0_Global"><AuthorityCode>EPSG,6933</AuthorityCode></ILateBoundCoordinateReferenceSystem>
Interpretator      .         0                             : 
Kupol              .         osnovnoi                      : osnovnoi
LATI               .dega     0.6391521823                  : GCS_WGS_1984
LONG               .dega     0.564246024                   : GCS_WGS_1984
Mud                .         0                             : 
Mud_density        .         0                             : 
Mud_resistivity    .         0                             : 
NGDU               .         НГДУ-1                        : 
ORIGINALWELLNAME   .         3274                          : 
Spud_date          .         1980                          : 1961
Viscosity          .         0                             : 
X                  .m        54442                         : 46154
Y                  .m        81537.1                       : 85761.93
YEAR               .         0                             : 
для_загрузки       .         17                            : 
~Parameter Information Block
#_______________________________________________________________________________
#
#PARAMETER_NAME    .UNIT     VALUE                         : DESCRIPTION
#_______________________________________________________________________________
SET                .         LQC_KAZNIPI_Petrel            : 
TLFamily_CALI      .         Caliper                       : 
TLFamily_COLL      .         Net Reservoir Flag            : 
TLFamily_CSAT      .         Fluid Code                    : 
TLFamily_DEPT      .         Measured Depth                : 
TLFamily_GR        .         Russian Gamma Ray             : 
TLFamily_LLS       .         Lateral Log Resistivity       : 
TLFamily_MINV      .         Micro Gradient Resistivity    : 
TLFamily_MNOR      .         Micro Resistivity             : 
TLFamily_NGLD      .         Neutron Gamma                 : 
TLFamily_PHIE      .         Effective Porosity            : 
TLFamily_PHIEN     .         Effective Porosity            : 
TLFamily_PHIT      .         Porosity                      : 
TLFamily_PRMB      .         Permeability                  : 
TLFamily_PRMB_DGR  .         Permeability                  : 
TLFamily_RT        .         Formation Resistivity         : 
TLFamily_SOIL_ARCHIE .         Oil Saturation                : 
TLFamily_SOIL_DW   .         Oil Saturation                : 
TLFamily_SP        .         Spontaneous Potential         : 
TLFamily_VSH_FIN   .         Shale Volume                  : 
TLFamily_VSH_GR    .         Shale Volume                  : 
TLFamily_VSH_SP    .         Shale Volume                  : 
~Curve Information
#_______________________________________________________________________________
#
#LOGNAME           .UNIT     LOG_ID                        : DESCRIPTION
#_______________________________________________________________________________
DEPT               .м                                      : Колонка глубины 
CALI               .м                                      : Каверномер 
COLL               .unitless                               : Описание 
CSAT               .unitless                               : Описание 
GR                 .uR/h                                   : Гамма каротаж 
LLS                .Ohmm                                   : Боковой каротаж 
MINV               .Ohmm                                   : Микро-градиент зонд 
MNOR               .Ohmm                                   : Микро-потенциал зонд 
NGLD               .у.е.                                   : Показания зонда НГК-60 аппаратуры ДРСТ-3-90 
PHIE               .v/v                                    : Описание 
PHIEN              .v/v                                    :  
PHIT               .v/v                                    : Описание 
PRMB               .mD                                     :  
PRMB_DGR           .mD                                     :  
RT                 .Ohmm                                   : УЭС пласта 
SOIL_ARCHIE        .v/v                                    :  
SOIL_DW            .v/v                                    :  
SP                 .мВ                                     : Потенциал самополяризации 
VSH_FIN            .v/v                                    : Описание 
VSH_GR             .v/v                                    : Shale volume 
VSH_SP             .v/v                                    : Shale Volume 
~Ascii
# ...
1271       0.218      -9999      -9999      10.067     1.784      1.785      1.469      1.328      0.1957831  0.1957831  0.303883   11.84502   6.634418   2.403      0.403905   0.5421949  33.494     0.3275755  0.2996019  0.355549  
1271.2     0.218      8          2          10.105     1.905      1.816      1.753      1.327      0.2008599  0.2008599  0.2984612  14.7086    6.251605   2.461      0.4235369  0.5476073  29.215     0.2957613  0.3069617  0.2845609 
1271.4     0.218      8          2          10.364     2.116      2.14       2.087      1.346      0.1982186  0.1982186  0.2943678  13.14156   4.169291   2.554      0.4269149  0.5498517  24.067     0.2913613  0.362178   0.2205446 
1271.6     0.218      8          2          10.459     2.274      2.33       2.516      1.362      0.1978166  0.1978166  0.2927093  12.9182    3.593625   2.655      0.4362549  0.5566601  20.791     0.2875536  0.3848323  0.1902749 
1271.8     0.218      8          2          10.339     2.421      2.187      2.403      1.335      0.2034368  0.2034368  0.2926029  16.41728   4.33555    2.71       0.4551117  0.5661622  19.989     0.2702001  0.3564411  0.1839592 
1272       0.218      8          2          10.111     2.778      1.892      2.377      1.314      0.2102645  0.2102645  0.291461   21.96684   6.193208   2.887      0.4860429  0.5844765  19.989     0.2460498  0.3081404  0.1839592 
1272.2     0.218      8          2          10.2       3.033      2.01       2.22       1.346      0.2031828  0.2031828  0.2876936  16.24037   5.388422   2.965      0.4770588  0.5809044  20.257     0.2560934  0.3261625  0.1860244 
1272.4     0.218      8          2          10.459     3.014      2.501      2.188      1.377      0.1873584  0.1873584  0.2823412  8.269701   3.593625   3.03       0.4444759  0.5665021  20.858     0.2878267  0.3848323  0.1908211 
1272.6     0.218      8          2          10.44      2.95       2.703      2.207      1.368      0.1820386  0.1820386  0.2773735  6.59106    3.70202    3.113      0.4375413  0.562672   21.661     0.2888934  0.3801908  0.197596  
1272.8     0.218      8          2          10.231     2.861      2.469      2.264      1.37       0.1844732  0.1844732  0.2735688  7.312216   5.13339    3.132      0.4455972  0.5628551  22.73      0.2699866  0.3326843  0.2072889 
1273       0.218      8          2          10.042     2.802      2.159      2.011      1.392      0.1844908  0.1844908  0.2708284  7.317702   6.898981   3.156      0.4476255  0.5619619  24.803     0.2616292  0.2948563  0.2284022 
1273.2     0.218      8          2          9.732      2.734      2.013      1.715      1.384      0.1868791  0.1868791  0.2689205  8.102381   11.20355   3.207      0.4578726  0.5659834  27.076     0.2486102  0.2418952  0.2553251 
1273.4     0.218      8          2          9.417      2.625      1.753      1.425      1.383      0.1903724  0.1903724  0.2672499  9.404075   18.33679   3.197      0.4657646  0.5670777  28.047     0.2329621  0.197814   0.2681102 
1273.6     0.218      8          2          9.252      2.491      1.601      1.355      1.382      0.1897697  0.1897697  0.2650984  9.165428   23.73567   3.181      0.4630244  0.563365   28.795     0.2282687  0.1780294  0.278508  
1273.8     0.217      8          2          9.599      2.332      1.81       1.33       1.402      0.1772367  0.1772367  0.2624961  5.370461   13.79424   3.122      0.4250714  0.5439315  29.884     0.258362   0.2221967  0.2945272 
1274       0.217      8          2          9.568      2.166      1.802      1.349      1.407      0.1734283  0.1734283  0.260029   4.565314   14.47955   3.088      0.4110724  0.5347203  30.686     0.2624264  0.2178408  0.307012  
1274.2     0.217      8          2          9.492      2.109      1.791      1.463      1.398      0.1709278  0.1709278  0.2576168  4.103515   16.30718   2.968      0.392379   0.5199336  31.354     0.2626939  0.2075198  0.317868  
1274.4     0.217      8          2          9.555      2.065      1.74       1.317      1.401      0.1637553  0.1637553  0.2542854  3.022059   14.77695   2.908      0.3631901  0.5025775  32.223     0.2743336  0.2160397  0.3326275 
1274.6     0.217      8          2          9.416      2.02       2.849      1.57       1.416      0.1584203  0.1584203  0.249293   2.407053   18.36548   2.856      0.3389789  0.4852196  33.36      0.275372   0.1976878  0.3530563 
1274.8     0.217      8          2          9.359      2.02       3.818      2.92       1.431      0.1496513  0.1496513  0.2429409  1.656008   20.07799   2.771      0.29545    0.4568571  34.496     0.2826959  0.1906207  0.374771  
1275       0.217      -9999      -9999      9.302      2.052      3.926      3.904      1.445      0.1392198  0.1392198  0.2361209  1.061319   21.95018   2.741      0.2458455  0.4280542  35.9       0.2936397  0.1838062  0.4034732 
1275.2     0.217      -9999      -9999      9.327      2.179      3.923      3.942      1.461      0.1269657  0.1269657  0.2294433  0.6293191  21.10848   2.701      0.1771759  0.3917725  37.304     0.3105381  0.1867644  0.4343117 
1275.4     0.217      -9999      -9999      9.568      2.581      3.92       3.955      1.459      0.110334   0.110334   0.2228565  0.309607   14.47955   2.66       0.06344666 0.3406886  38.574     0.3409775  0.2178408  0.4641141 
1275.6     0.215      -9999      -9999      9.789      3.416      3.875      2.321      1.483      0.09520166 0.09520166 0.2161635  0.1623767  10.24798   2.662      0          0.2892657  39.31      0.366551   0.2508631  0.4822389 
1275.8     0.215      -9999      -9999      9.637      4.652      2.722      1.614      1.489      0.09233235 0.09233235 0.2097423  0.1436736  12.99827   2.665      0          0.267795   39.377     0.3557878  0.2276552  0.4839205 
1276       0.215      -9999      -9999      9.852      5.002      1.734      1.204      1.517      0.08793302 0.08793302 0.204463   0.1190943  9.286333   2.733      0          0.2517225  37.772     0.3531212  0.2611626  0.4450798 
1276.2     0.215      -9999      -9999      9.959      2.95       1.607      1.349      1.506      0.08622135 0.08622135 0.2008306  0.11071    7.855317   2.887      0          0.2583013  36.435     0.3473007  0.2796333  0.414968  
1276.4     0.215      -9999      -9999      9.991      3.09       1.69       2.232      1.513      0.08896155 0.08896155 0.1983281  0.1244348  7.471828   3.162      0          0.2941617  34.63      0.3314138  0.2854071  0.3774204 
1276.6     0.215      6          6          10.168     3.821      1.828      2.794      1.517      0.09214526 0.09214526 0.1955304  0.1425318  5.664971   3.631      0.05320887 0.3444135  30.686     0.3132882  0.3195644  0.307012  
1276.8     0.215      6          6          10.263     4.174      1.943      3.501      1.508      0.09203747 0.09203747 0.1907595  0.1418781  4.882792   3.614      0.05015377 0.3325337  27.343     0.2991575  0.3395533  0.2587618 
1277       0.215      6          6          10.522     5.607      2.19       3.753      1.527      0.08300252 0.08300252 0.1834141  0.09650859 3.256408   3.31       0          0.2565366  22.797     0.3042774  0.4006321  0.2079227 
1277.2     0.215      6          6          10.37      6.85       2.444      2.882      1.56       0.08492253 0.08492253 0.1760405  0.104744   4.13035    3.233      0          0.2352483  20.591     0.276115   0.3635684  0.1886616 
1277.4     0.215      6          6          10.149     8.188001   2.475      2.466      1.602      0.09382495 0.09382495 0.1742354  0.1531171  5.835844   3.602      0.06447486 0.2988672  18.251     0.243668   0.3157101  0.171626  
1277.6     0.215      6          6          10.49      7.614999   2.121      2.384      1.6        0.09115618 0.09115618 0.182554   0.1366444  3.423543   4.397      0.1263726  0.3760637  16.58      0.276963   0.3925273  0.1613987 
1277.8     0.215      8          2          10.459     6.085      1.93       2.346      1.498      0.1097077  0.1097077  0.1992882  0.3014475  3.593625   4.816      0.2876275  0.4744937  15.978     0.2714558  0.3848323  0.1580793 
