~Version
 VERS              .         2.0                           : CWLS LOG ASCII STANDARD - VERSION 2.0
 WRAP              .         NO                            : ONE LINE PER DEPTH STEP
 DLM               .         SPACE                         : DELIMITING CHARACTER(SPACE TAB OR COMMA)
~Well Information
#_______________________________________________________________________________
#
#PARAMETER_NAME    .UNIT     VALUE                         : DESCRIPTION
#_______________________________________________________________________________
STRT               .м        970                           : First reference value
STOP               .м        1365.2                        : Last reference value
STEP               .м        0.2                           : Step increment
NULL               .         -9999                         : Missing value
COMP               .         AO"RD"KMG"                    : Company
WELL               .         3274                          : Well name
FLD                .         UZEN                          : Field
LOC                .                                       : Location
CNTY               .                                       : County
STAT               .                                       : State
CTRY               .         KAZAKHSTAN                    : Country
SRVC               .         AO"UPGF"                      : Service Company
DATE               .         31.12.1979                    : Date
UWI                .                                       : Unique Well ID
Block              .         4                             : 
Cartographic_reference_system .         GCS_WGS_1984                  : ESRI,PE_10_3_1- <?xml version="1.0" encoding="utf-16"?><ILateBoundCoordinateReferenceSystem name="GCS_WGS_1984"><AuthorityCode>EPSG,4326</AuthorityCode></ILateBoundCoordinateReferenceSystem>
Category           .         Нефтяная                      : 
Condition          .         В работе                      : 
Date               .         17.01.1980                    : 
EREF               .m        232                           : 100.8
Gorizont           .         17                            : 14
HZCS               .GCS_WGS_1984 WGS_1984_EASE-Grid_2.0_Global : ESRI,PE_10_3_1- <?xml version="1.0" encoding="utf-16"?><ILateBoundCoordinateReferenceSystem name="WGS_1984_EASE-Grid_2.0_Global"><AuthorityCode>EPSG,6933</AuthorityCode></ILateBoundCoordinateReferenceSystem>
Interpretator      .         0                             : 
Kupol              .         osnovnoi                      : osnovnoi
LATI               .dega     0.6391521823                  : GCS_WGS_1984
LONG               .dega     0.564246024                   : GCS_WGS_1984
Mud                .         0                             : 
Mud_density        .         0                             : 
Mud_resistivity    .         0                             : 
NGDU               .         НГДУ-1                        : 
ORIGINALWELLNAME   .         3274                          : 
Spud_date          .         1980                          : 1961
Viscosity          .         0                             : 
X                  .m        54442                         : 46154
Y                  .m        81537.1                       : 85761.93
YEAR               .         0                             : 
для_загрузки       .         17                            : 
~Parameter Information Block
#_______________________________________________________________________________
#
#PARAMETER_NAME    .UNIT     VALUE                         : DESCRIPTION
#_______________________________________________________________________________
SET                .         LQC_KAZNIPI_Petrel            : 
TLFamily_CALI      .         Caliper                       : 
TLFamily_COLL      .         Net Reservoir Flag            : 
TLFamily_CSAT      .         Fluid Code                    : 
TLFamily_DEPT      .         Measured Depth                : 
TLFamily_GR        .         Russian Gamma Ray             : 
TLFamily_LLS       .         Lateral Log Resistivity       : 
TLFamily_MINV      .         Micro Gradient Resistivity    : 
TLFamily_MNOR      .         Micro Resistivity             : 
TLFamily_NGLD      .         Neutron Gamma                 : 
TLFamily_PHIE      .         Effective Porosity            : 
TLFamily_PHIEN     .         Effective Porosity            : 
TLFamily_PHIT      .         Porosity                      : 
TLFamily_PRMB      .         Permeability                  : 
TLFamily_PRMB_DGR  .         Permeability                  : 
TLFamily_RT        .         Formation Resistivity         : 
TLFamily_SOIL_ARCHIE .         Oil Saturation                : 
TLFamily_SOIL_DW   .         Oil Saturation                : 
TLFamily_SP        .         Spontaneous Potential         : 
TLFamily_VSH_FIN   .         Shale Volume                  : 
TLFamily_VSH_GR    .         Shale Volume                  : 
TLFamily_VSH_SP    .         Shale Volume                  : 
~Curve Information
#_______________________________________________________________________________
#
#LOGNAME           .UNIT     LOG_ID                        : DESCRIPTION
#_______________________________________________________________________________
DEPT               .м                                      : Колонка глубины 
CALI               .м                                      : Каверномер 
COLL               .unitless                               : Описание 
CSAT               .unitless                               : Описание 
GR                 .uR/h                                   : Гамма каротаж 
LLS                .Ohmm                                   : Боковой каротаж 
MINV               .Ohmm                                   : Микро-градиент зонд 
MNOR               .Ohmm                                   : Микро-потенциал зонд 
NGLD               .у.е.                                   : Показания зонда НГК-60 аппаратуры ДРСТ-3-90 
PHIE               .v/v                                    : Описание 
PHIEN              .v/v                                    :  
PHIT               .v/v                                    : Описание 
PRMB               .mD                                     :  
PRMB_DGR           .mD                                     :  
RT                 .Ohmm                                   : УЭС пласта 
SOIL_ARCHIE        .v/v                                    :  
SOIL_DW            .v/v                                    :  
SP                 .мВ                                     : Потенциал самополяризации 
VSH_FIN            .v/v                                    : Описание 
VSH_GR             .v/v                                    : Shale volume 
VSH_SP             .v/v                                    : Shale Volume 
~Ascii
# ...
998        0.216      1          3          4.265      1.778      1.55       1.677      1.492      0.1411046  0.1411046  0.1659945  1.150159   3201.42    2.18       0.298746   0.6052484  28.413     0.07542384 0.02403067 0.126817  
998.2000000000001 0.216      1          3          4.303      1.771      1.519      1.633      1.493      0.1409934  0.1409934  0.1659957  1.144719   2989.561   2.177      0.283131   0.6048279  28.413     0.07576451 0.02471199 0.126817  
998.4      0.216      1          3          4.19       1.771      1.411      1.791      1.484      0.1424462  0.1424462  0.1671233  1.21789    3664.632   2.165      0.246456   0.6070678  28.413     0.0747788  0.02274059 0.126817  
998.6      0.215      1          3          4.107      1.752      1.563      1.374      1.496      0.1452051  0.1452051  0.1696598  1.36996    4255.771   2.145      0.153099   0.6119134  28.413     0.07410524 0.02139347 0.126817  
998.8      0.215      1          3          4.253      1.727      1.626      1.494      1.479      0.1488921  0.1488921  0.1737471  1.603248   3271.394   2.116      0.065123   0.6186883  28.413     0.07531823 0.02381944 0.126817  
999        0.215      1          3          4.253      1.727      1.31       1.551      1.455      0.1540764  0.1540764  0.1789314  1.999984   3271.394   2.091      0.018028   0.628395   28.413     0.07531823 0.02381944 0.126817  
999.2000000000001 0.215      1          3          4.171      1.72       1.519      1.286      1.466      0.1602012  0.1602012  0.1848261  2.597003   3792.259   2.069      0.17087    0.6394831  28.413     0.07462096 0.02242492 0.126817  
999.4      0.215      1          3          4.082      1.714      1.341      1.538      1.442      0.1671277  0.1671277  0.1915181  3.489538   4451.854   2.056      0.219495   0.6521184  28.413     0.0739103  0.02100357 0.126817  
999.6      0.215      1          3          4.278      1.714      1.329      1.608      1.438      0.1740496  0.1740496  0.1989775  4.687901   3127.304   2.043      0.182997   0.6644807  28.413     0.07553931 0.02426161 0.126817  
999.8      0.215      1          3          4.164      1.701      1.303      1.406      1.4        0.1819167  0.1819167  0.2065226  6.55688    3840.39    2.03       0.204314   0.6767973  28.413     0.07456337 0.02230972 0.126817  
1000       0.215      1          3          4.202      1.682      1.202      1.425      1.407      0.1885786  0.1885786  0.2132889  8.711473   3586.248   2.027      0.27126    0.687382   28.413     0.07487963 0.02294225 0.126817  
1000.2     0.217      1          3          4.246      1.663      1.259      1.406      1.391      0.193818   0.193818   0.2186968  10.89277   3312.915   2.027      0.257471   0.6954603  28.546     0.07539005 0.02369709 0.127083  
1000.4     0.217      1          3          4.152      1.644      1.278      1.343      1.377      0.1974238  0.1974238  0.2220412  12.70357   3924.33    2.027      0.263126   0.7005185  28.546     0.07459832 0.02211362 0.127083  
1000.6     0.22       1          3          4.12       1.631      1.329      1.305      1.371      0.1979499  0.1979499  0.2225049  12.99185   4157.248   2.025      0.283604   0.7010781  28.613     0.07440887 0.02159907 0.1272187 
1000.8     0.22       1          3          4.329      1.612      1.525      1.374      1.386      0.1952069  0.1952069  0.2203768  11.5575    2852.74    2.012      0.237218   0.6965825  28.68      0.07627236 0.02518926 0.1273555 
1001       0.221      1          3          4.303      1.593      1.291      1.576      1.409      0.192339   0.192339   0.2174302  10.2269    2989.561   1.999      0.195325   0.6912727  28.68      0.07603373 0.02471199 0.1273555 
1001.2     0.221      1          3          4.19       1.58       1.341      1.481      1.407      0.1908869  0.1908869  0.2157216  9.612714   3664.632   1.992      0.189078   0.6883278  28.881     0.07525663 0.02274059 0.1277727 
1001.4     0.222      1          3          4.36       1.574      1.17       1.469      1.394      0.1907586  0.1907586  0.2161397  9.560257   2697.768   1.982      0.18917    0.6877541  29.014     0.07691242 0.02577037 0.1280545 
1001.6     0.222      1          3          4.278      1.568      0.961      1.488      1.408      0.1934468  0.1934468  0.2186266  10.72168   3127.304   1.96       0.189137   0.6899608  29.148     0.07630234 0.02426161 0.1283431 
1001.8     0.222      1          3          4.404      1.561      0.891      1.235      1.383      0.1971706  0.1971706  0.2227392  12.56711   2492.152   1.934      0.215134   0.6937101  29.148     0.07748066 0.02661825 0.1283431 
1002       0.221      1          3          4.518      1.561      0.822      1.368      1.381      0.2017868  0.2017868  0.2277397  15.3017    2029.405   1.906      0.226952   0.69838    29.148     0.07864509 0.02894711 0.1283431 
1002.2     0.221      1          3          4.404      1.548      0.923      1.065      1.355      0.2073694  0.2073694  0.232938   19.41524   2492.152   1.883      0.193225   0.7039909  29.148     0.07748066 0.02661825 0.1283431 
1002.4     0.221      1          3          4.303      1.542      1.158      1.122      1.369      0.2131762  0.2131762  0.2384303  24.8713    2989.561   1.868      0.193141   0.7102547  29.148     0.07652754 0.02471199 0.1283431 
1002.6     0.221      1          3          4.253      1.523      0.939      1.412      1.355      0.2196092  0.2196092  0.244716   32.72301   3271.394   1.851      0.137717   0.7169111  29.148     0.07608125 0.02381944 0.1283431 
1002.8     0.22       1          3          4.107      1.517      0.936      1.311      1.328      0.2265349  0.2265349  0.2512655  43.9677    4255.771   1.842      0.152673   0.7242357  29.215     0.07494131 0.02139347 0.1284892 
1003       0.219      1          3          4.164      1.51       1.12       1.305      1.304      0.2314752  0.2314752  0.2563806  54.28019   3840.39    1.827      0.170626   0.7288166  29.28      0.07547088 0.02230972 0.128632  
1003.2     0.217      1          3          4.385      1.51       1.316      1.374      1.32       0.2333477  0.2333477  0.2589282  58.79269   2578.943   1.825      0.196906   0.7311     29.349     0.07751686 0.02624876 0.128785  
1003.4     0.215      1          3          4.31       1.51       1.189      1.286      1.32       0.2339611  0.2339611  0.2593338  60.35105   2952.091   1.819      0.165998   0.7312157  29.416     0.07688715 0.02483959 0.1289347 
1003.6     0.214      1          3          4.48       1.514      1.202      1.469      1.317      0.2327556  0.2327556  0.2586744  57.32653   2173.221   1.819      0.21831    0.7301893  29.416     0.07854186 0.02814903 0.1289347 
1003.8     0.214      1          3          4.739      1.523      1.183      1.362      1.329      0.2304951  0.2304951  0.2572674  52.05798   1362.81    1.815      0.168441   0.7278498  29.081     0.08112811 0.03405804 0.1281982 
1004       0.214      1          3          4.784      1.529      1.018      1.412      1.312      0.2276921  0.2276921  0.2546298  46.19209   1256.674   1.809      0.162729   0.7243182  29.014     0.08162948 0.0352045  0.1280545 
1004.2     0.214      1          3          4.885      1.536      1.012      1.355      1.327      0.2232976  0.2232976  0.2506603  38.29765   1047.585   1.796      0.160374   0.7184278  28.948     0.0829171  0.03792016 0.1279141 
1004.4     0.215      1          3          4.777      1.548      0.803      1.311      1.363      0.2198567  0.2198567  0.246718   33.07021   1272.624   1.778      0.145959   0.712529   28.881     0.08139817 0.03502367 0.1277727 
1004.6     0.215      1          3          4.758      1.536      0.682      1.444      1.354      0.2178968  0.2178968  0.2446548  30.41834   1316.945   1.763      0.127715   0.7087958  28.814     0.08108497 0.03453748 0.1276325 
1004.8     0.215      1          3          4.67       1.523      0.714      1.311      1.349      0.2184249  0.2184249  0.2448257  31.11127   1543.22    1.736      0.191445   0.7069886  28.814     0.08000235 0.03237224 0.1276325 
