~Version
 VERS              .         2.0                           : CWLS LOG ASCII STANDARD - VERSION 2.0
 WRAP              .         NO                            : ONE LINE PER DEPTH STEP
 DLM               .         SPACE                         : DELIMITING CHARACTER(SPACE TAB OR COMMA)
~Well Information
#_______________________________________________________________________________
#
#PARAMETER_NAME    .UNIT     VALUE                         : DESCRIPTION
#_______________________________________________________________________________
STRT               .м        970                           : First reference value
STOP               .м        1365.2                        : Last reference value
STEP               .м        0.2                           : Step increment
NULL               .         -9999                         : Missing value
COMP               .         AO"RD"KMG"                    : Company
WELL               .         3274                          : Well name
FLD                .         UZEN                          : Field
LOC                .                                       : Location
CNTY               .                                       : County
STAT               .                                       : State
CTRY               .         KAZAKHSTAN                    : Country
SRVC               .         AO"UPGF"                      : Service Company
DATE               .         31.12.1979                    : Date
UWI                .                                       : Unique Well ID
Block              .         4                             : 
Cartographic_reference_system .         GCS_WGS_1984                  : ESRI,PE_10_3_1- <?xml version="1.0" encoding="utf-16"?><ILateBoundCoordinateReferenceSystem name="GCS_WGS_1984"><AuthorityCode>EPSG,4326</AuthorityCode></ILateBoundCoordinateReferenceSystem>
Category           .         Нефтяная                      : 
Condition          .         В работе                      : 
Date               .         17.01.1980                    : 
EREF               .m        232                           : 100.8
Gorizont           .         17                            : 14
HZCS               .GCS_WGS_1984 WGS_1984_EASE-Grid_2.0_Global : ESRI,PE_10_3_1- <?xml version="1.0" encoding="utf-16"?><ILateBoundCoordinateReferenceSystem name="WGS_1984_EASE-Grid_2.0_Global"><AuthorityCode>EPSG,6933</AuthorityCode></ILateBoundCoordinateReferenceSystem>
Interpretator      .         0                             : 
Kupol              .         osnovnoi                      : osnovnoi
LATI               .dega     0.6391521823                  : GCS_WGS_1984
LONG               .dega     0.564246024                   : GCS_WGS_1984
Mud                .         0                             : 
Mud_density        .         0                             : 
Mud_resistivity    .         0                             : 
NGDU               .         НГДУ-1                        : 
ORIGINALWELLNAME   .         3274                          : 
Spud_date          .         1980                          : 1961
Viscosity          .         0                             : 
X                  .m        54442                         : 46154
Y                  .m        81537.1                       : 85761.93
YEAR               .         0                             : 
для_загрузки       .         17                            : 
~Parameter Information Block
#_______________________________________________________________________________
#
#PARAMETER_NAME    .UNIT     VALUE                         : DESCRIPTION
#_______________________________________________________________________________
SET                .         LQC_KAZNIPI_Petrel            : 
TLFamily_CALI      .         Caliper                       : 
TLFamily_COLL      .         Net Reservoir Flag            : 
TLFamily_CSAT      .         Fluid Code                    : 
TLFamily_DEPT      .         Measured Depth                : 
TLFamily_GR        .         Russian Gamma Ray             : 
TLFamily_LLS       .         Lateral Log Resistivity       : 
TLFamily_MINV      .         Micro Gradient Resistivity    : 
TLFamily_MNOR      .         Micro Resistivity             : 
TLFamily_NGLD      .         Neutron Gamma                 : 
TLFamily_PHIE      .         Effective Porosity            : 
TLFamily_PHIEN     .         Effective Porosity            : 
TLFamily_PHIT      .         Porosity                      : 
TLFamily_PRMB      .         Permeability                  : 
TLFamily_PRMB_DGR  .         Permeability                  : 
TLFamily_RT        .         Formation Resistivity         : 
TLFamily_SOIL_ARCHIE .         Oil Saturation                : 
TLFamily_SOIL_DW   .         Oil Saturation                : 
TLFamily_SP        .         Spontaneous Potential         : 
TLFamily_VSH_FIN   .         Shale Volume                  : 
TLFamily_VSH_GR    .         Shale Volume                  : 
TLFamily_VSH_SP    .         Shale Volume                  : 
~Curve Information
#_______________________________________________________________________________
#
#LOGNAME           .UNIT     LOG_ID                        : DESCRIPTION
#_______________________________________________________________________________
DEPT               .м                                      : Колонка глубины 
CALI               .м                                      : Каверномер 
COLL               .unitless                               : Описание 
CSAT               .unitless                               : Описание 
GR                 .uR/h                                   : Гамма каротаж 
LLS                .Ohmm                                   : Боковой каротаж 
MINV               .Ohmm                                   : Микро-градиент зонд 
MNOR               .Ohmm                                   : Микро-потенциал зонд 
NGLD               .у.е.                                   : Показания зонда НГК-60 аппаратуры ДРСТ-3-90 
PHIE               .v/v                                    : Описание 
PHIEN              .v/v                                    :  
PHIT               .v/v                                    : Описание 
PRMB               .mD                                     :  
PRMB_DGR           .mD                                     :  
RT                 .Ohmm                                   : УЭС пласта 
SOIL_ARCHIE        .v/v                                    :  
SOIL_DW            .v/v                                    :  
SP                 .мВ                                     : Потенциал самополяризации 
VSH_FIN            .v/v                                    : Описание 
VSH_GR             .v/v                                    : Shale volume 
VSH_SP             .v/v                                    : Shale Volume 
~Ascii
# ...
1068       0.218      -9999      -9999      7.526      2.154      1.937      1.532      1.279      0.1184947  0.1184947  0.2860788  0.4384969  10.3879    2.509      0          0.6997708  66.787     0.5078306  0.2494778  0.7661834 
1068.2     0.218      -9999      -9999      7.444      2.182      1.81       1.481      1.294      0.1154462  0.1154462  0.2789832  0.3850368  12.04401   2.418      0          0.6862572  66.519     0.4955667  0.2348547  0.7562787 
1068.4     0.218      -9999      -9999      7.406      2.211      1.835      1.273      1.306      0.1153174  0.1153174  0.2753714  0.3829276  12.89858   2.33       0          0.6779827  66.118     0.485012   0.228372   0.741652  
1068.6     0.218      -9999      -9999      7.615      2.262      2.292      1.481      1.3        0.1110549  0.1110549  0.2757945  0.3192746  8.847095   2.244      0          0.6663585  65.851     0.499211   0.2663814  0.7320407 
1068.8     0.218      -9999      -9999      7.937      2.332      2.184      1.917      1.285      0.1040902  0.1040902  0.2790203  0.2372253  4.949136   2.171      0          0.6526684  65.583     0.5300913  0.3376873  0.7224954 
1069       0.22       -9999      -9999      8.196      2.39       1.43       1.797      1.267      0.09747745 0.09747745 0.2825671  0.1789275  3.101809   2.097      0          0.6382546  65.316     0.5608777  0.4086687  0.7130867 
1069.2     0.227      -9999      -9999      7.924      2.37       0.765      1.425      1.261      0.1135884  0.1135884  0.2841346  0.3557056  5.066572   2.022      0          0.6576909  64.915     0.5168065  0.334469   0.6991441 
1069.4     0.244      -9999      -9999      7.969      2.211      0.822      0.743      1.27       0.1125179  0.1125179  0.2830306  0.3398304  4.671526   1.962      0          0.6502387  64.58      0.5167051  0.3457417  0.6876685 
1069.6     0.25       -9999      -9999      8.19       2.026      1.227      0.68       1.284      0.1021314  0.1021314  0.2808673  0.2182121  3.135567   1.904      0.019738   0.6271859  64.246     0.5416241  0.4068663  0.6763818 
1069.8     0.246      -9999      -9999      8.506      1.842      1.291      0.731      1.297      0.08726724 0.08726724 0.2810314  0.1157602  1.773149   1.851      0.051525   0.5938482  63.778     0.587164   0.5135031  0.6608248 
1070       0.242      -9999      -9999      8.392      1.714      1.36       0.977      1.304      0.1021394  0.1021394  0.2869188  0.2182868  2.178003   1.8        0.067913   0.6209734  63.377     0.5599377  0.4721431  0.6477324 
1070.2     0.244      -9999      -9999      8.253      1.644      0.961      0.914      1.258      0.1248318  0.1248318  0.2999051  0.574575   2.798712   1.759      0.093533   0.6587415  62.976     0.5305251  0.4261929  0.6348572 
1070.4     0.247      -9999      -9999      8.177      1.612      0.682      0.857      1.213      0.1498059  0.1498059  0.318616   1.666967   3.209967   1.726      0.058791   0.6936451  62.508     0.5115458  0.4029889  0.6201028 
1070.6     0.247      -9999      -9999      8.139      1.606      0.676      0.776      1.182      0.1757251  0.1757251  0.3399754  5.035163   3.43773    1.695      0.042131   0.7228835  61.973     0.4977282  0.391865   0.6035914 
1070.8     0.25       -9999      -9999      8.316      1.593      0.695      0.693      1.113      0.1901124  0.1901124  0.3603804  9.300378   2.498048   1.665      0.015352   0.7387544  61.372     0.5159637  0.4464373  0.5854902 
1071       0.251      -9999      -9999      8.316      1.58       0.682      0.787      1.089      0.2092504  0.2092504  0.376604   21.037     2.498048   1.636      0          0.7539073  60.77      0.5071319  0.4464373  0.5678266 
1071.2     0.252      -9999      -9999      8.436      1.523      0.752      0.806      1.065      0.214862   0.214862   0.3871243  26.72538   2.011809   1.609      0.020156   0.7584705  60.369     0.5220069  0.4876964  0.5563173 
1071.4     0.252      -9999      -9999      8.828      1.434      0.853      0.787      1.076      0.1956361  0.1956361  0.3929713  11.77101   0.991913   1.581      0.054879   0.7473397  59.968     0.5979854  0.6509598  0.5450112 
1071.6     0.247      -9999      -9999      9.201      1.357      0.784      0.876      1.08       0.1775228  0.1775228  0.3967113  5.436404   0.506111   1.564      0.084055   0.7354758  59.366     0.6642076  0.8        0.5284153 
1071.8     0.241      -9999      -9999      9.22       1.319      0.91       0.838      1.064      0.1820632  0.1820632  0.4000565  6.597979   0.4890575  1.542      0.084898   0.7378953  59.098     0.6605856  0.8        0.5211712 
1072       0.222      -9999      -9999      9.448      1.313      1.595      0.832      1.046      0.1871599  0.1871599  0.4028148  8.200007   0.3241405  1.53       0.026768   0.7411938  58.564     0.6534996  0.8        0.5069992 
1072.2     0.222      -9999      -9999      9.555      1.338      2.26       0.768      1.046      0.1905414  0.1905414  0.4044777  9.4721     0.2672415  1.516      0.126292   0.7427364  58.163     0.6482921  0.8        0.4965841 
1072.4     0.23       -9999      -9999      9.561      1.421      1.12       1.545      1.069      0.1937435  0.1937435  0.4059891  10.8582    0.2643646  1.507      0.152433   0.7444836  57.761     0.6431684  0.8        0.4863367 
1072.6     0.236      -9999      -9999      9.7        1.466      0.841      2.201      1.061      0.1983337  0.1983337  0.4089242  13.20624   0.2057329  1.499      0.191948   0.7475685  57.36      0.638153   0.8        0.4763059 
1072.8     0.235      -9999      -9999      10.048     1.51       0.841      1.015      1.035      0.202397   0.202397   0.4129875  15.70514   0.1098151  1.489      0.13454    0.7504347  57.36      0.638153   0.8        0.4763059 
1073       0.233      -9999      -9999      10.212     1.491      0.86       0.781      1.014      0.243464   0.243464   0.4155955  90.51123   2.367095   1.481      0.172087   0.7714183  57.227     0.5216105  0.4563619  0.586859  
1073.2     0.232      -9999      -9999      10.478     1.446      0.929      0.642      1.02       0.2318944  0.2318944  0.4144041  55.25929   1.662469   1.472      0.214092   0.7650161  56.959     0.5530596  0.5271972  0.5789222 
1073.4     0.23       -9999      -9999      10.566     1.421      0.891      0.649      1.044      0.224153   0.224153   0.4099483  39.72048   1.479054   1.463      0.262211   0.7591107  56.759     0.5630162  0.5529731  0.5730593 
1073.6     0.227      -9999      -9999      10.32      1.389      0.777      0.674      1.074      0.2307805  0.2307805  0.4054964  52.69551   2.050727   1.458      0.259186   0.7606283  56.825     0.5294421  0.4838957  0.5749884 
1073.8     0.228      -9999      -9999      10.528     1.364      0.853      0.655      1.076      0.217799   0.217799   0.4043347  30.29171   1.555633   1.45       0.236217   0.7529333  57.293     0.5652596  0.5416915  0.5888278 
1074       0.231      -9999      -9999      10.459     1.351      0.809      0.674      1.051      0.2244689  0.2244689  0.4073963  40.25943   1.704964   1.444      0.292445   0.7568933  57.227     0.5543253  0.5217916  0.586859  
1074.2     0.232      -9999      -9999      10.547     1.332      0.644      0.623      1.041      0.225562   0.225562   0.4133543  42.1806    1.516861   1.438      0.309097   0.7587992  57.36      0.5690678  0.5473032  0.5908323 
1074.4     0.232      -9999      -9999      10.497     1.325      0.657      0.617      1.027      0.2342609  0.2342609  0.4203012  61.12762   1.621033   1.434      0.33371    0.7648214  57.494     0.5637587  0.5326588  0.5948586 
1074.6     0.229      -9999      -9999      10.794     1.3        0.79       0.611      1.008      0.2249856  0.2249856  0.4267231  41.15631   1.09256    1.431      0.360554   0.7619518  57.561     0.611326   0.6257713  0.5968806 
1074.8     0.228      -9999      -9999      11.091     1.287      0.891      0.655      1.003      0.2109818  0.2109818  0.4314388  22.64922   0.7363737  1.429      0.384952   0.7558959  57.695     0.6680514  0.7351607  0.600942  
