~Version
 VERS              .         2.0                           : CWLS LOG ASCII STANDARD - VERSION 2.0
 WRAP              .         NO                            : ONE LINE PER DEPTH STEP
 DLM               .         SPACE                         : DELIMITING CHARACTER(SPACE TAB OR COMMA)
~Well Information
#_______________________________________________________________________________
#
#PARAMETER_NAME    .UNIT     VALUE                         : DESCRIPTION
#_______________________________________________________________________________
STRT               .м        970                           : First reference value
STOP               .м        1365.2                        : Last reference value
STEP               .м        0.2                           : Step increment
NULL               .         -9999                         : Missing value
COMP               .         AO"RD"KMG"                    : Company
WELL               .         3274                          : Well name
FLD                .         UZEN                          : Field
LOC                .                                       : Location
CNTY               .                                       : County
STAT               .                                       : State
CTRY               .         KAZAKHSTAN                    : Country
SRVC               .         AO"UPGF"                      : Service Company
DATE               .         31.12.1979                    : Date
UWI                .                                       : Unique Well ID
Block              .         4                             : 
Cartographic_reference_system .         GCS_WGS_1984                  : ESRI,PE_10_3_1- <?xml version="1.0" encoding="utf-16"?><ILateBoundCoordinateReferenceSystem name="GCS_WGS_1984"><AuthorityCode>EPSG,4326</AuthorityCode></ILateBoundCoordinateReferenceSystem>
Category           .         Нефтяная                      : 
Condition          .         В работе                      : 
Date               .         17.01.1980                    : 
EREF               .m        232                           : 100.8
Gorizont           .         17                            : 14
HZCS               .GCS_WGS_1984 WGS_1984_EASE-Grid_2.0_Global : ESRI,PE_10_3_1- <?xml version="1.0" encoding="utf-16"?><ILateBoundCoordinateReferenceSystem name="WGS_1984_EASE-Grid_2.0_Global"><AuthorityCode>EPSG,6933</AuthorityCode></ILateBoundCoordinateReferenceSystem>
Interpretator      .         0                             : 
Kupol              .         osnovnoi                      : osnovnoi
LATI               .dega     0.6391521823                  : GCS_WGS_1984
LONG               .dega     0.564246024                   : GCS_WGS_1984
Mud                .         0                             : 
Mud_density        .         0                             : 
Mud_resistivity    .         0                             : 
NGDU               .         НГДУ-1                        : 
ORIGINALWELLNAME   .         3274                          : 
Spud_date          .         1980                          : 1961
Viscosity          .         0                             : 
X                  .m        54442                         : 46154
Y                  .m        81537.1                       : 85761.93
YEAR               .         0                             : 
для_загрузки       .         17                            : 
~Parameter Information Block
#_______________________________________________________________________________
#
#PARAMETER_NAME    .UNIT     VALUE                         : DESCRIPTION
#_______________________________________________________________________________
SET                .         LQC_KAZNIPI_Petrel            : 
TLFamily_CALI      .         Caliper                       : 
TLFamily_COLL      .         Net Reservoir Flag            : 
TLFamily_CSAT      .         Fluid Code                    : 
TLFamily_DEPT      .         Measured Depth                : 
TLFamily_GR        .         Russian Gamma Ray             : 
TLFamily_LLS       .         Lateral Log Resistivity       : 
TLFamily_MINV      .         Micro Gradient Resistivity    : 
TLFamily_MNOR      .         Micro Resistivity             : 
TLFamily_NGLD      .         Neutron Gamma                 : 
TLFamily_PHIE      .         Effective Porosity            : 
TLFamily_PHIEN     .         Effective Porosity            : 
TLFamily_PHIT      .         Porosity                      : 
TLFamily_PRMB      .         Permeability                  : 
TLFamily_PRMB_DGR  .         Permeability                  : 
TLFamily_RT        .         Formation Resistivity         : 
TLFamily_SOIL_ARCHIE .         Oil Saturation                : 
TLFamily_SOIL_DW   .         Oil Saturation                : 
TLFamily_SP        .         Spontaneous Potential         : 
TLFamily_VSH_FIN   .         Shale Volume                  : 
TLFamily_VSH_GR    .         Shale Volume                  : 
TLFamily_VSH_SP    .         Shale Volume                  : 
~Curve Information
#_______________________________________________________________________________
#
#LOGNAME           .UNIT     LOG_ID                        : DESCRIPTION
#_______________________________________________________________________________
DEPT               .м                                      : Колонка глубины 
CALI               .м                                      : Каверномер 
COLL               .unitless                               : Описание 
CSAT               .unitless                               : Описание 
GR                 .uR/h                                   : Гамма каротаж 
LLS                .Ohmm                                   : Боковой каротаж 
MINV               .Ohmm                                   : Микро-градиент зонд 
MNOR               .Ohmm                                   : Микро-потенциал зонд 
NGLD               .у.е.                                   : Показания зонда НГК-60 аппаратуры ДРСТ-3-90 
PHIE               .v/v                                    : Описание 
PHIEN              .v/v                                    :  
PHIT               .v/v                                    : Описание 
PRMB               .mD                                     :  
PRMB_DGR           .mD                                     :  
RT                 .Ohmm                                   : УЭС пласта 
SOIL_ARCHIE        .v/v                                    :  
SOIL_DW            .v/v                                    :  
SP                 .мВ                                     : Потенциал самополяризации 
VSH_FIN            .v/v                                    : Описание 
VSH_GR             .v/v                                    : Shale volume 
VSH_SP             .v/v                                    : Shale Volume 
~Ascii
# ...
1194       0.223      -9999      -9999      11.72      2.128      1.595      1.406      1.192      0.2061127  0.2061127  0.3659451  18.40205   1.125993   2.11       0.3853349  0.5655194  49.739     0.4843404  0.6181165  0.4843404 
1194.2     0.225      -9999      -9999      11.9       1.701      1.443      1.98       1.145      0.2178317  0.2178317  0.3798947  30.33403   0.8412572  2.064      0.4081473  0.5798385  50.006     0.4911     0.6962549  0.4911    
1194.4     0.225      -9999      -9999      11.603     1.517      1.671      1.69       1.118      0.2284628  0.2284628  0.3905258  47.73568   1.360915   2.017      0.4260365  0.5898419  50.006     0.4911     0.5720927  0.4911    
1194.6     0.224      -9999      -9999      11.779     1.491      1.918      1.103      1.135      0.234475   0.234475   0.396538   61.68843   1.023379   1.997      0.4362457  0.5957802  50.006     0.4911     0.6427112  0.4911    
1194.8     0.225      -9999      -9999      11.85      1.574      1.747      1.128      1.127      0.2367658  0.2367658  0.3988288  68.01984   0.9122145  1.987      0.439681   0.5977324  50.006     0.4911     0.673609   0.4911    
1195       0.225      -9999      -9999      11.937     1.733      1.126      1.008      1.123      0.2361273  0.2361273  0.3981903  66.19259   0.7923252  1.977      0.4370303  0.5958915  50.006     0.4911     0.7135021  0.4911    
1195.2     0.225      -9999      -9999      11.742     1.795      1.151      1.229      1.119      0.2328924  0.2328924  0.3944013  57.66199   1.086581   1.979      0.4304959  0.5915219  49.94      0.4894211  0.6271751  0.4894211 
1195.4     0.222      -9999      -9999      11.634     1.861      1.031      1.513      1.14       0.2308842  0.2308842  0.3879654  52.92897   1.294274   1.997      0.4286171  0.5879128  49.405     0.4760036  0.5839424  0.4760036 
1195.6     0.218      -9999      -9999      11.723     1.886      1.487      1.677      1.185      0.2285447  0.2285447  0.3813092  47.90274   1.120537   2.064      0.4323845  0.5887599  48.87      0.4629226  0.6193438  0.4629226 
1195.8     0.216      -9999      -9999      11.868     1.931      2.475      1.229      1.191      0.2485092  0.2485092  0.3767231  112.241    0.8860052  2.207      0.4886428  0.6128315  45.527     0.388527   0.6816754  0.388527  
1196       0.215      8          2          11.773     2.166      1.918      1.141      1.155      0.2707992  0.2707992  0.3732654  290.413    1.033374   2.364      0.5405604  0.6369933  41.249     0.3105038  0.6401657  0.3105038 
1196.2     0.215      8          2          11.551     2.555      1.373      1.071      1.16       0.2805809  0.2805809  0.3674962  440.7545   1.480494   2.612      0.5749155  0.6566469  38.04      0.2633796  0.5527534  0.2633796 
1196.4     0.215      8          2          11.388     3.141      1.215      1.04       1.196      0.2863621  0.2863621  0.3573987  563.9994   1.927777   2.903      0.6025944  0.6718536  33.895     0.2152627  0.4962675  0.2152627 
1196.6     0.216      8          2          11.173     4.234      1.037      0.819      1.239      0.2812632  0.2812632  0.344282   453.7698   2.730752   3.194      0.6140235  0.6779029  31.221     0.1909659  0.4304925  0.1909659 
1196.8     0.216      8          2          10.971     5.225      0.948      0.926      1.257      0.269501   0.269501   0.33076    274.7703   3.787603   3.427      0.6124126  0.6759685  30.552     0.1856334  0.3766593  0.1856334 
1197       0.216      8          2          10.884     6.244999   0.752      1.254      1.277      0.249803   0.249803   0.3184698  118.6084   4.360718   3.495      0.5897257  0.6613481  33.159     0.2080812  0.3555996  0.2080812 
1197.2     0.215      8          2          10.8       6.691      1.082      1.601      1.296      0.226867   0.226867   0.3084352  44.59495   4.996219   3.435      0.5501869  0.6376435  36.769     0.2471763  0.3363842  0.2471763 
1197.4     0.215      8          2          10.604     5.989999   1.493      2.15       1.326      0.2141342  0.2141342  0.3025287  25.90859   6.862828   3.348      0.5212505  0.6197679  38.374     0.2678619  0.2954895  0.2678619 
1197.6     0.216      8          2          10.857     4.843      1.614      2.258      1.337      0.1984187  0.1984187  0.303046   13.2542    4.555632   3.266      0.4824008  0.6031413  41.65      0.3170524  0.3493066  0.3170524 
1197.8     0.218      8          2          10.987     3.052      1.55       2.229      1.305      0.1816879  0.1816879  0.3103541  6.493189   3.690709   3.036      0.4216434  0.5794435  45.594     0.3898978  0.3806662  0.3898978 
1198       0.219      -9999      -9999      11.154     2.511      1.468      2.201      1.256      0.1717989  0.1717989  0.3219241  4.258837   2.816089   2.757      0.364654   0.5586206  48.536     0.4549247  0.4251171  0.4549247 
1198.2     0.222      -9999      -9999      11.463     2.23       1.734      2.207      1.236      0.1686442  0.1686442  0.3346848  3.722694   1.707274   2.513      0.3256181  0.5452342  50.474     0.5031535  0.5215032  0.5031535 
1198.4     0.226      -9999      -9999      11.83      2.001      2.152      2.333      1.241      0.1659025  0.1659025  0.3474952  3.311875   0.9422472  2.364      0.2960167  0.5389113  52.213     0.550281   0.6647579  0.550281  
1198.6     0.233      -9999      -9999      11.965     1.771      2.07       2.229      1.203      0.1643054  0.1643054  0.3600208  3.093802   0.7571971  2.219      0.2686566  0.5326785  53.683     0.5930769  0.7268372  0.5930769 
1198.8     0.238      -9999      -9999      12.197     1.561      2.146      2.138      1.155      0.1620571  0.1620571  0.3700286  2.810924   0.5200274  2.185      0.2544449  0.5346159  54.887     0.6302167  0.8        0.6302167 
1199       0.236      -9999      -9999      12.487     1.472      1.835      2.327      1.139      0.1561393  0.1561393  0.374079   2.183918   0.3251223  2.149      0.2238663  0.5274113  55.823     0.6604233  0.8        0.6604233 
1199.2     0.23       -9999      -9999      12.285     1.497      1.481      1.917      1.166      0.1449914  0.1449914  0.3710342  1.357535   0.4509506  2.11       0.1649981  0.5073573  56.558     0.6849781  0.8        0.6849781 
1199.4     0.227      -9999      -9999      12.237     1.574      1.246      1.399      1.208      0.1453071  0.1453071  0.3632468  1.375938   0.4874054  2.093      0.1634087  0.4990577  55.823     0.6604233  0.8        0.6604233 
1199.6     0.226      -9999      -9999      12.171     1.663      0.999      0.907      1.212      0.1540883  0.1540883  0.3538158  2.001002   0.5423928  2.073      0.2014983  0.4992614  54.084     0.6052348  0.8        0.6052348 
1199.8     0.225      -9999      -9999      11.849     1.72       0.898      0.784      1.221      0.1683352  0.1683352  0.3437992  3.673952   0.9136938  2.048      0.2564682  0.5041256  51.544     0.5317093  0.6731635  0.5317093 
1200       0.225      -9999      -9999      11.659     1.784      0.961      0.951      1.242      0.1708115  0.1708115  0.3328745  4.08321    1.242915   2.043      0.2650229  0.4964611  50.006     0.4911     0.5936773  0.4911    
1200.2     0.221      -9999      -9999      11.514     1.867      0.942      0.926      1.27       0.1695267  0.1695267  0.3217583  3.865485   1.571923   2.036      0.2589813  0.4835283  48.803     0.4613079  0.5393922  0.4613079 
1200.4     0.219      -9999      -9999      11.491     1.988      1.075      1.059      1.312      0.1709967  0.1709967  0.3129499  4.115579   1.631581   2.027      0.2630018  0.4753787  47.466     0.4301614  0.5312499  0.4301614 
1200.6     0.218      -9999      -9999      11.463     2.052      1.164      1.052      1.312      0.1708064  0.1708064  0.308833   4.082318   1.707274   2.033      0.2633093  0.4717102  46.931     0.4182625  0.5215032  0.4182625 
1200.8     0.218      -9999      -9999      11.331     2.026      1.462      1.166      1.298      0.1454642  0.1454642  0.3092249  1.385185   2.114214   2.041      0.1542694  0.4391865  50.207     0.4962446  0.4779088  0.4962446 
