~Version
 VERS              .         2.0                           : CWLS LOG ASCII STANDARD - VERSION 2.0
 WRAP              .         NO                            : ONE LINE PER DEPTH STEP
 DLM               .         SPACE                         : DELIMITING CHARACTER(SPACE TAB OR COMMA)
~Well Information
#_______________________________________________________________________________
#
#PARAMETER_NAME    .UNIT     VALUE                         : DESCRIPTION
#_______________________________________________________________________________
STRT               .м        970                           : First reference value
STOP               .м        1365.2                        : Last reference value
STEP               .м        0.2                           : Step increment
NULL               .         -9999                         : Missing value
COMP               .         AO"RD"KMG"                    : Company
WELL               .         3274                          : Well name
FLD                .         UZEN                          : Field
LOC                .                                       : Location
CNTY               .                                       : County
STAT               .                                       : State
CTRY               .         KAZAKHSTAN                    : Country
SRVC               .         AO"UPGF"                      : Service Company
DATE               .         31.12.1979                    : Date
UWI                .                                       : Unique Well ID
Block              .         4                             : 
Cartographic_reference_system .         GCS_WGS_1984                  : ESRI,PE_10_3_1- <?xml version="1.0" encoding="utf-16"?><ILateBoundCoordinateReferenceSystem name="GCS_WGS_1984"><AuthorityCode>EPSG,4326</AuthorityCode></ILateBoundCoordinateReferenceSystem>
Category           .         Нефтяная                      : 
Condition          .         В работе                      : 
Date               .         17.01.1980                    : 
EREF               .m        232                           : 100.8
Gorizont           .         17                            : 14
HZCS               .GCS_WGS_1984 WGS_1984_EASE-Grid_2.0_Global : ESRI,PE_10_3_1- <?xml version="1.0" encoding="utf-16"?><ILateBoundCoordinateReferenceSystem name="WGS_1984_EASE-Grid_2.0_Global"><AuthorityCode>EPSG,6933</AuthorityCode></ILateBoundCoordinateReferenceSystem>
Interpretator      .         0                             : 
Kupol              .         osnovnoi                      : osnovnoi
LATI               .dega     0.6391521823                  : GCS_WGS_1984
LONG               .dega     0.564246024                   : GCS_WGS_1984
Mud                .         0                             : 
Mud_density        .         0                             : 
Mud_resistivity    .         0                             : 
NGDU               .         НГДУ-1                        : 
ORIGINALWELLNAME   .         3274                          : 
Spud_date          .         1980                          : 1961
Viscosity          .         0                             : 
X                  .m        54442                         : 46154
Y                  .m        81537.1                       : 85761.93
YEAR               .         0                             : 
для_загрузки       .         17                            : 
~Parameter Information Block
#_______________________________________________________________________________
#
#PARAMETER_NAME    .UNIT     VALUE                         : DESCRIPTION
#_______________________________________________________________________________
SET                .         LQC_KAZNIPI_Petrel            : 
TLFamily_CALI      .         Caliper                       : 
TLFamily_COLL      .         Net Reservoir Flag            : 
TLFamily_CSAT      .         Fluid Code                    : 
TLFamily_DEPT      .         Measured Depth                : 
TLFamily_GR        .         Russian Gamma Ray             : 
TLFamily_LLS       .         Lateral Log Resistivity       : 
TLFamily_MINV      .         Micro Gradient Resistivity    : 
TLFamily_MNOR      .         Micro Resistivity             : 
TLFamily_NGLD      .         Neutron Gamma                 : 
TLFamily_PHIE      .         Effective Porosity            : 
TLFamily_PHIEN     .         Effective Porosity            : 
TLFamily_PHIT      .         Porosity                      : 
TLFamily_PRMB      .         Permeability                  : 
TLFamily_PRMB_DGR  .         Permeability                  : 
TLFamily_RT        .         Formation Resistivity         : 
TLFamily_SOIL_ARCHIE .         Oil Saturation                : 
TLFamily_SOIL_DW   .         Oil Saturation                : 
TLFamily_SP        .         Spontaneous Potential         : 
TLFamily_VSH_FIN   .         Shale Volume                  : 
TLFamily_VSH_GR    .         Shale Volume                  : 
TLFamily_VSH_SP    .         Shale Volume                  : 
~Curve Information
#_______________________________________________________________________________
#
#LOGNAME           .UNIT     LOG_ID                        : DESCRIPTION
#_______________________________________________________________________________
DEPT               .м                                      : Колонка глубины 
CALI               .м                                      : Каверномер 
COLL               .unitless                               : Описание 
CSAT               .unitless                               : Описание 
GR                 .uR/h                                   : Гамма каротаж 
LLS                .Ohmm                                   : Боковой каротаж 
MINV               .Ohmm                                   : Микро-градиент зонд 
MNOR               .Ohmm                                   : Микро-потенциал зонд 
NGLD               .у.е.                                   : Показания зонда НГК-60 аппаратуры ДРСТ-3-90 
PHIE               .v/v                                    : Описание 
PHIEN              .v/v                                    :  
PHIT               .v/v                                    : Описание 
PRMB               .mD                                     :  
PRMB_DGR           .mD                                     :  
RT                 .Ohmm                                   : УЭС пласта 
SOIL_ARCHIE        .v/v                                    :  
SOIL_DW            .v/v                                    :  
SP                 .мВ                                     : Потенциал самополяризации 
VSH_FIN            .v/v                                    : Описание 
VSH_GR             .v/v                                    : Shale volume 
VSH_SP             .v/v                                    : Shale Volume 
~Ascii
# ...
1096       0.244      -9999      -9999      11.053     1.497      1.094      0.958      1.136      0.1216496  0.1216496  0.3599572  0.5016525  0.7744992  1.97       0.018028   0.7042521  61.438     0.7221445  0.7201626  0.7241265 
1096.2     0.242      -9999      -9999      10.933     1.51       1.215      0.882      1.151      0.1285605  0.1285605  0.358603   0.6736141  0.9083487  1.943      0.17087    0.7090558  61.305     0.6970984  0.6747781  0.7194186 
1096.4     0.242      -9999      -9999      10.844     1.523      1.386      0.989      1.134      0.1333796  0.1333796  0.3573962  0.8273155  1.022348   1.91       0.219495   0.7109538  61.171     0.6788381  0.6429758  0.7147005 
1096.6     0.242      -9999      -9999      10.724     1.555      1.569      1.04       1.139      0.1391371  0.1391371  0.3556935  1.057582   1.199029   1.881      0.182997   0.7136262  61.037     0.6562318  0.602456   0.7100076 
1096.8     0.244      -9999      -9999      10.82      1.599      1.531      1.078      1.139      0.1318118  0.1318118  0.3532963  0.7738054  1.055468   1.855      0.204314   0.7032573  60.97      0.671165   0.6346594  0.7076707 
1097       0.245      -9999      -9999      10.914     1.638      1.639      1.179      1.171      0.1277575  0.1277575  0.3516837  0.6509332  0.931567   1.838      0.27126    0.6968225  60.436     0.6785642  0.6678593  0.6892691 
1097.2     0.245      -9999      -9999      10.876     1.644      1.006      0.945      1.169      0.1318876  0.1318876  0.3528139  0.7763107  0.9797987  1.877      0.257471   0.7048622  60.302     0.6694739  0.6542342  0.6847135 
1097.4     0.244      -9999      -9999      10.749     1.606      1.063      0.838      1.141      0.1436505  0.1436505  0.3566431  1.282074   1.159864   1.936      0.263126   0.7222625  60.168     0.6454322  0.6106814  0.6801831 
1097.6     0.243      -9999      -9999      10.781     1.548      1.367      0.806      1.115      0.146513   0.146513   0.3608977  1.448553   1.111591   2.032      0.283604   0.7330745  60.101     0.6496507  0.6213743  0.6779271 
1097.8     0.243      -9999      -9999      10.61      1.497      1.379      0.901      1.124      0.1591597  0.1591597  0.3637262  2.484178   1.395082   2.122      0.237218   0.7497084  59.968     0.6198983  0.5663297  0.673467  
1098       0.242      -9999      -9999      10.68      1.472      1.272      0.888      1.141      0.1569536  0.1569536  0.3655012  2.2611     1.271202   2.18       0.195325   0.7520949  60.034     0.6319623  0.5882473  0.6756772 
1098.2     0.23       -9999      -9999      10.686     1.459      1.113      0.914      1.123      0.1589372  0.1589372  0.3674364  2.460706   1.26111    2.207      0.189078   0.7557428  59.968     0.6318159  0.5901648  0.673467  
1098.4     0.217      -9999      -9999      10.623     1.459      1.272      0.876      1.116      0.1638661  0.1638661  0.3694586  3.03638    1.371195   2.222      0.18917    0.7607122  60.034     0.6230074  0.5703375  0.6756772 
1098.6     0.224      -9999      -9999      10.465     1.472      1.227      0.851      1.102      0.1712138  0.1712138  0.3705679  4.153874   1.691427   2.267      0.189137   0.7682752  60.302     0.6041031  0.5234928  0.6847135 
1098.8     0.232      -9999      -9999      10.332     1.497      1.297      0.907      1.121      0.1758591  0.1758591  0.3707028  5.064017   2.018296   2.336      0.215134   0.7746104  60.569     0.5904354  0.4870558  0.6938151 
1099       0.236      -9999      -9999      10.547     1.618      1.918      1.002      1.131      0.1662957  0.1662957  0.3710802  3.367893   1.516861   2.425      0.226952   0.7730455  60.569     0.6205592  0.5473032  0.6938151 
1099.2     0.24       -9999      -9999      10.68      1.803      2.64       1.715      1.114      0.1601843  0.1601843  0.3724844  2.595137   1.271202   2.517      0.193225   0.773765   60.703     0.6433337  0.5882473  0.6984201 
1099.4     0.239      -9999      -9999      10.339     2.045      2.114      1.683      1.098      0.1779311  0.1779311  0.3742219  5.531903   1.999614   2.583      0.193141   0.7878985  60.77      0.5948204  0.4889087  0.7007321 
1099.6     0.23       -9999      -9999      10.364     2.262      1.747      1.336      1.11       0.1781282  0.1781282  0.3751389  5.578597   1.934295   2.595      0.137717   0.7887741  60.703     0.5970021  0.4955841  0.6984201 
1099.8     0.217      -9999      -9999      10.648     2.122      1.62       1.172      1.11       0.1638855  0.1638855  0.3745154  3.038897   1.326406   2.533      0.152673   0.7775151  60.703     0.6382723  0.5781245  0.6984201 
1100       0.213      -9999      -9999      10.566     1.842      1.36       1.015      1.101      0.1644731  0.1644731  0.371717   3.116017   1.479054   2.474      0.170626   0.774352   60.837     0.6280117  0.5529731  0.7030503 
1100.2     0.216      -9999      -9999      10.528     1.682      1.341      0.97       1.113      0.1606306  0.1606306  0.366013   2.645003   1.555633   2.425      0.196906   0.7676474  60.837     0.6223709  0.5416915  0.7030503 
1100.4     0.217      -9999      -9999      10.351     1.714      1.538      1.406      1.143      0.1606901  0.1606901  0.3571261  2.651722   1.967991   2.389      0.165998   0.7628552  60.703     0.5952609  0.4921015  0.6984201 
1100.6     0.222      -9999      -9999      10.162     1.867      2.14       1.437      1.153      0.1589064  0.1589064  0.345169   2.457476   2.52966    2.336      0.21831    0.7545131  60.302     0.5644322  0.4441508  0.6847135 
1100.8     0.231      -9999      -9999      10.345     2.071      2.564      1.633      1.177      0.1382757  0.1382757  0.3303307  1.019434   1.983738   2.251      0.168441   0.7268365  59.968     0.5819848  0.4905027  0.673467  
1101       0.232      -9999      -9999      10.2       2.307      2.887      2.327      1.218      0.1304806  0.1304806  0.3138561  0.7310962  2.405132   2.168      0.162729   0.7061102  59.5       0.5556834  0.453401   0.6579657 
1101.2     0.228      -9999      -9999      10.288     2.491      2.583      2.39       1.267      0.1138125  0.1138125  0.2990451  0.3591212  2.13978    2.072      0.160374   0.6713178  59.165     0.5613108  0.4755688  0.6470528 
1101.4     0.233      -9999      -9999      10.13      2.415      1.842      1.614      1.304      0.1121848  0.1121848  0.2899092  0.3350368  2.639511   2.002      0.145959   0.6577212  58.965     0.5385588  0.4365079  0.6406098 
1101.6     0.24       -9999      -9999      9.947      2.033      1.797      1.298      1.279      0.1176854  0.1176854  0.2878964  0.4236215  3.3659     1.955      0.127715   0.6599542  58.831     0.5157908  0.3952585  0.6363232 
1101.8     0.25       -9999      -9999      9.789      1.829      1.791      1.109      1.259      0.1256222  0.1256222  0.2904765  0.5942737  4.15198    1.922      0.191445   0.6688812  58.831     0.4995585  0.3627938  0.6363232 
1102       0.252      -9999      -9999      9.643      1.778      2.336      1.5        1.236      0.1322869  0.1322869  0.2932906  0.7896471  5.040648   1.901      0.229973   0.6766573  58.965     0.4878901  0.3351703  0.6406098 
1102.2     0.245      -9999      -9999      9.511      1.803      2.393      1.86       1.254      0.1332988  0.1332988  0.2937026  0.8244702  6.006763   1.908      0.222152   0.6786383  59.566     0.4860722  0.3120105  0.6601338 
1102.4     0.241      -9999      -9999      9.327      1.854      1.601      1.052      1.251      0.1331192  0.1331192  0.2926885  0.8181809  7.669991   1.945      0.169807   0.6809219  60.302     0.4835432  0.2823728  0.6847135 
1102.6     0.241      -9999      -9999      9.536      1.759      1.449      0.951      1.292      0.1257744  0.1257744  0.2939624  0.5981434  5.810549   1.992      0.154681   0.6769999  60.837     0.5096605  0.3162706  0.7030503 
1102.8     0.241      -9999      -9999      9.694      1.568      1.36       0.876      1.271      0.1260915  0.1260915  0.3008715  0.6062873  4.710454   2.056      0.129191   0.6863605  61.171     0.5296363  0.3445721  0.7147005 
