~Version
 VERS              .         2.0                           : CWLS LOG ASCII STANDARD - VERSION 2.0
 WRAP              .         NO                            : ONE LINE PER DEPTH STEP
 DLM               .         SPACE                         : DELIMITING CHARACTER(SPACE TAB OR COMMA)
~Well Information
#_______________________________________________________________________________
#
#PARAMETER_NAME    .UNIT     VALUE                         : DESCRIPTION
#_______________________________________________________________________________
STRT               .м        970                           : First reference value
STOP               .м        1365.2                        : Last reference value
STEP               .м        0.2                           : Step increment
NULL               .         -9999                         : Missing value
COMP               .         AO"RD"KMG"                    : Company
WELL               .         3274                          : Well name
FLD                .         UZEN                          : Field
LOC                .                                       : Location
CNTY               .                                       : County
STAT               .                                       : State
CTRY               .         KAZAKHSTAN                    : Country
SRVC               .         AO"UPGF"                      : Service Company
DATE               .         31.12.1979                    : Date
UWI                .                                       : Unique Well ID
Block              .         4                             : 
Cartographic_reference_system .         GCS_WGS_1984                  : ESRI,PE_10_3_1- <?xml version="1.0" encoding="utf-16"?><ILateBoundCoordinateReferenceSystem name="GCS_WGS_1984"><AuthorityCode>EPSG,4326</AuthorityCode></ILateBoundCoordinateReferenceSystem>
Category           .         Нефтяная                      : 
Condition          .         В работе                      : 
Date               .         17.01.1980                    : 
EREF               .m        232                           : 100.8
Gorizont           .         17                            : 14
HZCS               .GCS_WGS_1984 WGS_1984_EASE-Grid_2.0_Global : ESRI,PE_10_3_1- <?xml version="1.0" encoding="utf-16"?><ILateBoundCoordinateReferenceSystem name="WGS_1984_EASE-Grid_2.0_Global"><AuthorityCode>EPSG,6933</AuthorityCode></ILateBoundCoordinateReferenceSystem>
Interpretator      .         0                             : 
Kupol              .         osnovnoi                      : osnovnoi
LATI               .dega     0.6391521823                  : GCS_WGS_1984
LONG               .dega     0.564246024                   : GCS_WGS_1984
Mud                .         0                             : 
Mud_density        .         0                             : 
Mud_resistivity    .         0                             : 
NGDU               .         НГДУ-1                        : 
ORIGINALWELLNAME   .         3274                          : 
Spud_date          .         1980                          : 1961
Viscosity          .         0                             : 
X                  .m        54442                         : 46154
Y                  .m        81537.1                       : 85761.93
YEAR               .         0                             : 
для_загрузки       .         17                            : 
~Parameter Information Block
#_______________________________________________________________________________
#
#PARAMETER_NAME    .UNIT     VALUE                         : DESCRIPTION
#_______________________________________________________________________________
SET                .         LQC_KAZNIPI_Petrel            : 
TLFamily_CALI      .         Caliper                       : 
TLFamily_COLL      .         Net Reservoir Flag            : 
TLFamily_CSAT      .         Fluid Code                    : 
TLFamily_DEPT      .         Measured Depth                : 
TLFamily_GR        .         Russian Gamma Ray             : 
TLFamily_LLS       .         Lateral Log Resistivity       : 
TLFamily_MINV      .         Micro Gradient Resistivity    : 
TLFamily_MNOR      .         Micro Resistivity             : 
TLFamily_NGLD      .         Neutron Gamma                 : 
TLFamily_PHIE      .         Effective Porosity            : 
TLFamily_PHIEN     .         Effective Porosity            : 
TLFamily_PHIT      .         Porosity                      : 
TLFamily_PRMB      .         Permeability                  : 
TLFamily_PRMB_DGR  .         Permeability                  : 
TLFamily_RT        .         Formation Resistivity         : 
TLFamily_SOIL_ARCHIE .         Oil Saturation                : 
TLFamily_SOIL_DW   .         Oil Saturation                : 
TLFamily_SP        .         Spontaneous Potential         : 
TLFamily_VSH_FIN   .         Shale Volume                  : 
TLFamily_VSH_GR    .         Shale Volume                  : 
TLFamily_VSH_SP    .         Shale Volume                  : 
~Curve Information
#_______________________________________________________________________________
#
#LOGNAME           .UNIT     LOG_ID                        : DESCRIPTION
#_______________________________________________________________________________
DEPT               .м                                      : Колонка глубины 
CALI               .м                                      : Каверномер 
COLL               .unitless                               : Описание 
CSAT               .unitless                               : Описание 
GR                 .uR/h                                   : Гамма каротаж 
LLS                .Ohmm                                   : Боковой каротаж 
MINV               .Ohmm                                   : Микро-градиент зонд 
MNOR               .Ohmm                                   : Микро-потенциал зонд 
NGLD               .у.е.                                   : Показания зонда НГК-60 аппаратуры ДРСТ-3-90 
PHIE               .v/v                                    : Описание 
PHIEN              .v/v                                    :  
PHIT               .v/v                                    : Описание 
PRMB               .mD                                     :  
PRMB_DGR           .mD                                     :  
RT                 .Ohmm                                   : УЭС пласта 
SOIL_ARCHIE        .v/v                                    :  
SOIL_DW            .v/v                                    :  
SP                 .мВ                                     : Потенциал самополяризации 
VSH_FIN            .v/v                                    : Описание 
VSH_GR             .v/v                                    : Shale volume 
VSH_SP             .v/v                                    : Shale Volume 
~Ascii
# ...
1222       0.221      8          2          10.655     5.894      2.19       2.024      1.416      0.1474236  0.1474236  0.237023   1.505913   6.318749   4.478      0.4218518  0.5575134  38.641     0.2715136  0.3056256  0.2715136 
1222.2     0.222      8          2          10.377     5.353001   1.798      2.352      1.444      0.1413907  0.1413907  0.2319107  1.164277   9.912182   4.403      0.3956537  0.540223   38.842     0.2743032  0.2542992  0.2743032 
1222.4     0.221      8          2          10.237     3.613      2.254      2.532      1.451      0.1358238  0.1358238  0.2288508  0.9182144  12.43488   4.217      0.3613309  0.5187286  39.377     0.2819     0.2318118  0.2819    
1222.6     0.221      8          2          10.155     3.167      3.001      2.731      1.456      0.1338775  0.1338775  0.229495   0.8450718  14.201     4.005      0.3374062  0.5041246  39.912     0.28975    0.2195755  0.28975   
1222.8     0.219      8          2          10.067     2.963      3.926      3.822      1.43       0.135561   0.135561   0.2331758  0.9079792  16.37629   3.786      0.327053   0.4973489  40.313     0.2958026  0.2071617  0.2958026 
1223       0.219      8          2          9.915      2.836      2.912      3.967      1.407      0.138181   0.138181   0.2374963  1.015326   20.94733   3.59       0.321463   0.4933592  40.647     0.3009556  0.1873498  0.3009556 
1223.2     0.218      -9999      -9999      10.018     2.797      3.071      2.671      1.412      0.1400417  0.1400417  0.2403916  1.099185   17.72888   3.427      0.3145372  0.4879537  40.847     0.3040904  0.2005561  0.3040904 
1223.4     0.218      -9999      -9999      10.162     2.874      2.349      1.642      1.42       0.1403937  0.1403937  0.2414434  1.115807   14.04091   3.286      0.3024152  0.4789746  40.981     0.3062114  0.2205944  0.3062114 
1223.6     0.217      -9999      -9999      10.459     2.88       2.063      1.611      1.411      0.1399005  0.1399005  0.2409503  1.092583   8.679462   3.181      0.2895287  0.4690484  40.981     0.3062114  0.2684703  0.3062114 
1223.8     0.217      -9999      -9999      10.379     2.906      2.57       1.447      1.413      0.1401086  0.1401086  0.2387377  1.102325   9.880132   3.162      0.2884505  0.4648199  40.513     0.298876   0.2546358  0.298876  
1224       0.217      -9999      -9999      10.301     3.059      2.089      1.622      1.416      0.1398574  0.1398574  0.2344918  1.090577   11.21053   3.317      0.3031634  0.4714497  39.711     0.2867708  0.2418337  0.2867708 
1224.2     0.217      -9999      -9999      10.092     3.466      1.88       2.182      1.446      0.1392101  0.1392101  0.2288096  1.060883   15.72647   3.534      0.3208418  0.4794056  38.641     0.2715136  0.2106152  0.2715136 
1224.4     0.217      -9999      -9999      9.975      3.837      1.866      2.185      1.454      0.1388053  0.1388053  0.2228511  1.042724   19.00754   3.647      0.3290997  0.4788044  37.371     0.2546843  0.1949333  0.2546843 
1224.6     0.217      1          2          9.896      4.157      2.824      2.223      1.46       0.1372281  0.1372281  0.216937   0.9748896  21.60194   3.795      0.3349204  0.4784253  36.301     0.2415422  0.1850104  0.2415422 
1224.8     0.217      1          2          9.656      4.573      2.095      1.883      1.458      0.1337023  0.1337023  0.2101107  0.8387832  31.86419   4.098      0.3437577  0.4830223  35.432     0.2315406  0.1578576  0.2315406 
1225       0.217      1          2          9.624      4.918      2.402      1.728      1.485      0.1270596  0.1270596  0.201298   0.6318446  33.55917   4.568      0.3480535  0.4872139  34.831     0.2249648  0.154552   0.2249648 
1225.2     0.217      1          2          9.629      5.671      2.254      1.475      1.503      0.1185461  0.1185461  0.1904744  0.4394605  33.28851   5.193      0.347905   0.4888177  34.162     0.2179644  0.1550639  0.2179644 
1225.4     0.217      1          2          9.637      7.392      2.475      2.387      1.533      0.1091333  0.1091333  0.1786483  0.2941518  32.85996   6.04       0.3471523  0.4908117  33.427     0.2106514  0.1558865  0.2106514 
1225.6     0.217      1          2          9.536      9.239      2.241      2.066      1.558      0.09913109 0.09913109 0.1667642  0.1920023  38.69973   7.418      0.3554002  0.5023506  32.825     0.2049488  0.1458143  0.2049488 
1225.8     0.216      6          6          9.428      11.565     2.494      2.314      1.569      0.08836951 0.08836951 0.1547953  0.1213321  46.09697   9.064      0.3514914  0.5070766  32.424     0.2012902  0.135763   0.2012902 
1226       0.216      6          6          9.308      15.038     1.766      2.718      1.581      0.0759704  0.0759704  0.142198   0.07150132 55.9858    10.638     0.3137724  0.4915242  32.357     0.2006897  0.1254052  0.2006897 
1226.2     0.216      6          6          9.214      19.124     2.114      2.673      1.628      0.06356004 0.06356004 0.1297876  0.04211571 65.19213   11.565     0.2292653  0.4472811  32.357     0.2006897  0.1178468  0.2006897 
1226.4     0.216      6          6          9.338      20.49      3.888      2.724      1.655      0.05446874 0.05446874 0.1210937  0.02857928 53.33056   12.278     0.142768   0.4060898  32.491     0.2018938  0.1279182  0.2018938 
1226.6     0.216      6          6          9.435      23.895     3.913      3.898      1.676      0.05297071 0.05297071 0.1214281  0.02681045 45.57729   13.193     0.1508225  0.4220031  33.092     0.2074466  0.1363929  0.2074466 
1226.8     0.216      6          6          9.46       31.701     3.901      3.898      1.665      0.0644299  0.0644299  0.1350256  0.04370751 43.76879   13.416     0.2895942  0.5017829  33.761     0.2139262  0.1386666  0.2139262 
1227       0.216      6          6          9.39       33.613     2.355      2.087      1.581      0.08816162 0.08816162 0.1621637  0.1202611  49.02308   12.569     0.442583   0.5926133  34.764     0.2242486  0.1323937  0.2242486 
1227.2     0.216      6          6          9.372      16.886     1.797      2.181      1.5        0.1215308  0.1215308  0.1984355  0.4991183  50.47331   10.567     0.5427833  0.6537796  35.566     0.2330445  0.130827   0.2330445 
1227.4     0.216      8          2          9.713      15.261     2.146      2.276      1.406      0.156949   0.156949   0.2366579  2.260652   29.0543    8.395      0.5923594  0.6846867  36.301     0.2415422  0.1639217  0.2415422 
1227.6     0.216      8          2          10.149     10.673     2.596      2.769      1.329      0.1874183  0.1874183  0.2698029  8.290876   14.33966   6.589      0.6086778  0.6937129  36.97      0.2496502  0.2187061  0.2496502 
1227.8     0.216      8          2          10.452     6.022      2.019      2.459      1.287      0.2081064  0.2081064  0.2932869  20.03522   8.77842    5.423      0.6086012  0.6921421  37.639     0.2581228  0.2672304  0.2581228 
1228       0.216      8          2          10.55      3.661      2.173      1.974      1.277      0.217464   0.217464   0.3058584  29.86197   7.49006    4.581      0.5922725  0.679078   38.374     0.2678619  0.2851233  0.2678619 
1228.2     0.216      8          2          10.636     2.746      2.336      2.062      1.268      0.2188185  0.2188185  0.3093386  31.63794   6.516213   4.005      0.5680769  0.6599174  38.842     0.2743032  0.3018094  0.2743032 
1228.4     0.216      8          2          10.522     2.491      1.981      1.847      1.303      0.2144238  0.2144238  0.3074509  26.23057   7.837535   3.647      0.5406287  0.6393175  39.377     0.2819     0.2798922  0.2819    
1228.6     0.216      8          2          10.794     2.339      2.184      1.901      1.317      0.2079317  0.2079317  0.3038747  19.88646   5.045009   3.362      0.509797   0.6169178  39.978     0.2907363  0.335052   0.2907363 
1228.8     0.215      8          2          10.553     2.307      2.228      1.961      1.292      0.2019089  0.2019089  0.3005379  15.38154   7.453749   3.125      0.4795344  0.5951982  40.513     0.298876   0.2856896  0.298876  
