~Version
 VERS              .         2.0                           : CWLS LOG ASCII STANDARD - VERSION 2.0
 WRAP              .         NO                            : ONE LINE PER DEPTH STEP
 DLM               .         SPACE                         : DELIMITING CHARACTER(SPACE TAB OR COMMA)
~Well Information
#_______________________________________________________________________________
#
#PARAMETER_NAME    .UNIT     VALUE                         : DESCRIPTION
#_______________________________________________________________________________
STRT               .м        970                           : First reference value
STOP               .м        1365.2                        : Last reference value
STEP               .м        0.2                           : Step increment
NULL               .         -9999                         : Missing value
COMP               .         AO"RD"KMG"                    : Company
WELL               .         3274                          : Well name
FLD                .         UZEN                          : Field
LOC                .                                       : Location
CNTY               .                                       : County
STAT               .                                       : State
CTRY               .         KAZAKHSTAN                    : Country
SRVC               .         AO"UPGF"                      : Service Company
DATE               .         31.12.1979                    : Date
UWI                .                                       : Unique Well ID
Block              .         4                             : 
Cartographic_reference_system .         GCS_WGS_1984                  : ESRI,PE_10_3_1- <?xml version="1.0" encoding="utf-16"?><ILateBoundCoordinateReferenceSystem name="GCS_WGS_1984"><AuthorityCode>EPSG,4326</AuthorityCode></ILateBoundCoordinateReferenceSystem>
Category           .         Нефтяная                      : 
Condition          .         В работе                      : 
Date               .         17.01.1980                    : 
EREF               .m        232                           : 100.8
Gorizont           .         17                            : 14
HZCS               .GCS_WGS_1984 WGS_1984_EASE-Grid_2.0_Global : ESRI,PE_10_3_1- <?xml version="1.0" encoding="utf-16"?><ILateBoundCoordinateReferenceSystem name="WGS_1984_EASE-Grid_2.0_Global"><AuthorityCode>EPSG,6933</AuthorityCode></ILateBoundCoordinateReferenceSystem>
Interpretator      .         0                             : 
Kupol              .         osnovnoi                      : osnovnoi
LATI               .dega     0.6391521823                  : GCS_WGS_1984
LONG               .dega     0.564246024                   : GCS_WGS_1984
Mud                .         0                             : 
Mud_density        .         0                             : 
Mud_resistivity    .         0                             : 
NGDU               .         НГДУ-1                        : 
ORIGINALWELLNAME   .         3274                          : 
Spud_date          .         1980                          : 1961
Viscosity          .         0                             : 
X                  .m        54442                         : 46154
Y                  .m        81537.1                       : 85761.93
YEAR               .         0                             : 
для_загрузки       .         17                            : 
~Parameter Information Block
#_______________________________________________________________________________
#
#PARAMETER_NAME    .UNIT     VALUE                         : DESCRIPTION
#_______________________________________________________________________________
SET                .         LQC_KAZNIPI_Petrel            : 
TLFamily_CALI      .         Caliper                       : 
TLFamily_COLL      .         Net Reservoir Flag            : 
TLFamily_CSAT      .         Fluid Code                    : 
TLFamily_DEPT      .         Measured Depth                : 
TLFamily_GR        .         Russian Gamma Ray             : 
TLFamily_LLS       .         Lateral Log Resistivity       : 
TLFamily_MINV      .         Micro Gradient Resistivity    : 
TLFamily_MNOR      .         Micro Resistivity             : 
TLFamily_NGLD      .         Neutron Gamma                 : 
TLFamily_PHIE      .         Effective Porosity            : 
TLFamily_PHIEN     .         Effective Porosity            : 
TLFamily_PHIT      .         Porosity                      : 
TLFamily_PRMB      .         Permeability                  : 
TLFamily_PRMB_DGR  .         Permeability                  : 
TLFamily_RT        .         Formation Resistivity         : 
TLFamily_SOIL_ARCHIE .         Oil Saturation                : 
TLFamily_SOIL_DW   .         Oil Saturation                : 
TLFamily_SP        .         Spontaneous Potential         : 
TLFamily_VSH_FIN   .         Shale Volume                  : 
TLFamily_VSH_GR    .         Shale Volume                  : 
TLFamily_VSH_SP    .         Shale Volume                  : 
~Curve Information
#_______________________________________________________________________________
#
#LOGNAME           .UNIT     LOG_ID                        : DESCRIPTION
#_______________________________________________________________________________
DEPT               .м                                      : Колонка глубины 
CALI               .м                                      : Каверномер 
COLL               .unitless                               : Описание 
CSAT               .unitless                               : Описание 
GR                 .uR/h                                   : Гамма каротаж 
LLS                .Ohmm                                   : Боковой каротаж 
MINV               .Ohmm                                   : Микро-градиент зонд 
MNOR               .Ohmm                                   : Микро-потенциал зонд 
NGLD               .у.е.                                   : Показания зонда НГК-60 аппаратуры ДРСТ-3-90 
PHIE               .v/v                                    : Описание 
PHIEN              .v/v                                    :  
PHIT               .v/v                                    : Описание 
PRMB               .mD                                     :  
PRMB_DGR           .mD                                     :  
RT                 .Ohmm                                   : УЭС пласта 
SOIL_ARCHIE        .v/v                                    :  
SOIL_DW            .v/v                                    :  
SP                 .мВ                                     : Потенциал самополяризации 
VSH_FIN            .v/v                                    : Описание 
VSH_GR             .v/v                                    : Shale volume 
VSH_SP             .v/v                                    : Shale Volume 
~Ascii
# ...
1145       0.22       -9999      -9999      11.116     1.765      1.287      1.393      1.299      0.1625771  0.1625771  0.3051871  2.873953   2.006867   2.012      0.2162768  0.4472459  55.355     0.4321518  0.4881864  0.3761171 
1145.2     0.22       -9999      -9999      10.781     1.74       1.405      1.463      1.281      0.1770347  0.1770347  0.3086726  5.324392   3.327035   2.017      0.2731707  0.4697774  56.558     0.3989027  0.3971373  0.4006681 
1145.4     0.22       -9999      -9999      10.914     1.74       1.519      1.216      1.251      0.1703118  0.1703118  0.3128504  3.997103   2.722059   2.027      0.2499876  0.4673167  58.029     0.4319354  0.4310533  0.4328175 
1145.6     0.219      -9999      -9999      11.059     1.74       1.319      1.753      1.263      0.166081   0.166081   0.3162721  3.337186   2.187122   2.03       0.233906   0.4660137  58.296     0.4551245  0.4713382  0.4389107 
1145.8     0.218      -9999      -9999      11.274     1.816      1.12       2.592      1.257      0.161437   0.161437   0.3179795  2.737553   1.581156   2.002      0.2096126  0.4581463  57.026     0.4743712  0.5381038  0.4106386 
1146       0.217      -9999      -9999      11.148     1.943      1.791      1.614      1.243      0.1744472  0.1744472  0.317578   4.768075   1.912265   1.936      0.2494929  0.4649453  55.02      0.4337296  0.4979075  0.3695517 
1146.2     0.217      -9999      -9999      11.211     1.918      2.64       0.844      1.262      0.1376563  0.1376563  0.315165   0.9928564  1.738846   1.866      0.06145929 0.4005148  53.884     0.5379053  0.5176158  0.5581947 
1146.4     0.217      -9999      -9999      11.476     1.676      1.569      0.636      1.272      0.1206789  0.1206789  0.3117756  0.48131    1.165726   1.825      0          0.3595221  53.55      0.5790807  0.6094254  0.5487359 
1146.6     0.219      -9999      -9999      11.482     1.504      0.847      0.655      1.285      0.1198058  0.1198058  0.308823   0.4637161  1.155218   1.838      0          0.3562123  53.015     0.5727795  0.6116828  0.5338762 
1146.8     0.223      -9999      -9999      11.678     1.49       0.657      0.879      1.284      0.1059626  0.1059626  0.3064343  0.2569463  0.8594434  1.861      0          0.328389   52.681     0.6074901  0.6902006  0.5247794 
1147       0.227      -9999      -9999      11.539     1.478      0.749      1.097      1.262      0.1132113  0.1132113  0.3028526  0.3500312  1.06001    1.883      0          0.342732   52.346     0.5746704  0.6335474  0.5157933 
1147.2     0.229      -9999      -9999      11.413     1.517      0.942      1.109      1.279      0.118517   0.118517   0.2966082  0.4389148  1.281984   1.906      0          0.3487625  51.477     0.5396703  0.5862219  0.4931188 
1147.4     0.229      -9999      -9999      11.874     1.568      1.303      1.015      1.328      0.0842818  0.0842818  0.2892137  0.1019205  0.639398   1.922      0          0.2579482  50.274     0.6210058  0.7787968  0.4632148 
1147.6     0.226      -9999      -9999      11.862     1.618      1.288      0.97       1.347      0.08532313 0.08532313 0.2846476  0.106549   0.6510806  1.929      0          0.2544116  49.07      0.6040136  0.7730601  0.4349672 
1147.8     0.224      -9999      -9999      11.514     1.644      1.272      1.052      1.332      0.1155846  0.1155846  0.2859035  0.3873158  1.100762   1.931      0          0.331619   47.867     0.5161178  0.6238631  0.4083723 
1148       0.222      -9999      -9999      11.742     1.669      1.044      1.008      1.317      0.1046266  0.1046266  0.2923906  0.2427149  0.7803261  1.927      0          0.3165313  48.402     0.5689818  0.7179618  0.4200018 
1148.2     0.22       -9999      -9999      11.786     1.714      1.018      0.933      1.276      0.102841   0.102841   0.3001937  0.2249176  0.7301984  1.936      0          0.3256532  50.073     0.5980384  0.7376933  0.4583835 
1148.4     0.218      -9999      -9999      11.552     1.72       1.265      0.989      1.248      0.1148321  0.1148321  0.3047317  0.3750824  1.039419   1.962      0          0.3619022  52.213     0.5754533  0.6386428  0.5122638 
1148.6     0.217      -9999      -9999      11.994     1.727      1.354      0.951      1.269      0.07061293 0.07061293 0.3042412  0.05689588 0.5334947  1.999      0          0.2566208  55.823     0.7079644  0.8        0.6159288 
1148.8     0.216      -9999      -9999      12.026     1.701      1.006      1.027      1.312      0.04560705 0.04560705 0.301178   0.01958444 0.5083458  2.059      0          0.167068   59.767     0.7744573  0.8        0.7489147 
1149       0.215      -9999      -9999      11.723     1.695      1.031      1.103      1.307      0.05032798 0.05032798 0.2994129  0.02395269 0.8030222  2.159      0          0.2034757  61.238     0.7548028  0.7096055  0.8       
1149.2     0.215      -9999      -9999      11.817     1.765      1.139      0.996      1.293      0.04424035 0.04424035 0.3003071  0.01847552 0.6968274  2.296      0          0.2034967  61.238     0.7759597  0.7519195  0.8       
1149.4     0.215      -9999      -9999      12.102     1.899      0.993      1.109      1.272      0.04448336 0.04448336 0.3020777  0.01866801 0.4532666  2.478      0          0.2377229  60.101     0.7805887  0.8        0.7611775 
1149.6     0.215      -9999      -9999      11.913     2.109      1.048      1.381      1.284      0.05957348 0.05957348 0.3020628  0.03553067 0.6028548  2.719      0          0.3265741  57.561     0.734816   0.7977386  0.6718934 
1149.8     0.215      -9999      -9999      11.426     2.39       1.113      1.674      1.278      0.1073832  0.1073832  0.2985739  0.2729959  1.257082   3.041      0.07346738 0.4681541  54.218     0.5793655  0.5909363  0.5677946 
1150       0.215      1          2          10.935     2.515      1.642      2.043      1.291      0.1506686  0.1506686  0.2915335  1.729443   2.637151   3.391      0.3445282  0.5490035  48.268     0.4268634  0.4366674  0.4170595 
1150.2     0.214      1          2          10.598     2.676      1.81       2.472      1.335      0.1732057  0.1732057  0.2824787  4.522189   4.385156   3.831      0.4517693  0.5906495  42.452     0.3311302  0.3547891  0.3074714 
1150.4     0.214      1          2          10.559     3.001      2.184      2.769      1.35       0.1751838  0.1751838  0.273551   4.920246   4.650964   4.541      0.4987919  0.6184855  38.374     0.2980826  0.3463651  0.2498002 
1150.6     0.214      1          2          10.49      4.022      2.222      2.844      1.345      0.1756373  0.1756373  0.2658364  5.016334   5.161328   5.297      0.5347819  0.6410824  35.232     0.2733307  0.3319478  0.2147135 
1150.8     0.214      1          2          10.525     5.793      2.203      2.838      1.371      0.1695992  0.1695992  0.2592975  3.87746    4.895813   6.133      0.5522625  0.6566238  34.162     0.2718128  0.3391843  0.2044413 
1151       0.214      1          2          10.225     6.499      2.083      2.945      1.378      0.1736188  0.1736188  0.2538717  4.602553   7.698855   6.903      0.5849888  0.6753834  34.162     0.2431907  0.28194    0.2044413 
1151.2     0.213      1          2          10.181     7.184      2.197      2.901      1.388      0.1696459  0.1696459  0.2500208  3.885184   8.227378   7.349      0.588797   0.6795115  35.031     0.2435603  0.2743989  0.2127217 
1151.4     0.213      1          2          10.322     7.328      2.197      2.592      1.388      0.1613036  0.1613036  0.2484274  2.722028   6.650567   7.349      0.5703354  0.6716148  36.569     0.2640113  0.2993047  0.228718  
1151.6     0.213      1          2          10.399     7.392      2.197      2.592      1.4        0.158125   0.158125   0.2496591  2.376936   5.921029   7.316      0.5618985  0.6691865  37.639     0.277376   0.3138475  0.2409046 
1151.8     0.213      1          2          10.257     7.169      2.152      2.428      1.377      0.1624682  0.1624682  0.2535439  2.860645   7.335937   7.249      0.5702652  0.6742924  39.51      0.2759867  0.2875542  0.2644192 
