~Version
 VERS              .         2.0                           : CWLS LOG ASCII STANDARD - VERSION 2.0
 WRAP              .         NO                            : ONE LINE PER DEPTH STEP
 DLM               .         SPACE                         : DELIMITING CHARACTER(SPACE TAB OR COMMA)
~Well Information
#_______________________________________________________________________________
#
#PARAMETER_NAME    .UNIT     VALUE                         : DESCRIPTION
#_______________________________________________________________________________
STRT               .м        970                           : First reference value
STOP               .м        1365.2                        : Last reference value
STEP               .м        0.2                           : Step increment
NULL               .         -9999                         : Missing value
COMP               .         AO"RD"KMG"                    : Company
WELL               .         3274                          : Well name
FLD                .         UZEN                          : Field
LOC                .                                       : Location
CNTY               .                                       : County
STAT               .                                       : State
CTRY               .         KAZAKHSTAN                    : Country
SRVC               .         AO"UPGF"                      : Service Company
DATE               .         31.12.1979                    : Date
UWI                .                                       : Unique Well ID
Block              .         4                             : 
Cartographic_reference_system .         GCS_WGS_1984                  : ESRI,PE_10_3_1- <?xml version="1.0" encoding="utf-16"?><ILateBoundCoordinateReferenceSystem name="GCS_WGS_1984"><AuthorityCode>EPSG,4326</AuthorityCode></ILateBoundCoordinateReferenceSystem>
Category           .         Нефтяная                      : 
Condition          .         В работе                      : 
Date               .         17.01.1980                    : 
EREF               .m        232                           : 100.8
Gorizont           .         17                            : 14
HZCS               .GCS_WGS_1984 WGS_1984_EASE-Grid_2.0_Global : ESRI,PE_10_3_1- <?xml version="1.0" encoding="utf-16"?><ILateBoundCoordinateReferenceSystem name="WGS_1984_EASE-Grid_2.0_Global"><AuthorityCode>EPSG,6933</AuthorityCode></ILateBoundCoordinateReferenceSystem>
Interpretator      .         0                             : 
Kupol              .         osnovnoi                      : osnovnoi
LATI               .dega     0.6391521823                  : GCS_WGS_1984
LONG               .dega     0.564246024                   : GCS_WGS_1984
Mud                .         0                             : 
Mud_density        .         0                             : 
Mud_resistivity    .         0                             : 
NGDU               .         НГДУ-1                        : 
ORIGINALWELLNAME   .         3274                          : 
Spud_date          .         1980                          : 1961
Viscosity          .         0                             : 
X                  .m        54442                         : 46154
Y                  .m        81537.1                       : 85761.93
YEAR               .         0                             : 
для_загрузки       .         17                            : 
~Parameter Information Block
#_______________________________________________________________________________
#
#PARAMETER_NAME    .UNIT     VALUE                         : DESCRIPTION
#_______________________________________________________________________________
SET                .         LQC_KAZNIPI_Petrel            : 
TLFamily_CALI      .         Caliper                       : 
TLFamily_COLL      .         Net Reservoir Flag            : 
TLFamily_CSAT      .         Fluid Code                    : 
TLFamily_DEPT      .         Measured Depth                : 
TLFamily_GR        .         Russian Gamma Ray             : 
TLFamily_LLS       .         Lateral Log Resistivity       : 
TLFamily_MINV      .         Micro Gradient Resistivity    : 
TLFamily_MNOR      .         Micro Resistivity             : 
TLFamily_NGLD      .         Neutron Gamma                 : 
TLFamily_PHIE      .         Effective Porosity            : 
TLFamily_PHIEN     .         Effective Porosity            : 
TLFamily_PHIT      .         Porosity                      : 
TLFamily_PRMB      .         Permeability                  : 
TLFamily_PRMB_DGR  .         Permeability                  : 
TLFamily_RT        .         Formation Resistivity         : 
TLFamily_SOIL_ARCHIE .         Oil Saturation                : 
TLFamily_SOIL_DW   .         Oil Saturation                : 
TLFamily_SP        .         Spontaneous Potential         : 
TLFamily_VSH_FIN   .         Shale Volume                  : 
TLFamily_VSH_GR    .         Shale Volume                  : 
TLFamily_VSH_SP    .         Shale Volume                  : 
~Curve Information
#_______________________________________________________________________________
#
#LOGNAME           .UNIT     LOG_ID                        : DESCRIPTION
#_______________________________________________________________________________
DEPT               .м                                      : Колонка глубины 
CALI               .м                                      : Каверномер 
COLL               .unitless                               : Описание 
CSAT               .unitless                               : Описание 
GR                 .uR/h                                   : Гамма каротаж 
LLS                .Ohmm                                   : Боковой каротаж 
MINV               .Ohmm                                   : Микро-градиент зонд 
MNOR               .Ohmm                                   : Микро-потенциал зонд 
NGLD               .у.е.                                   : Показания зонда НГК-60 аппаратуры ДРСТ-3-90 
PHIE               .v/v                                    : Описание 
PHIEN              .v/v                                    :  
PHIT               .v/v                                    : Описание 
PRMB               .mD                                     :  
PRMB_DGR           .mD                                     :  
RT                 .Ohmm                                   : УЭС пласта 
SOIL_ARCHIE        .v/v                                    :  
SOIL_DW            .v/v                                    :  
SP                 .мВ                                     : Потенциал самополяризации 
VSH_FIN            .v/v                                    : Описание 
VSH_GR             .v/v                                    : Shale volume 
VSH_SP             .v/v                                    : Shale Volume 
~Ascii
970.0      0.224      -9999      -9999      9.618      3.6        1.069      1.267      1.074      -9999      -9999      -9999      -9999      -9999      4.367      -9999      -9999      52.279     0.5548264  0.8        0.3096528 
970.2000000000001 0.23       -9999      -9999      9.833      2.772      0.72       1.002      1.052      -9999      -9999      -9999      -9999      -9999      3.841      -9999      -9999      52.279     0.5548264  0.8        0.3096528 
970.4      0.255      -9999      -9999      10.092     2.166      0.746      0.768      1.027      -9999      -9999      -9999      -9999      -9999      3.377      -9999      -9999      52.48      0.5564532  0.8        0.3129063 
970.6      0.273      -9999      -9999      9.814      2.033      0.727      0.724      1.038      -9999      -9999      -9999      -9999      -9999      3.143      -9999      -9999      52.413     0.5559088  0.8        0.3118176 
970.8      0.273      -9999      -9999      9.688      2.243      0.676      0.737      1.084      -9999      -9999      -9999      -9999      -9999      3.088      -9999      -9999      52.213     0.5542964  0.8        0.3085928 
971        0.255      -9999      -9999      9.675      2.855      0.961      0.668      1.131      0.1905002  0.1905002  0.3725432  9.455505   0.1870646  3.181      0          0.8144614  51.879     0.5516453  0.8        0.3032907 
971.2000000000001 0.235      -9999      -9999      9.928      3.632      2.026      3.147      1.178      0.1848781  0.1848781  0.3657213  7.439598   0.1185817  3.3        0          0.8134347  51.41      0.5480098  0.8        0.2960196 
971.4      0.229      -9999      -9999      10.181     3.989      3.958      4.024      1.152      0.1881953  0.1881953  0.368537   8.570203   0.07517    3.384      0          0.8180404  51.21      0.54649    0.8        0.2929801 
971.6      0.26       -9999      -9999      10.452     3.613      3.983      2.472      1.098      0.1987047  0.1987047  0.3783838  13.4169    0.04613027 3.341      0          0.8239738  50.942     0.544482   0.8        0.288964  
971.8      0.272      -9999      -9999      10.68      2.912      1.158      1.355      1.045      0.209566   0.209566   0.3887575  21.32208   0.03058965 3.233      0          0.8279704  50.742     0.5430045  0.8        0.2860089 
972        0.276      -9999      -9999      10.383     2.466      1.259      1.28       1.063      0.2157541  0.2157541  0.3946222  27.76176   0.05223699 3.143      0          0.8292609  50.608     0.5420246  0.8        0.2840491 
972.2000000000001 0.271      -9999      -9999      10.516     2.256      0.98       0.933      1.07       0.2161741  0.2161741  0.3952036  28.26356   0.04110601 3.047      0          0.8268859  50.675     0.5425135  0.8        0.285027  
972.4      0.265      -9999      -9999      10.711     2.122      1.082      1.141      1.07       0.2132939  0.2132939  0.3923233  24.99646   0.02892786 2.957      0          0.8224702  50.675     0.5425135  0.8        0.285027  
972.6      0.258      -9999      -9999      10.446     2.084      0.752      0.832      1.09       0.2086268  0.2086268  0.3877384  20.48482   0.04663161 2.919      0.019738   0.8183181  50.709     0.5427624  0.8        0.2855248 
972.8      0.239      -9999      -9999      10.029     2.224      0.72       0.97       1.091      0.2032292  0.2032292  0.3824207  16.27254   0.09885187 2.924      0.051525   0.8148687  50.742     0.5430045  0.8        0.2860089 
973        0.255      -9999      -9999      9.903      2.447      1.037      1.027      1.106      0.1975456  0.1975456  0.3768998  12.76976   0.1240454  2.996      0.067913   0.8132139  50.809     0.5434974  0.8        0.2869948 
973.2000000000001 0.253      -9999      -9999      10.117     2.695      1.101      1.519      1.124      0.1921474  0.1921474  0.3715016  10.14365   0.08435769 3.137      0.093533   0.8136448  50.809     0.5434974  0.8        0.2869948 
973.4      0.247      -9999      -9999      10.029     2.957      2.228      2.22       1.114      0.1868766  0.1868766  0.366394   8.101495   0.09885187 3.213      0.058791   0.8120628  50.876     0.5439924  0.8        0.2879848 
973.6      0.245      -9999      -9999      10.086     3.084      1.791      1.765      1.138      0.1825923  0.1825923  0.3621098  6.748559   0.08920347 3.293      0.042131   0.8111504  50.876     0.5439924  0.8        0.2879848 
973.8      0.231      -9999      -9999      10.2       3.033      1.69       1.456      1.155      0.1804862  0.1804862  0.3600037  6.168808   0.07264019 3.442      0.015352   0.8136978  50.876     0.5439924  0.8        0.2879848 
974        0.234      -9999      -9999      9.978      3.148      2.266      1.646      1.143      0.1818587  0.1818587  0.3613762  6.54066    0.108366   3.606      0          0.818996   50.876     0.5439924  0.8        0.2879848 
974.2000000000001 0.228      -9999      -9999      10.187     3.307      2.273      1.753      1.134      0.1864721  0.1864721  0.3661511  7.962936   0.07436164 3.707      0.020156   0.8247927  50.942     0.544482   0.8        0.288964  
974.4      0.225      -9999      -9999      10.667     3.377      2.754      1.841      1.104      0.1932299  0.1932299  0.372909   10.62295   0.03131461 3.759      0.054879   0.8305488  50.942     0.544482   0.8        0.288964  
974.6      0.243      -9999      -9999      10.471     3.199      1.531      1.538      1.101      0.20034    0.20034    0.3801838  14.38606   0.04457773 3.75       0.084055   0.8349057  51.009     0.5449809  0.8        0.2899619 
974.8      0.259      -9999      -9999      10.25      2.887      1.278      1.254      1.092      0.2072592  0.2072592  0.3871029  19.3242    0.06638216 3.672      0.084898   0.8373696  51.009     0.5449809  0.8        0.2899619 
975        0.25       -9999      -9999      10.636     2.708      2.133      2.422      1.067      0.2126695  0.2126695  0.3926786  24.33961   0.03311349 3.622      0.026768   0.8394477  51.076     0.545482   0.8        0.2909639 
975.2000000000001 0.254      -9999      -9999      10.882     2.721      1.31       1.084      1.051      0.2157369  0.2157369  0.395746   27.74146   0.02125732 3.526      0.126292   0.839036   51.076     0.545482   0.8        0.2909639 
975.4      0.253      -9999      -9999      10.768     2.39       0.955      0.939      1.069      0.2162699  0.2162699  0.3964449  28.37922   0.02610444 3.457      0.152433   0.837778   51.143     0.545985   0.8        0.29197   
975.6      0.256      -9999      -9999      10.667     2.211      1.126      0.945      1.089      0.2163204  0.2163204  0.3966621  28.44048   0.03131461 3.447      0.191948   0.8376077  51.21      0.54649    0.8        0.2929801 
975.8      0.261      -9999      -9999      10.516     2.224      1.215      1.059      1.075      0.2173716  0.2173716  0.3977132  29.74449   0.04110601 3.339      0.13454    0.8356095  51.21      0.54649    0.8        0.2929801 
976        0.242      -9999      -9999      10.13      2.281      1.208      1.28       1.045      0.217723   0.217723   0.3980647  30.19367   0.08240474 3.213      0.172087   0.832623   51.21      0.54649    0.8        0.2929801 
976.2000000000001 0.246      -9999      -9999      9.896      2.262      0.999      1.046      1.049      0.2143084  0.2143084  0.3946501  26.10176   0.1256198  3.107      0.214092   0.8277348  51.21      0.54649    0.8        0.2929801 
976.4      0.251      -9999      -9999      9.738      2.249      1.202      1.097      1.079      0.206764   0.206764   0.3862815  18.92036   0.1669914  3.041      0.262211   0.8208889  50.876     0.5439924  0.8        0.2879848 
976.6      0.243      -9999      -9999      9.738      2.326      1.189      1.336      1.116      0.197401   0.197401   0.3748486  12.69121   0.1669914  3.001      0.259186   0.812766   50.006     0.5377201  0.8        0.2754401 
976.8      0.224      -9999      -9999      9.41       2.472      1.132      1.033      1.145      0.1890461  0.1890461  0.3630988  8.886898   0.3015475  2.99       0.236217   0.8053085  48.468     0.5274325  0.8        0.254865  
