~Version
 VERS              .         2.0                           : CWLS LOG ASCII STANDARD - VERSION 2.0
 WRAP              .         NO                            : ONE LINE PER DEPTH STEP
 DLM               .         SPACE                         : DELIMITING CHARACTER(SPACE TAB OR COMMA)
~Well Information
#_______________________________________________________________________________
#
#PARAMETER_NAME    .UNIT     VALUE                         : DESCRIPTION
#_______________________________________________________________________________
STRT               .м        970                           : First reference value
STOP               .м        1365.2                        : Last reference value
STEP               .м        0.2                           : Step increment
NULL               .         -9999                         : Missing value
COMP               .         AO"RD"KMG"                    : Company
WELL               .         3274                          : Well name
FLD                .         UZEN                          : Field
LOC                .                                       : Location
CNTY               .                                       : County
STAT               .                                       : State
CTRY               .         KAZAKHSTAN                    : Country
SRVC               .         AO"UPGF"                      : Service Company
DATE               .         31.12.1979                    : Date
UWI                .                                       : Unique Well ID
Block              .         4                             : 
Cartographic_reference_system .         GCS_WGS_1984                  : ESRI,PE_10_3_1- <?xml version="1.0" encoding="utf-16"?><ILateBoundCoordinateReferenceSystem name="GCS_WGS_1984"><AuthorityCode>EPSG,4326</AuthorityCode></ILateBoundCoordinateReferenceSystem>
Category           .         Нефтяная                      : 
Condition          .         В работе                      : 
Date               .         17.01.1980                    : 
EREF               .m        232                           : 100.8
Gorizont           .         17                            : 14
HZCS               .GCS_WGS_1984 WGS_1984_EASE-Grid_2.0_Global : ESRI,PE_10_3_1- <?xml version="1.0" encoding="utf-16"?><ILateBoundCoordinateReferenceSystem name="WGS_1984_EASE-Grid_2.0_Global"><AuthorityCode>EPSG,6933</AuthorityCode></ILateBoundCoordinateReferenceSystem>
Interpretator      .         0                             : 
Kupol              .         osnovnoi                      : osnovnoi
LATI               .dega     0.6391521823                  : GCS_WGS_1984
LONG               .dega     0.564246024                   : GCS_WGS_1984
Mud                .         0                             : 
Mud_density        .         0                             : 
Mud_resistivity    .         0                             : 
NGDU               .         НГДУ-1                        : 
ORIGINALWELLNAME   .         3274                          : 
Spud_date          .         1980                          : 1961
Viscosity          .         0                             : 
X                  .m        54442                         : 46154
Y                  .m        81537.1                       : 85761.93
YEAR               .         0                             : 
для_загрузки       .         17                            : 
~Parameter Information Block
#_______________________________________________________________________________
#
#PARAMETER_NAME    .UNIT     VALUE                         : DESCRIPTION
#_______________________________________________________________________________
SET                .         LQC_KAZNIPI_Petrel            : 
TLFamily_CALI      .         Caliper                       : 
TLFamily_COLL      .         Net Reservoir Flag            : 
TLFamily_CSAT      .         Fluid Code                    : 
TLFamily_DEPT      .         Measured Depth                : 
TLFamily_GR        .         Russian Gamma Ray             : 
TLFamily_LLS       .         Lateral Log Resistivity       : 
TLFamily_MINV      .         Micro Gradient Resistivity    : 
TLFamily_MNOR      .         Micro Resistivity             : 
TLFamily_NGLD      .         Neutron Gamma                 : 
TLFamily_PHIE      .         Effective Porosity            : 
TLFamily_PHIEN     .         Effective Porosity            : 
TLFamily_PHIT      .         Porosity                      : 
TLFamily_PRMB      .         Permeability                  : 
TLFamily_PRMB_DGR  .         Permeability                  : 
TLFamily_RT        .         Formation Resistivity         : 
TLFamily_SOIL_ARCHIE .         Oil Saturation                : 
TLFamily_SOIL_DW   .         Oil Saturation                : 
TLFamily_SP        .         Spontaneous Potential         : 
TLFamily_VSH_FIN   .         Shale Volume                  : 
TLFamily_VSH_GR    .         Shale Volume                  : 
TLFamily_VSH_SP    .         Shale Volume                  : 
~Curve Information
#_______________________________________________________________________________
#
#LOGNAME           .UNIT     LOG_ID                        : DESCRIPTION
#_______________________________________________________________________________
DEPT               .м                                      : Колонка глубины 
CALI               .м                                      : Каверномер 
COLL               .unitless                               : Описание 
CSAT               .unitless                               : Описание 
GR                 .uR/h                                   : Гамма каротаж 
LLS                .Ohmm                                   : Боковой каротаж 
MINV               .Ohmm                                   : Микро-градиент зонд 
MNOR               .Ohmm                                   : Микро-потенциал зонд 
NGLD               .у.е.                                   : Показания зонда НГК-60 аппаратуры ДРСТ-3-90 
PHIE               .v/v                                    : Описание 
PHIEN              .v/v                                    :  
PHIT               .v/v                                    : Описание 
PRMB               .mD                                     :  
PRMB_DGR           .mD                                     :  
RT                 .Ohmm                                   : УЭС пласта 
SOIL_ARCHIE        .v/v                                    :  
SOIL_DW            .v/v                                    :  
SP                 .мВ                                     : Потенциал самополяризации 
VSH_FIN            .v/v                                    : Описание 
VSH_GR             .v/v                                    : Shale volume 
VSH_SP             .v/v                                    : Shale Volume 
~Ascii
# ...
1124       0.233      -9999      -9999      9.839      1.797      1.671      1.374      1.181      0.1488061  0.1488061  0.3430658  1.597382   1.378859   2.035      0.1579764  0.4712714  57.427     0.5886656  0.569041   0.6082903 
1124.2     0.238      -9999      -9999      9.94       1.771      1.196      1.172      1.165      0.1501505  0.1501505  0.3480781  1.691649   1.184319   2.004      0.1585066  0.4737953  56.959     0.5997805  0.6055005  0.5940605 
1124.4     0.246      -9999      -9999      10.105     1.727      1.322      1.261      1.143      0.1488278  0.1488278  0.3554492  1.598861   0.9237678  1.977      0.1465816  0.4754593  56.558     0.6261253  0.6701561  0.5820946 
1124.6     0.248      -9999      -9999      10.004     1.695      1.639      1.507      1.127      0.1629838  0.1629838  0.362947   2.924247   1.07551    1.955      0.2073628  0.4966606  56.558     0.605949   0.6298034  0.5820946 
1124.8     0.246      -9999      -9999      9.959      1.669      1.082      1.078      1.105      0.1715017  0.1715017  0.3686289  4.205184   1.150914   1.941      0.2392003  0.5092157  56.558     0.5973552  0.6126158  0.5820946 
1125       0.24       -9999      -9999      9.922      1.657      1.246      1.14       1.113      0.1751129  0.1751129  0.3716086  4.905403   1.216858   1.948      0.2541446  0.5163724  56.892     0.5954413  0.5988359  0.5920467 
1125.2     0.237      -9999      -9999      9.776      1.638      1.202      1.204      1.109      0.182953   0.182953   0.3722998  6.853165   1.516073   1.97       0.2858337  0.527581   57.16      0.5737781  0.5474193  0.6001369 
1125.4     0.238      -9999      -9999      9.662      1.625      1.088      1.166      1.109      0.2958637  0.2958637  0.3974592  845.8072   18.00458   1.997      0.5331129  0.6277626  57.293     0.3078652  0.1992964  0.416434  
1125.6     0.239      -9999      -9999      9.736      1.618      0.967      1.002      1.14       0.2948289  0.2948289  0.399666   809.2905   16.10229   2.032      0.5354887  0.6316383  57.761     0.317688   0.2085939  0.426782  
1125.8     0.239      -9999      -9999      9.808      1.593      1.101      0.863      1.115      0.2982534  0.2982534  0.4053974  936.5587   14.44453   2.061      0.5431853  0.6390071  57.962     0.3246787  0.2180563  0.4313011 
1126       0.239      -9999      -9999      9.738      1.568      1.101      0.832      1.069      0.3065778  0.3065778  0.4129561  1335.744   16.05377   2.091      0.5570217  0.6494871  58.163     0.3223583  0.2088511  0.4358654 
1126.2     0.24       -9999      -9999      9.637      1.542      1.354      0.958      1.051      0.3137755  0.3137755  0.418577   1815.69    18.69675   2.11       0.5677238  0.6571391  58.296     0.3175803  0.19625    0.4389107 
1126.4     0.243      -9999      -9999      9.46       1.555      1.139      0.888      1.062      0.3166625  0.3166625  0.4199126  2053.599   24.42088   2.136      0.5736158  0.6611603  58.764     0.3128791  0.1759725  0.4497856 
1126.6     0.249      -9999      -9999      9.656      1.574      1.177      0.964      1.084      0.3099658  0.3099658  0.4174643  1543.391   18.16833   2.177      0.5694622  0.6602085  58.898     0.3257532  0.198561   0.4529454 
1126.8     0.25       -9999      -9999      9.89       1.644      1.519      0.926      1.081      0.2984559  0.2984559  0.4126163  944.6802   12.76336   2.257      0.5625088  0.65868    59.299     0.3459407  0.2293569  0.4625245 
1127       0.246      -9999      -9999      9.764      1.701      1.658      0.926      1.086      0.2937921  0.2937921  0.4056606  774.2853   15.43612   2.411      0.5699936  0.6642721  59.433     0.3389954  0.2122239  0.4657669 
1127.2     0.241      -9999      -9999      9.637      1.784      1.498      1.229      1.109      0.2827097  0.2827097  0.396335   482.6451   18.69675   2.687      0.5773987  0.6724474  60.502     0.344319   0.19625    0.492388  
1127.4     0.239      -9999      -9999      9.782      1.81       1.335      1.248      1.136      0.2671015  0.2671015  0.3851755  248.042    15.0225    3.036      0.5806994  0.6792123  60.837     0.3578002  0.2145908  0.5010096 
1127.6     0.238      -9999      -9999      9.846      1.752      1.31       1.204      1.165      0.2506261  0.2506261  0.3733239  122.846    13.63957   3.369      0.5779179  0.681611   61.572     0.3718114  0.2232222  0.5204006 
1127.8     0.237      -9999      -9999      9.852      1.727      1.126      1.065      1.178      0.2353868  0.2353868  0.3612281  64.13466   13.51662   3.511      0.5627684  0.6737366  62.241     0.3813373  0.224049   0.5386257 
1128       0.235      -9999      -9999      10.092     1.822      1.088      1.122      1.188      0.214063   0.214063   0.3482623  25.83003   9.409938   3.614      0.5314701  0.6584837  62.775     0.4066644  0.2597564  0.5535724 
1128.2     0.222      -9999      -9999      9.896      2.065      1.411      1.09       1.232      0.2012156  0.2012156  0.3337125  14.93343   12.64833   3.664      0.5086983  0.6432961  63.444     0.4015059  0.2302063  0.5728055 
1128.4     0.219      -9999      -9999      9.631      2.396      1.284      1.223      1.258      0.1873102  0.1873102  0.3173528  8.252733   18.86681   3.647      0.4759378  0.6208165  64.113     0.3940684  0.1955257  0.5926112 
1128.6     0.217      -9999      -9999      9.58       2.814      1.474      1.172      1.28       0.1699643  0.1699643  0.2990089  3.938306   20.37608   3.495      0.4181429  0.5827084  64.113     0.3910441  0.189477   0.5926112 
1128.8     0.218      6          6          9.808      3.087      1.785      1.28       1.324      0.1456181  0.1456181  0.278716   1.394306   14.44453   3.286      0.3147313  0.5228004  63.979     0.403327   0.2180563  0.5885978 
1129       0.217      6          6          9.782      3.696      2.019      1.532      1.37       0.1254529  0.1254529  0.257979   0.5899972  15.0225    3.088      0.1966455  0.4532736  63.979     0.4015943  0.2145908  0.5885978 
1129.2     0.219      6          6          9.751      4.206      3.407      1.759      1.417      0.1060152  0.1060152  0.2408716  0.2575234  15.7419    2.861      0.0358485  0.3683302  64.58      0.4086559  0.2105308  0.6067809 
1129.4     0.225      6          6          9.947      4.211      3.977      2.504      1.463      0.09024602 0.09024602 0.2333423  0.1314417  11.71147   2.687      0          0.2945307  65.316     0.433625   0.2375552  0.6296948 
1129.6     0.228      6          6          10.01      4.216      3.983      2.775      1.466      0.08869319 0.08869319 0.2397782  0.1230187  10.64938   2.533      0          0.2815421  66.519     0.4578334  0.2469582  0.6687086 
1129.8     0.23       6          6          9.865      4.109      3.609      3.059      1.376      0.1080852  0.1080852  0.2586549  0.2812926  13.25406   2.425      0          0.3486713  67.054     0.4562717  0.2258508  0.6866925 
1130       0.23       -9999      -9999      10.054     3.125      2.741      2.024      1.287      0.126823   0.126823   0.2823714  0.6255004  9.96528    2.343      0.09413043 0.4090615  67.121     0.4713588  0.253745   0.6889726 
1130.2     0.228      -9999      -9999      10.111     2.657      2.247      1.86       1.253      0.1477579  0.1477579  0.3029377  1.527539   9.143976   2.27       0.1951288  0.4575873  66.787     0.4702418  0.2628153  0.6776683 
1130.4     0.225      -9999      -9999      9.972      2.434      1.493      2.169      1.261      0.1691893  0.1691893  0.3175117  3.810263   11.27788   2.213      0.2761016  0.4934586  66.185     0.4494616  0.2412429  0.6576803 
1130.6     0.224      -9999      -9999      9.858      2.08       1.956      1.339      1.244      0.1849387  0.1849387  0.3276983  7.458857   13.3948    2.171      0.3240477  0.5155201  65.65      0.4326048  0.2248788  0.6403309 
1130.8     0.223      -9999      -9999      9.726      1.861      2.162      1.198      1.219      0.1970543  0.1970543  0.3351606  12.50497   16.34712   2.139      0.3559189  0.5304597  65.316     0.4185037  0.2073126  0.6296948 
