~Version
 VERS              .         2.0                           : CWLS LOG ASCII STANDARD - VERSION 2.0
 WRAP              .         NO                            : ONE LINE PER DEPTH STEP
 DLM               .         SPACE                         : DELIMITING CHARACTER(SPACE TAB OR COMMA)
~Well Information
#_______________________________________________________________________________
#
#PARAMETER_NAME    .UNIT     VALUE                         : DESCRIPTION
#_______________________________________________________________________________
STRT               .м        970                           : First reference value
STOP               .м        1365.2                        : Last reference value
STEP               .м        0.2                           : Step increment
NULL               .         -9999                         : Missing value
COMP               .         AO"RD"KMG"                    : Company
WELL               .         3274                          : Well name
FLD                .         UZEN                          : Field
LOC                .                                       : Location
CNTY               .                                       : County
STAT               .                                       : State
CTRY               .         KAZAKHSTAN                    : Country
SRVC               .         AO"UPGF"                      : Service Company
DATE               .         31.12.1979                    : Date
UWI                .                                       : Unique Well ID
Block              .         4                             : 
Cartographic_reference_system .         GCS_WGS_1984                  : ESRI,PE_10_3_1- <?xml version="1.0" encoding="utf-16"?><ILateBoundCoordinateReferenceSystem name="GCS_WGS_1984"><AuthorityCode>EPSG,4326</AuthorityCode></ILateBoundCoordinateReferenceSystem>
Category           .         Нефтяная                      : 
Condition          .         В работе                      : 
Date               .         17.01.1980                    : 
EREF               .m        232                           : 100.8
Gorizont           .         17                            : 14
HZCS               .GCS_WGS_1984 WGS_1984_EASE-Grid_2.0_Global : ESRI,PE_10_3_1- <?xml version="1.0" encoding="utf-16"?><ILateBoundCoordinateReferenceSystem name="WGS_1984_EASE-Grid_2.0_Global"><AuthorityCode>EPSG,6933</AuthorityCode></ILateBoundCoordinateReferenceSystem>
Interpretator      .         0                             : 
Kupol              .         osnovnoi                      : osnovnoi
LATI               .dega     0.6391521823                  : GCS_WGS_1984
LONG               .dega     0.564246024                   : GCS_WGS_1984
Mud                .         0                             : 
Mud_density        .         0                             : 
Mud_resistivity    .         0                             : 
NGDU               .         НГДУ-1                        : 
ORIGINALWELLNAME   .         3274                          : 
Spud_date          .         1980                          : 1961
Viscosity          .         0                             : 
X                  .m        54442                         : 46154
Y                  .m        81537.1                       : 85761.93
YEAR               .         0                             : 
для_загрузки       .         17                            : 
~Parameter Information Block
#_______________________________________________________________________________
#
#PARAMETER_NAME    .UNIT     VALUE                         : DESCRIPTION
#_______________________________________________________________________________
SET                .         LQC_KAZNIPI_Petrel            : 
TLFamily_CALI      .         Caliper                       : 
TLFamily_COLL      .         Net Reservoir Flag            : 
TLFamily_CSAT      .         Fluid Code                    : 
TLFamily_DEPT      .         Measured Depth                : 
TLFamily_GR        .         Russian Gamma Ray             : 
TLFamily_LLS       .         Lateral Log Resistivity       : 
TLFamily_MINV      .         Micro Gradient Resistivity    : 
TLFamily_MNOR      .         Micro Resistivity             : 
TLFamily_NGLD      .         Neutron Gamma                 : 
TLFamily_PHIE      .         Effective Porosity            : 
TLFamily_PHIEN     .         Effective Porosity            : 
TLFamily_PHIT      .         Porosity                      : 
TLFamily_PRMB      .         Permeability                  : 
TLFamily_PRMB_DGR  .         Permeability                  : 
TLFamily_RT        .         Formation Resistivity         : 
TLFamily_SOIL_ARCHIE .         Oil Saturation                : 
TLFamily_SOIL_DW   .         Oil Saturation                : 
TLFamily_SP        .         Spontaneous Potential         : 
TLFamily_VSH_FIN   .         Shale Volume                  : 
TLFamily_VSH_GR    .         Shale Volume                  : 
TLFamily_VSH_SP    .         Shale Volume                  : 
~Curve Information
#_______________________________________________________________________________
#
#LOGNAME           .UNIT     LOG_ID                        : DESCRIPTION
#_______________________________________________________________________________
DEPT               .м                                      : Колонка глубины 
CALI               .м                                      : Каверномер 
COLL               .unitless                               : Описание 
CSAT               .unitless                               : Описание 
GR                 .uR/h                                   : Гамма каротаж 
LLS                .Ohmm                                   : Боковой каротаж 
MINV               .Ohmm                                   : Микро-градиент зонд 
MNOR               .Ohmm                                   : Микро-потенциал зонд 
NGLD               .у.е.                                   : Показания зонда НГК-60 аппаратуры ДРСТ-3-90 
PHIE               .v/v                                    : Описание 
PHIEN              .v/v                                    :  
PHIT               .v/v                                    : Описание 
PRMB               .mD                                     :  
PRMB_DGR           .mD                                     :  
RT                 .Ohmm                                   : УЭС пласта 
SOIL_ARCHIE        .v/v                                    :  
SOIL_DW            .v/v                                    :  
SP                 .мВ                                     : Потенциал самополяризации 
VSH_FIN            .v/v                                    : Описание 
VSH_GR             .v/v                                    : Shale volume 
VSH_SP             .v/v                                    : Shale Volume 
~Ascii
# ...
1320       0.21       1          2          9.334      8.698      1.538      2.289      1.397      0.1873593  0.1873593  0.2388387  8.270026   19.61005   9.222      0.6803207  0.7345513  2.139      0.155998   0.1924651  0.119531  
1320.2     0.21       1          2          9.346      8.921      1.512      2.346      1.397      0.1846367  0.1846367  0.2364583  7.363373   19.23333   8.812999   0.6692525  0.7251842  2.607      0.1570353  0.1939956  0.120075  
1320.4     0.21       1          2          9.46       8.921      1.54       2.39       1.427      0.1797202  0.1797202  0.2341375  5.970526   15.99638   8.53       0.6561598  0.7158189  3.075      0.1649009  0.2091568  0.1206449 
1320.6     0.21       1          2          9.391      8.539      1.569      2.409      1.418      0.1797819  0.1797819  0.232776   5.986252   17.88391   8.395      0.6536796  0.7126274  3.61       0.1605881  0.1998444  0.1213319 
1320.8     0.21       1          2          9.283      7.933001   1.728      2.611      1.405      0.1812747  0.1812747  0.2321358  6.379765   21.29524   8.350999   0.6553158  0.7124369  4.212      0.1541247  0.1860939  0.1221554 
1321       0.21       1          2          9.163      7.296      1.956      2.491      1.417      0.1822895  0.1822895  0.2309746  6.661952   25.85396   8.485      0.6595404  0.7145822  4.88       0.1475308  0.1719223  0.1231393 
1321.2     0.21       1          2          9.125      6.754      2.076      2.239      1.411      0.1798963  0.1798963  0.2281104  6.015522   27.49189   8.669      0.6590489  0.7139914  5.749      0.1461035  0.1676636  0.1245434 
1321.4     0.21       1          2          9.1        6.436      1.861      2.087      1.421      0.1753073  0.1753073  0.2234334  4.946231   28.62564   9.013      0.6575987  0.7130011  6.953      0.1458368  0.1649196  0.1267539 
1321.6     0.21       1          2          8.879      6.404      1.683      1.986      1.45       0.1733046  0.1733046  0.2180851  4.541287   40.91722   9.496      0.6625242  0.7150998  7.956      0.1356987  0.1425342  0.1288632 
1321.8     0.21       1          2          8.885      7.009      1.645      1.961      1.466      0.167704   0.167704   0.2130556  3.57637    40.52225   10.228     0.6646221  0.7178532  9.159      0.1374291  0.1430999  0.1317583 
1322       0.209      1          2          9.144      8.092      1.671      2.049      1.437      0.1567335  0.1567335  0.2070385  2.239975   26.66035   11.005     0.6562822  0.7153819  10.362     0.1524394  0.1697796  0.1350992 
1322.2     0.21       1          2          8.923      10.1       1.582      2.049      1.449      0.1495747  0.1495747  0.1966362  1.650613   38.10799   11.735     0.6526268  0.7103893  11.432     0.1426104  0.1467346  0.1384861 
1322.4     0.21       6          6          8.841      12.394     1.512      2.049      1.491      0.1338568  0.1338568  0.1795324  0.8443267  43.50946   12.092     0.6227021  0.6848376  11.231     0.1384109  0.1390035  0.1378183 
1322.6     0.209      6          6          8.664      14.592     1.778      2.523      1.548      0.1142489  0.1142489  0.1569468  0.3658678  57.92215   12.278     0.5699837  0.6385677  10.362     0.1293876  0.1236761  0.1350992 
1322.8     0.209      6          6          8.556      15.678     2.039      2.985      1.603      0.09280584 0.09280584 0.1333814  0.1466045  68.9707    12         0.4790705  0.5615223  8.758      0.1229564  0.1151665  0.1307462 
1323       0.209      6          6          8.433      16.727     2.292      3.431      1.655      0.07680982 0.07680982 0.115356   0.07410753 84.14251   11.565     0.3750286  0.4739391  7.287      0.1168067  0.1061857  0.1274276 
1323.2     0.209      6          6          8.493      17.746     3.635      3.488      1.702      0.07089628 0.07089628 0.1097124  0.05758762 76.36474   11.481     0.3275669  0.4378799  5.883      0.1176245  0.1104756  0.1247735 
1323.4     0.209      6          6          8.443      13.254     3.284      3.185      1.674      0.0824054  0.0824054  0.1204289  0.09408185 82.79326   11.318     0.4061702  0.4964197  5.148      0.1152228  0.106889   0.1235567 
1323.6     0.209      6          6          8.784      9.335001   2.355      2.213      1.587      0.1030005  0.1030005  0.1452138  0.2264526  47.7089    11.399     0.5126651  0.5901071  4.078      0.127919   0.1338709  0.1219672 
1323.8     0.209      6          6          8.809      8.316      2.089      2.497      1.496      0.1333249  0.1333249  0.1757718  0.8253881  45.81933   11.082     0.6055735  0.6661992  3.476      0.1286272  0.1360983  0.121156  
1324       0.208      8          2          8.689      8.698      1.721      2.939      1.42       0.162235   0.162235   0.2027934  2.832325   55.62798   10.638     0.661105   0.7113602  2.607      0.1229045  0.125734   0.120075  
1324.2     0.208      8          2          9.018      9.271      2.095      2.434      1.408      0.1761761  0.1761761  0.2216894  5.132957   32.68307   9.849      0.6729697  0.7248051  2.206      0.1379189  0.1562304  0.1196074 
1324.4     0.208      8          2          8.948      8.889      1.823      2.22       1.428      0.1896862  0.1896862  0.2340229  9.132873   36.59867   9.013      0.6803184  0.7297909  2.139      0.1343535  0.149176   0.119531  
1324.6     0.208      8          2          9.22       7.965      1.588      2.011      1.396      0.194341   0.194341   0.2435059  11.13846   23.5782    8.485      0.6780039  0.7305676  2.072      0.1489845  0.178514   0.119455  
1324.8     0.208      8          2          9.334      7.455      1.411      1.879      1.369      0.1998526  0.1998526  0.2513828  14.09005   19.61005   8.056      0.6780071  0.7317052  2.407      0.1561523  0.1924651  0.1198395 
1325       0.208      8          2          9.511      7.264      1.411      1.879      1.345      0.2007512  0.2007512  0.2563918  14.64054   14.73051   7.595      0.67027    0.7273033  3.276      0.168608   0.2163176  0.1208984 
1325.2     0.208      8          2          9.346      7.232      1.43       2.043      1.362      0.2058441  0.2058441  0.2580724  18.1924    19.23333   7.151      0.6681371  0.7230054  4.479      0.1582675  0.1939956  0.1225394 
1325.4     0.208      8          2          9.179      7.28       1.443      2.159      1.387      0.2090867  0.2090867  0.2583427  20.89062   25.19385   6.815      0.6651466  0.7183287  5.883      0.1492606  0.1737476  0.1247735 
1325.6     0.208      8          2          9.517      6.499      1.567      2.207      1.364      0.2028756  0.2028756  0.25969    16.02897   14.58833   6.509      0.6487439  0.7088912  7.153      0.172165   0.217176   0.1271539 
1325.8     0.208      8          2          9.422      5.576001   1.69       2.258      1.362      0.2083512  0.2083512  0.2631724  20.24542   17.0098    6.353      0.6528684  0.710893   7.688      0.1661249  0.2039758  0.1282739 
1326       0.208      8          2          9.694      5.033999   1.892      2.422      1.359      0.2072134  0.2072134  0.2683169  19.28648   10.95833   6.535      0.6558015  0.7174213  6.685      0.185162   0.244091   0.126233  
1326.2     0.208      8          2          9.637      4.779      1.962      2.377      1.328      0.214359   0.214359   0.2736595  26.15819   12.01603   6.757      0.6710144  0.7291777  5.616      0.1796983  0.2350779  0.1243188 
1326.4     0.208      8          2          9.662      4.811      2.013      2.03       1.316      0.2178491  0.2178491  0.2775339  30.3565    11.54012   7.025      0.6814768  0.7383364  4.613      0.180863   0.2389892  0.1227367 
1326.6     0.208      8          2          9.89       5.129      1.664      1.923      1.332      0.213289   0.213289   0.2791464  24.99123   7.98261    7.349      0.6823465  0.7426972  3.61       0.1995679  0.2778039  0.1213319 
1326.8     0.207      8          2          9.681      5.767      1.557      2.112      1.329      0.2188218  0.2188218  0.2786184  31.64237   11.19106   7.668      0.6954861  0.7505817  2.875      0.1812017  0.2420053  0.120398  
