~Version
 VERS              .         2.0                           : CWLS LOG ASCII STANDARD - VERSION 2.0
 WRAP              .         NO                            : ONE LINE PER DEPTH STEP
 DLM               .         SPACE                         : DELIMITING CHARACTER(SPACE TAB OR COMMA)
~Well Information
#_______________________________________________________________________________
#
#PARAMETER_NAME    .UNIT     VALUE                         : DESCRIPTION
#_______________________________________________________________________________
STRT               .м        970                           : First reference value
STOP               .м        1365.2                        : Last reference value
STEP               .м        0.2                           : Step increment
NULL               .         -9999                         : Missing value
COMP               .         AO"RD"KMG"                    : Company
WELL               .         3274                          : Well name
FLD                .         UZEN                          : Field
LOC                .                                       : Location
CNTY               .                                       : County
STAT               .                                       : State
CTRY               .         KAZAKHSTAN                    : Country
SRVC               .         AO"UPGF"                      : Service Company
DATE               .         31.12.1979                    : Date
UWI                .                                       : Unique Well ID
Block              .         4                             : 
Cartographic_reference_system .         GCS_WGS_1984                  : ESRI,PE_10_3_1- <?xml version="1.0" encoding="utf-16"?><ILateBoundCoordinateReferenceSystem name="GCS_WGS_1984"><AuthorityCode>EPSG,4326</AuthorityCode></ILateBoundCoordinateReferenceSystem>
Category           .         Нефтяная                      : 
Condition          .         В работе                      : 
Date               .         17.01.1980                    : 
EREF               .m        232                           : 100.8
Gorizont           .         17                            : 14
HZCS               .GCS_WGS_1984 WGS_1984_EASE-Grid_2.0_Global : ESRI,PE_10_3_1- <?xml version="1.0" encoding="utf-16"?><ILateBoundCoordinateReferenceSystem name="WGS_1984_EASE-Grid_2.0_Global"><AuthorityCode>EPSG,6933</AuthorityCode></ILateBoundCoordinateReferenceSystem>
Interpretator      .         0                             : 
Kupol              .         osnovnoi                      : osnovnoi
LATI               .dega     0.6391521823                  : GCS_WGS_1984
LONG               .dega     0.564246024                   : GCS_WGS_1984
Mud                .         0                             : 
Mud_density        .         0                             : 
Mud_resistivity    .         0                             : 
NGDU               .         НГДУ-1                        : 
ORIGINALWELLNAME   .         3274                          : 
Spud_date          .         1980                          : 1961
Viscosity          .         0                             : 
X                  .m        54442                         : 46154
Y                  .m        81537.1                       : 85761.93
YEAR               .         0                             : 
для_загрузки       .         17                            : 
~Parameter Information Block
#_______________________________________________________________________________
#
#PARAMETER_NAME    .UNIT     VALUE                         : DESCRIPTION
#_______________________________________________________________________________
SET                .         LQC_KAZNIPI_Petrel            : 
TLFamily_CALI      .         Caliper                       : 
TLFamily_COLL      .         Net Reservoir Flag            : 
TLFamily_CSAT      .         Fluid Code                    : 
TLFamily_DEPT      .         Measured Depth                : 
TLFamily_GR        .         Russian Gamma Ray             : 
TLFamily_LLS       .         Lateral Log Resistivity       : 
TLFamily_MINV      .         Micro Gradient Resistivity    : 
TLFamily_MNOR      .         Micro Resistivity             : 
TLFamily_NGLD      .         Neutron Gamma                 : 
TLFamily_PHIE      .         Effective Porosity            : 
TLFamily_PHIEN     .         Effective Porosity            : 
TLFamily_PHIT      .         Porosity                      : 
TLFamily_PRMB      .         Permeability                  : 
TLFamily_PRMB_DGR  .         Permeability                  : 
TLFamily_RT        .         Formation Resistivity         : 
TLFamily_SOIL_ARCHIE .         Oil Saturation                : 
TLFamily_SOIL_DW   .         Oil Saturation                : 
TLFamily_SP        .         Spontaneous Potential         : 
TLFamily_VSH_FIN   .         Shale Volume                  : 
TLFamily_VSH_GR    .         Shale Volume                  : 
TLFamily_VSH_SP    .         Shale Volume                  : 
~Curve Information
#_______________________________________________________________________________
#
#LOGNAME           .UNIT     LOG_ID                        : DESCRIPTION
#_______________________________________________________________________________
DEPT               .м                                      : Колонка глубины 
CALI               .м                                      : Каверномер 
COLL               .unitless                               : Описание 
CSAT               .unitless                               : Описание 
GR                 .uR/h                                   : Гамма каротаж 
LLS                .Ohmm                                   : Боковой каротаж 
MINV               .Ohmm                                   : Микро-градиент зонд 
MNOR               .Ohmm                                   : Микро-потенциал зонд 
NGLD               .у.е.                                   : Показания зонда НГК-60 аппаратуры ДРСТ-3-90 
PHIE               .v/v                                    : Описание 
PHIEN              .v/v                                    :  
PHIT               .v/v                                    : Описание 
PRMB               .mD                                     :  
PRMB_DGR           .mD                                     :  
RT                 .Ohmm                                   : УЭС пласта 
SOIL_ARCHIE        .v/v                                    :  
SOIL_DW            .v/v                                    :  
SP                 .мВ                                     : Потенциал самополяризации 
VSH_FIN            .v/v                                    : Описание 
VSH_GR             .v/v                                    : Shale volume 
VSH_SP             .v/v                                    : Shale Volume 
~Ascii
# ...
1250       0.212      -9999      -9999      9.732      2.007      2.754      2.674      1.34       0.1726348  0.1726348  0.2820886  4.413392   11.20392   2.748      0.3663624  0.5222673  40.714     0.3316784  0.2418919  0.4214649 
1250.2     0.213      -9999      -9999      9.839      1.742      1.721      1.595      1.359      0.1376089  0.1376089  0.2809568  0.9908506  9.470215   2.533      0.197921   0.4544536  47.867     0.4343876  0.25908    0.6096952 
1250.4     0.219      -9999      -9999      9.719      1.918      1.322      0.97       1.358      0.1216537  0.1216537  0.2832026  0.5017408  11.43512   2.347      0.07450399 0.409029   51.745     0.4895423  0.2398828  0.7392018 
1250.6     0.226      -9999      -9999      9.903      2.288      1.202      0.787      1.331      0.1219091  0.1219091  0.2892114  0.5072356  8.56426    2.4        0.08582291 0.423688   51.878     0.5069768  0.2699391  0.7440146 
1250.8     0.228      -9999      -9999      10.25      2.74       1.075      0.8        1.315      0.1277169  0.1277169  0.2975778  0.6498089  4.96497    2.537      0.1447115  0.4588705  50.408     0.5147299  0.3372471  0.6922126 
1251       0.224      -9999      -9999      10.452     3.262      1.227      0.794      1.295      0.145013   0.145013   0.3056145  1.358788   3.614795   2.692      0.2552913  0.5075427  47.199     0.4866711  0.3839105  0.5894316 
1251.2     0.216      -9999      -9999      10.37      3.831      1.715      1.671      1.267      0.1749074  0.1749074  0.3101136  4.862591   4.111834   2.866      0.3857779  0.5603261  42.185     0.4097159  0.3642361  0.4551956 
1251.4     0.211      8          2          10.484     4.306      2.184      2.157      1.26       0.1822491  0.1822491  0.3088402  6.650496   3.437543   3.065      0.4257625  0.5807284  38.508     0.3836092  0.3918737  0.3753448 
1251.6     0.21       8          2          10.339     4.389      2.634      2.598      1.314      0.1859027  0.1859027  0.3021447  7.771903   4.317063   3.293      0.4542913  0.5934379  37.037     0.3522485  0.3570636  0.3474334 
1251.8     0.21       8          2          10.174     4.294      2.446      3.053      1.324      0.1864503  0.1864503  0.2927125  7.955557   5.594674   3.558      0.4751026  0.6019055  35.633     0.3220067  0.3211979  0.3228154 
1252       0.211      8          2          9.947      3.95       2.159      3.015      1.336      0.1893072  0.1893072  0.2836219  8.986436   7.992211   3.869      0.5019823  0.6134643  33.828     0.2858021  0.2776676  0.2939366 
1252.2     0.211      8          2          9.7        3.747      2.07       2.586      1.376      0.1940072  0.1940072  0.2773311  10.98103   11.78163   4.129      0.5271606  0.6246811  32.023     0.2524965  0.2369765  0.2680165 
1252.4     0.212      8          2          9.624      3.638      2.241      2.491      1.366      0.1943459  0.1943459  0.2752139  11.14077   13.27589   4.217      0.5325274  0.6272165  31.755     0.2450545  0.2256991  0.2644099 
1252.6     0.212      8          2          9.688      3.435      2.292      2.567      1.357      0.194      0.194      0.2768742  10.97762   12.00587   4.119      0.5266069  0.6238567  31.956     0.2511341  0.2351591  0.2671092 
1252.8     0.212      8          2          9.65       3.199      2.102      2.422      1.332      0.1980322  0.1980322  0.280423   13.03751   12.7445    3.965      0.5266238  0.6227003  32.157     0.2496692  0.2294954  0.269843  
1253       0.212      8          2          9.922      3.215      1.924      2.396      1.348      0.1942154  0.1942154  0.2838257  11.07896   8.31238    3.841      0.5112992  0.6162848  32.157     0.2715463  0.2732497  0.269843  
1253.2     0.212      8          2          9.839      3.893      1.924      2.283      1.317      0.199729   0.199729   0.2859598  14.01601   9.470215   3.759      0.518216   0.618264   31.689     0.2613055  0.25908    0.2635311 
1253.4     0.212      8          2          10.029     4.211      1.816      2.327      1.33       0.1958737  0.1958737  0.2869195  11.89087   7.026099   3.733      0.5083686  0.6145992  31.354     0.2758965  0.2926661  0.2591269 
1253.6     0.212      8          2          10.269     4.199      1.645      2.056      1.352      0.1896475  0.1896475  0.2877423  9.117776   4.818946   3.75       0.4954173  0.610992   30.886     0.2972572  0.3413831  0.2531312 
1253.8     0.212      8          2          10.566     3.522      1.873      2.106      1.322      0.181758   0.181758   0.2892687  6.51265    3.022012   3.741      0.4758036  0.6049554  29.683     0.32579    0.413041   0.238539  
1254       0.212      8          2          10.869     2.702      2.133      1.936      1.316      0.1721836  0.1721836  0.2912837  4.329282   1.877353   3.598      0.4403634  0.5899854  28.012     0.3609094  0.5016678  0.220151  
1254.2     0.212      8          2          10.598     2.071      2.38       2.422      1.335      0.1884717  0.1884717  0.293135   8.671829   2.873833   3.22       0.4550729  0.5837232  27.276     0.3171615  0.4216082  0.2127149 
1254.4     0.212      8          2          10.497     1.708      2.412      2.75       1.311      0.1930283  0.1930283  0.2939873  10.53199   3.368047   2.882      0.4377843  0.5650109  27.677     0.3059365  0.3951555  0.2167174 
1254.6     0.212      8          2          10.332     1.599      2.26       2.706      1.301      0.1951867  0.1951867  0.2929408  11.54755   4.364803   2.634      0.419189   0.5461088  29.549     0.2962244  0.3554637  0.2369851 
1254.8     0.213      8          2          10.541     1.599      1.607      2.642      1.328      0.1785981  0.1785981  0.2903389  5.691513   3.143073   2.459      0.3519009  0.5103413  32.223     0.3386087  0.4064693  0.2707481 
1255       0.219      -9999      -9999      10.623     1.612      1.329      1.759      1.357      0.1592836  0.1592836  0.2885196  2.497334   2.763138   2.326      0.2650379  0.4709519  37.438     0.3916242  0.428425   0.3548235 
1255.2     0.228      -9999      -9999      10.566     1.622      1.449      1.033      1.336      0.1481533  0.1481533  0.2898512  1.553519   3.022012   2.225      0.2006957  0.4450295  41.783     0.4293876  0.413041   0.4457343 
1255.4     0.231      -9999      -9999      10.68      1.631      1.392      1.021      1.317      0.1453596  0.1453596  0.2945779  1.379017   2.526439   2.142      0.1727044  0.4358041  42.385     0.4521769  0.4443819  0.4599719 
1255.6     0.233      -9999      -9999      10.806     1.638      1.291      0.951      1.31       0.1462059  0.1462059  0.3015975  1.429704   2.072689   2.08       0.1654531  0.4369452  42.385     0.4708837  0.4817955  0.4599719 
1255.8     0.237      -9999      -9999      10.869     1.593      1.354      0.844      1.296      0.105412   0.105412   0.3101496  0.2509831  1.877353   2.027      0          0.3679518  42.185     0.6204168  0.5016678  0.7391658 
1256       0.234      -9999      -9999      10.933     1.478      1.025      0.863      1.281      0.1154945  0.1154945  0.3197701  0.3858302  1.69776    1.955      0          0.3890488  41.516     0.6190171  0.5226945  0.7153398 
1256.2     0.233      -9999      -9999      10.699     1.395      1.082      0.914      1.239      0.1407782  0.1407782  0.3295829  1.134259   2.452135   1.906      0.1014049  0.4353087  40.914     0.5721355  0.4498318  0.6944391 
1256.4     0.234      -9999      -9999      10.762     1.325      1.341      0.895      1.241      0.1505181  0.1505181  0.3386547  1.718376   2.221043   1.855      0.1414067  0.4511711  40.246     0.570111   0.4683855  0.6718366 
1256.6     0.238      -9999      -9999      10.99      1.306      1.474      0.951      1.229      0.1500655  0.1500655  0.3463832  1.685521   1.552326   1.813      0.1298501  0.451998   39.51      0.5949021  0.5421625  0.6476417 
1256.8     0.237      -9999      -9999      10.901     1.319      1.392      0.901      1.199      0.162524   0.162524   0.3517528  2.867455   1.7853     1.776      0.1803485  0.4678562  39.109     0.5734206  0.5120732  0.6347681 
