~Version
 VERS              .         2.0                           : CWLS LOG ASCII STANDARD - VERSION 2.0
 WRAP              .         NO                            : ONE LINE PER DEPTH STEP
 DLM               .         SPACE                         : DELIMITING CHARACTER(SPACE TAB OR COMMA)
~Well Information
#_______________________________________________________________________________
#
#PARAMETER_NAME    .UNIT     VALUE                         : DESCRIPTION
#_______________________________________________________________________________
STRT               .м        970                           : First reference value
STOP               .м        1365.2                        : Last reference value
STEP               .м        0.2                           : Step increment
NULL               .         -9999                         : Missing value
COMP               .         AO"RD"KMG"                    : Company
WELL               .         3274                          : Well name
FLD                .         UZEN                          : Field
LOC                .                                       : Location
CNTY               .                                       : County
STAT               .                                       : State
CTRY               .         KAZAKHSTAN                    : Country
SRVC               .         AO"UPGF"                      : Service Company
DATE               .         31.12.1979                    : Date
UWI                .                                       : Unique Well ID
Block              .         4                             : 
Cartographic_reference_system .         GCS_WGS_1984                  : ESRI,PE_10_3_1- <?xml version="1.0" encoding="utf-16"?><ILateBoundCoordinateReferenceSystem name="GCS_WGS_1984"><AuthorityCode>EPSG,4326</AuthorityCode></ILateBoundCoordinateReferenceSystem>
Category           .         Нефтяная                      : 
Condition          .         В работе                      : 
Date               .         17.01.1980                    : 
EREF               .m        232                           : 100.8
Gorizont           .         17                            : 14
HZCS               .GCS_WGS_1984 WGS_1984_EASE-Grid_2.0_Global : ESRI,PE_10_3_1- <?xml version="1.0" encoding="utf-16"?><ILateBoundCoordinateReferenceSystem name="WGS_1984_EASE-Grid_2.0_Global"><AuthorityCode>EPSG,6933</AuthorityCode></ILateBoundCoordinateReferenceSystem>
Interpretator      .         0                             : 
Kupol              .         osnovnoi                      : osnovnoi
LATI               .dega     0.6391521823                  : GCS_WGS_1984
LONG               .dega     0.564246024                   : GCS_WGS_1984
Mud                .         0                             : 
Mud_density        .         0                             : 
Mud_resistivity    .         0                             : 
NGDU               .         НГДУ-1                        : 
ORIGINALWELLNAME   .         3274                          : 
Spud_date          .         1980                          : 1961
Viscosity          .         0                             : 
X                  .m        54442                         : 46154
Y                  .m        81537.1                       : 85761.93
YEAR               .         0                             : 
для_загрузки       .         17                            : 
~Parameter Information Block
#_______________________________________________________________________________
#
#PARAMETER_NAME    .UNIT     VALUE                         : DESCRIPTION
#_______________________________________________________________________________
SET                .         LQC_KAZNIPI_Petrel            : 
TLFamily_CALI      .         Caliper                       : 
TLFamily_COLL      .         Net Reservoir Flag            : 
TLFamily_CSAT      .         Fluid Code                    : 
TLFamily_DEPT      .         Measured Depth                : 
TLFamily_GR        .         Russian Gamma Ray             : 
TLFamily_LLS       .         Lateral Log Resistivity       : 
TLFamily_MINV      .         Micro Gradient Resistivity    : 
TLFamily_MNOR      .         Micro Resistivity             : 
TLFamily_NGLD      .         Neutron Gamma                 : 
TLFamily_PHIE      .         Effective Porosity            : 
TLFamily_PHIEN     .         Effective Porosity            : 
TLFamily_PHIT      .         Porosity                      : 
TLFamily_PRMB      .         Permeability                  : 
TLFamily_PRMB_DGR  .         Permeability                  : 
TLFamily_RT        .         Formation Resistivity         : 
TLFamily_SOIL_ARCHIE .         Oil Saturation                : 
TLFamily_SOIL_DW   .         Oil Saturation                : 
TLFamily_SP        .         Spontaneous Potential         : 
TLFamily_VSH_FIN   .         Shale Volume                  : 
TLFamily_VSH_GR    .         Shale Volume                  : 
TLFamily_VSH_SP    .         Shale Volume                  : 
~Curve Information
#_______________________________________________________________________________
#
#LOGNAME           .UNIT     LOG_ID                        : DESCRIPTION
#_______________________________________________________________________________
DEPT               .м                                      : Колонка глубины 
CALI               .м                                      : Каверномер 
COLL               .unitless                               : Описание 
CSAT               .unitless                               : Описание 
GR                 .uR/h                                   : Гамма каротаж 
LLS                .Ohmm                                   : Боковой каротаж 
MINV               .Ohmm                                   : Микро-градиент зонд 
MNOR               .Ohmm                                   : Микро-потенциал зонд 
NGLD               .у.е.                                   : Показания зонда НГК-60 аппаратуры ДРСТ-3-90 
PHIE               .v/v                                    : Описание 
PHIEN              .v/v                                    :  
PHIT               .v/v                                    : Описание 
PRMB               .mD                                     :  
PRMB_DGR           .mD                                     :  
RT                 .Ohmm                                   : УЭС пласта 
SOIL_ARCHIE        .v/v                                    :  
SOIL_DW            .v/v                                    :  
SP                 .мВ                                     : Потенциал самополяризации 
VSH_FIN            .v/v                                    : Описание 
VSH_GR             .v/v                                    : Shale volume 
VSH_SP             .v/v                                    : Shale Volume 
~Ascii
# ...
1348       0.211      8          2          10.509     3.645      1.512      1.753      1.32       0.1916479  0.1916479  0.2805119  9.929845   2.934834   3.391      0.4987577  0.6047686  3.008      0.2692846  0.4180076  0.1205616 
1348.2     0.212      8          2          10.813     3.371      1.713      2.049      1.319      0.1855082  0.1855082  0.2907861  7.64224    1.795411   3.341      0.4807325  0.6047418  7.153      0.3190238  0.5108936  0.1271539 
1348.4     0.212      8          2          10.756     3.167      1.911      1.456      1.298      0.2008409  0.2008409  0.3043833  14.69665   1.968703   3.293      0.5121322  0.6249573  10.496     0.313765   0.4920288  0.1355011 
1348.6     0.212      8          2          10.497     3.039      1.481      0.933      1.278      0.228727   0.228727   0.3219728  48.27672   2.99232    3.2        0.5584683  0.6513129  14.44      0.2825631  0.4147097  0.1504165 
1348.8     0.212      8          2          10.452     3.02       1.664      1.065      1.202      0.2481807  0.2481807  0.3406882  110.6792   3.218103   3.065      0.5803661  0.6668507  15.978     0.2803259  0.4025726  0.1580793 
1349       0.212      8          2          10.718     2.982      2.095      1.191      1.135      0.241689   0.241689   0.3546538  83.91196   2.093424   2.919      0.5606173  0.6627073  22.463     0.3423177  0.4798411  0.2047942 
1349.2     0.213      8          2          10.875     2.778      2.019      1.179      1.157      0.2282016  0.2282016  0.3598821  47.20697   1.624192   2.84       0.5320985  0.6527318  27.878     0.3990316  0.5322356  0.2658278 
1349.4     0.213      8          2          11.034     2.485      1.569      1.216      1.192      0.2056664  0.2056664  0.3578974  18.05503   1.256068   2.771      0.4818025  0.6318834  32.157     0.461306   0.5911312  0.331481  
1349.6     0.213      8          2          11.293     2.379      1.721      1.191      1.214      0.1690726  0.1690726  0.3532639  3.791345   0.82639    2.647      0.372036   0.5894315  36.435     0.5581553  0.7013426  0.414968  
1349.8     0.212      -9999      -9999      11.653     2.275      1.721      1.021      1.196      0.1408258  0.1408258  0.3483454  1.136561   0.4617975  2.525      0.2471696  0.5450273  38.307     0.6288475  0.8        0.457695  
1350       0.212      -9999      -9999      11.919     2.122      1.728      1.04       1.191      0.1340439  0.1340439  0.3418281  0.8510911  0.3004068  2.422      0.1985918  0.5211328  38.374     0.629649   0.8        0.4592981 
1350.2     0.211      -9999      -9999      11.552     2.033      1.861      1.04       1.22       0.1253469  0.1253469  0.3320782  0.5873351  0.5436976  2.343      0.1370492  0.4916425  38.106     0.6264585  0.8        0.4529169 
1350.4     0.211      -9999      -9999      11.565     1.982      1.671      1.04       1.26       0.1171901  0.1171901  0.3206005  0.4147652  0.5323915  2.273      0.07184801 0.4590056  37.237     0.6163951  0.8        0.4327903 
1350.6     0.211      -9999      -9999      11.748     1.943      1.607      1.223      1.301      0.1101165  0.1101165  0.3113122  0.3067486  0.3960569  2.219      0.009012002 0.429287   36.636     0.6096839  0.8        0.4193678 
1350.8     0.212      -9999      -9999      11.887     1.931      1.911      1.292      1.302      0.1083604  0.1083604  0.3069335  0.2846134  0.3163547  2.195      0          0.4175829  35.9       0.6017366  0.8        0.4034732 
1351       0.216      -9999      -9999      11.754     1.943      1.728      1.374      1.258      0.1113113  0.1113113  0.3066888  0.3227848  0.3922344  2.174      0.008798904 0.4202178  34.964     0.592053   0.8        0.384106  
1351.2     0.218      -9999      -9999      11.59      1.982      1.411      1.103      1.283      0.115095   0.115095   0.3080704  0.3793125  0.5113049  2.153      0.03284514 0.4261727  34.229     0.584774   0.8        0.3695479 
1351.4     0.218      -9999      -9999      11.343     2.007      1.645      0.996      1.268      0.1305676  0.1305676  0.3100865  0.7338142  0.7622247  2.127      0.12851    0.4516689  33.895     0.5439968  0.7248757  0.3631179 
1351.6     0.217      -9999      -9999      11.135     2.007      1.88       0.964      1.286      0.1428069  0.1428069  0.3136408  1.236769   1.066859   2.099      0.1889066  0.4704747  35.9       0.5176784  0.6318835  0.4034732 
1351.8     0.215      -9999      -9999      11.046     2.001      1.829      1.015      1.268      0.1475669  0.1475669  0.3193173  1.515151   1.231939   2.086      0.2094401  0.4812778  37.772     0.5204557  0.5958316  0.4450798 
1352       0.214      -9999      -9999      11.015     2.007      1.614      1.033      1.218      0.1487464  0.1487464  0.3257478  1.593316   1.295244   2.077      0.2133079  0.4880348  39.577     0.5363678  0.5837638  0.4889718 
1352.2     0.214      -9999      -9999      11.268     2.02       1.582      1.172      1.239      0.1324067  0.1324067  0.3306278  0.7936918  0.8604715  2.077      0.1293982  0.4695833  40.446     0.6006699  0.6898639  0.5114759 
1352.4     0.214      -9999      -9999      11.577     2.026      1.506      1.179      1.215      0.1161124  0.1161124  0.3327985  0.3961333  0.5221638  2.075      0.02346548 0.4451509  40.513     0.6566244  0.8        0.5132488 
1352.6     0.215      -9999      -9999      11.482     2.039      1.411      1.229      1.228      0.118689   0.118689   0.3330231  0.4421472  0.6088355  2.072      0.04130481 0.4494156  40.179     0.6494971  0.7945296  0.5044647 
1352.8     0.215      -9999      -9999      11.432     2.033      1.721      1.235      1.251      0.1262636  0.1262636  0.3332301  0.610754   0.6600879  2.051      0.08724084 0.4593065  39.444     0.6271713  0.7687351  0.4856074 
1353       0.215      -9999      -9999      10.983     2.033      1.988      1.008      1.233      0.164092   0.164092   0.3344494  3.065776   1.364009   2.019      0.2681224  0.508283   38.441     0.5162344  0.5715625  0.4609063 
1353.2     0.215      -9999      -9999      11.148     2.02       1.601      0.97       1.203      0.1598352  0.1598352  0.3356604  2.556779   1.044675   1.984      0.2450045  0.4999016  37.037     0.5328038  0.6373288  0.4282788 
1353.4     0.215      -9999      -9999      11.173     2.001      1.557      1.065      1.224      0.1622162  0.1622162  0.3352347  2.830056   1.003297   1.95       0.248595   0.4980983  35.767     0.5242986  0.6479334  0.4006639 
1353.6     0.215      -9999      -9999      11.053     1.975      1.759      1.033      1.236      0.1724715  0.1724715  0.3328621  4.382766   1.218076   1.92       0.2824596  0.5042233  34.43      0.4860322  0.5985914  0.373473  
1353.8     0.216      -9999      -9999      10.952     1.956      1.778      1.16       1.228      0.1787975  0.1787975  0.3296547  5.740116   1.434104   1.914      0.3035997  0.507727   33.427     0.4571431  0.5599858  0.3543003 
1354       0.217      -9999      -9999      10.813     1.943      1.512      1.116      1.25       0.1868546  0.1868546  0.3273974  8.093908   1.795411   1.908      0.328839   0.5136937  32.691     0.4258873  0.5108936  0.3408808 
1354.2     0.217      -9999      -9999      -9999      1.937      1.5        1.119      1.264      1          1          0.3279841  9323618100000000.0000000 -9999      1.924      0.8448902  0.6192804  32.223     -4999.333  -9999      0.3326275 
1354.4     0.217      -9999      -9999      -9999      1.982      1.455      1.122      1.243      1          1          0.3317499  9323618100000000.0000000 -9999      1.96       0.8462337  0.6270748  32.023     -4999.335  -9999      0.3291659 
1354.6     0.217      -9999      -9999      -9999      2.058      2.178      1.254      1.205      1          1          0.3379328  9323618100000000.0000000 -9999      2.017      0.8482884  0.6391079  32.023     -4999.335  -9999      0.3291659 
1354.8     0.217      -9999      -9999      -9999      2.205      2.095      1.526      1.195      -9999      -9999      -9999      -9999      -9999      2.091      -9999      -9999      31.689     -4999.338  -9999      0.3234716 
