~Version
 VERS              .         2.0                           : CWLS LOG ASCII STANDARD - VERSION 2.0
 WRAP              .         NO                            : ONE LINE PER DEPTH STEP
 DLM               .         SPACE                         : DELIMITING CHARACTER(SPACE TAB OR COMMA)
~Well Information
#_______________________________________________________________________________
#
#PARAMETER_NAME    .UNIT     VALUE                         : DESCRIPTION
#_______________________________________________________________________________
STRT               .м        970                           : First reference value
STOP               .м        1365.2                        : Last reference value
STEP               .м        0.2                           : Step increment
NULL               .         -9999                         : Missing value
COMP               .         AO"RD"KMG"                    : Company
WELL               .         3274                          : Well name
FLD                .         UZEN                          : Field
LOC                .                                       : Location
CNTY               .                                       : County
STAT               .                                       : State
CTRY               .         KAZAKHSTAN                    : Country
SRVC               .         AO"UPGF"                      : Service Company
DATE               .         31.12.1979                    : Date
UWI                .                                       : Unique Well ID
Block              .         4                             : 
Cartographic_reference_system .         GCS_WGS_1984                  : ESRI,PE_10_3_1- <?xml version="1.0" encoding="utf-16"?><ILateBoundCoordinateReferenceSystem name="GCS_WGS_1984"><AuthorityCode>EPSG,4326</AuthorityCode></ILateBoundCoordinateReferenceSystem>
Category           .         Нефтяная                      : 
Condition          .         В работе                      : 
Date               .         17.01.1980                    : 
EREF               .m        232                           : 100.8
Gorizont           .         17                            : 14
HZCS               .GCS_WGS_1984 WGS_1984_EASE-Grid_2.0_Global : ESRI,PE_10_3_1- <?xml version="1.0" encoding="utf-16"?><ILateBoundCoordinateReferenceSystem name="WGS_1984_EASE-Grid_2.0_Global"><AuthorityCode>EPSG,6933</AuthorityCode></ILateBoundCoordinateReferenceSystem>
Interpretator      .         0                             : 
Kupol              .         osnovnoi                      : osnovnoi
LATI               .dega     0.6391521823                  : GCS_WGS_1984
LONG               .dega     0.564246024                   : GCS_WGS_1984
Mud                .         0                             : 
Mud_density        .         0                             : 
Mud_resistivity    .         0                             : 
NGDU               .         НГДУ-1                        : 
ORIGINALWELLNAME   .         3274                          : 
Spud_date          .         1980                          : 1961
Viscosity          .         0                             : 
X                  .m        54442                         : 46154
Y                  .m        81537.1                       : 85761.93
YEAR               .         0                             : 
для_загрузки       .         17                            : 
~Parameter Information Block
#_______________________________________________________________________________
#
#PARAMETER_NAME    .UNIT     VALUE                         : DESCRIPTION
#_______________________________________________________________________________
SET                .         LQC_KAZNIPI_Petrel            : 
TLFamily_CALI      .         Caliper                       : 
TLFamily_COLL      .         Net Reservoir Flag            : 
TLFamily_CSAT      .         Fluid Code                    : 
TLFamily_DEPT      .         Measured Depth                : 
TLFamily_GR        .         Russian Gamma Ray             : 
TLFamily_LLS       .         Lateral Log Resistivity       : 
TLFamily_MINV      .         Micro Gradient Resistivity    : 
TLFamily_MNOR      .         Micro Resistivity             : 
TLFamily_NGLD      .         Neutron Gamma                 : 
TLFamily_PHIE      .         Effective Porosity            : 
TLFamily_PHIEN     .         Effective Porosity            : 
TLFamily_PHIT      .         Porosity                      : 
TLFamily_PRMB      .         Permeability                  : 
TLFamily_PRMB_DGR  .         Permeability                  : 
TLFamily_RT        .         Formation Resistivity         : 
TLFamily_SOIL_ARCHIE .         Oil Saturation                : 
TLFamily_SOIL_DW   .         Oil Saturation                : 
TLFamily_SP        .         Spontaneous Potential         : 
TLFamily_VSH_FIN   .         Shale Volume                  : 
TLFamily_VSH_GR    .         Shale Volume                  : 
TLFamily_VSH_SP    .         Shale Volume                  : 
~Curve Information
#_______________________________________________________________________________
#
#LOGNAME           .UNIT     LOG_ID                        : DESCRIPTION
#_______________________________________________________________________________
DEPT               .м                                      : Колонка глубины 
CALI               .м                                      : Каверномер 
COLL               .unitless                               : Описание 
CSAT               .unitless                               : Описание 
GR                 .uR/h                                   : Гамма каротаж 
LLS                .Ohmm                                   : Боковой каротаж 
MINV               .Ohmm                                   : Микро-градиент зонд 
MNOR               .Ohmm                                   : Микро-потенциал зонд 
NGLD               .у.е.                                   : Показания зонда НГК-60 аппаратуры ДРСТ-3-90 
PHIE               .v/v                                    : Описание 
PHIEN              .v/v                                    :  
PHIT               .v/v                                    : Описание 
PRMB               .mD                                     :  
PRMB_DGR           .mD                                     :  
RT                 .Ohmm                                   : УЭС пласта 
SOIL_ARCHIE        .v/v                                    :  
SOIL_DW            .v/v                                    :  
SP                 .мВ                                     : Потенциал самополяризации 
VSH_FIN            .v/v                                    : Описание 
VSH_GR             .v/v                                    : Shale volume 
VSH_SP             .v/v                                    : Shale Volume 
~Ascii
# ...
1173       0.216      1          2          9.195      15.197     3.071      2.081      1.342      0.214462   0.214462   0.2631899  26.27324   36.42726   22.519     0.8017675  0.8388252  25.137     0.1476606  0.1494623  0.1458589 
1173.2     0.216      1          2          9.327      15.293     1.943      2.062      1.381      0.2121509  0.2121509  0.2630146  23.80714   29.84846   22.843     0.8012251  0.8391774  25.204     0.1541323  0.1621266  0.146138  
1173.4     0.216      1          2          9.504      16.201     1.373      2.043      1.361      0.2092035  0.2092035  0.2630579  20.99493   22.85212   22.843     0.7987882  0.8382429  25.07      0.1631951  0.1808086  0.1455816 
1173.6     0.217      1          2          9.549      15.771     1.455      1.98       1.345      0.2086734  0.2086734  0.2634123  20.52561   21.35189   22.519     0.7969867  0.8370368  25.137     0.1658755  0.1858921  0.1458589 
1173.8     0.217      1          2          9.745      14.448     1.284      1.86       1.349      0.2046134  0.2046134  0.2633356  17.26213   15.88509   22.519     0.7934827  0.8356602  25.204     0.177946   0.2097539  0.146138  
1174       0.217      1          2          9.517      14.401     1.208      2.213      1.379      0.2087141  0.2087141  0.2629927  20.56127   22.4082    21.603     0.7930269  0.8334776  25.337     0.1644804  0.1822628  0.1466979 
1174.2     0.217      1          2          9.492      14.847     1.17       2.8        1.348      0.2095483  0.2095483  0.2633671  21.30595   23.2697    21.314     0.792437   0.8327712  25.337     0.1630873  0.1794766  0.1466979 
1174.4     0.217      1          2          9.801      14.959     1.538      2.971      1.361      0.2050117  0.2050117  0.2650883  17.55788   14.59791   21.901     0.7911224  0.8341341  25.404     0.1820503  0.2171178  0.1469829 
1174.6     0.217      1          2          9.675      14.815     2.051      2.352      1.361      0.2108352  0.2108352  0.2681427  22.50802   17.65482   22.519     0.7988009  0.8394073  25.271     0.1736592  0.2008992  0.1464191 
1174.8     0.217      1          2          9.492      15.022     2.038      2.781      1.332      0.2181178  0.2181178  0.271707   30.70646   23.2697    23.87      0.8099328  0.8474015  25.003     0.1623915  0.1794766  0.1453063 
1175       0.217      1          2          9.543      14.401     1.683      3.639      1.332      0.2198085  0.2198085  0.2741213  33.00228   21.54607   24.993     0.8152359  0.8521126  24.669     0.1645843  0.1852062  0.1439624 
1175.2     0.217      1          2          9.599      14.082     1.968      2.642      1.322      0.2185813  0.2185813  0.2738801  31.31939   19.80019   26.228     0.8184879  0.855222   24.535     0.1675723  0.1917083  0.1434364 
1175.4     0.217      1          2          9.378      14.672     2.779      1.841      1.343      0.2196942  0.2196942  0.2708812  32.84189   27.63753   28.077     0.8249745  0.8594768  24.402     0.155112   0.1673023  0.1429216 
1175.6     0.217      1          2          9.643      15.898     1.886      1.803      1.351      0.2106482  0.2106482  0.2666892  22.32927   18.52826   29.645     0.8230174  0.8595389  24.335     0.1698209  0.1969768  0.142665  
1175.8     0.217      1          2          9.504      16.854     1.398      2.049      1.377      0.2100741  0.2100741  0.2632809  21.78915   22.85212   30.207     0.8241528  0.8596494  24.067     0.1612328  0.1808086  0.141657  
1176       0.216      1          2          9.422      18.081     1.436      2.18       1.361      0.2097564  0.2097564  0.2613323  21.49586   25.86214   31.398     0.8270872  0.8616554  23.8       0.1562907  0.1719001  0.1406812 
1176.2     0.217      1          2          9.378      18.256     1.278      2.327      1.35       0.2091641  0.2091641  0.2598245  20.95972   27.63753   32.029     0.8282719  0.8624017  23.532     0.1535162  0.1673023  0.13973   
1176.4     0.219      1          2          9.403      17.73      1.889      2.832      1.364      0.2070027  0.2070027  0.2578652  19.11395   26.61435   32.686     0.8283545  0.8625937  23.131     0.1541287  0.1698994  0.1383581 
1176.6     0.222      1          2          9.372      18.415     2.387      3.349      1.385      0.2060768  0.2060768  0.2563721  18.37389   27.8889    33.371     0.8293521  0.8632955  23.064     0.1524098  0.1666849  0.1381347 
1176.8     0.223      1          2          9.612      19.386     3.096      3.684      1.388      0.2020614  0.2020614  0.2567399  15.48194   19.41553   33.371     0.8264022  0.8622742  23.064     0.1656924  0.1932501  0.1381347 
1177       0.22       1          2          9.536      19.93      2.754      3.242      1.355      0.2051843  0.2051843  0.2583317  17.6876    21.77487   32.029     0.8253744  0.8608211  22.931     0.1610527  0.1844091  0.1376964 
1177.2     0.215      1          2          9.448      20.554     2.114      2.832      1.341      0.2073035  0.2073035  0.2588089  19.36073   24.86713   32.029     0.8269302  0.8615695  22.864     0.1560771  0.1746762  0.137478  
1177.4     0.213      1          2          9.542      20.673     1.823      2.415      1.371      0.2038961  0.2038961  0.2572653  16.74202   21.57862   30.791     0.8211356  0.8573328  23.131     0.1617251  0.1850921  0.1383581 
1177.6     0.213      1          2          9.599      20.376     1.607      1.999      1.394      0.2007931  0.2007931  0.2553286  14.66675   19.80019   29.645     0.8154755  0.8530191  23.265     0.165259   0.1917083  0.1388098 
1177.8     0.213      1          2          9.561      18.67      1.341      1.929      1.375      0.200761   0.200761   0.2544531  14.6467    20.96873   28.077     0.810683   0.8486592  23.064     0.1627032  0.1872717  0.1381347 
1178       0.213      1          2          9.346      18.145     1.436      2.283      1.359      0.2037629  0.2037629  0.2537701  16.64717   29.00483   26.667     0.8085408  0.8454353  23.332     0.151537   0.1640358  0.1390381 
1178.2     0.213      1          2          9.283      17.3       1.652      1.986      1.365      0.2030587  0.2030587  0.2518863  16.15465   31.89749   24.607     0.8005793  0.8381644  23.064     0.1479625  0.1577903  0.1381347 
1178.4     0.213      1          2          9.182      16.44      1.563      1.437      1.402      0.2020967  0.2020967  0.2494274  15.50526   37.14888   23.175     0.7940387  0.8319543  23.198     0.1434265  0.1482699  0.1385831 
1178.6     0.213      1          2          9.34       15.086     1.031      2.415      1.4        0.1982718  0.1982718  0.2481415  13.17145   29.26861   22.835     0.7891251  0.8288285  23.265     0.1511202  0.1634306  0.1388098 
1178.8     0.213      1          2          9.22       14.337     1.791      3.128      1.369      0.2006269  0.2006269  0.2485372  14.56312   35.07863   22.519     0.7899132  0.8286448  23.198     0.1451828  0.1517825  0.1385831 
1179       0.213      1          2          9.479      14.974     2.247      2.687      1.386      0.1976031  0.1976031  0.2498467  12.8011    23.73067   21.314     0.7815506  0.8232772  23.198     0.1583139  0.1780448  0.1385831 
1179.2     0.214      1          2          9.814      14.815     1.867      2.529      1.393      0.1924287  0.1924287  0.2514075  10.26609   14.31433   20.759     0.7736583  0.8195825  23.198     0.1787235  0.218864   0.1385831 
1179.4     0.214      1          2          9.606      13.891     1.785      2.459      1.355      0.1982698  0.1982698  0.2528675  13.17031   19.59214   20.231     0.7767947  0.8201237  23.131     0.1654475  0.1925369  0.1383581 
1179.6     0.214      1          2          9.403      13.238     1.74       2.491      1.38       0.2034925  0.2034925  0.2543181  16.45632   26.61435   19.978     0.7805     0.8215479  23.064     0.1540171  0.1698994  0.1381347 
1179.8     0.214      1          2          9.22       12.935     1.728      2.56       1.388      0.2088135  0.2088135  0.2566138  20.64861   35.07863   19.73      0.7841179  0.8232938  22.998     0.1448494  0.1517825  0.1379164 
