~Version
 VERS              .         2.0                           : CWLS LOG ASCII STANDARD - VERSION 2.0
 WRAP              .         NO                            : ONE LINE PER DEPTH STEP
 DLM               .         SPACE                         : DELIMITING CHARACTER(SPACE TAB OR COMMA)
~Well Information
#_______________________________________________________________________________
#
#PARAMETER_NAME    .UNIT     VALUE                         : DESCRIPTION
#_______________________________________________________________________________
STRT               .м        970                           : First reference value
STOP               .м        1365.2                        : Last reference value
STEP               .м        0.2                           : Step increment
NULL               .         -9999                         : Missing value
COMP               .         AO"RD"KMG"                    : Company
WELL               .         3274                          : Well name
FLD                .         UZEN                          : Field
LOC                .                                       : Location
CNTY               .                                       : County
STAT               .                                       : State
CTRY               .         KAZAKHSTAN                    : Country
SRVC               .         AO"UPGF"                      : Service Company
DATE               .         31.12.1979                    : Date
UWI                .                                       : Unique Well ID
Block              .         4                             : 
Cartographic_reference_system .         GCS_WGS_1984                  : ESRI,PE_10_3_1- <?xml version="1.0" encoding="utf-16"?><ILateBoundCoordinateReferenceSystem name="GCS_WGS_1984"><AuthorityCode>EPSG,4326</AuthorityCode></ILateBoundCoordinateReferenceSystem>
Category           .         Нефтяная                      : 
Condition          .         В работе                      : 
Date               .         17.01.1980                    : 
EREF               .m        232                           : 100.8
Gorizont           .         17                            : 14
HZCS               .GCS_WGS_1984 WGS_1984_EASE-Grid_2.0_Global : ESRI,PE_10_3_1- <?xml version="1.0" encoding="utf-16"?><ILateBoundCoordinateReferenceSystem name="WGS_1984_EASE-Grid_2.0_Global"><AuthorityCode>EPSG,6933</AuthorityCode></ILateBoundCoordinateReferenceSystem>
Interpretator      .         0                             : 
Kupol              .         osnovnoi                      : osnovnoi
LATI               .dega     0.6391521823                  : GCS_WGS_1984
LONG               .dega     0.564246024                   : GCS_WGS_1984
Mud                .         0                             : 
Mud_density        .         0                             : 
Mud_resistivity    .         0                             : 
NGDU               .         НГДУ-1                        : 
ORIGINALWELLNAME   .         3274                          : 
Spud_date          .         1980                          : 1961
Viscosity          .         0                             : 
X                  .m        54442                         : 46154
Y                  .m        81537.1                       : 85761.93
YEAR               .         0                             : 
для_загрузки       .         17                            : 
~Parameter Information Block
#_______________________________________________________________________________
#
#PARAMETER_NAME    .UNIT     VALUE                         : DESCRIPTION
#_______________________________________________________________________________
SET                .         LQC_KAZNIPI_Petrel            : 
TLFamily_CALI      .         Caliper                       : 
TLFamily_COLL      .         Net Reservoir Flag            : 
TLFamily_CSAT      .         Fluid Code                    : 
TLFamily_DEPT      .         Measured Depth                : 
TLFamily_GR        .         Russian Gamma Ray             : 
TLFamily_LLS       .         Lateral Log Resistivity       : 
TLFamily_MINV      .         Micro Gradient Resistivity    : 
TLFamily_MNOR      .         Micro Resistivity             : 
TLFamily_NGLD      .         Neutron Gamma                 : 
TLFamily_PHIE      .         Effective Porosity            : 
TLFamily_PHIEN     .         Effective Porosity            : 
TLFamily_PHIT      .         Porosity                      : 
TLFamily_PRMB      .         Permeability                  : 
TLFamily_PRMB_DGR  .         Permeability                  : 
TLFamily_RT        .         Formation Resistivity         : 
TLFamily_SOIL_ARCHIE .         Oil Saturation                : 
TLFamily_SOIL_DW   .         Oil Saturation                : 
TLFamily_SP        .         Spontaneous Potential         : 
TLFamily_VSH_FIN   .         Shale Volume                  : 
TLFamily_VSH_GR    .         Shale Volume                  : 
TLFamily_VSH_SP    .         Shale Volume                  : 
~Curve Information
#_______________________________________________________________________________
#
#LOGNAME           .UNIT     LOG_ID                        : DESCRIPTION
#_______________________________________________________________________________
DEPT               .м                                      : Колонка глубины 
CALI               .м                                      : Каверномер 
COLL               .unitless                               : Описание 
CSAT               .unitless                               : Описание 
GR                 .uR/h                                   : Гамма каротаж 
LLS                .Ohmm                                   : Боковой каротаж 
MINV               .Ohmm                                   : Микро-градиент зонд 
MNOR               .Ohmm                                   : Микро-потенциал зонд 
NGLD               .у.е.                                   : Показания зонда НГК-60 аппаратуры ДРСТ-3-90 
PHIE               .v/v                                    : Описание 
PHIEN              .v/v                                    :  
PHIT               .v/v                                    : Описание 
PRMB               .mD                                     :  
PRMB_DGR           .mD                                     :  
RT                 .Ohmm                                   : УЭС пласта 
SOIL_ARCHIE        .v/v                                    :  
SOIL_DW            .v/v                                    :  
SP                 .мВ                                     : Потенциал самополяризации 
VSH_FIN            .v/v                                    : Описание 
VSH_GR             .v/v                                    : Shale volume 
VSH_SP             .v/v                                    : Shale Volume 
~Ascii
# ...
1299       0.217      -9999      -9999      11.476     1.663      1.892      1.216      1.311      0.05776022 0.05776022 0.3043983  0.03288648 0.8456489  2.064      0          0.2397219  39.845     0.7473881  0.6947761  0.8       
1299.2     0.218      -9999      -9999      11.426     1.689      1.943      1.16       1.31       0.1030987  0.1030987  0.3027622  0.2274033  0.9131089  2.035      0          0.3621877  41.382     0.6050409  0.6733395  0.5367424 
1299.4     0.218      -9999      -9999      11.482     1.72       1.943      1.071      1.343      0.09110598 0.09110598 0.3010061  0.1363521  0.8378952  2.007      0          0.3269732  42.719     0.6360611  0.6973941  0.574728  
1299.6     0.218      -9999      -9999      11.198     1.759      1.924      1.229      1.339      0.102349   0.102349   0.3001306  0.2202468  1.295741   1.984      0          0.3487083  44.056     0.5993384  0.5836723  0.6150044 
1299.8     0.218      -9999      -9999      11.034     1.791      1.937      1.494      1.305      0.1056172  0.1056172  0.2999485  0.2531891  1.666666   1.97       0          0.3534157  45.193     0.5888825  0.5266547  0.6511103 
1300       0.218      -9999      -9999      10.806     1.81       1.835      1.835      1.331      0.1152977  0.1152977  0.2998614  0.3826052  2.365075   1.97       0          0.3734998  45.527     0.5592841  0.456521   0.6620471 
1300.2     0.218      -9999      -9999      10.939     1.822      1.74       1.715      1.343      0.1097598  0.1097598  0.3005082  0.3021171  1.928326   1.989      0          0.3661042  45.46      0.5780255  0.49621    0.659841  
1300.4     0.218      -9999      -9999      10.907     1.835      1.766      1.526      1.326      0.1140042  0.1140042  0.3031267  0.3620695  2.025413   2.019      0          0.3828513  45.46      0.5730986  0.4863562  0.659841  
1300.6     0.218      -9999      -9999      10.775     1.816      1.848      1.134      1.317      0.1242082  0.1242082  0.3076874  0.559493   2.48034    2.064      0.04845448 0.4141092  45.594     0.5559977  0.4477361  0.6642594 
1300.8     0.218      -9999      -9999      10.642     1.791      1.854      1.248      1.295      0.1341563  0.1341563  0.3128277  0.8551814  3.042112   2.105      0.1183869  0.4421339  45.795     0.5414286  0.4119245  0.6709327 
1301       0.218      -9999      -9999      10.907     1.787      1.718      1.409      1.29       0.1242255  0.1242255  0.3174023  0.5599072  2.025413   2.147      0.06601087 0.4367237  46.196     0.5853841  0.4863562  0.6844119 
1301.2     0.218      -9999      -9999      11.135     1.784      1.582      1.57       1.298      0.1126949  0.1126949  0.3212245  0.3424061  1.427306   2.108      0          0.4155734  46.731     0.6319076  0.5610734  0.7027419 
1301.4     0.219      -9999      -9999      11.174     1.771      1.614      1.216      1.28       0.1098857  0.1098857  0.3241825  0.3037438  1.344367   1.989      0          0.3964996  47.332     0.6493843  0.5749577  0.7238107 
1301.6     0.219      -9999      -9999      11.217     1.765      1.785      0.983      1.261      0.1054811  0.1054811  0.3255351  0.2517233  1.258497   1.881      0          0.3721327  47.867     0.6668304  0.590665   0.7429957 
1301.8     0.219      -9999      -9999      11.628     1.784      1.943      0.989      1.282      0.07384998 0.07384998 0.3249584  0.06531889 0.6696673  1.813      0          0.2799321  48.268     0.7609348  0.7642257  0.7576438 
1302       0.219      -9999      -9999      11.369     1.835      1.728      0.958      1.291      0.08975703 0.08975703 0.3236066  0.1287289  0.9966003  1.806      0          0.320362   48.536     0.7086352  0.6497077  0.7675626 
1302.2     0.219      -9999      -9999      10.952     1.918      1.734      1.059      1.3        0.1144853  0.1144853  0.3228571  0.3695755  1.890229   1.827      0          0.3777952  48.402     0.6314299  0.5002697  0.7625902 
1302.4     0.219      -9999      -9999      10.806     2.052      1.74       1.129      1.274      0.1252683  0.1252683  0.3223894  0.5853708  2.365075   1.853      0.006443853 0.4014732  47.733     0.5973366  0.456521   0.7381523 
1302.6     0.219      -9999      -9999      10.838     2.141      2.095      1.191      1.27       0.128985   0.128985   0.3206456  0.6859205  2.251707   1.877      0.03725707 0.4096767  46.53      0.5807895  0.4657703  0.6958086 
1302.8     0.219      -9999      -9999      10.869     1.994      2.051      1.128      1.308      0.1323142  0.1323142  0.3170335  0.7905665  2.147067   1.888      0.06096784 0.4127986  44.992     0.5597553  0.4749091  0.6446013 
1303       0.219      -9999      -9999      10.863     1.791      1.74       1.052      1.302      0.137105   0.137105   0.3126142  0.9697841  2.166934   1.89       0.09006301 0.4158251  43.254     0.531846   0.4731263  0.5905657 
1303.2     0.219      -9999      -9999      10.794     1.669      1.582      0.983      1.312      0.143577   0.143577   0.3090526  1.278062   2.409044   1.888      0.1254582  0.4216229  41.85      0.5014413  0.4531001  0.5497825 
1303.4     0.219      -9999      -9999      10.857     1.612      1.607      0.989      1.333      0.1446382  0.1446382  0.3076848  1.337234   2.186982   1.888      0.1310492  0.4216816  40.647     0.4940808  0.4713505  0.5168111 
1303.6     0.219      -9999      -9999      10.794     1.587      1.531      1.046      1.319      0.1524144  0.1524144  0.3087018  1.863128   2.409044   1.888      0.1697919  0.4344347  39.778     0.4735983  0.4531001  0.4940964 
1303.8     0.219      -9999      -9999      10.781     1.58       1.563      1.223      1.289      0.1579051  0.1579051  0.3108022  2.354744   2.457598   1.883      0.1939894  0.4437616  39.109     0.4633246  0.4494233  0.477226  
1304       0.219      -9999      -9999      10.958     1.593      1.626      1.248      1.304      0.1520002  0.1520002  0.3125114  1.830506   1.872897   1.881      0.1663701  0.4370208  38.842     0.4863976  0.5021548  0.4706404 
1304.2     0.219      -9999      -9999      10.941     1.58       1.658      1.273      1.31       0.1546962  0.1546962  0.313789   2.053555   1.922415   1.877      0.178217   0.441653   38.708     0.4820996  0.4968324  0.4673668 
1304.4     0.219      -9999      -9999      10.926     1.568      1.867      1.128      1.304      0.1570733  0.1570733  0.315399   2.272669   1.967193   1.875      0.1886536  0.4463967  38.708     0.4797749  0.4921829  0.4673668 
1304.6     0.219      -9999      -9999      10.863     1.548      1.804      1.148      1.293      0.1613382  0.1613382  0.3170597  2.726042   2.166934   1.872      0.2067698  0.4534772  38.842     0.4718834  0.4731263  0.4706404 
1304.8     0.219      -9999      -9999      11.141     1.542      1.734      1.172      1.277      0.1469718  0.1469718  0.3175534  1.477179   1.414222   1.866      0.1383524  0.4329786  38.842     0.5169138  0.5631873  0.4706404 
1305       0.219      -9999      -9999      11.306     1.536      1.607      1.185      1.298      0.1362936  0.1362936  0.3164602  0.9367999  1.097793   1.861      0.078686   0.4144398  38.708     0.5459592  0.6245515  0.4673668 
1305.2     0.219      -9999      -9999      11.11      1.542      1.614      1.179      1.317      0.1472709  0.1472709  0.3147243  1.49614    1.483145   1.859      0.1383581  0.4292184  38.508     0.5074347  0.5523497  0.4625196 
1305.4     0.219      -9999      -9999      11.034     1.548      1.677      1.065      1.291      0.1511761  0.1511761  0.3133301  1.767282   1.666666   1.859      0.1577764  0.4334129  38.24      0.491376   0.5266547  0.4560972 
1305.6     0.219      -9999      -9999      11.337     1.555      1.576      1.046      1.309      0.1340718  0.1340718  0.3123261  0.8521059  1.046777   1.859      0.0649309  0.4056342  37.705     0.5401644  0.6368058  0.443523  
1305.8     0.219      -9999      -9999      11.293     1.561      1.556      1.134      1.31       0.1385273  0.1385273  0.3114081  1.030435   1.119919   1.859      0.0911799  0.4118675  37.037     0.5238811  0.6194834  0.4282788 
