~Version
 VERS              .         2.0                           : CWLS LOG ASCII STANDARD - VERSION 2.0
 WRAP              .         NO                            : ONE LINE PER DEPTH STEP
 DLM               .         SPACE                         : DELIMITING CHARACTER(SPACE TAB OR COMMA)
~Well Information
#_______________________________________________________________________________
#
#PARAMETER_NAME    .UNIT     VALUE                         : DESCRIPTION
#_______________________________________________________________________________
STRT               .м        970                           : First reference value
STOP               .м        1365.2                        : Last reference value
STEP               .м        0.2                           : Step increment
NULL               .         -9999                         : Missing value
COMP               .         AO"RD"KMG"                    : Company
WELL               .         3274                          : Well name
FLD                .         UZEN                          : Field
LOC                .                                       : Location
CNTY               .                                       : County
STAT               .                                       : State
CTRY               .         KAZAKHSTAN                    : Country
SRVC               .         AO"UPGF"                      : Service Company
DATE               .         31.12.1979                    : Date
UWI                .                                       : Unique Well ID
Block              .         4                             : 
Cartographic_reference_system .         GCS_WGS_1984                  : ESRI,PE_10_3_1- <?xml version="1.0" encoding="utf-16"?><ILateBoundCoordinateReferenceSystem name="GCS_WGS_1984"><AuthorityCode>EPSG,4326</AuthorityCode></ILateBoundCoordinateReferenceSystem>
Category           .         Нефтяная                      : 
Condition          .         В работе                      : 
Date               .         17.01.1980                    : 
EREF               .m        232                           : 100.8
Gorizont           .         17                            : 14
HZCS               .GCS_WGS_1984 WGS_1984_EASE-Grid_2.0_Global : ESRI,PE_10_3_1- <?xml version="1.0" encoding="utf-16"?><ILateBoundCoordinateReferenceSystem name="WGS_1984_EASE-Grid_2.0_Global"><AuthorityCode>EPSG,6933</AuthorityCode></ILateBoundCoordinateReferenceSystem>
Interpretator      .         0                             : 
Kupol              .         osnovnoi                      : osnovnoi
LATI               .dega     0.6391521823                  : GCS_WGS_1984
LONG               .dega     0.564246024                   : GCS_WGS_1984
Mud                .         0                             : 
Mud_density        .         0                             : 
Mud_resistivity    .         0                             : 
NGDU               .         НГДУ-1                        : 
ORIGINALWELLNAME   .         3274                          : 
Spud_date          .         1980                          : 1961
Viscosity          .         0                             : 
X                  .m        54442                         : 46154
Y                  .m        81537.1                       : 85761.93
YEAR               .         0                             : 
для_загрузки       .         17                            : 
~Parameter Information Block
#_______________________________________________________________________________
#
#PARAMETER_NAME    .UNIT     VALUE                         : DESCRIPTION
#_______________________________________________________________________________
SET                .         LQC_KAZNIPI_Petrel            : 
TLFamily_CALI      .         Caliper                       : 
TLFamily_COLL      .         Net Reservoir Flag            : 
TLFamily_CSAT      .         Fluid Code                    : 
TLFamily_DEPT      .         Measured Depth                : 
TLFamily_GR        .         Russian Gamma Ray             : 
TLFamily_LLS       .         Lateral Log Resistivity       : 
TLFamily_MINV      .         Micro Gradient Resistivity    : 
TLFamily_MNOR      .         Micro Resistivity             : 
TLFamily_NGLD      .         Neutron Gamma                 : 
TLFamily_PHIE      .         Effective Porosity            : 
TLFamily_PHIEN     .         Effective Porosity            : 
TLFamily_PHIT      .         Porosity                      : 
TLFamily_PRMB      .         Permeability                  : 
TLFamily_PRMB_DGR  .         Permeability                  : 
TLFamily_RT        .         Formation Resistivity         : 
TLFamily_SOIL_ARCHIE .         Oil Saturation                : 
TLFamily_SOIL_DW   .         Oil Saturation                : 
TLFamily_SP        .         Spontaneous Potential         : 
TLFamily_VSH_FIN   .         Shale Volume                  : 
TLFamily_VSH_GR    .         Shale Volume                  : 
TLFamily_VSH_SP    .         Shale Volume                  : 
~Curve Information
#_______________________________________________________________________________
#
#LOGNAME           .UNIT     LOG_ID                        : DESCRIPTION
#_______________________________________________________________________________
DEPT               .м                                      : Колонка глубины 
CALI               .м                                      : Каверномер 
COLL               .unitless                               : Описание 
CSAT               .unitless                               : Описание 
GR                 .uR/h                                   : Гамма каротаж 
LLS                .Ohmm                                   : Боковой каротаж 
MINV               .Ohmm                                   : Микро-градиент зонд 
MNOR               .Ohmm                                   : Микро-потенциал зонд 
NGLD               .у.е.                                   : Показания зонда НГК-60 аппаратуры ДРСТ-3-90 
PHIE               .v/v                                    : Описание 
PHIEN              .v/v                                    :  
PHIT               .v/v                                    : Описание 
PRMB               .mD                                     :  
PRMB_DGR           .mD                                     :  
RT                 .Ohmm                                   : УЭС пласта 
SOIL_ARCHIE        .v/v                                    :  
SOIL_DW            .v/v                                    :  
SP                 .мВ                                     : Потенциал самополяризации 
VSH_FIN            .v/v                                    : Описание 
VSH_GR             .v/v                                    : Shale volume 
VSH_SP             .v/v                                    : Shale Volume 
~Ascii
# ...
1047       0.255      -9999      -9999      8.993      1.701      1.411      1.21       1.177      0.1072939  0.1072939  0.3420487  0.2719583  0.736553   2.053      0.182181   0.6845931  64.58      0.7113782  0.7350878  0.6876685 
1047.2     0.257      -9999      -9999      8.885      1.606      1.196      1.122      1.21       0.1087866  0.1087866  0.3335214  0.2898339  0.8949866  2.012      0.157976   0.679004   64.447     0.6810147  0.6788738  0.6831555 
1047.4     0.259      -9999      -9999      8.752      1.548      1.12       1.298      1.231      0.1194676  0.1194676  0.3333752  0.4570756  1.137669   1.974      0.158507   0.6894479  64.38      0.6482048  0.6155183  0.6808913 
1047.6     0.259      -9999      -9999      8.62       1.491      1.322      1.008      1.188      0.1391199  0.1391199  0.3421387  1.056808   1.443549   1.948      0.146582   0.7126461  64.113     0.6152084  0.5584868  0.6719301 
1047.8     0.255      -9999      -9999      8.853      1.446      1.018      0.832      1.122      0.1367285  0.1367285  0.3558991  0.9543358  0.9481726  1.96       0.207363   0.7172714  63.912     0.6641534  0.6630583  0.6652485 
1048       0.252      -9999      -9999      8.784      1.415      0.942      0.825      1.107      0.1564094  0.1564094  0.369065   2.209227   1.073854   1.994      0.2392     0.7417144  63.711     0.6444109  0.6301997  0.658622  
1048.2     0.248      -9999      -9999      8.727      1.402      1.43       0.983      1.089      0.1696675  0.1696675  0.378145   3.888761   1.19015    2.022      0.254145   0.7562371  63.729     0.6317502  0.6042871  0.6592132 
1048.4     0.247      -9999      -9999      8.74       1.402      1.284      0.882      1.084      0.172019   0.172019   0.3828183  4.299005   1.162565   2.051      0.285834   0.7610866  63.979     0.6387855  0.6101014  0.6674696 
1048.6     0.255      -9999      -9999      8.569      1.421      1.215      0.977      1.099      0.1842794  0.1842794  0.3845354  7.252021   1.582659   2.075      0          0.7705503  64.228     0.6068364  0.5378951  0.6757777 
1048.8     0.262      -9999      -9999      8.506      1.459      1.091      0.787      1.084      0.1873055  0.1873055  0.3849218  8.25107    1.773149   2.094      0          0.7734532  64.477     0.5988372  0.5135031  0.6841713 
1049       0.256      -9999      -9999      8.354      1.489      0.974      1.09       1.091      0.1970844  0.1970844  0.3851847  12.52102   2.332543   2.105      0          0.7794672  64.38      0.5700008  0.4591103  0.6808913 
1049.2     0.249      -9999      -9999      8.253      1.517      0.809      1.204      1.105      0.2021279  0.2021279  0.3859151  15.52594   2.798712   2.108      0          0.7824501  64.58      0.5569307  0.4261929  0.6876685 
1049.4     0.245      -9999      -9999      8.051      1.574      1.259      1.116      1.079      0.2115534  0.2115534  0.3863723  23.20809   4.029172   2.108      0          0.7872133  64.714     0.5297545  0.367269   0.6922399 
1049.6     0.244      -9999      -9999      8.234      1.612      1.633      1.052      1.067      0.1998244  0.1998244  0.3845277  14.07312   2.896302   2.113      0          0.7811142  64.915     0.5597069  0.4202695  0.6991441 
1049.8     0.241      -9999      -9999      8.196      1.625      1.158      1.141      1.091      0.1946109  0.1946109  0.3793136  11.26742   3.101809   2.127      0          0.777501   65.249     0.559705   0.4086687  0.7107414 
1050       0.238      -9999      -9999      8.019      1.606      1.354      1.103      1.126      0.1956992  0.1956992  0.3725462  11.8027    4.268604   2.153      0          0.7773191  65.316     0.5358999  0.3587132  0.7130867 
1050.2     0.237      -9999      -9999      7.817      1.568      1.373      1.068      1.15       0.1983008  0.1983008  0.3673528  13.18773   6.145304   2.186      0.019738   0.7787448  65.383     0.5122786  0.3091189  0.7154383 
1050.4     0.237      -9999      -9999      7.792      1.555      1.36       1.033      1.121      0.195933   0.195933   0.3648276  11.92101   6.428797   2.225      0.051525   0.7786406  65.516     0.5118017  0.3034784  0.7201249 
1050.6     0.238      -9999      -9999      7.785      1.542      1.284      1.065      1.12       0.1942398  0.1942398  0.3632679  11.09047   6.510494   2.276      0.067913   0.7797385  65.583     0.5122065  0.3019176  0.7224954 
1050.8     0.238      -9999      -9999      7.804      1.548      1.449      1.103      1.132      0.1900889  0.1900889  0.3606046  9.291074   6.291125   2.323      0.093533   0.7788871  65.717     0.5167142  0.3061729  0.7272555 
1051       0.238      -9999      -9999      7.95       1.561      1.36       0.926      1.135      0.1794984  0.1794984  0.3565397  5.914316   4.83442    2.371      0.058791   0.7737946  65.851     0.5364886  0.3409365  0.7320407 
1051.2     0.237      -9999      -9999      8.203      1.587      1.139      0.989      1.166      0.162921   0.162921   0.3522745  2.916415   3.062886   2.403      0.042131   0.7633485  65.984     0.5737985  0.4107813  0.7368158 
1051.4     0.235      -9999      -9999      8.259      1.644      1.398      0.945      1.162      0.1544647  0.1544647  0.3486755  2.033382   2.768585   2.4        0.015352   0.7558978  66.319     0.5885177  0.4280806  0.7489548 
1051.6     0.23       -9999      -9999      8.196      1.675      1.145      1.109      1.148      0.1532063  0.1532063  0.3450168  1.927131   3.101809   2.4        0          0.7535817  66.452     0.5812438  0.4086687  0.753819  
1051.8     0.222      -9999      -9999      8.057      1.708      1.044      1.292      1.163      0.1533656  0.1533656  0.3402496  1.940265   3.985793   2.393      0.020156   0.7515048  66.721     0.5663152  0.368896   0.7637345 
1052       0.22       -9999      -9999      7.874      1.771      1.512      1.273      1.19       0.1536233  0.1536233  0.3351347  1.961706   5.544808   2.347      0.054879   0.7472472  67.095     0.5500346  0.3223743  0.7776948 
1052.2     0.22       -9999      -9999      7.735      1.842      1.772      1.254      1.213      0.1557479  0.1557479  0.3320825  2.147763   7.125023   2.273      0.084055   0.7435661  67.095     0.5343474  0.291      0.7776948 
1052.4     0.219      -9999      -9999      7.95       1.899      1.74       1.254      1.188      0.1501528  0.1501528  0.3328031  1.691815   4.83442    2.201      0.084898   0.7352138  66.783     0.5534856  0.3409365  0.7660346 
1052.6     0.219      -9999      -9999      8.253      1.867      1.753      1.216      1.183      0.1426362  0.1426362  0.3369394  1.227798   2.798712   2.189      0.026768   0.7298436  66.386     0.5887975  0.4261929  0.751402  
1052.8     0.222      -9999      -9999      8.538      1.771      1.975      1.343      1.171      0.1334268  0.1334268  0.3429489  0.8289839  1.673688   2.216      0.126292   0.7256674  66.185     0.6349156  0.5257514  0.7440798 
1053       0.23       -9999      -9999      8.361      1.644      2.051      1.292      1.148      0.152289   0.152289   0.3492206  1.853192   2.303273   2.247      0.152433   0.7462614  65.851     0.5967622  0.4614837  0.7320407 
1053.2     0.242      -9999      -9999      8.032      1.568      1.747      1.204      1.143      0.1759543  0.1759543  0.354532   5.08461    4.169667   2.276      0.191948   0.7662488  65.516     0.5411447  0.3621646  0.7201249 
1053.4     0.246      -9999      -9999      7.943      1.523      1.569      1.147      1.133      0.1847074  0.1847074  0.358332   7.38564    4.895855   2.289      0.13454    0.7734596  65.316     0.5261349  0.3391831  0.7130867 
1053.6     0.25       -9999      -9999      8.055      1.504      1.416      0.806      1.136      0.1821983  0.1821983  0.3606358  6.636083   4.000199   2.296      0.172087   0.7731151  65.316     0.5407198  0.3683529  0.7130867 
1053.8     0.258      -9999      -9999      8.165      1.517      1.272      0.567      1.132      0.1766376  0.1766376  0.3613662  5.23499    3.280214   2.296      0.214092   0.7700326  65.516     0.5597836  0.3994423  0.7201249 
