~Version
 VERS              .         2.0                           : CWLS LOG ASCII STANDARD - VERSION 2.0
 WRAP              .         NO                            : ONE LINE PER DEPTH STEP
 DLM               .         SPACE                         : DELIMITING CHARACTER(SPACE TAB OR COMMA)
~Well Information
#_______________________________________________________________________________
#
#PARAMETER_NAME    .UNIT     VALUE                         : DESCRIPTION
#_______________________________________________________________________________
STRT               .M        1045                          : First reference value
STOP               .M        1304                          : Last reference value
STEP               .M        0.2                           : Step increment
NULL               .         -9999                         : Missing value
COMP               .                                       : Company
WELL               .         3534                          : Well name
FLD                .         Узень                         : Field
LOC                .                                       : Location
CNTY               .                                       : County
STAT               .                                       : State
CTRY               .                                       : Country
SRVC               .                                       : Service Company
DATE               .                                       : Date
UWI                .                                       : Unique Well ID
Block              .         4                             : 
Category           .         Нефтяная                      : 
Condition          .         В работе                      : 
Date               .         17.11.2001                    : 
EREF               .m        227.8                         : 100.8
Gorizont           .         15                            : 14
Interpretator      .         Алпанова Н.К.                 : 
Kupol              .         основной                      : osnovnoi
Moii_15_vosst      .         15_vosst                      : 
Mud                .                                       : 
Mud_density        .                                       : 
Mud_resistivity    .                                       : 
Mud_density        .                                       : 
Mud_resistivity    .                                       : 
NGDU               .         НГДУ-1                        : 
ORIGINALWELLNAME   .         3534                          : 
Spud_date          .         2002                          : 1961
Spud_date          .         2002                          : 1961
Viscosity          .                                       : 
X                  .m        54058.1                       : 46154
Y                  .m        82287.8                       : 85761.93
YEAR               .         2018                          : 
~Parameter Information Block
#_______________________________________________________________________________
#
#PARAMETER_NAME    .UNIT     VALUE                         : DESCRIPTION
#_______________________________________________________________________________
SET                .         LQC_KAZNIPI_Petrel            : 
TLFamily_CALI      .         Caliper                       : 
TLFamily_COLL      .         Net Reservoir Flag            : 
TLFamily_CSAT      .         Fluid Code                    : 
TLFamily_DEPT      .         Measured Depth                : 
TLFamily_GR        .         Russian Gamma Ray             : 
TLFamily_LLS       .         Lateral Log Resistivity       : 
TLFamily_MBK       .         Micro Lateral Log Resistivity : 
TLFamily_RT        .         Formation Resistivity         : 
TLFamily_SP        .         Spontaneous Potential         : 
TLFamily_VSH_FIN   .         Shale Volume                  : 
TLFamily_VSH_GR    .         Shale Volume                  : 
TLFamily_VSH_SP    .         Shale Volume                  : 
~Curve Information
#_______________________________________________________________________________
#
#LOGNAME           .UNIT     LOG_ID                        : DESCRIPTION
#_______________________________________________________________________________
DEPT               .M                                      : Колонка глубины 
CALI               .м                                      : Каверномер 
COLL               .unitless                               :  
CSAT               .unitless                               :  
GR                 .мкР/ч                                  :  
LLS                .Ohmm                                   : Боковой каротаж 
MBK                .Ohmm                                   : Микробоковой каротаж 
RT                 .Ом·м                                   : Description 
SP                 .мВ                                     : Потенциал самополяризации 
VSH_FIN            .unitless                               : Описание 
VSH_GR             .unitless                               : Shale volume 
VSH_SP             .unitless                               : Shale Volume 
~Ascii
# ...
1288.4     0.215      -9999      -9999      8.3881     1.883      1.804      1.883      44.078     0.407267   0.1620646  0.407267  
1288.6     0.216      -9999      -9999      8.4042     1.903      1.829      1.903      46.382     0.464945   0.1635252  0.4649453 
1288.8     0.216      -9999      -9999      8.2451     1.943      1.907      1.943      48.687     0.530094   0.1496504  0.5300937 
1289       0.217      -9999      -9999      8.0455     1.943      2.058      1.943      50.615     0.590853   0.1338963  0.590853  
1289.2     0.217      -9999      -9999      7.8459     1.949      2.131      1.949      50.141     0.576911   0.1198007  0.5769107 
1289.4     0.218      -9999      -9999      7.6463     2.025      2.131      2.025      49.335     0.553024   0.1071889  0.5530235 
1289.6     0.217      -9999      -9999      7.4467     2.327      2.284      2.327      47.628     0.504049   0.09590486 0.5040491 
1289.8     0.217      -9999      -9999      -9999      3.202      3.346      3.202      44.331     0.419546   -9999      0.4195465 
1290       0.216      -9999      -9999      -9999      6.149      11.973     6.149      41.866     0.366641   -9999      0.3666409 
1290.2     0.215      6          6          -9999      11.812     20.206     11.812     38.786     0.309625   -9999      0.3096248 
1290.4     0.213      6          6          -9999      18.52      21.809     18.52      37.588     0.291027   -9999      0.2910275 
1290.6     0.212      6          6          -9999      17.547     21.463     17.547     36.221     0.271195   -9999      0.2711952 
1290.8     0.215      6          6          -9999      12.487     15.413     12.487     35.682     0.264613   -9999      0.2646127 
1291       0.216      6          6          -9999      7.627      6.259      7.627      35.143     0.25823    -9999      0.2582301 
1291.2     0.213      6          6          -9999      5.099      3.897      5.099      34.905     0.256166   -9999      0.2561662 
1291.4     0.211      1          2          -9999      3.971      3.255      3.971      34.604     0.253263   -9999      0.2532626 
1291.6     0.213      1          2          -9999      3.918      3.475      3.918      34.042     0.246928   -9999      0.2469278 
1291.8     0.216      1          2          -9999      3.836      3.587      3.836      33.246     0.237846   -9999      0.2378461 
1292       0.214      1          2          -9999      3.579      3.323      3.579      32.915     0.234849   -9999      0.2348486 
1292.2     0.211      1          2          -9999      3.461      3.121      3.461      32.45      0.230292   -9999      0.2302916 
1292.4     0.208      1          2          -9999      3.247      2.994      3.247      31.387     0.219057   -9999      0.2190571 
1292.6     0.207      1          2          -9999      3.008      2.833      3.008      30.113     0.206481   -9999      0.2064813 
1292.8     0.207      1          2          -9999      2.886      2.694      2.886      30.013     0.206376   -9999      0.2063764 
1293       0.207      1          2          -9999      2.6        2.588      2.6        29.857     0.205707   -9999      0.2057068 
1293.2     0.207      1          2          -9999      2.482      2.332      2.482      30.13      0.20941    -9999      0.2094104 
1293.4     0.209      1          2          -9999      2.409      2.332      2.409      31.473     0.22512    -9999      0.2251204 
1293.6     0.211      1          2          -9999      2.232      2.332      2.232      32.293     0.236024   -9999      0.2360243 
1293.8     0.213      1          2          -9999      2.162      2.206      2.162      36.833     0.30379    -9999      0.3037903 
1294       0.215      -9999      -9999      -9999      2.111      2.13       2.111      41.372     0.3947     -9999      0.3946998 
1294.2     0.217      -9999      -9999      -9999      2.025      2.044      2.025      43.129     0.43824    -9999      0.4382398 
1294.4     0.217      -9999      -9999      -9999      1.984      2.044      1.984      44.616     0.47896    -9999      0.4789601 
1294.6     0.217      -9999      -9999      -9999      1.977      2.102      1.977      46.798     0.543678   -9999      0.5436777 
1294.8     0.217      -9999      -9999      -9999      1.97       2.058      1.97       47.431     0.563402   -9999      0.5634021 
1295       0.217      -9999      -9999      -9999      1.943      2.161      1.943      45.78      0.514111   -9999      0.5141109 
1295.2     0.216      -9999      -9999      -9999      2.068      2.332      2.068      43.303     0.447374   -9999      0.4473742 
1295.4     0.216      -9999      -9999      -9999      2.248      2.535      2.248      40.826     0.388803   -9999      0.3888026 
1295.6     0.215      -9999      -9999      -9999      2.327      2.519      2.327      40.274     0.376806   -9999      0.3768063 
1295.8     0.213      -9999      -9999      -9999      2.343      2.431      2.343      40.935     0.391216   -9999      0.3912159 
1296       0.21       -9999      -9999      -9999      2.263      2.606      2.263      41.527     0.404582   -9999      0.4045824 
1296.2     0.211      -9999      -9999      -9999      2.248      2.717      2.248      40.274     0.376806   -9999      0.3768063 
1296.4     0.212      -9999      -9999      -9999      2.311      2.755      2.311      39.021     0.350946   -9999      0.3509458 
1296.6     0.211      -9999      -9999      -9999      2.46       2.892      2.46       37.768     0.326929   -9999      0.326929  
1296.8     0.211      -9999      -9999      -9999      2.582      2.974      2.582      36.515     0.304684   -9999      0.304684  
1297       0.21       -9999      -9999      -9999      2.674      2.998      2.674      35.262     0.284139   -9999      0.2841389 
1297.2     0.209      -9999      -9999      -9999      2.655      2.624      2.655      34.798     0.276948   -9999      0.2769477 
1297.4     0.209      -9999      -9999      -9999      2.564      2.736      2.564      36.782     0.309279   -9999      0.3092792 
1297.6     0.21       -9999      -9999      -9999      2.494      2.953      2.494      37.071     0.314341   -9999      0.3143408 
1297.8     0.211      -9999      -9999      -9999      2.582      2.974      2.582      34.967     0.279541   -9999      0.2795413 
1298       0.211      -9999      -9999      -9999      2.637      2.933      2.637      32.863     0.249284   -9999      0.2492844 
1298.2     0.209      -9999      -9999      -9999      2.674      2.994      2.674      31.019     0.226233   -9999      0.2262334 
1298.4     0.208      -9999      -9999      -9999      2.692      2.943      2.692      33.183     0.253607   -9999      0.2536068 
1298.6     0.209      -9999      -9999      -9999      2.73       2.872      2.73       35.348     0.285496   -9999      0.2854961 
1298.8     0.211      -9999      -9999      -9999      2.73       2.552      2.73       37.512     0.322242   -9999      0.3222425 
1299       0.213      -9999      -9999      -9999      2.73       2.448      2.73       39.237     0.35527    -9999      0.3552703 
1299.2     0.214      -9999      -9999      -9999      2.73       2.605      2.73       40.78      0.387788   -9999      0.3877885 
1299.4     0.215      -9999      -9999      -9999      2.749      2.755      2.749      42.323     0.423256   -9999      0.4232557 
1299.6     0.217      -9999      -9999      -9999      2.749      2.933      2.749      39.194     0.354405   -9999      0.354405  
1299.8     0.216      -9999      -9999      -9999      2.749      2.953      2.749      35.887     0.294179   -9999      0.2941789 
1300       0.215      -9999      -9999      -9999      2.749      3.232      2.749      -9999      -9999      -9999      -9999     
1300.2     0.214      -9999      -9999      -9999      2.749      5.711      2.749      -9999      -9999      -9999      -9999     
1300.4     0.211      -9999      -9999      -9999      2.749      7.751      2.749      -9999      -9999      -9999      -9999     
