~Version
 VERS              .         2.0                           : CWLS LOG ASCII STANDARD - VERSION 2.0
 WRAP              .         NO                            : ONE LINE PER DEPTH STEP
 DLM               .         SPACE                         : DELIMITING CHARACTER(SPACE TAB OR COMMA)
~Well Information
#_______________________________________________________________________________
#
#PARAMETER_NAME    .UNIT     VALUE                         : DESCRIPTION
#_______________________________________________________________________________
STRT               .M        1045                          : First reference value
STOP               .M        1304                          : Last reference value
STEP               .M        0.2                           : Step increment
NULL               .         -9999                         : Missing value
COMP               .                                       : Company
WELL               .         3534                          : Well name
FLD                .         Узень                         : Field
LOC                .                                       : Location
CNTY               .                                       : County
STAT               .                                       : State
CTRY               .                                       : Country
SRVC               .                                       : Service Company
DATE               .                                       : Date
UWI                .                                       : Unique Well ID
Block              .         4                             : 
Category           .         Нефтяная                      : 
Condition          .         В работе                      : 
Date               .         17.11.2001                    : 
EREF               .m        227.8                         : 100.8
Gorizont           .         15                            : 14
Interpretator      .         Алпанова Н.К.                 : 
Kupol              .         основной                      : osnovnoi
Moii_15_vosst      .         15_vosst                      : 
Mud                .                                       : 
Mud_density        .                                       : 
Mud_resistivity    .                                       : 
Mud_density        .                                       : 
Mud_resistivity    .                                       : 
NGDU               .         НГДУ-1                        : 
ORIGINALWELLNAME   .         3534                          : 
Spud_date          .         2002                          : 1961
Spud_date          .         2002                          : 1961
Viscosity          .                                       : 
X                  .m        54058.1                       : 46154
Y                  .m        82287.8                       : 85761.93
YEAR               .         2018                          : 
~Parameter Information Block
#_______________________________________________________________________________
#
#PARAMETER_NAME    .UNIT     VALUE                         : DESCRIPTION
#_______________________________________________________________________________
SET                .         LQC_KAZNIPI_Petrel            : 
TLFamily_CALI      .         Caliper                       : 
TLFamily_COLL      .         Net Reservoir Flag            : 
TLFamily_CSAT      .         Fluid Code                    : 
TLFamily_DEPT      .         Measured Depth                : 
TLFamily_GR        .         Russian Gamma Ray             : 
TLFamily_LLS       .         Lateral Log Resistivity       : 
TLFamily_MBK       .         Micro Lateral Log Resistivity : 
TLFamily_RT        .         Formation Resistivity         : 
TLFamily_SP        .         Spontaneous Potential         : 
TLFamily_VSH_FIN   .         Shale Volume                  : 
TLFamily_VSH_GR    .         Shale Volume                  : 
TLFamily_VSH_SP    .         Shale Volume                  : 
~Curve Information
#_______________________________________________________________________________
#
#LOGNAME           .UNIT     LOG_ID                        : DESCRIPTION
#_______________________________________________________________________________
DEPT               .M                                      : Колонка глубины 
CALI               .м                                      : Каверномер 
COLL               .unitless                               :  
CSAT               .unitless                               :  
GR                 .мкР/ч                                  :  
LLS                .Ohmm                                   : Боковой каротаж 
MBK                .Ohmm                                   : Микробоковой каротаж 
RT                 .Ом·м                                   : Description 
SP                 .мВ                                     : Потенциал самополяризации 
VSH_FIN            .unitless                               : Описание 
VSH_GR             .unitless                               : Shale volume 
VSH_SP             .unitless                               : Shale Volume 
~Ascii
# ...
1057.2     0.238      -9999      -9999      6.88       2.054      1.666      2.054      59.315     0.5403837  0.5334738  0.5472935 
1057.4     0.24       -9999      -9999      6.6381     1.997      1.868      1.997      59.291     0.5069838  0.4700258  0.5439419 
1057.6     0.243      -9999      -9999      6.3962     1.916      1.749      1.916      59.107     0.4749781  0.4141241  0.5358322 
1057.8     0.239      -9999      -9999      6.1542     1.838      1.654      1.838      58.923     0.4463404  0.3648518  0.527829  
1058       0.235      -9999      -9999      6.006      1.8        1.631      1.8        59.289     0.4368456  0.3376184  0.5360728 
1058.2     0.235      -9999      -9999      6.2641     2.011      1.773      2.011      59.693     0.4660161  0.386456   0.5455762 
1058.4     0.234      -9999      -9999      6.5222     2.141      1.981      2.141      59.802     0.4943004  0.4423583  0.5462424 
1058.6     0.233      -9999      -9999      6.5988     2.171      2.037      2.171      59.533     0.4980134  0.4604554  0.5355714 
1058.8     0.234      -9999      -9999      6.373      2.082      1.861      2.082      59.264     0.4671046  0.4091254  0.5250837 
1059       0.229      -9999      -9999      6.3762     2.039      1.689      2.039      58.995     0.4622946  0.4098113  0.5147779 
1059.2     0.224      -9999      -9999      6.6085     2.011      1.773      2.011      58.726     0.4837259  0.4627994  0.5046524 
1059.4     0.223      -9999      -9999      6.8407     1.876      1.737      1.876      58.458     0.5086723  0.5226114  0.4947331 
1059.6     0.223      -9999      -9999      6.913301   1.726      1.565      1.726      58.189     0.5139084  0.5428543  0.4849624 
1059.8     0.223      -9999      -9999      6.7699     1.667      1.45       1.667      57.92      0.4894825  0.5035979  0.475367  
1060       0.224      -9999      -9999      6.977201   1.714      1.42       1.714      58.387     0.5234686  0.561319   0.4856181 
1060.2     0.227      -9999      -9999      7.1846     2.217      2.051      2.217      58.903     0.5615597  0.6256883  0.4974312 
1060.4     0.233      -9999      -9999      6.5827     2.443      2.562      2.443      59.419     0.4830467  0.4565914  0.5095019 
1060.6     0.233      -9999      -9999      5.9267     2.186      2.023      2.186      59.935     0.4228621  0.3238908  0.5218333000000001
1060.8     0.225      -9999      -9999      5.4425     1.916      1.785      1.916      60.355     0.3914818  0.2513768  0.5315868 
1061       0.224      -9999      -9999      6.1603     1.679      1.609      1.679      60.484     0.4494241  0.3660187  0.5328295 
1061.2     0.226      -9999      -9999      6.5281     1.863      1.609      1.863      60.613     0.4889006  0.4437265  0.5340747 
1061.4     0.229      -9999      -9999      6.878      2.156      2.066      2.156      60.742     0.5341191  0.5329155  0.5353226 
1061.6     0.231      -9999      -9999      7.5958     2.443      2.457      2.443      60.871     0.6562638  0.7759547999999999 0.5365729 
1061.8     0.233      -9999      -9999      7.8629     2.564      2.652      2.564      60.837     0.6687329  0.8        0.5374659000000001
1062       0.233      -9999      -9999      7.379      2.443      2.58       2.443      60.675     0.6136299  0.6927095  0.5345504 
1062.2     0.233      -9999      -9999      6.8952     2.311      2.474      2.311      60.514     0.5347068  0.5377353  0.5316784 
1062.4     0.235      -9999      -9999      6.4113     2.248      2.411      2.248      60.353     0.4731151  0.4174103  0.52882   
1062.6     0.233      -9999      -9999      6.1769     2.295      2.357      2.295      60.192     0.447594   0.3692129  0.5259752 
1062.8     0.229      -9999      -9999      6.2419     2.477      2.474      2.477      60.03      0.4525529  0.3819912  0.5231147 
1063       0.227      -9999      -9999      6.4355     2.674      2.843      2.674      59.869     0.4715142  0.4227315  0.520297  
1063.2     0.226      -9999      -9999      6.588201   2.988      3.212      2.988      59.698     0.4875562  0.4579079  0.5172045 
1063.4     0.226      -9999      -9999      6.564      3.225      3.55       3.225      59.375     0.4809656  0.4521438  0.5097874 
1063.6     0.224      -9999      -9999      6.1769     3.457      3.625      3.457      59.052     0.4358391  0.3692129  0.5024652 
1063.8     0.223      -9999      -9999      5.7656     3.316      3.6        3.316      58.73      0.3964816  0.2976978  0.4952653 
1064       0.224      -9999      -9999      5.1109     3.029      3.453      3.029      58.508     0.3511112  0.2113208  0.4909016 
1064.2     0.224      -9999      -9999      4.2974     2.826      3.312      2.826      58.508     0.3153526  0.1380412  0.4926641 
1064.4     0.226      -9999      -9999      4.1522     2.711      3.199      2.711      58.508     0.3111851  0.1279382  0.4944321 
1064.6     0.228      -9999      -9999      4.1899     2.73       3.133      2.73       58.362     0.2787127  0.06525913999999999 0.4921662 
1064.8     0.228      -9999      -9999      4.6298     2.826      3.625      2.826      57.581     0.2742721  0.07578852 0.4727556 
1065       0.228      -9999      -9999      5.0696     2.967      3.885      2.967      56.8       0.2710307  0.08801379 0.4540476 
1065.2     0.228      -9999      -9999      5.5095     3.029      3.94       3.029      56.019     0.2691216  0.1022146  0.4360287 
1065.4     0.228      -9999      -9999      5.3105     3.029      3.753      3.029      55.238     0.2571062  0.09552687 0.4186854 
1065.6     0.227      -9999      -9999      5.0202     3.008      3.6        3.008      54.457     0.244276   0.08654770000000001 0.4020044 
1065.8     0.226      -9999      -9999      4.869      3.093      4.051      3.093      53.597     0.2332276  0.08221048 0.3842447 
1066       0.225      -9999      -9999      4.9496     3.136      4.252      3.136      52.5       0.223427   0.08449474999999999 0.3623593 
1066.2     0.224      -9999      -9999      4.8351     3.136      4.107      3.136      51.403     0.2115086  0.08126827 0.341749  
1066.4     0.224      -9999      -9999      4.5254     3.136      4.079      3.136      50.403     0.1986434  0.07314527 0.3241415 
1066.6     0.224      -9999      -9999      4.2157     3.136      4.136      3.136      50.081     0.1926481  0.06583418000000001 0.3194621 
1066.8     0.224      -9999      -9999      3.994      3.18       4.464      3.18       49.758     0.1879464  0.06105369 0.3148391 
1067       0.224      -9999      -9999      3.9187     3.136      4.433      3.136      49.435     0.1849002  0.05951029 0.3102902 
1067.2     0.223      -9999      -9999      3.8434     3.115      4.079      3.115      48.833     0.1795407  0.05800589 0.3010755 
1067.4     0.223      -9999      -9999      3.8976     3.093      4.558      3.093      48.231     0.1756284  0.05908485 0.292172  
1067.6     0.223      -9999      -9999      4.0524     3.093      4.687      3.093      47.629     0.1729261  0.0622782  0.2835741 
1067.8     0.223      -9999      -9999      3.8669     3.051      3.727      3.051      47.027     0.1668735  0.05847127 0.2752758 
1068       0.223      -9999      -9999      3.6815     3.051      3.913      3.051      46.344     0.1604954  0.0548989  0.2660918 
1068.2     0.223      -9999      -9999      3.496      3.051      4.622      3.051      45.484     0.1531915  0.05154303 0.25484   
1068.4     0.224      -9999      -9999      3.378      3.029      4.433      3.029      44.624     0.1468575  0.04951586 0.2441992 
1068.6     0.223      -9999      -9999      3.4627     3.008      4.282      3.008      43.763     0.1425507  0.0509627  0.2341387 
1068.8     0.223      -9999      -9999      3.5474     2.988      4.165      2.988      43.407     0.1415248  0.05245181 0.2305977 
1069       0.223      -9999      -9999      3.5232     2.926      3.913      2.926      43.443     0.1419117  0.05202196 0.2318013 
1069.2     0.225      -9999      -9999      3.4627     2.866      3.913      2.866      43.479     0.1419883  0.0509627  0.2330139 
