~Version
 VERS              .         2.0                           : CWLS LOG ASCII STANDARD - VERSION 2.0
 WRAP              .         NO                            : ONE LINE PER DEPTH STEP
 DLM               .         SPACE                         : DELIMITING CHARACTER(SPACE TAB OR COMMA)
~Well Information
#_______________________________________________________________________________
#
#PARAMETER_NAME    .UNIT     VALUE                         : DESCRIPTION
#_______________________________________________________________________________
STRT               .M        1045                          : First reference value
STOP               .M        1304                          : Last reference value
STEP               .M        0.2                           : Step increment
NULL               .         -9999                         : Missing value
COMP               .                                       : Company
WELL               .         3534                          : Well name
FLD                .         Узень                         : Field
LOC                .                                       : Location
CNTY               .                                       : County
STAT               .                                       : State
CTRY               .                                       : Country
SRVC               .                                       : Service Company
DATE               .                                       : Date
UWI                .                                       : Unique Well ID
Block              .         4                             : 
Category           .         Нефтяная                      : 
Condition          .         В работе                      : 
Date               .         17.11.2001                    : 
EREF               .m        227.8                         : 100.8
Gorizont           .         15                            : 14
Interpretator      .         Алпанова Н.К.                 : 
Kupol              .         основной                      : osnovnoi
Moii_15_vosst      .         15_vosst                      : 
Mud                .                                       : 
Mud_density        .                                       : 
Mud_resistivity    .                                       : 
Mud_density        .                                       : 
Mud_resistivity    .                                       : 
NGDU               .         НГДУ-1                        : 
ORIGINALWELLNAME   .         3534                          : 
Spud_date          .         2002                          : 1961
Spud_date          .         2002                          : 1961
Viscosity          .                                       : 
X                  .m        54058.1                       : 46154
Y                  .m        82287.8                       : 85761.93
YEAR               .         2018                          : 
~Parameter Information Block
#_______________________________________________________________________________
#
#PARAMETER_NAME    .UNIT     VALUE                         : DESCRIPTION
#_______________________________________________________________________________
SET                .         LQC_KAZNIPI_Petrel            : 
TLFamily_CALI      .         Caliper                       : 
TLFamily_COLL      .         Net Reservoir Flag            : 
TLFamily_CSAT      .         Fluid Code                    : 
TLFamily_DEPT      .         Measured Depth                : 
TLFamily_GR        .         Russian Gamma Ray             : 
TLFamily_LLS       .         Lateral Log Resistivity       : 
TLFamily_MBK       .         Micro Lateral Log Resistivity : 
TLFamily_RT        .         Formation Resistivity         : 
TLFamily_SP        .         Spontaneous Potential         : 
TLFamily_VSH_FIN   .         Shale Volume                  : 
TLFamily_VSH_GR    .         Shale Volume                  : 
TLFamily_VSH_SP    .         Shale Volume                  : 
~Curve Information
#_______________________________________________________________________________
#
#LOGNAME           .UNIT     LOG_ID                        : DESCRIPTION
#_______________________________________________________________________________
DEPT               .M                                      : Колонка глубины 
CALI               .м                                      : Каверномер 
COLL               .unitless                               :  
CSAT               .unitless                               :  
GR                 .мкР/ч                                  :  
LLS                .Ohmm                                   : Боковой каротаж 
MBK                .Ohmm                                   : Микробоковой каротаж 
RT                 .Ом·м                                   : Description 
SP                 .мВ                                     : Потенциал самополяризации 
VSH_FIN            .unitless                               : Описание 
VSH_GR             .unitless                               : Shale volume 
VSH_SP             .unitless                               : Shale Volume 
~Ascii
# ...
1276.2     0.217      -9999      -9999      10.7011    1.751      1.961      1.751      52.39      0.578327   0.5881711  0.5684828 
1276.4     0.217      -9999      -9999      10.4834    1.738      1.92       1.738      52.288     0.5437377  0.5209707  0.5665047 
1276.6     0.217      -9999      -9999      10.2656    1.738      1.934      1.738      52.186     0.5129775  0.4614224  0.5645327 
1276.8     0.216      -9999      -9999      10.3995    1.751      1.907      1.751      52.084     0.5298693  0.497172   0.5625665 
1277       0.216      -9999      -9999      10.5567    1.751      1.868      1.751      51.982     0.5516495  0.5426928  0.5606062000000001
1277.2     0.217      -9999      -9999      10.5666    1.738      1.816      1.738      51.88      0.5521736  0.5456954000000001 0.5586519 
1277.4     0.217      -9999      -9999      10.5764    1.726      1.816      1.726      51.758     0.5523863  0.5486838000000001 0.5560889 
1277.6     0.217      -9999      -9999      10.4191    1.691      1.791      1.691      51.629     0.5279773  0.5026324  0.5533221 
1277.8     0.218      -9999      -9999      10.2618    1.679      1.779      1.679      51.5       0.5055068  0.4604461  0.5505674 
1278       0.218      -9999      -9999      10.3946    1.727      1.816      1.727      52.079     0.5327361000000001 0.4958162  0.5696559 
1278.2     0.218      -9999      -9999      10.5467    1.775      1.855      1.775      52.437     0.5609457  0.5396771  0.5822143 
1278.4     0.218      -9999      -9999      10.3669    1.8        1.894      1.8        52.796     0.5416313  0.4882209  0.5950418 
1278.6     0.218      -9999      -9999      10.0766    1.825      1.947      1.825      52.742     0.5049197  0.415295   0.5945444 
1278.8     0.217      -9999      -9999      9.8718     1.812      1.974      1.812      52.593     0.4807333  0.3705007  0.5909659 
1279       0.217      -9999      -9999      9.735701   1.8        1.934      1.8        52.444     0.4654221  0.3434382  0.587406  
1279.2     0.217      -9999      -9999      9.979799   1.775      1.92       1.775      52.295     0.4886746  0.3934848  0.5838643 
1279.4     0.217      -9999      -9999      9.979799   1.738      1.894      1.738      51.29      0.4735479  0.3934848  0.5536109 
1279.6     0.217      -9999      -9999      9.8266     1.751      1.907      1.751      50         0.4388768  0.3612843  0.5164692 
1279.8     0.216      -9999      -9999      9.7621     1.8        2.03       1.8        48.71      0.4150429  0.3485284  0.4815575 
1280       0.216      -9999      -9999      9.4524     1.85       2.253      1.85       47.285     0.3693378  0.2932792  0.4453965 
1280.2     0.217      1          2          9.1427     1.943      2.465      1.943      45.565     0.3258719  0.2467882  0.4049554 
1280.4     0.217      1          2          8.979799   2.054      2.483      2.054      44.42      0.3028398  0.2253707  0.3803089 
1280.6     0.217      1          2          9.1431     2.126      2.483      2.126      44.017     0.3096836  0.2468432  0.372524  
1280.8     0.217      1          2          9.2177     2.141      2.431      2.141      43.614     0.3111109  0.2573219  0.3649    
1281       0.217      1          2          9.220201   2.111      2.431      2.111      44.029     0.3160504  0.2576807  0.3744202 
1281.2     0.217      1          2          9.124701   2.068      2.415      2.068      44.498     0.3148478  0.244325   0.3853706 
1281.4     0.216      1          2          8.9977     2.025      2.332      2.025      44.967     0.3121346  0.2276302  0.396639  
1281.6     0.216      1          2          9.153601   2.011      2.332      2.011      45.395     0.3277872  0.248292   0.4072824 
1281.8     0.217      1          2          9.1417     1.997      2.332      1.997      45.782     0.3319413  0.2466507  0.4172319 
1282       0.218      1          2          9.4178     1.984      2.324      1.984      46.169     0.3575463  0.2876782  0.4274144 
1282.2     0.219      -9999      -9999      9.7334     1.97       2.316      1.97       46.391     0.3883825  0.3429983  0.4337666 
1282.4     0.22       -9999      -9999      9.8007     1.984      2.332      1.984      46.337     0.3947494  0.356107   0.4333919 
1282.6     0.219      -9999      -9999      9.877      1.997      2.3        1.997      46.284     0.4023088  0.3715758  0.4330418 
1282.8     0.219      -9999      -9999      9.8886     2.011      2.3        2.011      46.23      0.4033267  0.3739858  0.4326676 
1283       0.218      -9999      -9999      9.901899   2.011      2.3        2.011      46.452     0.4079307  0.3767678  0.4390935 
1283.2     0.218      -9999      -9999      9.9153     2.005      2.332      2.005      46.839     0.4146858  0.3795922  0.4497793 
1283.4     0.218      -9999      -9999      9.8105     1.997      2.398      1.997      47.226     0.409382   0.3580572  0.4607069 
1283.6     0.219      -9999      -9999      9.705      1.997      2.398      1.997      47.419     0.4021848  0.3376122  0.4667573 
1283.8     0.218      -9999      -9999      9.612101   1.97       2.381      1.97       47.419     0.3941766  0.320578   0.4677753 
1284       0.217      -9999      -9999      9.4939     1.956      2.398      1.956      47.419     0.3844683  0.3001412  0.4687954 
1284.2     0.216      -9999      -9999      9.3884     1.943      2.365      1.943      47.07      0.3718402  0.2830032  0.4606773 
1284.4     0.216      -9999      -9999      9.3089     1.97       2.3        1.97       46.138     0.3543831  0.2707384  0.4380277 
1284.6     0.216      -9999      -9999      9.0056     1.976      2.268      1.976      45.206     0.322532   0.2286346  0.4164293 
1284.8     0.216      1          2          8.7024     1.997      2.381      1.997      41.895     0.2694778  0.1930894  0.3458663 
1285       0.216      1          2          8.4677     2.156      2.624      2.156      36.734     0.2146933  0.1694157  0.2599708 
1285.2     0.214      1          2          7.8561     2.343      2.953      2.343      31.573     0.1601062  0.1204836  0.1997288 
1285.4     0.211      1          2          7.3216     2.547      3.09       2.547      29.176     0.134355   0.08944636 0.1792637 
1285.6     0.211      1          2          7.2774     2.582      2.974      2.582      27.702     0.1280133  0.08726997 0.1687566 
1285.8     0.212      1          2          7.4323     2.469      3.122      2.469      27.578     0.1316569  0.09513827 0.1681756 
1286       0.213      1          2          7.6905     2.343      3.1        2.343      28.506     0.1424526  0.109862   0.1750432 
1286.2     0.213      1          2          7.6663     2.295      3.015      2.295      29.433     0.1454662  0.1083903  0.182542  
1286.4     0.213      1          2          7.6298     2.279      2.953      2.279      30.36      0.1484598  0.1062078  0.1907118 
1286.6     0.213      1          2          7.7705     2.24       3.036      2.24       31.288     0.157233   0.1148709  0.199595  
1286.8     0.213      1          2          7.9113     2.217      3.057      2.217      31.994     0.1655937  0.1242476  0.2069399 
1287       0.213      1          2          8.0521     2.186      2.843      2.186      32.654     0.1743163  0.1343897  0.214243  
1287.2     0.214      1          2          8.1394     2.156      2.552      2.156      34.362     0.1877084  0.1410896  0.2343272 
1287.4     0.214      1          2          8.1947     2.126      2.415      2.126      36.07      0.2013415  0.1455055  0.2571775 
1287.6     0.214      1          2          8.175      2.082      2.3        2.082      37.778     0.2134527  0.1439168  0.2829886 
1287.8     0.215      1          2          8.0589     2.011      2.27       2.011      39.485     0.2234188  0.1348999  0.3119378 
1288       0.215      1          2          8.177401   1.956      1.894      1.956      41.008     0.340666   0.1441094  0.3406658 
1288.2     0.215      -9999      -9999      8.3295     1.916      1.791      1.916      42.46      0.370714   0.1568575  0.3707139 
