~Version
 VERS              .         2.0                           : CWLS LOG ASCII STANDARD - VERSION 2.0
 WRAP              .         NO                            : ONE LINE PER DEPTH STEP
 DLM               .         SPACE                         : DELIMITING CHARACTER(SPACE TAB OR COMMA)
~Well Information
#_______________________________________________________________________________
#
#PARAMETER_NAME    .UNIT     VALUE                         : DESCRIPTION
#_______________________________________________________________________________
STRT               .M        1045                          : First reference value
STOP               .M        1304                          : Last reference value
STEP               .M        0.2                           : Step increment
NULL               .         -9999                         : Missing value
COMP               .                                       : Company
WELL               .         3534                          : Well name
FLD                .         Узень                         : Field
LOC                .                                       : Location
CNTY               .                                       : County
STAT               .                                       : State
CTRY               .                                       : Country
SRVC               .                                       : Service Company
DATE               .                                       : Date
UWI                .                                       : Unique Well ID
Block              .         4                             : 
Category           .         Нефтяная                      : 
Condition          .         В работе                      : 
Date               .         17.11.2001                    : 
EREF               .m        227.8                         : 100.8
Gorizont           .         15                            : 14
Interpretator      .         Алпанова Н.К.                 : 
Kupol              .         основной                      : osnovnoi
Moii_15_vosst      .         15_vosst                      : 
Mud                .                                       : 
Mud_density        .                                       : 
Mud_resistivity    .                                       : 
Mud_density        .                                       : 
Mud_resistivity    .                                       : 
NGDU               .         НГДУ-1                        : 
ORIGINALWELLNAME   .         3534                          : 
Spud_date          .         2002                          : 1961
Spud_date          .         2002                          : 1961
Viscosity          .                                       : 
X                  .m        54058.1                       : 46154
Y                  .m        82287.8                       : 85761.93
YEAR               .         2018                          : 
~Parameter Information Block
#_______________________________________________________________________________
#
#PARAMETER_NAME    .UNIT     VALUE                         : DESCRIPTION
#_______________________________________________________________________________
SET                .         LQC_KAZNIPI_Petrel            : 
TLFamily_CALI      .         Caliper                       : 
TLFamily_COLL      .         Net Reservoir Flag            : 
TLFamily_CSAT      .         Fluid Code                    : 
TLFamily_DEPT      .         Measured Depth                : 
TLFamily_GR        .         Russian Gamma Ray             : 
TLFamily_LLS       .         Lateral Log Resistivity       : 
TLFamily_MBK       .         Micro Lateral Log Resistivity : 
TLFamily_RT        .         Formation Resistivity         : 
TLFamily_SP        .         Spontaneous Potential         : 
TLFamily_VSH_FIN   .         Shale Volume                  : 
TLFamily_VSH_GR    .         Shale Volume                  : 
TLFamily_VSH_SP    .         Shale Volume                  : 
~Curve Information
#_______________________________________________________________________________
#
#LOGNAME           .UNIT     LOG_ID                        : DESCRIPTION
#_______________________________________________________________________________
DEPT               .M                                      : Колонка глубины 
CALI               .м                                      : Каверномер 
COLL               .unitless                               :  
CSAT               .unitless                               :  
GR                 .мкР/ч                                  :  
LLS                .Ohmm                                   : Боковой каротаж 
MBK                .Ohmm                                   : Микробоковой каротаж 
RT                 .Ом·м                                   : Description 
SP                 .мВ                                     : Потенциал самополяризации 
VSH_FIN            .unitless                               : Описание 
VSH_GR             .unitless                               : Shale volume 
VSH_SP             .unitless                               : Shale Volume 
~Ascii
# ...
1105.8     0.222      -9999      -9999      11.2291    2.295      2.883      2.295      53.876     0.6538867  0.8        0.5077735 
1106       0.222      -9999      -9999      10.7229    2.186      2.746      2.186      53.42      0.638171   0.7839026  0.4924392 
1106.2     0.222      -9999      -9999      10.2167    2.082      2.652      2.082      52.965     0.5646548  0.6517588  0.4775508 
1106.4     0.222      -9999      -9999      9.710501   1.997      2.526      1.997      52.509     0.5024692  0.5418909  0.4630476 
1106.6     0.222      -9999      -9999      10.0047    1.903      2.373      1.903      52.054     0.5261214  0.6032662  0.4489767 
1106.8     0.222      -9999      -9999      10.4133    1.8        2.214      1.8        52.111     0.574144   0.700206   0.4480819 
1107       0.222      -9999      -9999      10.7837    1.751      2.184      1.751      52.566     0.6286716  0.8        0.4573432 
1107.2     0.222      -9999      -9999      10.5804    1.825      2.373      1.825      53.022     0.6055059  0.7442044  0.4668075 
1107.4     0.222      -9999      -9999      10.3772    1.876      2.526      1.876      53.477     0.5837362  0.6910477  0.4764247 
1107.6     0.222      -9999      -9999      10.174     1.916      2.652      1.916      53.933     0.5639687  0.6416879  0.4862495 
1107.8     0.222      -9999      -9999      9.8561     1.929      2.474      1.929      54.309     0.5327415  0.5714429  0.4940401 
1108       0.222      -9999      -9999      9.5306     1.956      2.357      1.956      54.45      0.5014334  0.5074788  0.4953879 
1108.2     0.225      -9999      -9999      9.2051     1.943      2.39       1.943      54.59      0.4736929  0.4506747  0.4967111 
1108.4     0.225      -9999      -9999      8.913301   1.943      2.423      1.943      54.73      0.4516079  0.4051782  0.4980375 
1108.6     0.225      -9999      -9999      9.0124     1.929      2.457      1.929      54.87      0.4597284  0.4200898  0.499367  
1108.8     0.224      -9999      -9999      9.389299   1.916      2.457      1.916      55.011     0.4913589  0.4819899  0.5007279 
1109       0.223      -9999      -9999      9.7662     1.929      2.457      1.929      55.151     0.5275375  0.5530111  0.5020639 
1109.2     0.221      -9999      -9999      10.1432    1.943      2.492      1.943      55.333     0.5695531  0.6345204  0.5045859 
1109.4     0.22       -9999      -9999      10.5201    1.984      2.423      1.984      56.139     0.6265414  0.7280168  0.5250661 
1109.6     0.221      -9999      -9999      10.897     2.111      2.984      2.111      56.946     0.6731536  0.8        0.5463073000000001
1109.8     0.224      -9999      -9999      10.9022    2.232      3.221      2.232      57.713     0.6835222  0.8        0.5670444 
1110       0.224      -9999      -9999      10.5568    2.141      2.823      2.141      58.45      0.6626587  0.7378265000000001 0.587491  
1110.2     0.224      -9999      -9999      9.9984     2.054      2.598      2.054      58.744     0.5998347000000001 0.6018817  0.5977876 
1110.4     0.223      -9999      -9999      9.4401     1.997      2.562      1.997      58.297     0.5375412000000001 0.4910028  0.5840794 
1110.6     0.222      -9999      -9999      8.8818     1.943      2.526      1.943      57.85      0.4855957  0.4005501  0.5706413 
1110.8     0.223      -9999      -9999      8.6257     1.929      2.423      1.929      57.404     0.4611672  0.364833   0.5575015 
1111       0.223      -9999      -9999      9.0343     1.916      2.292      1.916      57.03      0.4851294  0.4234584  0.5468003 
1111.2     0.223      -9999      -9999      9.4429     1.984      2.407      1.984      56.815     0.5162663  0.4915045  0.5410282 
1111.4     0.223      -9999      -9999      9.4333     2.068      2.652      2.068      56.599     0.5125332  0.4897867  0.5352798 
1111.6     0.222      -9999      -9999      9.0054     2.263      3.026      2.263      56.384     0.4743166  0.4190187  0.5296145 
1111.8     0.222      -9999      -9999      8.791      2.359      3.312      2.359      56.169     0.4557527  0.3875033  0.5240021 
1112       0.222      -9999      -9999      8.5776     2.295      3.358      2.295      55.954     0.4384657  0.3584889  0.5184424 
1112.2     0.222      -9999      -9999      8.1497     2.201      2.544      2.201      55.739     0.4098134  0.3066918  0.512935  
1112.4     0.222      -9999      -9999      7.7219     2.126      2.457      2.126      55.524     0.3849339  0.2623882  0.5074797 
1112.6     0.222      -9999      -9999      7.294      2.039      2.509      2.039      55.117     0.360595   0.2244765  0.4967136 
1112.8     0.223      -9999      -9999      7.4698     1.956      2.526      1.956      54.665     0.3621339  0.2393399  0.4849279 
1113       0.223      -9999      -9999      8.114901   1.863      2.407      1.863      54.214     0.3881235  0.302824   0.4734229 
1113.2     0.223      -9999      -9999      8.760099   1.825      2.292      1.825      54.294     0.4296713  0.3831609  0.4761818 
1113.4     0.224      -9999      -9999      9.4052     1.8        2.407      1.8        54.617     0.4851624  0.484793   0.4855317 
1113.6     0.224      -9999      -9999      10.0504    2.054      3.289      2.054      54.94      0.5542263  0.6134049  0.4950477 
1113.8     0.224      -9999      -9999      10.6956    2.409      7.158      2.409      55.129     0.6385512  0.7761369  0.5009654 
1114       0.224      -9999      -9999      11.0625    2.512      7.514      2.512      55.215     0.652019   0.8        0.5040379 
1114.2     0.223      -9999      -9999      11.3238    2.343      3.09       2.343      55.301     0.6535636  0.8        0.5071272 
1114.4     0.223      -9999      -9999      11.4399    2.171      2.474      2.171      55.387     0.6551168000000001 0.8        0.5102336 
1114.6     0.223      -9999      -9999      11.1297    2.082      2.382      2.082      55.473     0.6566784  0.8        0.5133569 
1114.8     0.222      -9999      -9999      10.7211    2.171      2.292      2.171      55.33      0.6466657  0.7833884  0.509943  
1115       0.222      -9999      -9999      10.3125    2.295      2.746      2.295      55.154     0.5902746  0.6749326  0.5056165 
1115.2     0.222      -9999      -9999      9.8148     2.46       3.111      2.46       54.978     0.5321116  0.5629003  0.501323  
1115.4     0.222      -9999      -9999      9.3171     2.618      3.177      2.618      54.802     0.4832631  0.4694642  0.4970621 
1115.6     0.222      -9999      -9999      9.0862     2.73       2.804      2.73       54.626     0.4621918  0.4315499  0.4928338 
1115.8     0.222      -9999      -9999      8.7944     2.787      3.753      2.787      54.45      0.4383111  0.3879841  0.488638  
1116       0.222      -9999      -9999      8.4073     2.655      3.995      2.655      54.274     0.4106877  0.3369011  0.4844744 
1116.2     0.222      -9999      -9999      8.020201   2.426      2.943      2.426      54.042     0.3856896  0.292544   0.4788351 
1116.4     0.223      -9999      -9999      7.6331     2.327      2.492      2.327      53.81      0.3636413  0.2540269  0.4732558 
1116.6     0.223      -9999      -9999      7.1613     2.232      2.261      2.232      53.577     0.3407905  0.2138715  0.4677094 
1116.8     0.222      -9999      -9999      6.6048     2.186      2.23       2.186      53.345     0.3184178  0.1745865  0.462249  
1117       0.222      -9999      -9999      6.0484     2.054      2.373      2.054      53.113     0.2996851  0.1425229  0.4568473 
1117.2     0.223      -9999      -9999      6.5071     1.889      2.023      1.889      52.881     0.3099898  0.1684754  0.4515041 
1117.4     0.223      -9999      -9999      6.9658     1.863      1.798      1.863      52.648     0.3226738  0.1991537  0.4461939 
1117.6     0.223      -9999      -9999      7.4245     1.863      1.995      1.863      52.589     0.340358   0.2354183  0.4452977 
1117.8     0.224      -9999      -9999      7.166101   1.903      2.184      1.903      53.281     0.3389381  0.2142462  0.46363   
