~Version
 VERS              .         2.0                           : CWLS LOG ASCII STANDARD - VERSION 2.0
 WRAP              .         NO                            : ONE LINE PER DEPTH STEP
 DLM               .         SPACE                         : DELIMITING CHARACTER(SPACE TAB OR COMMA)
~Well Information
#_______________________________________________________________________________
#
#PARAMETER_NAME    .UNIT     VALUE                         : DESCRIPTION
#_______________________________________________________________________________
STRT               .M        1045                          : First reference value
STOP               .M        1304                          : Last reference value
STEP               .M        0.2                           : Step increment
NULL               .         -9999                         : Missing value
COMP               .                                       : Company
WELL               .         3534                          : Well name
FLD                .         Узень                         : Field
LOC                .                                       : Location
CNTY               .                                       : County
STAT               .                                       : State
CTRY               .                                       : Country
SRVC               .                                       : Service Company
DATE               .                                       : Date
UWI                .                                       : Unique Well ID
Block              .         4                             : 
Category           .         Нефтяная                      : 
Condition          .         В работе                      : 
Date               .         17.11.2001                    : 
EREF               .m        227.8                         : 100.8
Gorizont           .         15                            : 14
Interpretator      .         Алпанова Н.К.                 : 
Kupol              .         основной                      : osnovnoi
Moii_15_vosst      .         15_vosst                      : 
Mud                .                                       : 
Mud_density        .                                       : 
Mud_resistivity    .                                       : 
Mud_density        .                                       : 
Mud_resistivity    .                                       : 
NGDU               .         НГДУ-1                        : 
ORIGINALWELLNAME   .         3534                          : 
Spud_date          .         2002                          : 1961
Spud_date          .         2002                          : 1961
Viscosity          .                                       : 
X                  .m        54058.1                       : 46154
Y                  .m        82287.8                       : 85761.93
YEAR               .         2018                          : 
~Parameter Information Block
#_______________________________________________________________________________
#
#PARAMETER_NAME    .UNIT     VALUE                         : DESCRIPTION
#_______________________________________________________________________________
SET                .         LQC_KAZNIPI_Petrel            : 
TLFamily_CALI      .         Caliper                       : 
TLFamily_COLL      .         Net Reservoir Flag            : 
TLFamily_CSAT      .         Fluid Code                    : 
TLFamily_DEPT      .         Measured Depth                : 
TLFamily_GR        .         Russian Gamma Ray             : 
TLFamily_LLS       .         Lateral Log Resistivity       : 
TLFamily_MBK       .         Micro Lateral Log Resistivity : 
TLFamily_RT        .         Formation Resistivity         : 
TLFamily_SP        .         Spontaneous Potential         : 
TLFamily_VSH_FIN   .         Shale Volume                  : 
TLFamily_VSH_GR    .         Shale Volume                  : 
TLFamily_VSH_SP    .         Shale Volume                  : 
~Curve Information
#_______________________________________________________________________________
#
#LOGNAME           .UNIT     LOG_ID                        : DESCRIPTION
#_______________________________________________________________________________
DEPT               .M                                      : Колонка глубины 
CALI               .м                                      : Каверномер 
COLL               .unitless                               :  
CSAT               .unitless                               :  
GR                 .мкР/ч                                  :  
LLS                .Ohmm                                   : Боковой каротаж 
MBK                .Ohmm                                   : Микробоковой каротаж 
RT                 .Ом·м                                   : Description 
SP                 .мВ                                     : Потенциал самополяризации 
VSH_FIN            .unitless                               : Описание 
VSH_GR             .unitless                               : Shale volume 
VSH_SP             .unitless                               : Shale Volume 
~Ascii
# ...
1178.8     0.215      1          2          7.3999     17.185     41.308     17.185     10.519     0.09797369 0.08163607000000001 0.1143113 
1179       0.215      1          2          7.195      16.37      31.407     16.37      11.035     0.09400279 0.07312343 0.1148822 
1179.2     0.213      1          2          6.7941     16.032     19.789     16.032     10.736     0.08677283 0.05894988 0.1145958 
1179.4     0.21       1          2          6.9627     15.921     17.004     15.921     10.436     0.08942295 0.06454099000000001 0.1143049 
1179.6     0.209      1          2          7.2127     15.759     12.005     15.759     10.137     0.09391665 0.07382236 0.1140109 
1179.8     0.209      1          2          7.4627     15.593     6.426      15.593     9.837      0.0990747  0.08443844 0.113711  
1180       0.209      1          2          7.6815     13.666     6.676      13.666     9.388      0.1041059  0.0949752  0.1132366 
1180.2     0.209      1          2          7.6815     12.229     6.959      12.229     8.939      0.1038605  0.0949752  0.1127459 
1180.4     0.209      1          2          7.6815     12.4       7.182      12.4       8.639      0.1036965  0.0949752  0.1124179 
1180.6     0.209      1          2          7.8266     13.385     8.484      13.385     8.923      0.1077328  0.1026781  0.1127875 
1180.8     0.209      1          2          7.9815     14.051     7.759      14.051     9.66       0.1126246  0.111592   0.1136572 
1181       0.209      1          2          8.0329     12.928     7.232      12.928     10.397     0.1145997  0.1147176  0.1144818 
1181.2     0.209      1          2          7.6391     11.489     5.831      11.489     11.135     0.1040569  0.0928354  0.1152785 
1181.4     0.209      1          2          7.3488     10.425     5.218      10.425     11.879     0.09774665 0.07942456000000001 0.1160687 
1181.6     0.209      1          2          7.623      9.793      5.348      9.793      12.653     0.1044648  0.09203557 0.116894  
1181.8     0.209      1          2          7.8972     9.999      5.516      9.999      12.571     0.1117421  0.1066489  0.1168353 
1182       0.209      1          2          8.1714     11.409     5.672      11.409     11.976     0.1199149  0.1235826  0.1162473 
1182.2     0.21       1          2          8.4185     13.478     6.4        13.478     11.38      0.1283984  0.1411343  0.1156624 
1182.4     0.21       1          2          8.5844     15.702     6.936      15.702     10.785     0.1346861  0.1542962  0.1150759 
1182.6     0.209      1          2          8.7254     17.185     11.515     17.185     10.248     0.1404923  0.1664431  0.1145414 
1182.8     0.209      1          2          8.4931     17.305     12.004     17.305     9.756      0.1304755  0.1469079  0.1140432 
1183       0.208      1          2          8.2609     16.032     6.841      16.032     9.265      0.1216022  0.1296724  0.113532  
1183.2     0.208      1          2          8.028601   15.352     5.04       15.352     8.773      0.1137274  0.1144528  0.1130021 
1183.4     0.209      1          2          8.066999   14.854     5.291      14.854     8.281      0.114645   0.1168394  0.1124506 
1183.6     0.209      1          2          8.1235     14.149     5.182      14.149     7.79       0.1161585  0.1204417  0.1118753 
1183.8     0.21       1          2          8.1799     14.447     5.58       14.447     7.298      0.1177092  0.1241484  0.1112699 
1184       0.211      1          2          8.2222     14.567     5.291      14.567     7.175      0.1190714  0.1270031  0.1111396 
1184.2     0.211      1          2          8.2028     14.649     5.593      14.649     7.053      0.1183475  0.1256858  0.1110092 
1184.4     0.211      1          2          8.1835     14.447     5.516      14.447     6.93       0.1176324  0.1243889  0.1108759 
1184.6     0.211      1          2          8.1817     14.051     5.402      14.051     6.807      0.1175048  0.1242686  0.1107411 
1184.8     0.211      1          2          8.18       13.357     5.347      13.357     6.684      0.1173799  0.1241551  0.1106048 
1185       0.211      1          2          8.415      12.928     5.632      12.928     6.561      0.125668   0.1408691  0.1104669 
1185.2     0.211      1          2          8.6501     11.894     6.164      11.894     6.717      0.1352824  0.1598417  0.110723  
1185.4     0.211      1          2          8.5819     11.649     5.791      11.649     7.23       0.1327702  0.154089   0.1114515 
1185.6     0.211      1          2          8.4704     11.409     5.402      11.409     7.744      0.1286328  0.1451264  0.1121392 
1185.8     0.211      1          2          8.3075     11.44      5.076      11.44      8.257      0.1228751  0.132961   0.1127893 
1186       0.21       1          2          8.256      11.489     4.835      11.489     8.771      0.1213706  0.1293313  0.11341   
1186.2     0.21       1          2          8.1765     11.649     4.902      11.649     9.541      0.1191015  0.1239218  0.1142813 
1186.4     0.21       1          2          8.008699   11.894     5.04       11.894     10.311     0.114176   0.1132352  0.1151168 
1186.6     0.209      1          2          7.841001   11.963     5.255      11.963     10.852     0.109588   0.1034758  0.1157002 
1186.8     0.209      1          2          7.843699   12.061     5.312      12.061     11.507     0.1100123  0.1036261  0.1163986 
1187       0.209      1          2          7.965      11.977     4.902      11.977     12.162     0.1138561  0.1106068  0.1171055 
1187.2     0.209      1          2          8.0371     11.977     5.075      11.977     12.818     0.1164051  0.1149768  0.1178334 
1187.4     0.209      1          2          8.0161     11.941     5.954      11.941     13.473     0.1161391  0.1136865  0.1185917 
1187.6     0.209      1          2          7.9952     11.894     7.805      11.894     14.128     0.1159048  0.1124166  0.119393  
1187.8     0.209      1          2          8.0111     11.174     7.539      11.174     14.783     0.1168151  0.1133814  0.1202488 
1188       0.21       1          2          8.0701     9.861      6.516      9.861      15.439     0.1191031  0.1170342  0.121172  
1188.2     0.21       1          2          8.129      9.279      5.913      9.279      15.845     0.1212972  0.1207982  0.1217962 
1188.4     0.21       1          2          7.9845     8.583      5.795      8.583      16.002     0.1169212  0.111772   0.1220705 
1188.6     0.21       1          2          7.8168     8.007      5.672      8.007      16.159     0.1122449  0.1021387  0.122351  
1188.8     0.21       1          2          7.6532     7.367      5.478      7.367      16.317     0.1080907  0.09354155 0.1226398 
1189       0.21       1          2          7.8105     7.043      5.478      7.043      16.206     0.1121491  0.1017935  0.1225048 
1189.2     0.21       1          2          7.9483     6.685      5.59       6.685      15.955     0.1158869  0.1096185  0.1221553 
1189.4     0.21       1          2          7.8894     5.941      5.711      5.941      15.703     0.1140084  0.1062028  0.1218141 
1189.6     0.21       1          2          7.8304     5.428      5.328      5.428      15.452     0.1121859  0.102888   0.1214837 
1189.8     0.21       1          2          7.8923     5.213      4.971      5.213      15.2       0.1137646  0.1063684  0.1211609 
1190       0.21       1          2          8.0633     4.994      4.906      4.994      14.948     0.1187269  0.1166073  0.1208466 
1190.2     0.21       1          2          8.2342     4.692      4.835      4.692      14.789     0.1242451  0.1278249  0.1206652 
1190.4     0.21       1          2          8.4486     4.563      4.637      4.563      14.917     0.1321552  0.143436   0.1208745 
1190.6     0.21       1          2          8.5762     4.451      4.121      4.451      15.044     0.1373519  0.1536177  0.1210861 
1190.8     0.209      1          2          8.4665     4.347      3.943      4.347      15.172     0.1330628  0.1448226  0.1213029 
