~Version
 VERS              .         2.0                           : CWLS LOG ASCII STANDARD - VERSION 2.0
 WRAP              .         NO                            : ONE LINE PER DEPTH STEP
 DLM               .         SPACE                         : DELIMITING CHARACTER(SPACE TAB OR COMMA)
~Well Information
#_______________________________________________________________________________
#
#PARAMETER_NAME    .UNIT     VALUE                         : DESCRIPTION
#_______________________________________________________________________________
STRT               .M        1045                          : First reference value
STOP               .M        1304                          : Last reference value
STEP               .M        0.2                           : Step increment
NULL               .         -9999                         : Missing value
COMP               .                                       : Company
WELL               .         3534                          : Well name
FLD                .         Узень                         : Field
LOC                .                                       : Location
CNTY               .                                       : County
STAT               .                                       : State
CTRY               .                                       : Country
SRVC               .                                       : Service Company
DATE               .                                       : Date
UWI                .                                       : Unique Well ID
Block              .         4                             : 
Category           .         Нефтяная                      : 
Condition          .         В работе                      : 
Date               .         17.11.2001                    : 
EREF               .m        227.8                         : 100.8
Gorizont           .         15                            : 14
Interpretator      .         Алпанова Н.К.                 : 
Kupol              .         основной                      : osnovnoi
Moii_15_vosst      .         15_vosst                      : 
Mud                .                                       : 
Mud_density        .                                       : 
Mud_resistivity    .                                       : 
Mud_density        .                                       : 
Mud_resistivity    .                                       : 
NGDU               .         НГДУ-1                        : 
ORIGINALWELLNAME   .         3534                          : 
Spud_date          .         2002                          : 1961
Spud_date          .         2002                          : 1961
Viscosity          .                                       : 
X                  .m        54058.1                       : 46154
Y                  .m        82287.8                       : 85761.93
YEAR               .         2018                          : 
~Parameter Information Block
#_______________________________________________________________________________
#
#PARAMETER_NAME    .UNIT     VALUE                         : DESCRIPTION
#_______________________________________________________________________________
SET                .         LQC_KAZNIPI_Petrel            : 
TLFamily_CALI      .         Caliper                       : 
TLFamily_COLL      .         Net Reservoir Flag            : 
TLFamily_CSAT      .         Fluid Code                    : 
TLFamily_DEPT      .         Measured Depth                : 
TLFamily_GR        .         Russian Gamma Ray             : 
TLFamily_LLS       .         Lateral Log Resistivity       : 
TLFamily_MBK       .         Micro Lateral Log Resistivity : 
TLFamily_RT        .         Formation Resistivity         : 
TLFamily_SP        .         Spontaneous Potential         : 
TLFamily_VSH_FIN   .         Shale Volume                  : 
TLFamily_VSH_GR    .         Shale Volume                  : 
TLFamily_VSH_SP    .         Shale Volume                  : 
~Curve Information
#_______________________________________________________________________________
#
#LOGNAME           .UNIT     LOG_ID                        : DESCRIPTION
#_______________________________________________________________________________
DEPT               .M                                      : Колонка глубины 
CALI               .м                                      : Каверномер 
COLL               .unitless                               :  
CSAT               .unitless                               :  
GR                 .мкР/ч                                  :  
LLS                .Ohmm                                   : Боковой каротаж 
MBK                .Ohmm                                   : Микробоковой каротаж 
RT                 .Ом·м                                   : Description 
SP                 .мВ                                     : Потенциал самополяризации 
VSH_FIN            .unitless                               : Описание 
VSH_GR             .unitless                               : Shale volume 
VSH_SP             .unitless                               : Shale Volume 
~Ascii
# ...
1093.6     0.221      -9999      -9999      10.7102    2.279      2.903      2.279      52.282     0.6235269  0.7802803  0.4667735 
1093.8     0.221      -9999      -9999      10.5531    2.494      4.654      2.494      51.645     0.5935726  0.7368314  0.4503138 
1094       0.222      -9999      -9999      10.3961    2.46       4.622      2.46       51.008     0.5651116000000001 0.6958274  0.4343958 
1094.2     0.222      -9999      -9999      10.239     2.039      2.765      2.039      50.371     0.5380456  0.6570812  0.4190101 
1094.4     0.222      -9999      -9999      10.4278    1.703      1.954      1.703      49.953     0.5565586  0.7039185  0.4091987 
1094.6     0.22       -9999      -9999      10.67      1.622      1.914      1.622      50.645     0.597244   0.7689244  0.4255636 
1094.8     0.218      -9999      -9999      10.9125    1.738      2.124      1.738      51.336     0.6212626  0.8        0.4425251 
1095       0.221      -9999      -9999      10.998     1.97       2.652      1.97       52.028     0.6300724  0.8        0.4601447 
1095.2     0.223      -9999      -9999      10.5631    2.201      3.005      2.201      52.649     0.6080149  0.7395236  0.4765061 
1095.4     0.222      -9999      -9999      10.1282    2.126      2.652      2.126      52.505     0.5518621  0.6310586  0.4726654 
1095.6     0.221      -9999      -9999      9.6932     2.025      2.292      2.025      52.362     0.5036810000000001 0.5384826  0.4688794 
1095.8     0.22       -9999      -9999      9.4861     1.929      2.544      1.929      52.218     0.4822022  0.4993095  0.465095  
1096       0.221      -9999      -9999      9.9002     1.997      2.765      1.997      52.074     0.5210233  0.5807078  0.4613388 
1096.2     0.221      -9999      -9999      10.3143    2.054      2.671      2.054      51.93      0.5664931  0.6753757  0.4576105 
1096.4     0.221      -9999      -9999      10.7283    2.025      2.492      2.025      51.786     0.6196792  0.7854482  0.4539101 
1096.6     0.219      -9999      -9999      11.1424    1.997      2.598      1.997      51.68      0.625602   0.8        0.451204  
1096.8     0.22       -9999      -9999      11.27      1.943      2.509      1.943      52.04      0.630228   0.8        0.460456  
1097       0.221      -9999      -9999      10.9201    1.916      2.324      1.916      52.401     0.6349546  0.8        0.4699092 
1097.2     0.222      -9999      -9999      10.5703    1.97       2.562      1.97       52.762     0.6105040000000001 0.7414681  0.47954   
1097.4     0.222      -9999      -9999      10.2204    1.997      2.689      1.997      52.609     0.5640377  0.652639   0.4754364 
1097.6     0.222      -9999      -9999      9.9626     2.011      2.634      2.011      52.256     0.5300828  0.5940745  0.4660909 
1097.8     0.222      -9999      -9999      9.9073     1.97       2.39       1.97       51.904     0.5195768  0.5822134  0.4569403 
1098       0.222      -9999      -9999      9.871      1.916      2.544      1.916      51.551     0.5112438  0.5745566  0.447931  
1098.2     0.222      -9999      -9999      9.9807     1.838      2.598      1.838      51.419     0.5213069  0.598009   0.4446048 
1098.4     0.223      -9999      -9999      10.1466    1.812      2.373      1.812      52.577     0.5549451  0.6353078  0.4745822 
1098.6     0.223      -9999      -9999      10.3125    1.85       2.373      1.85       53.734     0.59065    0.6749326  0.5063673 
1098.8     0.224      -9999      -9999      10.1101    1.997      2.544      1.997      53.979     0.5701226  0.6269068  0.5133384 
1099       0.224      -9999      -9999      9.907801   2.201      3.111      2.201      53.847     0.5459459  0.5823197  0.509572  
1099.2     0.224      -9999      -9999      9.7055     2.311      4.59       2.311      53.715     0.5233668  0.5409034  0.5058302 
1099.4     0.225      -9999      -9999      9.7621     2.141      3.753      2.141      53.582     0.527135   0.5521849  0.502085  
1099.6     0.225      -9999      -9999      10.0202    1.956      2.616      1.956      53.45      0.5525393  0.6066862  0.4983925 
1099.8     0.224      -9999      -9999      10.2782    1.876      2.373      1.876      53.318     0.5806334  0.6665424  0.4947244 
1100       0.224      -9999      -9999      10.252     1.812      2.23       1.812      53.302     0.5772426000000001 0.6602038  0.4942814 
1100.2     0.223      -9999      -9999      10.131     1.787      2.184      1.787      53.361     0.56381    0.6317034  0.4959166 
1100.4     0.222      -9999      -9999      10.0494    1.763      2.261      1.763      53.42      0.555369   0.6131814  0.4975566 
1100.6     0.222      -9999      -9999      10.0857    1.751      2.261      1.751      53.498     0.5605426  0.621353   0.4997324 
1100.8     0.222      -9999      -9999      10.122     1.738      2.214      1.738      53.659     0.5669418000000001 0.6296334  0.5042502 
1101       0.222      -9999      -9999      9.7849     1.787      2.184      1.787      53.821     0.5328142  0.5567954000000001 0.508833  
1101.2     0.223      -9999      -9999      9.3234     1.85       2.407      1.85       53.982     0.4919842  0.4705442  0.5134242 
1101.4     0.224      -9999      -9999      8.861799   2.025      2.923      2.025      54.143     0.4578457  0.397639   0.5180524 
1101.6     0.224      -9999      -9999      8.4003     2.156      4.433      2.156      54.234     0.4283634  0.3360422  0.5206847 
1101.8     0.225      -9999      -9999      8.5388     2.111      3.199      2.111      54.019     0.4339683  0.3534519  0.5144846 
1102       0.225      -9999      -9999      8.8185     2.054      2.544      2.054      53.804     0.4498797  0.3914091  0.5083504 
1102.2     0.224      -9999      -9999      8.8731     1.997      2.671      1.997      53.589     0.4507814  0.3992813  0.5022815000000001
1102.4     0.222      -9999      -9999      8.9291     2.039      2.784      2.039      53.374     0.4518986  0.4075196  0.4962776 
1102.6     0.223      -9999      -9999      9.121901   2.156      2.923      2.156      53.351     0.4664223  0.4372054  0.4956391 
1102.8     0.225      -9999      -9999      9.5611     2.248      3.289      2.248      53.521     0.5067654  0.5131553  0.5003755 
1103       0.225      -9999      -9999      10.0003    2.248      2.964      2.248      53.691     0.5537257  0.6022989  0.5051526 
1103.2     0.225      -9999      -9999      10.4395    2.111      2.689      2.111      53.86      0.6084352  0.7069285  0.5099418 
1103.4     0.225      -9999      -9999      10.8508    2.011      2.58       2.011      54.03      0.6574001  0.8        0.5148002 
1103.6     0.224      -9999      -9999      11.1411    1.943      2.616      1.943      54.2       0.6598499  0.8        0.5196998000000001
1103.8     0.224      -9999      -9999      11.1693    2.025      2.804      2.025      54.217     0.660096   0.8        0.520192  
1104       0.223      -9999      -9999      11.0403    2.126      2.923      2.126      54.115     0.6586224000000001 0.8        0.5172449 
1104.2     0.223      -9999      -9999      10.9113    2.248      3.005      2.248      54.013     0.6571563  0.8        0.5143126 
1104.4     0.222      -9999      -9999      10.7823    2.217      2.823      2.217      53.911     0.6556975  0.8        0.511395  
1104.6     0.222      -9999      -9999      10.6532    2.201      2.923      2.201      53.809     0.6363599  0.7642276  0.5084922 
1104.8     0.222      -9999      -9999      10.8165    2.311      3.111      2.311      53.708     0.6528162  0.8        0.5056325 
1105       0.222      -9999      -9999      10.9993    2.443      3.429      2.443      53.77      0.6536931  0.8        0.5073863 
1105.2     0.222      -9999      -9999      11.1904    2.655      3.526      2.655      53.931     0.655983   0.8        0.5119659 
1105.4     0.222      -9999      -9999      11.4392    2.547      3.526      2.547      54.093     0.6583055  0.8        0.5166111 
1105.6     0.222      -9999      -9999      11.6881    2.426      3.453      2.426      54.254     0.6606324  0.8        0.5212647 
