~Version
 VERS              .         2.0                           : CWLS LOG ASCII STANDARD - VERSION 2.0
 WRAP              .         NO                            : ONE LINE PER DEPTH STEP
 DLM               .         SPACE                         : DELIMITING CHARACTER(SPACE TAB OR COMMA)
~Well Information
#_______________________________________________________________________________
#
#PARAMETER_NAME    .UNIT     VALUE                         : DESCRIPTION
#_______________________________________________________________________________
STRT               .M        1045                          : First reference value
STOP               .M        1304                          : Last reference value
STEP               .M        0.2                           : Step increment
NULL               .         -9999                         : Missing value
COMP               .                                       : Company
WELL               .         3534                          : Well name
FLD                .         Узень                         : Field
LOC                .                                       : Location
CNTY               .                                       : County
STAT               .                                       : State
CTRY               .                                       : Country
SRVC               .                                       : Service Company
DATE               .                                       : Date
UWI                .                                       : Unique Well ID
Block              .         4                             : 
Category           .         Нефтяная                      : 
Condition          .         В работе                      : 
Date               .         17.11.2001                    : 
EREF               .m        227.8                         : 100.8
Gorizont           .         15                            : 14
Interpretator      .         Алпанова Н.К.                 : 
Kupol              .         основной                      : osnovnoi
Moii_15_vosst      .         15_vosst                      : 
Mud                .                                       : 
Mud_density        .                                       : 
Mud_resistivity    .                                       : 
Mud_density        .                                       : 
Mud_resistivity    .                                       : 
NGDU               .         НГДУ-1                        : 
ORIGINALWELLNAME   .         3534                          : 
Spud_date          .         2002                          : 1961
Spud_date          .         2002                          : 1961
Viscosity          .                                       : 
X                  .m        54058.1                       : 46154
Y                  .m        82287.8                       : 85761.93
YEAR               .         2018                          : 
~Parameter Information Block
#_______________________________________________________________________________
#
#PARAMETER_NAME    .UNIT     VALUE                         : DESCRIPTION
#_______________________________________________________________________________
SET                .         LQC_KAZNIPI_Petrel            : 
TLFamily_CALI      .         Caliper                       : 
TLFamily_COLL      .         Net Reservoir Flag            : 
TLFamily_CSAT      .         Fluid Code                    : 
TLFamily_DEPT      .         Measured Depth                : 
TLFamily_GR        .         Russian Gamma Ray             : 
TLFamily_LLS       .         Lateral Log Resistivity       : 
TLFamily_MBK       .         Micro Lateral Log Resistivity : 
TLFamily_RT        .         Formation Resistivity         : 
TLFamily_SP        .         Spontaneous Potential         : 
TLFamily_VSH_FIN   .         Shale Volume                  : 
TLFamily_VSH_GR    .         Shale Volume                  : 
TLFamily_VSH_SP    .         Shale Volume                  : 
~Curve Information
#_______________________________________________________________________________
#
#LOGNAME           .UNIT     LOG_ID                        : DESCRIPTION
#_______________________________________________________________________________
DEPT               .M                                      : Колонка глубины 
CALI               .м                                      : Каверномер 
COLL               .unitless                               :  
CSAT               .unitless                               :  
GR                 .мкР/ч                                  :  
LLS                .Ohmm                                   : Боковой каротаж 
MBK                .Ohmm                                   : Микробоковой каротаж 
RT                 .Ом·м                                   : Description 
SP                 .мВ                                     : Потенциал самополяризации 
VSH_FIN            .unitless                               : Описание 
VSH_GR             .unitless                               : Shale volume 
VSH_SP             .unitless                               : Shale Volume 
~Ascii
# ...
1142.2     0.224      -9999      -9999      7.7395     2.886      3.423      2.886      55.955     0.4114379  0.2640778  0.558798  
1142.4     0.224      -9999      -9999      7.8266     2.807      3.042      2.807      56.303     0.4188657  0.272601   0.5651304 
1142.6     0.224      -9999      -9999      8.4073     3.029      3.423      3.029      56.65      0.4541972  0.3369011  0.5714933 
1142.8     0.225      -9999      -9999      8.9864     3.136      3.471      3.136      56.482     0.4889446  0.4161252  0.561764  
1143       0.225      -9999      -9999      9.5428     3.202      3.399      3.202      56.24      0.5298329000000001 0.5097419  0.5499239 
1143.2     0.225      -9999      -9999      10.0993    3.008      2.979      3.008      55.998     0.5813721  0.6244423  0.5383018000000001
1143.4     0.226      -9999      -9999      10.6558    2.692      2.504      2.692      55.756     0.6459240000000001 0.7649525  0.5268955 
1143.6     0.227      -9999      -9999      10.9649    2.409      2.226      2.409      55.514     0.6578515  0.8        0.515703  
1143.8     0.231      -9999      -9999      10.7298    2.248      2.005      2.248      55.843     0.653466   0.7858778  0.5210542 
1144       0.23       -9999      -9999      10.5557    2.217      2.18       2.217      56.254     0.6331954  0.7375306  0.5288602 
1144.2     0.227      -9999      -9999      10.8073    2.279      2.369      2.279      56.664     0.6683695  0.8        0.5367389 
1144.4     0.225      -9999      -9999      10.7904    2.477      2.402      2.477      56.913     0.6699414  0.8        0.5398829000000001
1144.6     0.224      -9999      -9999      10.7696    3.093      3.669      3.093      56.953     0.6682422  0.7973681  0.5391164000000001
1144.8     0.223      -9999      -9999      10.5069    3.629      6.394      3.629      56.993     0.6314356  0.7245206  0.5383506 
1145       0.222      -9999      -9999      10.3201    3.409      3.643      3.409      57.034     0.6072108000000001 0.6768059  0.5376157 
1145.2     0.221      -9999      -9999      10.2596    2.846      2.593      2.846      57.074     0.5994441  0.6620362  0.536852  
1145.4     0.222      -9999      -9999      10.1991    2.426      2.336      2.426      57.117     0.5918835  0.6475888  0.5361783 
1145.6     0.222      -9999      -9999      10.4032    2.201      2.272      2.201      57.163     0.616613   0.6976315  0.5355945 
1145.8     0.222      -9999      -9999      10.2758    2.141      2.32       2.141      57.209     0.6004854  0.6659594  0.5350114 
1146       0.222      -9999      -9999      10.1397    2.141      2.402      2.141      57.255     0.5840699  0.633711   0.5344288 
1146.2     0.223      -9999      -9999      9.5729     2.156      2.402      2.156      57.29      0.5244446  0.5153683  0.5335208 
1146.4     0.223      -9999      -9999      9.4446     2.156      2.32       2.156      57.152     0.5096643  0.4918094  0.5275192 
1146.6     0.223      -9999      -9999      9.88       2.156      2.226      2.156      57.013     0.5489968  0.5764455000000001 0.5215481 
1146.8     0.222      -9999      -9999      10.3155    2.141      2.257      2.141      56.875     0.5956686  0.6756715  0.5156657 
1147       0.222      -9999      -9999      10.6552    2.126      2.257      2.126      56.737     0.4932366  0.4695683  0.516905  
1147.2     0.223      -9999      -9999      10.7253    2.141      2.21       2.141      54.988     0.4772714  0.4875967  0.4669461 
1147.4     0.224      -9999      -9999      10.7903    2.156      2.288      2.156      53.975     0.4721577  0.5049314  0.439384  
1147.6     0.223      -9999      -9999      10.9355    2.141      2.257      2.141      52.961     0.4796231  0.5459129  0.4133333 
1147.8     0.222      -9999      -9999      11.0807    2.126      2.195      2.126      51.947     0.4894973  0.5902206  0.3887741 
1148       0.22       1          2          10.4216    2.097      2.336      2.097      50.668     0.3871845  0.4141661  0.3602029 
1148.2     0.218      1          2          9.6476     2.186      2.958      2.186      48.804     0.2980819  0.2732221  0.3229417 
1148.4     0.212      1          2          8.7378     2.637      3.905      2.637      46.94      0.2287044  0.167556   0.2898528 
1148.6     0.209      1          2          8.8843     3.316      4.395      3.316      45.076     0.220978   0.181282   0.2606739 
1148.8     0.209      1          2          9.4981     3.836      4.226      3.836      43.212     0.2436352  0.2521281  0.2351423 
1149       0.21       1          2          9.5903     3.629      4.015      3.629      41.349     0.2389711  0.2649362  0.213006  
1149.2     0.211      1          2          9.2359     3.456      3.519      3.456      42.536     0.2222344  0.2189884  0.2254804 
1149.4     0.211      1          2          9.2782     3.27       3.215      3.27       45.11      0.2407445  0.224024   0.257465  
1149.6     0.211      1          2          9.098001   2.946      3.283      2.946      47.685     0.249461   0.2033453  0.2955767 
1149.8     0.213      -9999      -9999      9.5114     2.618      3.021      2.618      50.259     0.2971494  0.2539367  0.3403621 
1150       0.213      -9999      -9999      10.6674    2.443      2.629      2.443      52.834     0.4325458  0.4726574  0.3924342 
1150.2     0.214      -9999      -9999      11.4461    2.787      3.063      2.787      55.408     0.5853111  0.7182938  0.4523284 
1150.4     0.215      -9999      -9999      11.8234    3.01       5.481      3.01       57.983     0.6603348  0.8        0.5206697 
1150.6     0.215      -9999      -9999      11.5533    2.279      2.15       2.279      57.397     0.6314868  0.7608928  0.5020808 
1150.8     0.214      -9999      -9999      11.3919    2.068      1.721      2.068      52.809     0.387522   0.697672   0.3875218 
1151       0.213      8          2          11.0871    2.676      1.937      2.676      48.222     0.299042   0.5922543  0.2990423 
1151.2     0.212      8          2          10.6208    3.679      2.593      3.679      45.163     0.252774   0.4609667  0.2527737 
1151.4     0.211      8          2          10.5027    4.198      3.149      4.198      44.497     0.243926   0.4326173  0.2439256 
1151.6     0.21       8          2          10.4757    4.757      3.669      4.757      43.692     0.233783   0.426385   0.233783  
1151.8     0.21       8          2          10.4486    5.243      4.128      5.243      42.957     0.225035   0.4202197  0.2250351 
1152       0.21       8          2          10.5703    5.279      4.877      5.279      42.222     0.216761   0.4486239  0.2167615 
1152.2     0.21       8          2          10.8821    5.243      5.488      5.243      43.005     0.225592   0.5304682  0.2255917 
1152.4     0.211      8          2          11.0206    5.428      5.084      5.428      43.449     0.230838   0.571461   0.2308375 
1152.6     0.211      8          2          10.7642    5.099      5.228      5.099      43.887     0.236185   0.497898   0.2361854 
1152.8     0.212      8          2          10.6834    3.362      5.488      3.362      45.435     0.256509   0.4767393  0.2565091 
1153       0.214      -9999      -9999      10.8472    2.295      3.593      2.295      49.734     0.325546   0.5206111  0.3255463 
1153.2     0.216      -9999      -9999      10.9466    2.102      2.522      2.102      54.032     0.4822727  0.5491793  0.4153659 
1153.4     0.218      -9999      -9999      10.8706    1.876      2.054      1.876      58.331     0.5280561  0.5271996  0.5289126 
1153.6     0.22       -9999      -9999      10.7922    1.858      2.048      1.858      59.897     0.5410907  0.5054473  0.576734  
1153.8     0.222      -9999      -9999      10.6378    2.039      2.027      2.039      59.103     0.5086174999999999 0.4651977  0.5520374 
1154       0.222      -9999      -9999      10.4834    2.194      2.21       2.194      58.31      0.4782244  0.4281532  0.5282956 
1154.2     0.222      -9999      -9999      10.3586    2.209      2.288      2.209      57.758     0.4631981  0.4003774  0.5260189 
