~Version
 VERS              .         2.0                           : CWLS LOG ASCII STANDARD - VERSION 2.0
 WRAP              .         NO                            : ONE LINE PER DEPTH STEP
 DLM               .         SPACE                         : DELIMITING CHARACTER(SPACE TAB OR COMMA)
~Well Information
#_______________________________________________________________________________
#
#PARAMETER_NAME    .UNIT     VALUE                         : DESCRIPTION
#_______________________________________________________________________________
STRT               .M        1045                          : First reference value
STOP               .M        1304                          : Last reference value
STEP               .M        0.2                           : Step increment
NULL               .         -9999                         : Missing value
COMP               .                                       : Company
WELL               .         3534                          : Well name
FLD                .         Узень                         : Field
LOC                .                                       : Location
CNTY               .                                       : County
STAT               .                                       : State
CTRY               .                                       : Country
SRVC               .                                       : Service Company
DATE               .                                       : Date
UWI                .                                       : Unique Well ID
Block              .         4                             : 
Category           .         Нефтяная                      : 
Condition          .         В работе                      : 
Date               .         17.11.2001                    : 
EREF               .m        227.8                         : 100.8
Gorizont           .         15                            : 14
Interpretator      .         Алпанова Н.К.                 : 
Kupol              .         основной                      : osnovnoi
Moii_15_vosst      .         15_vosst                      : 
Mud                .                                       : 
Mud_density        .                                       : 
Mud_resistivity    .                                       : 
Mud_density        .                                       : 
Mud_resistivity    .                                       : 
NGDU               .         НГДУ-1                        : 
ORIGINALWELLNAME   .         3534                          : 
Spud_date          .         2002                          : 1961
Spud_date          .         2002                          : 1961
Viscosity          .                                       : 
X                  .m        54058.1                       : 46154
Y                  .m        82287.8                       : 85761.93
YEAR               .         2018                          : 
~Parameter Information Block
#_______________________________________________________________________________
#
#PARAMETER_NAME    .UNIT     VALUE                         : DESCRIPTION
#_______________________________________________________________________________
SET                .         LQC_KAZNIPI_Petrel            : 
TLFamily_CALI      .         Caliper                       : 
TLFamily_COLL      .         Net Reservoir Flag            : 
TLFamily_CSAT      .         Fluid Code                    : 
TLFamily_DEPT      .         Measured Depth                : 
TLFamily_GR        .         Russian Gamma Ray             : 
TLFamily_LLS       .         Lateral Log Resistivity       : 
TLFamily_MBK       .         Micro Lateral Log Resistivity : 
TLFamily_RT        .         Formation Resistivity         : 
TLFamily_SP        .         Spontaneous Potential         : 
TLFamily_VSH_FIN   .         Shale Volume                  : 
TLFamily_VSH_GR    .         Shale Volume                  : 
TLFamily_VSH_SP    .         Shale Volume                  : 
~Curve Information
#_______________________________________________________________________________
#
#LOGNAME           .UNIT     LOG_ID                        : DESCRIPTION
#_______________________________________________________________________________
DEPT               .M                                      : Колонка глубины 
CALI               .м                                      : Каверномер 
COLL               .unitless                               :  
CSAT               .unitless                               :  
GR                 .мкР/ч                                  :  
LLS                .Ohmm                                   : Боковой каротаж 
MBK                .Ohmm                                   : Микробоковой каротаж 
RT                 .Ом·м                                   : Description 
SP                 .мВ                                     : Потенциал самополяризации 
VSH_FIN            .unitless                               : Описание 
VSH_GR             .unitless                               : Shale volume 
VSH_SP             .unitless                               : Shale Volume 
~Ascii
# ...
1191       0.209      1          2          8.2633     4.055      3.739      4.055      15.299     0.1256811  0.1298397  0.1215224 
1191.2     0.209      1          2          8.0601     3.809      3.537      3.809      15.43      0.1190794  0.1164069  0.1217519 
1191.4     0.209      1          2          7.9839     3.685      3.44       3.685      15.565     0.1168639  0.111736   0.1219919 
1191.6     0.209      1          2          7.9839     3.579      3.44       3.579      15.699     0.1169856  0.111736   0.1222352 
1191.8     0.209      1          2          7.9839     3.505      3.44       3.505      15.833     0.1171097  0.111736   0.1224834 
1192       0.209      1          2          8.089701   3.529      3.464      3.529      15.968     0.120506   0.1182736  0.1227384 
1192.2     0.21       1          2          8.3014     3.571      3.513      3.571      16.102     0.1277614  0.1325258  0.122997  
1192.4     0.21       1          2          8.5131     3.604      3.604      3.604      16.304     0.1359352  0.1484954  0.1233751 
1192.6     0.21       1          2          8.7248     3.679      3.713      3.679      16.414     0.1449976  0.1663895  0.1236058 
1192.8     0.21       1          2          8.9365     3.654      3.845      3.654      16.457     0.1550819  0.1864397  0.1237241 
1193       0.211      1          2          8.917601   3.625      3.489      3.625      16.5       0.1541996  0.1845556  0.1238435 
1193.2     0.211      1          2          8.668      3.604      3.532      3.604      16.543     0.1426755  0.1613869  0.123964  
1193.4     0.21       1          2          8.4184     3.629      3.587      3.629      16.413     0.1324541  0.1411267  0.1237814 
1193.6     0.209      1          2          8.1688     3.836      4.093      3.836      15.904     0.1231886  0.12341    0.1229671 
1193.8     0.209      1          2          7.9192     4.053      5.111      4.053      15.395     0.1150597  0.1079174  0.122202  
1194       0.209      1          2          7.6697     4.198      4.728      4.198      14.885     0.1079276  0.09437474999999999 0.1214805 
1194.2     0.209      1          2          7.683      4.257      4.064      4.257      14.376     0.1079267  0.09505178 0.1208016 
1194.4     0.209      1          2          7.900701   3.917      3.804      3.917      13.867     0.1135046  0.1068498  0.1201595 
1194.6     0.209      1          2          8.1184     3.818      3.637      3.818      13.526     0.1199352  0.120112   0.1197584 
1194.8     0.209      1          2          8.3362     3.731      3.562      3.731      13.468     0.1273729  0.1350277  0.1197181 
1195       0.209      1          2          8.2512     3.529      3.539      3.529      13.409     0.1243373  0.1289981  0.1196766 
1195.2     0.209      1          2          8.019      3.481      3.513      3.481      13.35      0.1167495  0.1138638  0.1196352 
1195.4     0.209      1          2          7.8931     3.462      3.537      3.462      14.178     0.1135779  0.1064142  0.1207417 
1195.6     0.209      1          2          7.8931     3.433      3.571      3.433      15.066     0.1142334  0.1064142  0.1220526 
1195.8     0.208      1          2          7.8931     3.409      3.637      3.409      15.673     0.1147327  0.1064142  0.1230513 
1196       0.209      1          2          7.8085     3.384      3.593      3.384      15.921     0.1125966  0.1016841  0.1235091 
1196.2     0.209      1          2          7.711699   3.362      3.562      3.362      16.169     0.1102564  0.09652925 0.1239836 
1196.4     0.21       1          2          7.663301   3.293      3.44       3.293      16.417     0.1092631  0.09405073999999999 0.1244755 
1196.6     0.211      1          2          7.6149     3.18       3.409      3.18       16.745     0.108387   0.09163578 0.1251383 
1196.8     0.212      1          2          7.5181     3.121      3.369      3.121      17.206     0.1065466  0.08699033000000001 0.1261028 
1197       0.212      1          2          7.8027     3.029      3.513      3.029      17.667     0.1142499  0.1013676  0.1271321 
1197.2     0.211      1          2          8.1753     2.749      3.396      2.749      18.128     0.1260361  0.1238419  0.1282303 
1197.4     0.211      1          2          8.547899   2.622      3.143      2.622      18.589     0.1403503  0.1512988  0.1294017 
1197.6     0.211      1          2          8.9205     2.512      2.959      2.512      26.653     0.1741302  0.1848434  0.1634169 
1197.8     0.213      1          2          9.293      2.295      2.813      2.295      31.089     0.2120882  0.225813   0.1983633 
1198       0.215      -9999      -9999      9.6656     2.217      2.535      2.217      34.315     0.2546869  0.275878   0.2334957 
1198.2     0.217      -9999      -9999      9.815001   2.201      2.23       2.201      37.54      0.2885578  0.2989431  0.2781726 
1198.4     0.218      -9999      -9999      9.8858     2.171      2.222      2.171      42.359     0.3378671  0.3105374  0.3651969 
1198.6     0.219      -9999      -9999      10.1653    2.148      2.124      2.148      46.532     0.4120598  0.3608708  0.4632489 
1198.8     0.22       -9999      -9999      10.4449    2.186      2.122      2.186      49.113     0.4776698  0.4193849  0.5359548 
1199       0.22       -9999      -9999      10.375     2.186      2.199      2.186      50.351     0.4893131  0.4039221  0.5747041000000001
1199.2     0.223      -9999      -9999      9.9556     2.097      2.269      2.097      50.544     0.453589   0.3224079  0.58477   
1199.4     0.224      -9999      -9999      9.5363     1.997      2.116      1.997      50.738     0.4261885  0.2573577  0.5950192 
1199.6     0.224      -9999      -9999      9.116899   2.249      2.655      2.249      50.772     0.402788   0.2054213  0.6001548 
1199.8     0.223      -9999      -9999      9.3948     2.443      2.552      2.443      50.599     0.4185176  0.2385119  0.5985233 
1200       0.222      -9999      -9999      9.9051     2.359      2.268      2.359      50.427     0.4553516  0.3137752  0.5969279 
1200.2     0.221      -9999      -9999      10.4153    2.068      2.201      2.068      50.255     0.5040513  0.4127661  0.5953366 
1200.4     0.22       -9999      -9999      10.695     1.838      2.102      1.838      50.083     0.5367346  0.4797206  0.5937486 
1200.6     0.219      -9999      -9999      10.4673    1.679      1.894      1.679      49.073     0.4949946  0.4244642  0.5655250000000001
1200.8     0.216      -9999      -9999      10.2396    1.775      1.791      1.775      47.911     0.4547595  0.3755727  0.5339463 
1201       0.222      -9999      -9999      10.0119    1.889      2.813      1.889      47.137     0.4236364  0.3323125  0.5149603 
1201.2     0.226      -9999      -9999      9.6703     1.97       3.535      1.97       46.44      0.3876481  0.2765759  0.4987204 
1201.4     0.226      -9999      -9999      9.9435     1.838      3.601      1.838      46.901     0.4177881  0.320318   0.5152581000000001
1201.6     0.222      -9999      -9999      10.3307    1.679      1.683      1.679      47.362     0.46335    0.3944187  0.5322813 
1201.8     0.22       -9999      -9999      10.5234    1.644      1.718      1.644      47.823     0.4936273  0.4374572  0.5497973 
1202       0.219      -9999      -9999      10.7177    1.679      1.665      1.679      48.283     0.5266957  0.4856091  0.5677822 
1202.2     0.218      -9999      -9999      11.1048    1.775      1.767      1.775      48.228     0.5839164  0.5979149  0.5699179 
1202.4     0.219      -9999      -9999      10.8981    1.85       1.816      1.85       47.938     0.5498773  0.5350493  0.5647053 
1202.6     0.221      -9999      -9999      10.6518    1.909      1.934      1.909      47.647     0.5141071  0.4687111  0.5595031 
1202.8     0.222      -9999      -9999      10.4054    1.889      1.804      1.889      47.357     0.4824744  0.4105757  0.5543732 
1203       0.223      -9999      -9999      10.3064    1.838      1.66       1.838      47.216     0.4715645  0.3893012  0.5538278 
