~Version
 VERS              .         2.0                           : CWLS LOG ASCII STANDARD - VERSION 2.0
 WRAP              .         NO                            : ONE LINE PER DEPTH STEP
 DLM               .         SPACE                         : DELIMITING CHARACTER(SPACE TAB OR COMMA)
~Well Information
#_______________________________________________________________________________
#
#PARAMETER_NAME    .UNIT     VALUE                         : DESCRIPTION
#_______________________________________________________________________________
STRT               .M        1045                          : First reference value
STOP               .M        1304                          : Last reference value
STEP               .M        0.2                           : Step increment
NULL               .         -9999                         : Missing value
COMP               .                                       : Company
WELL               .         3534                          : Well name
FLD                .         Узень                         : Field
LOC                .                                       : Location
CNTY               .                                       : County
STAT               .                                       : State
CTRY               .                                       : Country
SRVC               .                                       : Service Company
DATE               .                                       : Date
UWI                .                                       : Unique Well ID
Block              .         4                             : 
Category           .         Нефтяная                      : 
Condition          .         В работе                      : 
Date               .         17.11.2001                    : 
EREF               .m        227.8                         : 100.8
Gorizont           .         15                            : 14
Interpretator      .         Алпанова Н.К.                 : 
Kupol              .         основной                      : osnovnoi
Moii_15_vosst      .         15_vosst                      : 
Mud                .                                       : 
Mud_density        .                                       : 
Mud_resistivity    .                                       : 
Mud_density        .                                       : 
Mud_resistivity    .                                       : 
NGDU               .         НГДУ-1                        : 
ORIGINALWELLNAME   .         3534                          : 
Spud_date          .         2002                          : 1961
Spud_date          .         2002                          : 1961
Viscosity          .                                       : 
X                  .m        54058.1                       : 46154
Y                  .m        82287.8                       : 85761.93
YEAR               .         2018                          : 
~Parameter Information Block
#_______________________________________________________________________________
#
#PARAMETER_NAME    .UNIT     VALUE                         : DESCRIPTION
#_______________________________________________________________________________
SET                .         LQC_KAZNIPI_Petrel            : 
TLFamily_CALI      .         Caliper                       : 
TLFamily_COLL      .         Net Reservoir Flag            : 
TLFamily_CSAT      .         Fluid Code                    : 
TLFamily_DEPT      .         Measured Depth                : 
TLFamily_GR        .         Russian Gamma Ray             : 
TLFamily_LLS       .         Lateral Log Resistivity       : 
TLFamily_MBK       .         Micro Lateral Log Resistivity : 
TLFamily_RT        .         Formation Resistivity         : 
TLFamily_SP        .         Spontaneous Potential         : 
TLFamily_VSH_FIN   .         Shale Volume                  : 
TLFamily_VSH_GR    .         Shale Volume                  : 
TLFamily_VSH_SP    .         Shale Volume                  : 
~Curve Information
#_______________________________________________________________________________
#
#LOGNAME           .UNIT     LOG_ID                        : DESCRIPTION
#_______________________________________________________________________________
DEPT               .M                                      : Колонка глубины 
CALI               .м                                      : Каверномер 
COLL               .unitless                               :  
CSAT               .unitless                               :  
GR                 .мкР/ч                                  :  
LLS                .Ohmm                                   : Боковой каротаж 
MBK                .Ohmm                                   : Микробоковой каротаж 
RT                 .Ом·м                                   : Description 
SP                 .мВ                                     : Потенциал самополяризации 
VSH_FIN            .unitless                               : Описание 
VSH_GR             .unitless                               : Shale volume 
VSH_SP             .unitless                               : Shale Volume 
~Ascii
# ...
1203.2     0.223      -9999      -9999      10.3161    1.831      1.671      1.831      47.067     0.4721872  0.391336   0.5530384 
1203.4     0.221      -9999      -9999      10.2097    1.838      1.603      1.838      46.776     0.4587576  0.3695855  0.5479296 
1203.6     0.219      -9999      -9999      10.1032    1.85       1.603      1.85       46.767     0.4474483  0.3490253  0.5458711000000001
1203.8     0.218      -9999      -9999      10.0454    1.844      1.592      1.844      47.119     0.4465691  0.3383499  0.5547884 
1204       0.218      -9999      -9999      10.3276    1.838      1.609      1.838      47.471     0.4787971  0.3937623  0.5638319000000001
1204.2     0.219      -9999      -9999      10.6099    1.87       1.581      1.87       47.823     0.5156384000000001 0.458274   0.5730026 
1204.4     0.219      -9999      -9999      10.8921    1.889      1.543      1.889      47.971     0.55457    0.5333266  0.5758135 
1204.6     0.219      -9999      -9999      10.9824    1.889      1.625      1.889      48.12      0.569258   0.5598481  0.5786679 
1204.8     0.219      -9999      -9999      10.7525    1.929      1.671      1.929      48.269     0.5381559  0.4947771  0.5815346 
1205       0.219      -9999      -9999      10.5227    1.97       1.66       1.97       48.418     0.5108529000000001 0.4372924  0.5844133 
1205.2     0.219      -9999      -9999      10.6636    1.956      1.695      1.956      47.105     0.5547894  0.5760065  0.5335723 
1205.4     0.219      -9999      -9999      10.8575    1.916      1.718      1.916      45.694     0.5666535  0.6417376  0.4915694 
1205.6     0.219      -9999      -9999      10.6991    1.863      1.671      1.863      44.947     0.5286695  0.5875157  0.4698233 
1205.8     0.219      -9999      -9999      10.3833    1.916      1.683      1.916      44.283     0.471887   0.4927036  0.4510704 
1206       0.217      1          2          10.0676    2.35       2.201      2.35       42.433     0.4090455  0.4132152  0.4048757 
1206.2     0.214      1          2          9.7792     3.158      3.277      3.158      37.356     0.3273279  0.3518633  0.3027925 
1206.4     0.212      1          2          9.4934     3.654      4.024      3.654      32.279     0.2646092  0.3000552  0.2291631 
1206.6     0.21       1          2          9.207701   3.151      3.417      3.151      34.588     0.2570618  0.2558897  0.2582339 
1206.8     0.215      1          2          9.524401   2.359      2.994      2.359      38.088     0.3088242  0.3052843  0.312364  
1207       0.218      -9999      -9999      10.6708    2.011      2.588      2.011      41.587     0.4789036  0.5783225  0.3794847 
1207.2     0.219      -9999      -9999      11.3964    1.812      2.044      1.812      45.086     0.6305487  0.8        0.4610973 
1207.4     0.22       -9999      -9999      11.8337    1.863      1.592      1.863      48.22      0.6737662  0.8        0.5475324 
1207.6     0.22       -9999      -9999      11.4479    1.943      1.475      1.943      49.887     0.6990858  0.8        0.5981715 
1207.8     0.22       -9999      -9999      11.0756    2.025      1.695      2.025      48.581     0.6398078  0.7246772  0.5549384000000001
1208       0.219      -9999      -9999      10.9452    2.082      1.934      2.082      47.274     0.59415    0.6738817  0.5144184000000001
1208.2     0.219      -9999      -9999      11.1215    2.111      1.868      2.111      47.973     0.6354514  0.7434538000000001 0.5274491 
1208.4     0.218      -9999      -9999      11.1535    2.082      1.894      2.082      48.123     0.6406822  0.7568314  0.5245331 
1208.6     0.218      -9999      -9999      10.9167    2.171      1.974      2.171      46         0.5612589  0.6632631  0.4592546 
1208.8     0.217      -9999      -9999      10.6799    2.248      1.92       2.248      43.877     0.4914131  0.5812629  0.4015633 
1209       0.216      8          2          10.4431    2.279      2.222      2.279      42.036     0.4330146  0.5094004  0.3566288 
1209.2     0.215      8          2          10.3085    2.512      2.661      2.512      39.328     0.3872063  0.4725871  0.3018256 
1209.4     0.215      8          2          10.0168    2.711      2.417      2.711      36.55      0.3285766  0.4016807  0.2554725 
1209.6     0.214      8          2          10.1235    2.866      3.289      2.866      35.826     0.3343933  0.4262906  0.242496  
1209.8     0.213      8          2          10.4541    2.547      2.813      2.547      38.832     0.3970799  0.5125327  0.2816271 
1210       0.216      8          2          10.7848    2.201      2.268      2.201      41.838     0.4724241  0.6162567  0.3285916 
1210.2     0.218      -9999      -9999      11.1154    1.956      1.868      1.956      44.844     0.5625428  0.7409308  0.3841548 
1210.4     0.219      -9999      -9999      11.4461    1.85       1.829      1.85       47.85      0.6245409  0.8        0.4490819 
1210.6     0.22       -9999      -9999      11.7843    1.812      1.73       1.812      50.013     0.6500307  0.8        0.5000615000000001
1210.8     0.22       -9999      -9999      11.8473    1.8        1.66       1.8        51.029     0.660953   0.8        0.521906  
1211       0.22       -9999      -9999      11.2122    1.8        1.779      1.8        52.056     0.663461   0.7819992  0.5449228 
1211.2     0.22       -9999      -9999      10.3654    1.787      1.718      1.787      52.241     0.5153936  0.4878131  0.542974  
1211.4     0.22       -9999      -9999      10.0758    1.8        1.435      1.8        52.425     0.4780545  0.4151078  0.5410012 
1211.6     0.22       -9999      -9999      10.5734    1.863      1.425      1.863      52.154     0.5366763  0.5477675  0.5255853 
1211.8     0.222      -9999      -9999      10.9929    1.984      1.66       1.984      51.778     0.5998054  0.6920359  0.5075749000000001
1212       0.223      -9999      -9999      11.0736    2.141      1.816      2.141      51.401     0.6079285  0.72387    0.4919869 
1212.2     0.224      -9999      -9999      10.9249    2.097      1.791      2.097      51.116     0.5728016  0.666301   0.4793024 
1212.4     0.223      -9999      -9999      10.3226    2.054      1.767      2.054      51.683     0.4830579  0.476315   0.4898008 
1212.6     0.223      -9999      -9999      10.5645    2.011      1.718      2.011      48.7       0.4773913  0.5450571  0.4097255 
1212.8     0.22       1          2          10.6836    2.025      1.829      2.025      45.716     0.4624227  0.5824624000000001 0.3423829 
1213       0.217      1          2          10.3534    2.156      2.3        2.156      43.034     0.3880268  0.4845614  0.2914922 
1213.2     0.215      1          2          10.0232    2.343      2.661      2.343      40.534     0.3273996  0.403116   0.2516832 
1213.4     0.214      1          2          9.6931     2.46       2.661      2.46       38.282     0.2784497  0.3353784  0.2215209 
1213.6     0.213      1          2          9.3629     2.477      2.736      2.477      37.766     0.2464291  0.2790076  0.2138505 
1213.8     0.215      1          2          9.032701   2.443      2.68       2.443      41.024     0.2415449  0.2321118  0.2509781 
1214       0.216      1          2          10.1109    2.279      2.398      2.279      44.254     0.3599913  0.4233077  0.2966749 
1214.2     0.218      -9999      -9999      10.6799    2.156      2.089      2.156      49.992     0.4937134  0.5812629  0.4061639 
1214.4     0.22       -9999      -9999      11.2829    2.141      1.868      2.141      55.806     0.6785794000000001 0.8        0.5571589 
1214.6     0.22       -9999      -9999      12.2161    2.186      1.683      2.186      55.622     0.673018   0.8        0.5460359 
1214.8     0.219      -9999      -9999      11.4771    2.248      1.754      2.248      55.174     0.6636587000000001 0.8        0.5273174000000001
1215       0.218      -9999      -9999      10.7381    2.248      2.087      2.248      53.933     0.5486265  0.6004251  0.4968278 
