~Version
 VERS              .         2.0                           : CWLS LOG ASCII STANDARD - VERSION 2.0
 WRAP              .         NO                            : ONE LINE PER DEPTH STEP
 DLM               .         SPACE                         : DELIMITING CHARACTER(SPACE TAB OR COMMA)
~Well Information
#_______________________________________________________________________________
#
#PARAMETER_NAME    .UNIT     VALUE                         : DESCRIPTION
#_______________________________________________________________________________
STRT               .M        1045                          : First reference value
STOP               .M        1304                          : Last reference value
STEP               .M        0.2                           : Step increment
NULL               .         -9999                         : Missing value
COMP               .                                       : Company
WELL               .         3534                          : Well name
FLD                .         Узень                         : Field
LOC                .                                       : Location
CNTY               .                                       : County
STAT               .                                       : State
CTRY               .                                       : Country
SRVC               .                                       : Service Company
DATE               .                                       : Date
UWI                .                                       : Unique Well ID
Block              .         4                             : 
Category           .         Нефтяная                      : 
Condition          .         В работе                      : 
Date               .         17.11.2001                    : 
EREF               .m        227.8                         : 100.8
Gorizont           .         15                            : 14
Interpretator      .         Алпанова Н.К.                 : 
Kupol              .         основной                      : osnovnoi
Moii_15_vosst      .         15_vosst                      : 
Mud                .                                       : 
Mud_density        .                                       : 
Mud_resistivity    .                                       : 
Mud_density        .                                       : 
Mud_resistivity    .                                       : 
NGDU               .         НГДУ-1                        : 
ORIGINALWELLNAME   .         3534                          : 
Spud_date          .         2002                          : 1961
Spud_date          .         2002                          : 1961
Viscosity          .                                       : 
X                  .m        54058.1                       : 46154
Y                  .m        82287.8                       : 85761.93
YEAR               .         2018                          : 
~Parameter Information Block
#_______________________________________________________________________________
#
#PARAMETER_NAME    .UNIT     VALUE                         : DESCRIPTION
#_______________________________________________________________________________
SET                .         LQC_KAZNIPI_Petrel            : 
TLFamily_CALI      .         Caliper                       : 
TLFamily_COLL      .         Net Reservoir Flag            : 
TLFamily_CSAT      .         Fluid Code                    : 
TLFamily_DEPT      .         Measured Depth                : 
TLFamily_GR        .         Russian Gamma Ray             : 
TLFamily_LLS       .         Lateral Log Resistivity       : 
TLFamily_MBK       .         Micro Lateral Log Resistivity : 
TLFamily_RT        .         Formation Resistivity         : 
TLFamily_SP        .         Spontaneous Potential         : 
TLFamily_VSH_FIN   .         Shale Volume                  : 
TLFamily_VSH_GR    .         Shale Volume                  : 
TLFamily_VSH_SP    .         Shale Volume                  : 
~Curve Information
#_______________________________________________________________________________
#
#LOGNAME           .UNIT     LOG_ID                        : DESCRIPTION
#_______________________________________________________________________________
DEPT               .M                                      : Колонка глубины 
CALI               .м                                      : Каверномер 
COLL               .unitless                               :  
CSAT               .unitless                               :  
GR                 .мкР/ч                                  :  
LLS                .Ohmm                                   : Боковой каротаж 
MBK                .Ohmm                                   : Микробоковой каротаж 
RT                 .Ом·м                                   : Description 
SP                 .мВ                                     : Потенциал самополяризации 
VSH_FIN            .unitless                               : Описание 
VSH_GR             .unitless                               : Shale volume 
VSH_SP             .unitless                               : Shale Volume 
~Ascii
# ...
1227.4     0.209      1          2          8.4012     4.317      4.093      4.317      24.928     0.1627082  0.1632502  0.1621663 
1227.6     0.21       1          2          8.256      4.169      4.008      4.169      24.421     0.1548711  0.1505603  0.1591818 
1227.8     0.21       1          2          8.1109     4.027      4.055      4.027      23.914     0.1476037  0.1388647  0.1563428 
1228       0.21       1          2          7.9657     3.944      4.093      3.944      24.117     0.1428212  0.1280704  0.157572  
1228.2     0.21       1          2          7.8569     3.919      4.15       3.919      25.231     0.1424794  0.1205357  0.1644232 
1228.4     0.21       1          2          7.8794     3.89       4.208      3.89       26.345     0.1470648  0.1220566  0.172073  
1228.6     0.21       1          2          7.9065     3.809      4.356      3.809      27.46      0.1522479  0.123914   0.1805817 
1228.8     0.209      1          2          8.322599   3.705      4.036      3.705      30.291     0.1812069  0.1562535  0.2061604 
1229       0.211      1          2          8.7387     3.409      3.765      3.409      33.123     0.2176877  0.1970333  0.2383421 
1229.2     0.213      -9999      -9999      9.1815     3.072      3.617      3.072      35.954     0.2650631  0.2521805  0.2779458 
1229.4     0.215      -9999      -9999      9.8105     2.73       3.489      2.73       38.786     0.341948   0.358055   0.325841  
1229.6     0.216      -9999      -9999      10.4395    2.171      2.717      2.171      41.617     0.4456075  0.5083794  0.3828357 
1229.8     0.217      -9999      -9999      11.0686    1.97       2.058      1.97       41.667     0.5530388000000001 0.7218557  0.384222  
1230       0.217      -9999      -9999      10.4879    2.201      1.816      2.201      39.41      0.430298   0.5222787  0.3383173 
1230.2     0.213      8          2          9.9073     2.768      2.431      2.768      37.079     0.3374377  0.3779013  0.2969741 
1230.4     0.211      8          2          9.3266     3.757      3.662      3.757      32.491     0.2525766  0.27342    0.2317332 
1230.6     0.211      8          2          9.0165     3.917      5.218      3.917      31.342     0.2243077  0.2300256  0.2185897 
1230.8     0.211      8          2          9.518      3.202      4.67       3.202      32.867     0.2704379  0.3041972  0.2366786 
1231       0.212      8          2          10.0194    2.73       3.323      2.73       34.391     0.3295898  0.4022631  0.2569165 
1231.2     0.211      8          2          10.5209    2.512      2.643      2.512      35.387     0.4017083  0.5319727  0.2714439 
1231.4     0.211      8          2          10.4052    2.846      3.057      2.846      32.677     0.3667941  0.4987539  0.2348344 
1231.6     0.21       8          2          10.1472    2.926      3.727      2.926      31.673     0.3275211  0.4319583  0.2230838 
1231.8     0.21       8          2          9.8891     2.866      3.165      2.866      31.996     0.3005342  0.3740878  0.2269807 
1232       0.21       8          2          9.9859     2.494      2.852      2.494      32.319     0.3129003  0.3948227  0.2309778 
1232.2     0.21       8          2          9.9524     2.392      2.643      2.392      32.165     0.3084097  0.38752    0.2292994 
1232.4     0.21       8          2          9.7514     2.637      2.774      2.637      31.399     0.2835261  0.346454   0.2205982 
1232.6     0.21       8          2          9.5504     2.866      3.122      2.866      30.633     0.2610629  0.3097399  0.212386  
1232.8     0.21       8          2          9.349401   3.093      3.346      3.093      29.866     0.2407769  0.2769165  0.2046373 
1233       0.211      8          2          9.2238     3.247      3.562      3.247      29.1       0.2277765  0.2581959  0.197357  
1233.2     0.211      8          2          9.2238     3.316      3.662      3.316      28.669     0.225853   0.2581959  0.1935102 
1233.4     0.21       8          2          9.1694     3.27       3.662      3.27       28.669     0.2220598  0.2504857  0.193634  
1233.6     0.21       8          2          9.287001   3.225      3.818      3.225      28.669     0.230605   0.2674521  0.193758  
1233.8     0.21       8          2          9.462999   3.18       3.562      3.18       28.669     0.2444483  0.2950145  0.1938821 
1234       0.21       8          2          9.6389     3.115      3.277      3.115      28.831     0.2604449  0.3253995  0.1954904 
1234.2     0.209      8          2          9.6215     3.051      3.393      3.051      28.992     0.2596863  0.3222594  0.1971132 
1234.4     0.209      8          2          9.3553     3.158      3.587      3.158      28.669     0.2360418  0.2778284  0.1942553 
1234.6     0.209      1          2          9.0892     3.293      3.613      3.293      27.863     0.2134023  0.2395366  0.1872679 
1234.8     0.209      1          2          8.8231     3.579      3.637      3.579      27.056     0.1936298  0.2065224  0.1807373 
1235       0.209      1          2          8.4987     4.027      3.587      4.027      25.766     0.1717642  0.1723661  0.1711623 
1235.2     0.209      1          2          8.1479     4.79       4.51       4.79       24.476     0.1522138  0.1417578  0.1626699 
1235.4     0.209      1          2          7.8478     5.738      5.791      5.738      23.185     0.1375523  0.1199259  0.1551786 
1235.6     0.209      1          2          7.7671     6.324      6.164      6.324      21.895     0.131638   0.1146518  0.1486242 
1235.8     0.208      1          2          7.7974     6.368      6.164      6.368      22.601     0.1344071  0.1166043  0.1522099 
1236       0.208      1          2          8.0716     5.941      5.995      5.941      23.44      0.1463425  0.1358563  0.1568288 
1236.2     0.209      1          2          8.225801   5.581      5.555      5.581      24.278     0.1549561  0.1480476  0.1618646 
1236.4     0.209      1          2          8.1982     5.39       5.328      5.39       24.261     0.1538159  0.1457878  0.161844  
1236.6     0.21       1          2          8.17       5.659      5.328      5.659      22.944     0.1489137  0.1435145  0.1543128 
1236.8     0.21       1          2          7.8722     6.731      5.632      6.731      24.234     0.1417069  0.1215678  0.1618461 
1237       0.212      1          2          7.5744     8.465      7.082      8.465      25.524     0.1366993  0.1029773  0.1704213 
1237.2     0.214      1          2          7.2767     8.847      12.088     8.847      26.485     0.1323981  0.08723454 0.1775616 
1237.4     0.212      1          2          7.1129     9.2        12.867     9.2        27.023     0.130759   0.07962392 0.181894  
1237.6     0.211      1          2          7.8871     7.627      7.698      7.627      26.986     0.152144   0.1225815  0.1817064 
1237.8     0.209      1          2          8.4749     6.15       5.44       6.15       26.502     0.174051   0.170095   0.178007  
1238       0.209      1          2          8.5036     5.243      4.835      5.243      26.261     0.174556   0.1728375  0.1762745 
1238.2     0.209      1          2          8.5323     5.316      5.005      5.316      26.018     0.1750935  0.1756241  0.1745629 
1238.4     0.209      1          2          8.5609     5.738      5.44       5.738      25.534     0.1748051  0.1784457  0.1711644 
1238.6     0.209      1          2          8.589601   6.193      5.995      6.193      25.539     0.1763097  0.1813229  0.1712964 
1238.8     0.209      1          2          8.618299   6.368      6.338      6.368      25.656     0.1782368  0.1842463  0.1722273 
1239       0.209      1          2          8.647      6.236      6.164      6.236      25.773     0.1801933  0.187217   0.1731696 
1239.2     0.209      1          2          8.6756     6.024      5.872      6.024      26.179     0.1832496  0.1902249  0.1762744 
1239.4     0.209      1          2          8.7043     5.818      5.632      5.818      27.067     0.1883258  0.1932919  0.1833598 
