~Version
 VERS              .         2.0                           : CWLS LOG ASCII STANDARD - VERSION 2.0
 WRAP              .         NO                            : ONE LINE PER DEPTH STEP
 DLM               .         SPACE                         : DELIMITING CHARACTER(SPACE TAB OR COMMA)
~Well Information
#_______________________________________________________________________________
#
#PARAMETER_NAME    .UNIT     VALUE                         : DESCRIPTION
#_______________________________________________________________________________
STRT               .M        1045                          : First reference value
STOP               .M        1304                          : Last reference value
STEP               .M        0.2                           : Step increment
NULL               .         -9999                         : Missing value
COMP               .                                       : Company
WELL               .         3534                          : Well name
FLD                .         Узень                         : Field
LOC                .                                       : Location
CNTY               .                                       : County
STAT               .                                       : State
CTRY               .                                       : Country
SRVC               .                                       : Service Company
DATE               .                                       : Date
UWI                .                                       : Unique Well ID
Block              .         4                             : 
Category           .         Нефтяная                      : 
Condition          .         В работе                      : 
Date               .         17.11.2001                    : 
EREF               .m        227.8                         : 100.8
Gorizont           .         15                            : 14
Interpretator      .         Алпанова Н.К.                 : 
Kupol              .         основной                      : osnovnoi
Moii_15_vosst      .         15_vosst                      : 
Mud                .                                       : 
Mud_density        .                                       : 
Mud_resistivity    .                                       : 
Mud_density        .                                       : 
Mud_resistivity    .                                       : 
NGDU               .         НГДУ-1                        : 
ORIGINALWELLNAME   .         3534                          : 
Spud_date          .         2002                          : 1961
Spud_date          .         2002                          : 1961
Viscosity          .                                       : 
X                  .m        54058.1                       : 46154
Y                  .m        82287.8                       : 85761.93
YEAR               .         2018                          : 
~Parameter Information Block
#_______________________________________________________________________________
#
#PARAMETER_NAME    .UNIT     VALUE                         : DESCRIPTION
#_______________________________________________________________________________
SET                .         LQC_KAZNIPI_Petrel            : 
TLFamily_CALI      .         Caliper                       : 
TLFamily_COLL      .         Net Reservoir Flag            : 
TLFamily_CSAT      .         Fluid Code                    : 
TLFamily_DEPT      .         Measured Depth                : 
TLFamily_GR        .         Russian Gamma Ray             : 
TLFamily_LLS       .         Lateral Log Resistivity       : 
TLFamily_MBK       .         Micro Lateral Log Resistivity : 
TLFamily_RT        .         Formation Resistivity         : 
TLFamily_SP        .         Spontaneous Potential         : 
TLFamily_VSH_FIN   .         Shale Volume                  : 
TLFamily_VSH_GR    .         Shale Volume                  : 
TLFamily_VSH_SP    .         Shale Volume                  : 
~Curve Information
#_______________________________________________________________________________
#
#LOGNAME           .UNIT     LOG_ID                        : DESCRIPTION
#_______________________________________________________________________________
DEPT               .M                                      : Колонка глубины 
CALI               .м                                      : Каверномер 
COLL               .unitless                               :  
CSAT               .unitless                               :  
GR                 .мкР/ч                                  :  
LLS                .Ohmm                                   : Боковой каротаж 
MBK                .Ohmm                                   : Микробоковой каротаж 
RT                 .Ом·м                                   : Description 
SP                 .мВ                                     : Потенциал самополяризации 
VSH_FIN            .unitless                               : Описание 
VSH_GR             .unitless                               : Shale volume 
VSH_SP             .unitless                               : Shale Volume 
~Ascii
# ...
1130       0.237      -9999      -9999      9.0595     2.426      2.341      2.426      51.503     0.4737836  0.4273681  0.5201991 
1130.2     0.233      -9999      -9999      8.8875     2.409      2.095      2.409      51.452     0.4600537  0.4013836  0.5187237 
1130.4     0.231      -9999      -9999      8.7768     2.311      2.066      2.311      51.452     0.4521127  0.3855017  0.5187237 
1130.6     0.232      -9999      -9999      8.7835     2.217      1.785      2.217      51.452     0.4525842  0.3864447  0.5187237 
1130.8     0.234      -9999      -9999      8.9746     2.156      1.543      2.156      51.452     0.466531   0.4143383  0.5187237 
1131       0.233      -9999      -9999      8.847      2.097      1.792      2.097      51.452     0.4571112  0.3954987  0.5187237 
1131.2     0.237      -9999      -9999      8.6969     2.068      1.44       2.068      51.452     0.4465771  0.3744305  0.5187237 
1131.4     0.242      -9999      -9999      8.5444     2.248      1.785      2.248      51.291     0.4341324  0.3541745  0.5140903 
1131.6     0.24       -9999      -9999      8.2417     2.494      3.312      2.494      51.052     0.4122182  0.3171566  0.50728   
1131.8     0.233      -9999      -9999      7.9391     2.674      2.199      2.674      50.814     0.3922982  0.284018   0.5005784 
1132       0.23       -9999      -9999      8.055201   2.392      1.522      2.392      50.575     0.3951153  0.2963021  0.4939287 
1132.2     0.235      -9999      -9999      8.3589     2.068      1.48       2.068      50.336     0.4091825  0.3310065  0.4873585 
1132.4     0.234      -9999      -9999      8.743299   1.956      1.565      1.956      50.242     0.4328083  0.3808204  0.4847963 
1132.6     0.235      -9999      -9999      9.1277     1.997      1.598      1.997      50.242     0.4614637  0.4381311  0.4847963 
1132.8     0.234      -9999      -9999      9.0734     2.039      1.62       2.039      50.242     0.4571682  0.4295402  0.4847963 
1133       0.233      -9999      -9999      8.873      2.054      1.45       2.054      50.37      0.4437775  0.3992667  0.4882883 
1133.2     0.231      -9999      -9999      8.6725     2.039      1.42       2.039      50.66      0.4336989  0.3711133  0.4962845 
1133.4     0.23       -9999      -9999      8.4721     2.039      1.701      2.039      50.949     0.4246639  0.3449578  0.50437   
1133.6     0.227      -9999      -9999      8.4874     2.025      1.666      2.025      51.239     0.4297448  0.3468879  0.5126016 
1133.8     0.228      -9999      -9999      8.8624     2.025      1.543      2.025      51.332     0.4564965  0.3977262  0.5152668 
1134       0.231      -9999      -9999      9.2374     2.156      1.491      2.156      51.417     0.4868641  0.456015   0.5177133 
1134.2     0.235      -9999      -9999      9.093699   2.392      2.452      2.392      51.502     0.476451   0.4327319  0.5201702 
1134.4     0.239      -9999      -9999      8.876      2.749      3.832      2.749      51.587     0.4611706  0.3997038  0.5226375 
1134.6     0.24       -9999      -9999      8.8332     2.906      2.843      2.906      51.734     0.460221   0.3935132  0.5269287 
1134.8     0.233      -9999      -9999      9.0821     2.846      2.526      2.846      52.107     0.484431   0.4309051  0.537957  
1135       0.226      -9999      -9999      9.2631     2.674      2.466      2.674      52.481     0.5047634  0.4603091  0.5492176 
1135.2     0.226      -9999      -9999      9.1502     2.564      2.407      2.564      52.854     0.5011966  0.441741   0.5606522 
1135.4     0.227      -9999      -9999      9.1482     2.494      2.169      2.494      53.065     0.5043152  0.441419   0.5672114 
1135.6     0.228      -9999      -9999      9.3653     2.477      2.023      2.477      53.065     0.5225006  0.4777897  0.5672114 
1135.8     0.228      -9999      -9999      9.210501   2.443      1.761      2.443      53.065     0.5093874000000001 0.4515633  0.5672114 
1136       0.226      -9999      -9999      9.2339     2.426      1.954      2.426      53.065     0.5113224  0.4554333  0.5672114 
1136.2     0.226      -9999      -9999      9.4355     2.426      2.245      2.426      52.984     0.5274328  0.4901799  0.5646857 
1136.4     0.226      -9999      -9999      9.6371     2.477      2.139      2.477      52.867     0.5443159  0.5275775  0.5610544 
1136.6     0.226      -9999      -9999      9.8387     2.512      2.154      2.512      52.749     0.5626204  0.5678282  0.5574126 
1136.8     0.229      -9999      -9999      9.48       2.392      1.861      2.392      52.686     0.5268384  0.4982     0.5554767000000001
1137       0.233      -9999      -9999      8.9346     2.311      1.533      2.311      52.785     0.4834297  0.4083379  0.5585214 
1137.2     0.235      -9999      -9999      8.3891     2.327      1.749      2.327      52.885     0.448142   0.3346724  0.5616117000000001
1137.4     0.231      -9999      -9999      8.123      2.311      2.023      2.311      52.984     0.4342028  0.3037199  0.5646857 
1137.6     0.228      -9999      -9999      8.471399   2.295      1.954      2.295      53.039     0.4556347  0.3448696  0.5663997 
1137.8     0.227      -9999      -9999      8.819799   2.263      1.689      2.263      52.903     0.4768821  0.3915947  0.5621696000000001
1138       0.226      -9999      -9999      8.9375     2.263      1.836      2.263      52.767     0.4811631  0.40877    0.5535562000000001
1138.2     0.225      -9999      -9999      8.055799   2.311      1.749      2.311      52.632     0.4207274  0.2963668  0.5450881 
1138.4     0.226      -9999      -9999      7.1741     2.279      1.749      2.279      52.496     0.3757879  0.2148722  0.5367036 
1138.6     0.232      -9999      -9999      6.7707     2.248      1.995      2.248      52.36      0.3569542  0.1854757  0.5284325 
1138.8     0.244      -9999      -9999      7.164701   2.141      1.874      2.141      52.387     0.369576   0.2141369  0.5250152 
1139       0.244      -9999      -9999      7.5588     2.039      1.798      2.039      52.903     0.3916119  0.2472359  0.5359879 
1139.2     0.239      -9999      -9999      7.9528     2.039      1.713      2.039      53.419     0.4163011  0.2854406  0.5471616 
1139.4     0.234      -9999      -9999      8.3468     2.054      1.761      2.054      53.871     0.4430584  0.329549   0.5565678 
1139.6     0.237      -9999      -9999      8.024199   2.111      2.051      2.111      53.871     0.4225689  0.2929709  0.5521668 
1139.8     0.24       -9999      -9999      7.7016     2.232      2.341      2.232      53.871     0.4041246  0.2604529  0.5477963 
1140       0.241      -9999      -9999      7.379      2.343      2.226      2.343      53.871     0.3875     0.2315441  0.5434559 
1140.2     0.234      -9999      -9999      7.2618     2.376      2.304      2.376      53.86      0.3803363  0.2218558  0.5388169 
1140.4     0.232      -9999      -9999      7.7605     2.376      2.131      2.376      53.684     0.3977237  0.2661081  0.5293392 
1140.6     0.23       -9999      -9999      8.2593     2.343      1.964      2.343      53.508     0.4196039  0.3191988  0.5200090000000001
1140.8     0.227      -9999      -9999      8.5106     2.674      2.487      2.674      53.332     0.4303301  0.3498354  0.5108247 
1141       0.224      -9999      -9999      8.758101   3.505      2.858      3.505      53.535     0.4476997  0.3828816  0.5125178 
1141.2     0.227      -9999      -9999      9.1815     4.531      5.883      4.531      53.965     0.4837867  0.4468125  0.520761  
1141.4     0.224      -9999      -9999      9.1485     5.206      9.564      5.206      54.395     0.4852943  0.4414674  0.5291212 
1141.6     0.223      -9999      -9999      8.7262     4.659      6.949      4.659      54.825     0.4580263  0.378453   0.5375996 
1141.8     0.223      -9999      -9999      8.3039     3.731      4.364      3.731      55.255     0.435315   0.3244332  0.5461969 
1142       0.224      -9999      -9999      7.8816     3.202      3.825      3.202      55.608     0.415341   0.2781242  0.5525578 
