~Version
 VERS              .         2.0                           : CWLS LOG ASCII STANDARD - VERSION 2.0
 WRAP              .         NO                            : ONE LINE PER DEPTH STEP
 DLM               .         SPACE                         : DELIMITING CHARACTER(SPACE TAB OR COMMA)
~Well Information
#_______________________________________________________________________________
#
#PARAMETER_NAME    .UNIT     VALUE                         : DESCRIPTION
#_______________________________________________________________________________
STRT               .M        1045                          : First reference value
STOP               .M        1304                          : Last reference value
STEP               .M        0.2                           : Step increment
NULL               .         -9999                         : Missing value
COMP               .                                       : Company
WELL               .         3534                          : Well name
FLD                .         Узень                         : Field
LOC                .                                       : Location
CNTY               .                                       : County
STAT               .                                       : State
CTRY               .                                       : Country
SRVC               .                                       : Service Company
DATE               .                                       : Date
UWI                .                                       : Unique Well ID
Block              .         4                             : 
Category           .         Нефтяная                      : 
Condition          .         В работе                      : 
Date               .         17.11.2001                    : 
EREF               .m        227.8                         : 100.8
Gorizont           .         15                            : 14
Interpretator      .         Алпанова Н.К.                 : 
Kupol              .         основной                      : osnovnoi
Moii_15_vosst      .         15_vosst                      : 
Mud                .                                       : 
Mud_density        .                                       : 
Mud_resistivity    .                                       : 
Mud_density        .                                       : 
Mud_resistivity    .                                       : 
NGDU               .         НГДУ-1                        : 
ORIGINALWELLNAME   .         3534                          : 
Spud_date          .         2002                          : 1961
Spud_date          .         2002                          : 1961
Viscosity          .                                       : 
X                  .m        54058.1                       : 46154
Y                  .m        82287.8                       : 85761.93
YEAR               .         2018                          : 
~Parameter Information Block
#_______________________________________________________________________________
#
#PARAMETER_NAME    .UNIT     VALUE                         : DESCRIPTION
#_______________________________________________________________________________
SET                .         LQC_KAZNIPI_Petrel            : 
TLFamily_CALI      .         Caliper                       : 
TLFamily_COLL      .         Net Reservoir Flag            : 
TLFamily_CSAT      .         Fluid Code                    : 
TLFamily_DEPT      .         Measured Depth                : 
TLFamily_GR        .         Russian Gamma Ray             : 
TLFamily_LLS       .         Lateral Log Resistivity       : 
TLFamily_MBK       .         Micro Lateral Log Resistivity : 
TLFamily_RT        .         Formation Resistivity         : 
TLFamily_SP        .         Spontaneous Potential         : 
TLFamily_VSH_FIN   .         Shale Volume                  : 
TLFamily_VSH_GR    .         Shale Volume                  : 
TLFamily_VSH_SP    .         Shale Volume                  : 
~Curve Information
#_______________________________________________________________________________
#
#LOGNAME           .UNIT     LOG_ID                        : DESCRIPTION
#_______________________________________________________________________________
DEPT               .M                                      : Колонка глубины 
CALI               .м                                      : Каверномер 
COLL               .unitless                               :  
CSAT               .unitless                               :  
GR                 .мкР/ч                                  :  
LLS                .Ohmm                                   : Боковой каротаж 
MBK                .Ohmm                                   : Микробоковой каротаж 
RT                 .Ом·м                                   : Description 
SP                 .мВ                                     : Потенциал самополяризации 
VSH_FIN            .unitless                               : Описание 
VSH_GR             .unitless                               : Shale volume 
VSH_SP             .unitless                               : Shale Volume 
~Ascii
# ...
1154.4     0.223      -9999      -9999      10.5378    2.24       2.241      2.24       57.31      0.4838256  0.4408558  0.5267954 
1154.6     0.223      -9999      -9999      10.717     2.392      2.361      2.392      56.862     0.5064997  0.4854265  0.5275729 
1154.8     0.223      -9999      -9999      10.6899    2.426      2.593      2.426      56.564     0.5055903000000001 0.4784077  0.5327728000000001
1155       0.223      -9999      -9999      10.4988    2.232      2.273      2.232      56.265     0.4848497  0.4317116  0.5379878 
1155.2     0.222      -9999      -9999      11.0625    2.082      2.18       2.082      55.966     0.5638615  0.5844755  0.5432476000000001
1155.4     0.222      -9999      -9999      12.0182    1.984      2.187      1.984      55.724     0.6751422  0.8        0.5502845 
1155.6     0.22       -9999      -9999      11.9069    2.063      2.135      2.063      55.503     0.6790237  0.8        0.5580474 
1155.8     0.22       -9999      -9999      11.4577    2.186      2.362      2.186      55.281     0.64433    0.7227861  0.5658739 
1156       0.22       -9999      -9999      11.0086    2.474      2.599      2.474      54.949     0.5690601  0.5677872000000001 0.5703329 
1156.2     0.221      -9999      -9999      10.7508    2.618      2.76       2.618      54.616     0.525838   0.4943252  0.5573509 
1156.4     0.221      -9999      -9999      10.6569    3.051      3.594      3.051      54.395     0.5090054000000001 0.4699976  0.548013  
1156.6     0.221      -9999      -9999      10.496     3.09       4.425      3.09       54.445     0.4890124  0.4310624  0.5469624 
1156.8     0.22       -9999      -9999      10.3686    3.136      4.057      3.136      54.82      0.479174   0.4025351  0.5558131 
1157       0.216      -9999      -9999      10.7136    2.477      3.643      2.477      55.382     0.5275875  0.4845403  0.5706347000000001
1157.2     0.215      -9999      -9999      11.1786    2.097      2.241      2.097      55.944     0.6039515  0.6221071  0.5857958 
1157.4     0.221      -9999      -9999      11.6436    1.956      2.005      1.956      56.162     0.694411   0.7987304  0.5900916000000001
1157.6     0.222      -9999      -9999      12.1086    1.916      2.12       1.916      54.476     0.6675979  0.8        0.5351959 
1157.8     0.219      -9999      -9999      11.8647    2.126      1.951      2.126      52.789     0.8        0.8        0.490836  
1158       0.218      1          2          10.4395    2.443      2.15       2.443      51.103     0.41817    0.4181696  0.4498494 
1158.2     0.217      1          2          9.6868     2.564      2.539      2.564      49.417     0.279039   0.2790393  0.4120702 
1158.4     0.217      1          2          9.329901   2.73       2.877      2.73       47.73      0.230336   0.230336   0.3773408 
1158.6     0.217      1          2          9.014299   3.008      2.76       3.008      46.725     0.194401   0.1944006  0.3591723 
1158.8     0.216      1          2          7.5891     3.158      2.862      3.158      46.017     0.090374   0.09037391 0.3477026 
1159       0.214      1          2          7.762      3.008      2.979      3.008      45.309     0.099174   0.0991744  0.3366158 
1159.2     0.214      1          2          7.999      2.884      3.127      2.884      46.482     0.112646   0.1126464  0.3625264 
1159.4     0.214      1          2          8.274199   2.787      2.575      2.787      47.991     0.130603   0.1306025  0.3980024 
1159.6     0.218      -9999      -9999      8.531199   2.409      2.371      2.409      48.787     0.149947   0.149947   0.4195942 
1159.8     0.22       -9999      -9999      8.6932     2.097      2.195      2.097      49.5       0.163587   0.1635875  0.4402355 
1160       0.219      8          2          8.7958     2.343      2.32       2.343      50.141     0.172861   0.1728614  0.4599581 
1160.2     0.218      8          2          8.9852     2.6        2.629      2.6        49.335     0.191384   0.191384   0.4428855 
1160.4     0.217      8          2          9.0635     2.826      6.218      2.826      48.528     0.19961    0.1996097  0.426384  
1160.6     0.218      8          2          9.8619     2.696      5.382      2.696      50.121     0.306574   0.3065741  0.4700843 
1160.8     0.218      -9999      -9999      10.5182    2.547      2.174      2.547      52.056     0.436236   0.4362362  0.5278079 
1161       0.219      -9999      -9999      10.5542    2.141      1.889      2.141      51.129     0.4748971  0.4447587  0.5050353 
1161.2     0.22       -9999      -9999      10.5956    2.011      1.701      2.011      50.202     0.4689557  0.4547656  0.4831457 
1161.4     0.221      -9999      -9999      9.2708     2.025      1.91       2.025      49.274     0.3426147  0.2231347  0.4620947 
1161.6     0.221      -9999      -9999      7.4904     2.082      2.684      2.082      48.802     0.2695602  0.08570489000000001 0.4534156 
1161.8     0.22       -9999      -9999      6.8876     2.056      3.306      2.056      48.347     0.2536517  0.06198785 0.4453156 
1162       0.22       -9999      -9999      7.5621     2.025      3.643      2.025      47.419     0.257437   0.08907199 0.425802  
1162.2     0.219      -9999      -9999      9.0646     2.004      3.215      2.004      48.006     0.3216458  0.1997277  0.4435639 
1162.4     0.219      -9999      -9999      9.9582     1.967      2.118      1.967      48.592     0.3924253  0.3228589  0.4619917 
1162.6     0.219      -9999      -9999      10.4769    1.929      2.048      1.929      49.179     0.4539052  0.42666    0.4811504 
1162.8     0.219      -9999      -9999      10.5094    1.876      2.135      1.876      48.79      0.4542645  0.434178   0.474351  
1163       0.218      -9999      -9999      10.5524    1.821      2.123      1.821      47.643     0.446205   0.4443288  0.4480812 
1163.2     0.218      -9999      -9999      10.5581    1.865      2.336      1.865      46.496     0.4344327  0.4456919  0.4231736 
1163.4     0.218      -9999      -9999      10.3984    2.359      2.666      2.359      45.349     0.4043123  0.409034   0.3995906 
1163.6     0.217      -9999      -9999      10.2596    2.73       3.306      2.73       44.203     0.3784735  0.3796313  0.3773157 
1163.8     0.218      -9999      -9999      10.3201    2.606      3.084      2.606      43.056     0.3742226  0.3921781  0.3562671 
1164       0.218      -9999      -9999      10.3805    1.984      2.504      1.984      45.202     0.4053212  0.4051178  0.4055247 
1164.2     0.218      -9999      -9999      10.4224    1.782      2.406      1.782      47.567     0.4407241  0.414344   0.4671043 
1164.4     0.219      -9999      -9999      10.4939    1.775      2.257      1.775      49.933     0.4838931  0.4305761  0.53721   
1164.6     0.218      -9999      -9999      10.4786    1.903      2.248      1.903      51.607     0.5102985  0.4270501  0.5935469 
1164.8     0.218      -9999      -9999      10.4055    1.998      2.234      1.998      50.282     0.4775398  0.4105978  0.5444819 
1165       0.218      -9999      -9999      10.3356    2.054      2.226      2.054      48.958     0.447243   0.3954588  0.4990273 
1165.2     0.216      -9999      -9999      10.1957    2.437      2.436      2.437      47.634     0.4119129  0.3668151  0.4570107 
1165.4     0.213      8          2          9.9128     2.786      2.575      2.786      46.309     0.3666721  0.3150764  0.4182678 
1165.6     0.212      8          2          9.779699   2.926      2.712      2.926      44.985     0.3380164  0.2933249  0.3827079 
1165.8     0.212      8          2          9.63       2.946      2.858      2.946      44.402     0.317923   0.2706499  0.3651961 
1166       0.212      8          2          9.591001   2.6        2.744      2.6        46.045     0.3302319  0.265036   0.3954278 
1166.2     0.214      8          2          10.0887    2.232      2.647      2.232      47.687     0.3872035  0.346316   0.428091  
1166.4     0.217      -9999      -9999      10.4708    2.162      2.12       2.162      49.329     0.4442851  0.4252636  0.4633066 
