~Version
 VERS              .         2.0                           : CWLS LOG ASCII STANDARD - VERSION 2.0
 WRAP              .         NO                            : ONE LINE PER DEPTH STEP
 DLM               .         SPACE                         : DELIMITING CHARACTER(SPACE TAB OR COMMA)
~Well Information
#_______________________________________________________________________________
#
#PARAMETER_NAME    .UNIT     VALUE                         : DESCRIPTION
#_______________________________________________________________________________
STRT               .M        1045                          : First reference value
STOP               .M        1304                          : Last reference value
STEP               .M        0.2                           : Step increment
NULL               .         -9999                         : Missing value
COMP               .                                       : Company
WELL               .         3534                          : Well name
FLD                .         Узень                         : Field
LOC                .                                       : Location
CNTY               .                                       : County
STAT               .                                       : State
CTRY               .                                       : Country
SRVC               .                                       : Service Company
DATE               .                                       : Date
UWI                .                                       : Unique Well ID
Block              .         4                             : 
Category           .         Нефтяная                      : 
Condition          .         В работе                      : 
Date               .         17.11.2001                    : 
EREF               .m        227.8                         : 100.8
Gorizont           .         15                            : 14
Interpretator      .         Алпанова Н.К.                 : 
Kupol              .         основной                      : osnovnoi
Moii_15_vosst      .         15_vosst                      : 
Mud                .                                       : 
Mud_density        .                                       : 
Mud_resistivity    .                                       : 
Mud_density        .                                       : 
Mud_resistivity    .                                       : 
NGDU               .         НГДУ-1                        : 
ORIGINALWELLNAME   .         3534                          : 
Spud_date          .         2002                          : 1961
Spud_date          .         2002                          : 1961
Viscosity          .                                       : 
X                  .m        54058.1                       : 46154
Y                  .m        82287.8                       : 85761.93
YEAR               .         2018                          : 
~Parameter Information Block
#_______________________________________________________________________________
#
#PARAMETER_NAME    .UNIT     VALUE                         : DESCRIPTION
#_______________________________________________________________________________
SET                .         LQC_KAZNIPI_Petrel            : 
TLFamily_CALI      .         Caliper                       : 
TLFamily_COLL      .         Net Reservoir Flag            : 
TLFamily_CSAT      .         Fluid Code                    : 
TLFamily_DEPT      .         Measured Depth                : 
TLFamily_GR        .         Russian Gamma Ray             : 
TLFamily_LLS       .         Lateral Log Resistivity       : 
TLFamily_MBK       .         Micro Lateral Log Resistivity : 
TLFamily_RT        .         Formation Resistivity         : 
TLFamily_SP        .         Spontaneous Potential         : 
TLFamily_VSH_FIN   .         Shale Volume                  : 
TLFamily_VSH_GR    .         Shale Volume                  : 
TLFamily_VSH_SP    .         Shale Volume                  : 
~Curve Information
#_______________________________________________________________________________
#
#LOGNAME           .UNIT     LOG_ID                        : DESCRIPTION
#_______________________________________________________________________________
DEPT               .M                                      : Колонка глубины 
CALI               .м                                      : Каверномер 
COLL               .unitless                               :  
CSAT               .unitless                               :  
GR                 .мкР/ч                                  :  
LLS                .Ohmm                                   : Боковой каротаж 
MBK                .Ohmm                                   : Микробоковой каротаж 
RT                 .Ом·м                                   : Description 
SP                 .мВ                                     : Потенциал самополяризации 
VSH_FIN            .unitless                               : Описание 
VSH_GR             .unitless                               : Shale volume 
VSH_SP             .unitless                               : Shale Volume 
~Ascii
# ...
1251.8     0.214      -9999      -9999      9.8676     2.311      2.946      2.311      41.013     0.3870195  0.3696323  0.4044067 
1252       0.215      -9999      -9999      9.7171     2.327      2.974      2.327      41.213     0.3740208  0.3398944  0.4081473 
1252.2     0.216      -9999      -9999      9.8561     2.319      2.892      2.319      41.331     0.3886407  0.3672708  0.4100105 
1252.4     0.217      -9999      -9999      10.0145    2.311      2.755      2.311      41.614     0.4084593  0.4011661  0.4157525 
1252.6     0.218      -9999      -9999      10.1728    2.263      2.68       2.263      41.761     0.4282508  0.4381653  0.4183362 
1252.8     0.215      -9999      -9999      10.138     2.232      2.698      2.232      41.372     0.4190441  0.4297493  0.4083389 
1253       0.213      -9999      -9999      9.9099     2.376      2.717      2.376      41.1       0.3898387  0.3784493  0.4012281 
1253.2     0.212      1          2          9.6817     2.674      3.64       2.674      39.349     0.3478717  0.3332544  0.3624889 
1253.4     0.212      1          2          9.4536     3.029      4.064      3.029      37.598     0.3105234  0.2934732  0.3275736 
1253.6     0.211      1          2          9.2661     3.18       3.845      3.18       35.847     0.2803139  0.2643549  0.2962729 
1253.8     0.211      1          2          9.3629     3.136      3.688      3.136      34.153     0.2741119  0.2790076  0.2692162 
1254       0.211      1          2          9.320601   2.946      3.765      2.946      33.766     0.2677769  0.2725074  0.2630464 
1254.2     0.211      1          2          9.0948     2.906      3.688      2.906      33.508     0.2495707  0.2402853  0.258856  
1254.4     0.211      1          2          9.400599   2.846      3.464      2.846      35.195     0.2841385  0.2849316  0.2833454 
1254.6     0.211      1          2          9.707701   2.749      3.323      2.749      36.883     0.3243932  0.3381186  0.3106679 
1254.8     0.212      -9999      -9999      9.8619     2.582      3.187      2.582      38.57      0.3547072  0.3684599  0.3409545 
1255       0.213      -9999      -9999      9.8135     2.345      2.953      2.345      40.257     0.3665196  0.3586542  0.374385  
1255.2     0.215      -9999      -9999      10.0645    2.097      2.136      2.097      45.969     0.4640925  0.4125018  0.5156832 
1255.4     0.215      -9999      -9999      10.252     1.956      1.881      1.956      48.214     0.5214206  0.4579383  0.5849029 
1255.6     0.215      -9999      -9999      10.2581    1.929      1.804      1.929      48.583     0.5286979000000001 0.4594978  0.597898  
1255.8     0.216      -9999      -9999      10.1307    2.068      1.881      2.068      46.089     0.4749778  0.4280046  0.5219510000000001
1256       0.213      -9999      -9999      9.3512     2.359      2.588      2.359      40.497     0.3293464  0.2771943  0.3814984 
1256.2     0.21       1          2          8.7637     2.787      3.662      2.787      32.762     0.2240499  0.1997977  0.2483022 
1256.4     0.207      1          2          8.1761     3.385      4.093      3.385      31.399     0.1877253  0.1440032  0.2314473 
1256.6     0.203      1          2          7.7419     3.579      4.417      3.579      30.02      0.1645306  0.1130529  0.2160083 
1256.8     0.205      1          2          7.6452     3.604      4.479      3.604      27.278     0.1483193  0.1071217  0.1895169 
1257       0.207      1          2          7.869      3.554      4.093      3.554      25.981     0.1502161  0.1213512  0.179081  
1257.2     0.208      1          2          8.1996     3.505      4.15       3.505      25.551     0.1609685  0.1459016  0.1760354 
1257.4     0.209      1          2          8.37       3.481      4.51       3.481      25.121     0.1667674  0.1604362  0.1730987 
1257.6     0.209      1          2          8.5302     3.457      4.526      3.457      25.157     0.174507   0.1754187  0.1735954 
1257.8     0.208      1          2          8.8609     3.433      4.542      3.433      25.3       0.1929018  0.2109191  0.1748846 
1258       0.207      1          2          8.6028     3.409      4.326      3.409      25.444     0.1794321  0.1826617  0.1762024 
1258.2     0.208      1          2          8.38       3.385      4.267      3.385      24.832     0.1666408  0.1613328  0.1719488 
1258.4     0.208      1          2          8.4042     3.409      4.15       3.409      24.221     0.165725   0.1635233  0.1679267 
1258.6     0.209      1          2          8.221      3.505      4.008      3.505      23.61      0.1558867  0.147652   0.1641214 
1258.8     0.209      1          2          8.008101   3.58       4.179      3.58       22.999     0.1458292  0.1311327  0.1605258 
1259       0.209      1          2          7.7952     3.654      4.479      3.654      22.388     0.1367972  0.1164615  0.1571329 
1259.2     0.21       1          2          7.8266     3.836      4.542      3.836      21.833     0.136377   0.1185174  0.1542366 
1259.4     0.21       1          2          7.9395     4.055      4.605      4.055      22.137     0.141148   0.126214   0.156082  
1259.6     0.21       1          2          7.8054     4.169      4.605      4.169      22.441     0.137559   0.1171253  0.1579926 
1259.8     0.21       1          2          7.9061     4.287      4.735      4.287      22.744     0.1419252  0.1238864  0.159964  
1260       0.21       1          2          8.1688     4.287      4.902      4.287      23.048     0.1527139  0.1434186  0.1620092 
1260.2     0.211      1          2          8.3041     4.287      4.637      4.287      23.352     0.1593873  0.1546509  0.1641238 
1260.4     0.211      1          2          8.275599   4.228      4.417      4.228      23.911     0.1601142  0.1522139  0.1680145 
1260.6     0.21       1          2          8.2472     4.257      4.417      4.257      24.556     0.1612868  0.1498238  0.1727498 
1260.8     0.21       1          2          8.218699   4.377      4.67       4.377      25.04      0.1620145  0.1474629  0.1765662 
1261       0.21       1          2          8.1902     4.531      4.936      4.531      25.04      0.1609751  0.1451392  0.176811  
1261.2     0.209      1          2          8.1835     4.407      4.868      4.407      25.04      0.1608274  0.1445984  0.1770565 
1261.4     0.209      1          2          8.3286     4.287      4.605      4.287      25.04      0.1670399  0.1567769  0.1773028 
1261.6     0.209      1          2          8.4738     4.257      4.768      4.257      25.04      0.1737702  0.1699907  0.1775498 
1261.8     0.209      1          2          8.619      4.257      4.702      4.257      25.04      0.1810579  0.1843183  0.1777975 
1262       0.208      1          2          8.4738     4.14       4.448      4.14       25.04      0.1740183  0.1699907  0.1780459 
1262.2     0.209      1          2          8.3286     4.112      4.448      4.112      26.855     0.1751419  0.1567769  0.1935069 
1262.4     0.209      1          2          8.257299   4.228      4.735      4.228      28.79      0.1817609  0.1506694  0.2128524 
1262.6     0.211      1          2          8.1835     4.083      4.868      4.083      30.726     0.190026   0.1445984  0.2354537 
1262.8     0.211      -9999      -9999      8.6734     3.316      3.926      3.316      32.661     0.2257789  0.1899918  0.261566  
1263       0.215      -9999      -9999      9.254      2.547      2.5        2.547      38.76      0.3155811  0.2625782  0.3685841 
1263.2     0.22       -9999      -9999      9.8347     1.876      1.947      1.876      47.152     0.4770941  0.3629166  0.5912717 
1263.4     0.22       -9999      -9999      10.0029    1.903      1.625      1.903      46.754     0.4890565  0.3985811  0.5795319 
1263.6     0.219      -9999      -9999      10.1284    2.201      2.044      2.201      44.657     0.47221    0.4274563  0.5169637 
1263.8     0.216      -9999      -9999      10.2762    2.582      3.015      2.582      42.56      0.4584098  0.4641562  0.4526633 
