~Version
 VERS              .         2.0                           : CWLS LOG ASCII STANDARD - VERSION 2.0
 WRAP              .         NO                            : ONE LINE PER DEPTH STEP
 DLM               .         SPACE                         : DELIMITING CHARACTER(SPACE TAB OR COMMA)
~Well Information
#_______________________________________________________________________________
#
#PARAMETER_NAME    .UNIT     VALUE                         : DESCRIPTION
#_______________________________________________________________________________
STRT               .M        1045                          : First reference value
STOP               .M        1304                          : Last reference value
STEP               .M        0.2                           : Step increment
NULL               .         -9999                         : Missing value
COMP               .                                       : Company
WELL               .         3534                          : Well name
FLD                .         Узень                         : Field
LOC                .                                       : Location
CNTY               .                                       : County
STAT               .                                       : State
CTRY               .                                       : Country
SRVC               .                                       : Service Company
DATE               .                                       : Date
UWI                .                                       : Unique Well ID
Block              .         4                             : 
Category           .         Нефтяная                      : 
Condition          .         В работе                      : 
Date               .         17.11.2001                    : 
EREF               .m        227.8                         : 100.8
Gorizont           .         15                            : 14
Interpretator      .         Алпанова Н.К.                 : 
Kupol              .         основной                      : osnovnoi
Moii_15_vosst      .         15_vosst                      : 
Mud                .                                       : 
Mud_density        .                                       : 
Mud_resistivity    .                                       : 
Mud_density        .                                       : 
Mud_resistivity    .                                       : 
NGDU               .         НГДУ-1                        : 
ORIGINALWELLNAME   .         3534                          : 
Spud_date          .         2002                          : 1961
Spud_date          .         2002                          : 1961
Viscosity          .                                       : 
X                  .m        54058.1                       : 46154
Y                  .m        82287.8                       : 85761.93
YEAR               .         2018                          : 
~Parameter Information Block
#_______________________________________________________________________________
#
#PARAMETER_NAME    .UNIT     VALUE                         : DESCRIPTION
#_______________________________________________________________________________
SET                .         LQC_KAZNIPI_Petrel            : 
TLFamily_CALI      .         Caliper                       : 
TLFamily_COLL      .         Net Reservoir Flag            : 
TLFamily_CSAT      .         Fluid Code                    : 
TLFamily_DEPT      .         Measured Depth                : 
TLFamily_GR        .         Russian Gamma Ray             : 
TLFamily_LLS       .         Lateral Log Resistivity       : 
TLFamily_MBK       .         Micro Lateral Log Resistivity : 
TLFamily_RT        .         Formation Resistivity         : 
TLFamily_SP        .         Spontaneous Potential         : 
TLFamily_VSH_FIN   .         Shale Volume                  : 
TLFamily_VSH_GR    .         Shale Volume                  : 
TLFamily_VSH_SP    .         Shale Volume                  : 
~Curve Information
#_______________________________________________________________________________
#
#LOGNAME           .UNIT     LOG_ID                        : DESCRIPTION
#_______________________________________________________________________________
DEPT               .M                                      : Колонка глубины 
CALI               .м                                      : Каверномер 
COLL               .unitless                               :  
CSAT               .unitless                               :  
GR                 .мкР/ч                                  :  
LLS                .Ohmm                                   : Боковой каротаж 
MBK                .Ohmm                                   : Микробоковой каротаж 
RT                 .Ом·м                                   : Description 
SP                 .мВ                                     : Потенциал самополяризации 
VSH_FIN            .unitless                               : Описание 
VSH_GR             .unitless                               : Shale volume 
VSH_SP             .unitless                               : Shale Volume 
~Ascii
# ...
1081.6     0.22       -9999      -9999      5.4765     3.783      5.094      3.783      50.462     0.2569832  0.101074   0.4128924 
1081.8     0.22       -9999      -9999      4.6781     3.705      4.622      3.705      51.646     0.2599041  0.07704351 0.4427648 
1082       0.22       -9999      -9999      4.2085     3.27       4.194      3.27       53.203     0.2751863  0.06567319000000001 0.4846993 
1082.2     0.22       -9999      -9999      6.072      2.906      3.701      2.906      54.761     0.3269974  0.1237598  0.5302349 
1082.4     0.22       -9999      -9999      8.8107     2.655      3.069      2.655      55.247     0.4301496  0.3140626  0.5462365 
1082.6     0.22       -9999      -9999      10.8558    2.787      3.266      2.787      55.645     0.5947381000000001 0.6295429  0.5599334 
1082.8     0.22       -9999      -9999      11.0123    2.967      3.753      2.967      55.829     0.6155792  0.6639518  0.5672067 
1083       0.22       -9999      -9999      11.1698    2.967      3.453      2.967      55.682     0.6323327  0.7004791  0.5641863 
1083.2     0.22       -9999      -9999      11.3843    2.637      2.923      2.637      55.535     0.6565551  0.7534795  0.5596308 
1083.4     0.22       -9999      -9999      11.4435    2.359      2.407      2.359      55.388     0.6619538  0.7688005  0.5551071 
1083.6     0.219      -9999      -9999      11.348     2.156      2.341      2.156      55.241     0.6474258000000001 0.7442364  0.5506153 
1083.8     0.219      -9999      -9999      11.3192    2.141      2.423      2.141      55.094     0.6415694  0.7369837  0.5461551 
1084       0.219      -9999      -9999      11.453     2.295      2.634      2.295      54.947     0.6565073  0.7712882  0.5417264000000001
1084.2     0.218      -9999      -9999      11.3872    2.637      3.312      2.637      54.8       0.6457761  0.7542229  0.5373293 
1084.4     0.218      -9999      -9999      11.2396    2.926      4.023      2.926      54.719     0.6261116  0.7173035  0.5349199 
1084.6     0.218      -9999      -9999      11.0919    2.988      3.779      2.988      54.974     0.6123527  0.682168   0.5425375 
1084.8     0.217      -9999      -9999      11.0093    3.072      3.501      3.072      55.229     0.6067623  0.6632748000000001 0.5502499 
1085       0.216      -9999      -9999      11.1473    3.457      4.107      3.457      55.484     0.626599   0.6951403  0.5580578000000001
1085.2     0.215      -9999      -9999      11.2854    4.169      5.536      4.169      55.165     0.6384335  0.7285616  0.5483054000000001
1085.4     0.213      -9999      -9999      11.2593    4.959      7.108      4.959      54.847     0.6304281000000001 0.7221246  0.5387318 
1085.6     0.217      -9999      -9999      10.9653    5.064      6.495      5.064      54.528     0.5913503  0.6534249  0.5292757 
1085.8     0.219      -9999      -9999      10.6712    4.14       5.094      4.14       54.21      0.644625   0.7692608  0.5199892 
1086       0.22       -9999      -9999      10.3772    3.115      3.676      3.115      53.891     0.6009362  0.6910477  0.5108247 
1086.2     0.221      -9999      -9999      10.2223    2.248      2.44       2.248      53.578     0.5775320000000001 0.6530913  0.5019727000000001
1086.4     0.222      -9999      -9999      10.4516    1.787      1.927      1.787      53.278     0.6018363  0.710055   0.4936176 
1086.6     0.222      -9999      -9999      10.4981    1.679      1.981      1.679      52.979     0.6038073000000001 0.7221992  0.4854153 
1086.8     0.221      -9999      -9999      10.4814    1.667      2.051      1.667      52.679     0.597562   0.7178141  0.4773099 
1087       0.221      -9999      -9999      10.6566    1.656      1.968      1.656      52.379     0.6172519  0.7651758  0.469328  
1087.2     0.22       -9999      -9999      10.7809    1.667      1.954      1.667      52.079     0.6307343  0.8        0.4614687 
1087.4     0.22       -9999      -9999      10.7044    1.656      1.995      1.656      52.351     0.6236106  0.7786317  0.4685893 
1087.6     0.219      -9999      -9999      10.9718    1.622      1.849      1.622      52.669     0.6385209  0.8        0.4770418 
1087.8     0.218      -9999      -9999      11.4496    1.577      1.81       1.577      52.988     0.6428302  0.8        0.4856604 
1088       0.219      -9999      -9999      11.4792    1.588      2.037      1.588      53.306     0.6471961000000001 0.8        0.4943921 
1088.2     0.22       -9999      -9999      11.3359    1.622      2.169      1.622      53.394     0.6484167  0.8        0.4968334 
1088.4     0.221      -9999      -9999      11.1925    1.644      1.995      1.644      53.244     0.6463393  0.8        0.4926786 
1088.6     0.219      -9999      -9999      10.7298    1.644      1.849      1.644      53.094     0.6372166  0.7858778  0.4885554 
1088.8     0.218      -9999      -9999      10.0131    1.599      1.749      1.599      52.944     0.5447902  0.6051171  0.4844633 
1089       0.218      -9999      -9999      9.325399   1.545      1.677      1.545      52.794     0.4756448  0.4708873  0.4804023 
1089.2     0.219      -9999      -9999      9.7554     1.513      1.62       1.513      52.671     0.5139663  0.5508372  0.4770955 
1089.4     0.22       -9999      -9999      10.1855    1.492      1.701      1.492      52.756     0.5618817  0.6443849  0.4793785 
1089.6     0.219      -9999      -9999      9.9443     1.524      1.785      1.524      52.841     0.5358971  0.5901229  0.4816714 
1089.8     0.219      -9999      -9999      9.0147     1.556      1.849      1.556      52.926     0.4522083  0.4204423  0.4839743 
1090       0.219      -9999      -9999      8.085199   1.566      1.849      1.566      53.011     0.3929244  0.2995616  0.4862873 
1090.2     0.219      -9999      -9999      7.1784     1.545      1.849      1.545      53.133     0.3524169  0.2152094  0.4896244 
1090.4     0.218      -9999      -9999      8.054399   1.513      1.836      1.513      53.321     0.3955115  0.2962155  0.4948075 
1090.6     0.218      -9999      -9999      8.9304     1.492      1.836      1.492      53.508     0.4538624  0.4077129  0.5000119 
1090.8     0.217      -9999      -9999      9.8065     1.461      1.836      1.461      53.695     0.5332322000000001 0.561199   0.5052654 
1091       0.216      -9999      -9999      10.4108    1.482      1.849      1.482      53.883     0.6050823  0.6995678  0.5105967 
1091.2     0.217      -9999      -9999      10.0243    1.503      1.874      1.503      54.07      0.5617716  0.6075938  0.5159494 
1091.4     0.218      -9999      -9999      9.6378     1.513      1.914      1.513      53.734     0.5170397  0.5277121  0.5063673 
1091.6     0.22       -9999      -9999      9.3308     1.513      1.941      1.513      53.391     0.4842828  0.4718157  0.4967499 
1091.8     0.22       -9999      -9999      9.8764     1.524      1.941      1.524      53.048     0.5314932  0.5756892  0.4872971 
1092       0.221      -9999      -9999      9.711      1.513      1.914      1.513      52.705     0.5099986  0.5419897  0.4780075 
1092.2     0.222      -9999      -9999      9.4355     1.503      1.887      1.503      52.362     0.4795296  0.4901799  0.4688794 
1092.4     0.222      -9999      -9999      9.3426     1.611      1.901      1.611      52.019     0.466881   0.4738505  0.4599115 
1092.6     0.222      -9999      -9999      9.252      1.726      2.023      1.726      51.676     0.4547758  0.4584495  0.4511022 
1092.8     0.221      -9999      -9999      9.731501   1.787      2.169      1.787      51.333     0.4942536  0.546057   0.4424502 
1093       0.219      -9999      -9999      10.112     1.714      2.009      1.714      51.514     0.5371689  0.6273414000000001 0.4469963 
1093.2     0.22       -9999      -9999      10.2537    1.633      1.861      1.633      51.861     0.5582236  0.6606133  0.4558339 
1093.4     0.22       -9999      -9999      10.4831    1.863      2.037      1.863      52.209     0.5915592  0.7182591  0.4648594 
