~Version
 VERS              .         2.0                           : CWLS LOG ASCII STANDARD - VERSION 2.0
 WRAP              .         NO                            : ONE LINE PER DEPTH STEP
 DLM               .         SPACE                         : DELIMITING CHARACTER(SPACE TAB OR COMMA)
~Well Information
#_______________________________________________________________________________
#
#PARAMETER_NAME    .UNIT     VALUE                         : DESCRIPTION
#_______________________________________________________________________________
STRT               .M        1045                          : First reference value
STOP               .M        1304                          : Last reference value
STEP               .M        0.2                           : Step increment
NULL               .         -9999                         : Missing value
COMP               .                                       : Company
WELL               .         3534                          : Well name
FLD                .         Узень                         : Field
LOC                .                                       : Location
CNTY               .                                       : County
STAT               .                                       : State
CTRY               .                                       : Country
SRVC               .                                       : Service Company
DATE               .                                       : Date
UWI                .                                       : Unique Well ID
Block              .         4                             : 
Category           .         Нефтяная                      : 
Condition          .         В работе                      : 
Date               .         17.11.2001                    : 
EREF               .m        227.8                         : 100.8
Gorizont           .         15                            : 14
Interpretator      .         Алпанова Н.К.                 : 
Kupol              .         основной                      : osnovnoi
Moii_15_vosst      .         15_vosst                      : 
Mud                .                                       : 
Mud_density        .                                       : 
Mud_resistivity    .                                       : 
Mud_density        .                                       : 
Mud_resistivity    .                                       : 
NGDU               .         НГДУ-1                        : 
ORIGINALWELLNAME   .         3534                          : 
Spud_date          .         2002                          : 1961
Spud_date          .         2002                          : 1961
Viscosity          .                                       : 
X                  .m        54058.1                       : 46154
Y                  .m        82287.8                       : 85761.93
YEAR               .         2018                          : 
~Parameter Information Block
#_______________________________________________________________________________
#
#PARAMETER_NAME    .UNIT     VALUE                         : DESCRIPTION
#_______________________________________________________________________________
SET                .         LQC_KAZNIPI_Petrel            : 
TLFamily_CALI      .         Caliper                       : 
TLFamily_COLL      .         Net Reservoir Flag            : 
TLFamily_CSAT      .         Fluid Code                    : 
TLFamily_DEPT      .         Measured Depth                : 
TLFamily_GR        .         Russian Gamma Ray             : 
TLFamily_LLS       .         Lateral Log Resistivity       : 
TLFamily_MBK       .         Micro Lateral Log Resistivity : 
TLFamily_RT        .         Formation Resistivity         : 
TLFamily_SP        .         Spontaneous Potential         : 
TLFamily_VSH_FIN   .         Shale Volume                  : 
TLFamily_VSH_GR    .         Shale Volume                  : 
TLFamily_VSH_SP    .         Shale Volume                  : 
~Curve Information
#_______________________________________________________________________________
#
#LOGNAME           .UNIT     LOG_ID                        : DESCRIPTION
#_______________________________________________________________________________
DEPT               .M                                      : Колонка глубины 
CALI               .м                                      : Каверномер 
COLL               .unitless                               :  
CSAT               .unitless                               :  
GR                 .мкР/ч                                  :  
LLS                .Ohmm                                   : Боковой каротаж 
MBK                .Ohmm                                   : Микробоковой каротаж 
RT                 .Ом·м                                   : Description 
SP                 .мВ                                     : Потенциал самополяризации 
VSH_FIN            .unitless                               : Описание 
VSH_GR             .unitless                               : Shale volume 
VSH_SP             .unitless                               : Shale Volume 
~Ascii
1045.0     0.237      -9999      -9999      -9999      2.443      2.277      2.443      -9999      -9999      -9999      -9999     
1045.2     0.233      -9999      -9999      -9999      2.477      2.184      2.477      -9999      -9999      -9999      -9999     
1045.4     0.231      -9999      -9999      -9999      2.477      2.308      2.477      -9999      -9999      -9999      -9999     
1045.6     0.229      -9999      -9999      -9999      2.443      2.407      2.443      -9999      -9999      -9999      -9999     
1045.8     0.228      -9999      -9999      -9999      2.376      2.277      2.376      -9999      -9999      -9999      -9999     
1046       0.228      -9999      -9999      -9999      2.477      2.492      2.477      -9999      -9999      -9999      -9999     
1046.2     0.227      -9999      -9999      -9999      2.674      3.289      2.674      -9999      -9999      -9999      -9999     
1046.4     0.226      -9999      -9999      -9999      2.749      3.805      2.749      -9999      -9999      -9999      -9999     
1046.6     0.226      -9999      -9999      -9999      2.637      3.358      2.637      -9999      -9999      -9999      -9999     
1046.8     0.231      -9999      -9999      -9999      2.529      2.784      2.529      -9999      -9999      -9999      -9999     
1047       0.234      -9999      -9999      -9999      2.443      2.407      2.443      -9999      -9999      -9999      -9999     
1047.2     0.231      -9999      -9999      -9999      2.477      2.528      2.477      -9999      -9999      -9999      -9999     
1047.4     0.225      -9999      -9999      -9999      2.711      2.616      2.711      -9999      -9999      -9999      -9999     
1047.6     0.222      -9999      -9999      -9999      3.225      3.625      3.225      -9999      -9999      -9999      -9999     
1047.8     0.222      -9999      -9999      -9999      3.679      4.719      3.679      -9999      -9999      -9999      -9999     
1048       0.222      -9999      -9999      -9999      3.529      5.201      3.529      -9999      -9999      -9999      -9999     
1048.2     0.222      -9999      -9999      -9999      3.385      5.023      3.385      -9999      -9999      -9999      -9999     
1048.4     0.221      -9999      -9999      -9999      3.27       4.403      3.27       -9999      -9999      -9999      -9999     
1048.6     0.221      -9999      -9999      -9999      3.136      4.282      3.136      -9999      -9999      -9999      -9999     
1048.8     0.221      -9999      -9999      -9999      3.029      4.406      3.029      -9999      -9999      -9999      -9999     
1049       0.221      -9999      -9999      -9999      2.926      3.832      2.926      -9999      -9999      -9999      -9999     
1049.2     0.224      -9999      -9999      -9999      2.926      3.967      2.926      -9999      -9999      -9999      -9999     
1049.4     0.224      -9999      -9999      -9999      2.988      4.282      2.988      -9999      -9999      -9999      -9999     
1049.6     0.224      -9999      -9999      -9999      3.093      4.59       3.093      -9999      -9999      -9999      -9999     
1049.8     0.223      -9999      -9999      -9999      3.225      4.622      3.225      -9999      -9999      -9999      -9999     
1050       0.222      -9999      -9999      -9999      3.247      4.622      3.247      48.427     -4999.3388671875 -9999      0.3219533 
1050.2     0.222      -9999      -9999      4.2641     3.433      4.92       3.433      48.008     0.2250519990921021 0.1356559  0.3144482 
1050.4     0.221      -9999      -9999      4.1879     3.679      5.812      3.679      47.69      0.2196165  0.1303515  0.3088816 
1050.6     0.221      -9999      -9999      4.0764     3.757      6.23       3.757      48.621     0.224228   0.1229613  0.3254946 
1050.8     0.221      -9999      -9999      4.1274     3.579      5.237      3.579      49.895     0.2380517  0.1262881  0.3498153 
1051       0.221      -9999      -9999      4.3333     3.27       4.622      3.27       50.806     0.2545142  0.1406598  0.3683685 
1051.2     0.221      -9999      -9999      4.9736     2.946      4.252      2.946      51.444     0.2893111  0.1966662  0.381956  
1051.4     0.221      -9999      -9999      5.6139     2.655      3.727      2.655      52.081     0.335497   0.2749728  0.3960211 
1051.6     0.224      -9999      -9999      6.2262     2.327      2.843      2.327      52.488     0.392069   0.3788648  0.4052732 
1051.8     0.233      -9999      -9999      6.1306     2.011      2.169      2.011      52.806     0.3865102  0.3603723  0.4126481 
1052       0.241      -9999      -9999      6.4778     1.726      1.81       1.726      53.125     0.4261859  0.4321959  0.420176  
1052.2     0.246      -9999      -9999      6.9556     1.577      1.631      1.577      53.444     0.4914216  0.555008   0.4278352 
1052.4     0.246      -9999      -9999      7.4335     1.644      1.677      1.644      53.917     0.5760959  0.7127556  0.4394362 
1052.6     0.244      -9999      -9999      7.4806     1.85       1.767      1.85       54.766     0.5957743  0.7305465  0.4610021 
1052.8     0.239      -9999      -9999      7.2497     2.217      1.861      2.217      55.132     0.5589875  0.647377   0.470598  
1053       0.234      -9999      -9999      7.0188     2.807      2.526      2.807      54.75      0.5171313  0.5736759  0.4605868 
1053.2     0.239      -9999      -9999      6.7878     2.359      3.312      2.359      54.368     0.4795556  0.5083387  0.4507725 
1053.4     0.247      -9999      -9999      6.9873     2.156      2.261      2.156      54.254     0.5060879  0.5642943  0.4478815 
1053.6     0.25       -9999      -9999      7.2876     1.956      1.749      1.956      55.05      0.5643903  0.6603484  0.4684322 
1053.8     0.248      -9999      -9999      7.3118     1.889      1.62       1.889      55.847     0.5793194  0.6687663  0.4898726 
1054       0.245      -9999      -9999      7.148      1.863      1.522      1.863      56.225     0.5558685  0.6138154  0.4979216 
1054.2     0.242      -9999      -9999      7.1552     1.903      1.565      1.903      56.421     0.5585504  0.616133   0.5009677 
1054.4     0.24       -9999      -9999      7.4419     1.943      1.511      1.943      56.617     0.6099634  0.7158964  0.5040304 
1054.6     0.243      -9999      -9999      7.6775     1.97       1.62       1.97       56.813     0.6535549000000001 0.8        0.5071099 
1054.8     0.245      -9999      -9999      7.6657     1.984      1.785      1.984      57.154     0.6571747  0.8        0.5143493 
1055       0.25       -9999      -9999      7.6536     2.011      1.849      2.011      57.598     0.6622348  0.7997904  0.5246793 
1055.2     0.255      -9999      -9999      7.3389     2.097      1.836      2.097      58.043     0.6067714  0.6783209  0.5352219 
1055.4     0.247      -9999      -9999      6.9914     2.141      1.785      2.141      58.487     0.5557133  0.5655068  0.5459199 
1055.6     0.244      -9999      -9999      6.6336     2.141      1.798      2.141      58.613     0.5080104  0.46892    0.547101  
1055.8     0.241      -9999      -9999      6.2586     2.025      1.849      2.025      58.419     0.4619982  0.385345   0.5386513000000001
1056       0.239      -9999      -9999      5.8836     1.916      1.713      1.916      58.226     0.4235057  0.3166654  0.5303459 
1056.2     0.237      -9999      -9999      6.0851     1.876      1.491      1.876      58.266     0.4404274  0.3518908  0.5289639 
1056.4     0.237      -9999      -9999      6.369      1.97       1.279      1.97       58.696     0.4737016  0.4082696  0.5391335 
1056.6     0.235      -9999      -9999      6.6528     2.054      1.45       2.054      59.126     0.5115653  0.4736566  0.5494741 
1056.8     0.235      -9999      -9999      6.9367     2.097      1.554      2.097      59.315     0.5510637000000001 0.5495443  0.5525832000000001
1057       0.235      -9999      -9999      7.122      2.082      1.42       2.082      59.315     0.5777255  0.6055182  0.5499328 
