~Version
 VERS              .         2.0                           : CWLS LOG ASCII STANDARD - VERSION 2.0
 WRAP              .         NO                            : ONE LINE PER DEPTH STEP
 DLM               .         SPACE                         : DELIMITING CHARACTER(SPACE TAB OR COMMA)
~Well Information
#_______________________________________________________________________________
#
#PARAMETER_NAME    .UNIT     VALUE                         : DESCRIPTION
#_______________________________________________________________________________
STRT               .M        1045                          : First reference value
STOP               .M        1304                          : Last reference value
STEP               .M        0.2                           : Step increment
NULL               .         -9999                         : Missing value
COMP               .                                       : Company
WELL               .         3534                          : Well name
FLD                .         Узень                         : Field
LOC                .                                       : Location
CNTY               .                                       : County
STAT               .                                       : State
CTRY               .                                       : Country
SRVC               .                                       : Service Company
DATE               .                                       : Date
UWI                .                                       : Unique Well ID
Block              .         4                             : 
Category           .         Нефтяная                      : 
Condition          .         В работе                      : 
Date               .         17.11.2001                    : 
EREF               .m        227.8                         : 100.8
Gorizont           .         15                            : 14
Interpretator      .         Алпанова Н.К.                 : 
Kupol              .         основной                      : osnovnoi
Moii_15_vosst      .         15_vosst                      : 
Mud                .                                       : 
Mud_density        .                                       : 
Mud_resistivity    .                                       : 
Mud_density        .                                       : 
Mud_resistivity    .                                       : 
NGDU               .         НГДУ-1                        : 
ORIGINALWELLNAME   .         3534                          : 
Spud_date          .         2002                          : 1961
Spud_date          .         2002                          : 1961
Viscosity          .                                       : 
X                  .m        54058.1                       : 46154
Y                  .m        82287.8                       : 85761.93
YEAR               .         2018                          : 
~Parameter Information Block
#_______________________________________________________________________________
#
#PARAMETER_NAME    .UNIT     VALUE                         : DESCRIPTION
#_______________________________________________________________________________
SET                .         LQC_KAZNIPI_Petrel            : 
TLFamily_CALI      .         Caliper                       : 
TLFamily_COLL      .         Net Reservoir Flag            : 
TLFamily_CSAT      .         Fluid Code                    : 
TLFamily_DEPT      .         Measured Depth                : 
TLFamily_GR        .         Russian Gamma Ray             : 
TLFamily_LLS       .         Lateral Log Resistivity       : 
TLFamily_MBK       .         Micro Lateral Log Resistivity : 
TLFamily_RT        .         Formation Resistivity         : 
TLFamily_SP        .         Spontaneous Potential         : 
TLFamily_VSH_FIN   .         Shale Volume                  : 
TLFamily_VSH_GR    .         Shale Volume                  : 
TLFamily_VSH_SP    .         Shale Volume                  : 
~Curve Information
#_______________________________________________________________________________
#
#LOGNAME           .UNIT     LOG_ID                        : DESCRIPTION
#_______________________________________________________________________________
DEPT               .M                                      : Колонка глубины 
CALI               .м                                      : Каверномер 
COLL               .unitless                               :  
CSAT               .unitless                               :  
GR                 .мкР/ч                                  :  
LLS                .Ohmm                                   : Боковой каротаж 
MBK                .Ohmm                                   : Микробоковой каротаж 
RT                 .Ом·м                                   : Description 
SP                 .мВ                                     : Потенциал самополяризации 
VSH_FIN            .unitless                               : Описание 
VSH_GR             .unitless                               : Shale volume 
VSH_SP             .unitless                               : Shale Volume 
~Ascii
# ...
1239.6     0.209      1          2          8.748899   5.428      5.44       5.428      27.954     0.1945903  0.1981564  0.1910242 
1239.8     0.209      1          2          8.7971     5.029      4.971      5.029      28.841     0.2014267  0.2035515  0.1993019 
1240       0.209      1          2          8.845301   4.407      4.326      4.407      29.728     0.2086565  0.2090934  0.2082195 
1240.2     0.209      1          2          8.8881     3.648      4.008      3.648      30.615     0.2159722  0.2141407  0.2178038 
1240.4     0.209      1          2          8.8284     3.202      3.792      3.202      31.503     0.2176133  0.2071332  0.2280933 
1240.6     0.209      1          2          8.7686     3.029      3.713      3.029      32.404     0.2198063  0.200344   0.2392687 
1240.8     0.21       1          2          8.822599   2.906      3.637      2.906      33.309     0.2288667  0.2064648  0.2512686 
1241       0.21       1          2          8.9819     2.846      3.464      2.846      34.215     0.2448606  0.2256326  0.2640886 
1241.2     0.21       1          2          9.0245     2.787      3.537      2.787      35.12      0.2543913  0.2310534  0.2777292 
1241.4     0.21       1          2          9.1625     2.692      3.537      2.692      36.025     0.2708783  0.2495244  0.2922322 
1241.6     0.21       1          2          9.371      2.637      3.393      2.637      36.931     0.2939566  0.28027    0.3076431 
1241.8     0.211      -9999      -9999      9.5795     2.512      3.323      2.512      38.219     0.3229203  0.314804   0.3310366 
1242       0.212      -9999      -9999      9.7543     2.327      3.165      2.327      39.631     0.3529428  0.3470144  0.3588711 
1242.2     0.213      -9999      -9999      9.822599   2.186      2.729      2.186      41.088     0.3752973  0.3604775  0.390117  
1242.4     0.215      -9999      -9999      9.8873     2.156      2.448      2.156      42.544     0.3988694  0.3737127  0.4240261 
1242.6     0.215      -9999      -9999      9.815599   2.126      2.398      2.126      44.728     0.4195326  0.359074   0.4799911 
1242.8     0.216      -9999      -9999      9.744      2.141      2.5        2.141      46.344     0.4353955  0.3450283  0.5257627 
1243       0.217      -9999      -9999      9.6723     2.148      2.398      2.148      47.052     0.439377   0.3315133  0.5472406 
1243.2     0.217      -9999      -9999      9.6702     2.156      2.191      2.156      47.76      0.4503029  0.3311256  0.5694802 
1243.4     0.217      -9999      -9999      9.9038     2.097      2.131      2.097      47.358     0.4679513  0.377165   0.5587377 
1243.6     0.217      -9999      -9999      10.1374    2.054      2.161      2.054      45.369     0.46573    0.4296056  0.5018543 
1243.8     0.216      -9999      -9999      10.1401    2.025      2.415      2.025      42.39      0.4279841  0.4302528  0.4257154 
1244       0.215      -9999      -9999      9.7658     2.295      2.974      2.295      40.404     0.3654141  0.3492455  0.3815827 
1244.2     0.212      1          2          9.3915     2.529      3.346      2.529      38.417     0.3127468  0.2834904  0.3420031 
1244.4     0.21       1          2          9.0172     2.807      3.187      2.807      37.528     0.2781987  0.2301153  0.3262821 
1244.6     0.21       1          2          8.9499     2.866      3.21       2.866      36.431     0.2646866  0.2216444  0.3077288 
1244.8     0.209      1          2          9.1028     2.886      3.3        2.886      35.458     0.2668619  0.2413591  0.2923648 
1245       0.209      1          2          8.5773     3.288      3.44       3.288      34.538     0.2293926  0.1800842  0.278701  
1245.2     0.209      1          2          8.0517     4.287      4.868      4.287      34.01      0.202961   0.1343579  0.2715642 
1245.4     0.208      1          2          7.5262     5.428      8.662      5.428      33.618     0.1834352  0.100248   0.2666225 
1245.6     0.207      1          2          7.721601   5.126      7.751      5.126      33.221     0.1867514  0.1117812  0.2617216 
1245.8     0.206      1          2          7.994      4.857      4.267      4.857      34.652     0.2070482  0.1301063  0.2839901 
1246       0.206      1          2          8.387899   3.863      3.122      3.863      36.083     0.2352985  0.1620446  0.3085524 
1246.2     0.208      1          2          9.0542     3.115      2.852      3.115      36.774     0.2783545  0.2349096  0.3217993 
1246.4     0.21       -9999      -9999      9.3877     2.674      2.661      2.674      37.514     0.3097467  0.2828906  0.3366028 
1246.6     0.212      -9999      -9999      9.4776     2.343      2.406      2.343      38.945     0.3318183  0.2974248  0.3662119 
1246.8     0.214      -9999      -9999      9.5444     2.283      2.517      2.283      40.376     0.3535931  0.308706   0.3984802 
1247       0.215      -9999      -9999      9.8054     2.201      2.517      2.201      41.806     0.395271   0.3570387  0.4335034 
1247.2     0.216      -9999      -9999      10.0343    2.141      2.348      2.141      42.93      0.4344957  0.4056173  0.463374  
1247.4     0.216      -9999      -9999      10.0029    2.111      2.284      2.111      43.946     0.4453635  0.3985811  0.4921458 
1247.6     0.215      -9999      -9999      9.6823     2.104      2.253      2.104      45.121     0.4302638  0.3333658  0.5271617 
1247.8     0.217      -9999      -9999      9.4965     2.097      2.284      2.097      45.57      0.4213683  0.3005741  0.5421625 
1248       0.217      -9999      -9999      9.6728     2.082      2.268      2.082      45.827     0.4416291  0.3316056  0.5516526000000001
1248.2     0.217      -9999      -9999      9.9254     2.054      2.161      2.054      45.935     0.4677667  0.3817325  0.5538009 
1248.4     0.216      -9999      -9999      10.0856    1.991      2.016      1.991      46.099     0.4875297  0.4173811  0.5576782 
1248.6     0.218      -9999      -9999      10.1409    1.889      2.104      1.889      45.266     0.4809355  0.4304444  0.5314266 
1248.8     0.218      -9999      -9999      9.8306     1.876      2.717      1.876      43.306     0.4186892  0.3620883  0.47529   
1249       0.217      -9999      -9999      9.632299   2.082      3.898      2.082      41.347     0.3744249  0.3242048  0.424645  
1249.2     0.213      -9999      -9999      9.5203     2.849      4.735      2.849      39.387     0.3418685  0.3045874  0.3791496 
1249.4     0.21       1          2          9.3134     3.679      4.936      3.679      37.839     0.3089726  0.2714161  0.3465291 
1249.6     0.21       1          2          9.1066     3.89       4.702      3.89       36.532     0.2815202  0.2418707  0.3211697 
1249.8     0.211      1          2          8.8347     3.158      3.562      3.158      36.21      0.2612971  0.2078618  0.3147325 
1250       0.211      1          2          8.878901   2.655      3.365      2.655      35.887     0.2607332  0.2130456  0.3084208 
1250.2     0.211      1          2          8.9432     2.548      3.143      2.548      35.615     0.2619667  0.2208184  0.303115  
1250.4     0.212      1          2          9.085      2.426      3.079      2.426      37.036     0.2833048  0.2389766  0.3276329 
1250.6     0.212      1          2          9.3216     2.295      3.057      2.295      38.407     0.3129846  0.2726592  0.35331   
1250.8     0.213      -9999      -9999      9.5516     2.295      3.143      2.295      39.19      0.3392589  0.309947   0.3685707 
1251       0.214      -9999      -9999      9.7824     2.295      3.058      2.295      39.776     0.3663582  0.3524915  0.3802248 
1251.2     0.215      -9999      -9999      9.8629     2.295      2.933      2.295      40.363     0.3804674  0.3686652  0.3922696 
1251.4     0.215      -9999      -9999      10.0867    2.295      2.813      2.295      40.54      0.4065104  0.4176369  0.395384  
1251.6     0.215      -9999      -9999      10.0181    2.311      2.912      2.311      40.901     0.4023385  0.4019718  0.4027052 
