~Version
 VERS              .         2.0                           : CWLS LOG ASCII STANDARD - VERSION 2.0
 WRAP              .         NO                            : ONE LINE PER DEPTH STEP
 DLM               .         SPACE                         : DELIMITING CHARACTER(SPACE TAB OR COMMA)
~Well Information
#_______________________________________________________________________________
#
#PARAMETER_NAME    .UNIT     VALUE                         : DESCRIPTION
#_______________________________________________________________________________
STRT               .M        982                           : First reference value
STOP               .M        1218                          : Last reference value
STEP               .M        0.1                           : Step increment
NULL               .         -9999                         : Missing value
COMP               .                                       : Company
WELL               .         4289                          : Well name
FLD                .         УЗЕНЬ                         : Field
LOC                .                                       : Location
CNTY               .                                       : County
STAT               .                                       : State
CTRY               .                                       : Country
SRVC               .         AO "UPGF"                     : Service Company
DATE               .         29-30/12/2009                 : Date
UWI                .                                       : Unique Well ID
Block              .         4                             : 
Category           .         Нефтяная                      : 
Condition          .         В работе                      : 
Date               .         11.12.2009                    : 
EREF               .m        228.7                         : 100.8
Gorizont           .         14                            : 14
Interpretator      .         Ткачева И.Г.                  : 
Kupol              .         Основной                      : osnovnoi
Mud                .         Глинистый                     : 
Mud_density        .         1.33                          : 
Mud_resistivity    .         0.35                          : 
NGDU               .         НГДУ-1                        : 
ORIGINALWELLNAME   .         4289                          : 
Spud_date          .         2009                          : 1961
Uslovie            .         14                            : 
Viscosity          .         35                            : 
X                  .m        54362.08                      : 46154
Y                  .m        81918.16                      : 85761.93
YEAR               .         2019                          : 
~Parameter Information Block
#_______________________________________________________________________________
#
#PARAMETER_NAME    .UNIT     VALUE                         : DESCRIPTION
#_______________________________________________________________________________
SET                .         LQC_KAZNIPI_Petrel            : 
PBBOTTOM           .M        1218                          : Глубина подошвы планшета
PBSCALE            .         1 _ 500                       : Вертикальный масштаб планшета
PBTOP              .M        982                           : Глубина кровли планшета
TLFamily_CALI      .         Caliper                       : 
TLFamily_CILD      .         Conductivity                  : 
TLFamily_COLL      .         Net Reservoir Flag            : 
TLFamily_CSAT      .         Fluid Code                    : 
TLFamily_DEPT      .         Measured Depth                : 
TLFamily_DT        .         Compressional Slowness        : 
TLFamily_GR        .         Russian Gamma Ray             : 
TLFamily_GZ1       .         Gradient 045                  : 
TLFamily_GZ2       .         Gradient 105                  : 
TLFamily_GZ3       .         Gradient 225                  : 
TLFamily_GZ4       .         Gradient 425                  : 
TLFamily_GZ5       .         Gradient 850                  : 
TLFamily_IK1       .         Resistivity 05                : 
TLFamily_IK2       .         Resistivity 07                : 
TLFamily_IK3       .         Resistivity 10                : 
TLFamily_IK4       .         Resistivity 14                : 
TLFamily_IK5       .         Resistivity 20                : 
TLFamily_LLS       .         Lateral Log Resistivity       : 
TLFamily_MBK       .         Micro Lateral Log Resistivity : 
TLFamily_MINV      .         Micro Gradient Resistivity    : 
TLFamily_MNOR      .         Micro Resistivity             : 
TLFamily_NNKTB_1   .         Neutron Far                   : 
TLFamily_NNKTM_1   .         Neutron Near                  : 
TLFamily_NPHI      .         Neutron Porosity              : 
TLFamily_OGZ       .         Gradient Inverted 225         : 
TLFamily_PHIE      .         Effective Porosity            : 
TLFamily_PHIED     .         Effective Porosity            : 
TLFamily_PHIEN     .         Effective Porosity            : 
TLFamily_PHIES     .         Effective Porosity            : 
TLFamily_PHIT      .         Porosity                      : 
TLFamily_PRMB      .         Permeability                  : 
TLFamily_PRMB_DGR  .         Permeability                  : 
TLFamily_RHOB      .         Bulk Density                  : 
TLFamily_RT        .         Formation Resistivity         : 
TLFamily_SOIL_ARCHIE .         Oil Saturation                : 
TLFamily_SOIL_DW   .         Oil Saturation                : 
TLFamily_SP        .         Spontaneous Potential         : 
TLFamily_VSH_FIN   .         Shale Volume                  : 
TLFamily_VSH_GR    .         Shale Volume                  : 
TLFamily_VSH_SP    .         Shale Volume                  : 
~Curve Information
#_______________________________________________________________________________
#
#LOGNAME           .UNIT     LOG_ID                        : DESCRIPTION
#_______________________________________________________________________________
DEPT               .M                                      : Колонка глубины 
CALI               .м                                      : Каверномер 
CILD               .мСм/м                                  : Индукционный каротаж 
COLL               .unitless                               : Описание 
CSAT               .unitless                               : Описание 
DT                 .мкс/м                                  : Интервальное время пробега продольной волны 
GR                 .uR/h                                   : Гамма каротаж 
GZ1                .Ohmm                                   : Градиент-зонд  длиной 0.45м 
GZ2                .Ohmm                                   : Градиент-зонд  длиной 1.05м 
GZ3                .Ohmm                                   : Градиент-зонд  длиной 2.25м 
GZ4                .Ohmm                                   : Градиент-зонд  длиной 4.5м 
GZ5                .Ohmm                                   : Градиент-зонд  длиной 8.5м 
IK1                .Ohmm                                   :  
IK2                .Ohmm                                   :  
IK3                .Ohmm                                   :  
IK4                .Ohmm                                   :  
IK5                .Ohmm                                   :  
LLS                .Ohmm                                   : Боковой каротаж 
MBK                .Ohmm                                   : Микробоковой каротаж 
MINV               .Ohmm                                   : Микро-градиент зонд 
MNOR               .Ohmm                                   : Микро-потенциал зонд 
NNKTB_1            .у.е.                                   :  
NNKTM_1            .у.е.                                   :  
NPHI               .v/v                                    :  
OGZ                .Ohmm                                   :  
PHIE               .v/v                                    : Описание 
PHIED              .v/v                                    :  
PHIEN              .v/v                                    :  
PHIES              .v/v                                    :  
PHIT               .v/v                                    : Описание 
PRMB               .mD                                     :  
PRMB_DGR           .mD                                     :  
RHOB               .G/C3                                   : Плотность по ГГК-П 
RT                 .ohmm                                   : УЭС пласта 
SOIL_ARCHIE        .v/v                                    :  
SOIL_DW            .v/v                                    :  
SP                 .мВ                                     : Потенциал самополяризации 
VSH_FIN            .v/v                                    : Описание 
VSH_GR             .v/v                                    : Shale volume 
VSH_SP             .v/v                                    : Shale Volume 
~Ascii
# ...
1122.6     0.234      562.753    -9999      -9999      313.023    7.941      2.197      2.576      2.062      1.712      1.676      1.542      1.571      1.649      1.797      1.979      1.579      1.468      3.137      2.34       2.821      1.674      0.2857516  1.438      0.02097114 -0.04441712 0.04835083 0.05897973 0.1752887  0.006848485 3.721797   2.478      1.579      0          0          33.913     0.7193964  0.3793646  0.7193964 
1122.7     0.234      572.911    -9999      -9999      316.103    8.102      2.056      2.494      1.991      1.644      1.614      1.523      1.551      1.624      1.746      1.94       1.574      1.423      3.084      2.3        2.772      1.636      0.2828603  1.396      0.02357577 -0.04169659 0.04772796 0.06469595 0.1764188  0.00765312 3.177431   2.476      1.574      0          0          33.732     0.7125223  0.4046688  0.7125223 
1122.8     0.233      581.281    -9999      -9999      318.546    8.243      1.961      2.448      1.945      1.598      1.571      1.503      1.528      1.6        1.704      1.909      1.58       1.399      3.116      2.344      2.727      1.611      0.2833727  1.363      0.05981276 -0.01514217 0.08868395 0.1058965  0.1863662  0.03589512 2.099806   2.477      1.58       0          0          33.417     0.589966   0.479245   0.7006869 
1122.9     0.233      587.67     -9999      -9999      319.802    8.349      1.911      2.418      1.919      1.573      1.542      1.479      1.5        1.575      1.673      1.886      1.582      1.396      3.165      2.412      2.687      1.595      0.2859247  1.346      0.0608934  -0.01443578 0.0905042  0.1066118  0.1879225  0.0375882  1.885488   2.475      1.582      0          0          32.954     0.5921834  0.5007828  0.6835839 
1123       0.233      591.635    -9999      -9999      319.588    8.408      1.891      2.379      1.906      1.566      1.523      1.455      1.474      1.55       1.654      1.872      1.576      1.39       3.139      2.437      2.658      1.585      0.2883726  1.348      0.06473843 -0.00803821 0.09445418 0.1077993  0.1907912  0.04428644 1.775823   2.466      1.576      0          0          32.358     0.5876317  0.5131874  0.662076  
1123.1     0.232      595.371    -9999      -9999      318.103    8.42       1.885      2.324      1.902      1.571      1.513      1.437      1.453      1.529      1.644      1.859      1.562      1.37       2.999      2.382      2.649      1.579      0.2881567  1.37       0.06955431 0.001490604 0.09772826 0.109444   0.1933385  0.05438418 1.75431    2.454      1.562      0          0          31.682     0.5770559  0.5157478  0.6383641 
1123.2     0.232      600.925    -9999      -9999      316.03     8.405      1.877      2.257      1.904      1.589      1.515      1.427      1.441      1.512      1.636      1.84       1.551      1.337      2.782      2.285      2.663      1.579      0.2853321  1.407      0.07402262 0.01159668 0.09925342 0.1112178  0.1949793  0.06580162 1.781242   2.442      1.551      0          0          31.001     0.5638747  0.5125493  0.6152001 
1123.3     0.232      607.805    -9999      -9999      314.26     8.389      1.86       2.19       1.913      1.613      1.537      1.43       1.438      1.501      1.624      1.817      1.547      1.31       2.597      2.207      2.683      1.585      0.2833706  1.45       0.07709407 0.01720825 0.1011908  0.1128832  0.1955163  0.0750114  1.810423   2.437      1.547      0          0          30.388     0.5520599  0.5091595  0.5949603 
1123.4     0.231      613.003    -9999      -9999      313.426    8.386      1.835      2.124      1.928      1.64       1.584      1.451      1.45       1.501      1.613      1.8        1.547      1.296      2.541      2.201      2.679      1.6        0.2892086  1.497      0.08090988 0.01844753 0.1097665  0.1145156  0.1975526  0.08826841 1.815948   2.438      1.547      0          0          29.892     0.5437639  0.5085264  0.5790015 
1123.5     0.231      611.157    -9999      -9999      313.521    8.382      1.81       2.064      1.952      1.672      1.658      1.498      1.488      1.523      1.612      1.806      1.543      1.296      2.617      2.245      2.625      1.622      0.3081515  1.553      0.08804376 0.01682165 0.1307473  0.1165623  0.2033618  0.1196581  1.82334    2.443      1.543      0          0          29.527     0.5375885  0.5076836  0.5674934 
1123.6     0.231      599.746    -9999      -9999      313.615    8.344      1.787      2.004      1.993      1.721      1.753      1.569      1.559      1.573      1.631      1.844      1.538      1.302      2.741      2.283      2.528      1.647      0.3400085  1.63       0.09976616 0.01496884 0.1651958  0.1191338  0.2133996  0.1972738  1.895087   2.449      1.538      0          0.04934477 29.277     0.5297356  0.4997455  0.5597256 
1123.7     0.231      579.368    -9999      -9999      314.428    8.246      1.765      1.95       2.064      1.805      1.852      1.652      1.653      1.657      1.675      1.916      1.546      1.311      2.836      2.29       2.428      1.671      0.3763264  1.746      0.1150383  0.01537809 0.2056909  0.1240459  0.2259564  0.3783958  2.093417   2.453      1.546      0          0.1332068  29.101     0.5170771  0.4798417  0.5543125 
1123.8     0.231      554.712    -9999      -9999      315.318    8.096      1.744      1.92       2.183      1.939      1.942      1.73       1.746      1.759      1.744      2.011      1.607      1.332      2.914      2.311      2.377      1.692      0.400499   1.908      0.127229   0.01606354 0.2353439  0.1302796  0.2345847  0.6364256  2.43792    2.458      1.607      0          0.2009756  28.961     0.5004701  0.450901   0.5500392 
1123.9     0.231      530.708    -9999      -9999      315.99     7.936      1.758      1.958      2.355      2.122      2.014      1.788      1.824      1.859      1.83       2.113      1.74       1.441      3.078      2.542      2.411      1.708      0.3969747  2.103      0.1292703  0.01432796 0.2372615  0.1362215  0.2330886  0.6943176  2.868095   2.467      1.74       0          0.2339283  28.828     0.4839792  0.4219524  0.546006  
1124       0.231      510.756    -9999      -9999      316.576    7.81       1.856      2.097      2.558      2.335      2.073      1.829      1.887      1.947      1.923      2.206      1.935      1.706      3.644      3.134      2.538      1.722      0.3665456  2.294      0.120635   0.009969361 0.2110433  0.1408923  0.2217161  0.4804087  3.259649   2.479      1.935      0          0.2305404  28.694     0.4712191  0.4004695  0.5419688 
1124.1     0.23       493.367    -9999      -9999      317.556    7.738      2.061      2.316      2.748      2.541      2.125      1.861      1.946      2.027      2.012      2.294      2.098      2.097      4.594      4.016      2.73       1.737      0.3253961  2.44       0.1067427  0.003312475 0.172465   0.1444505  0.2061524  0.2656384  3.506947   2.493      2.098      0          0.1897508  28.567     0.4634274  0.3886882  0.5381666 
1124.2     0.23       475.857    -9999      -9999      319.433    7.699      2.308      2.519      2.878      2.698      2.181      1.894      2.004      2.107      2.097      2.39       2.153      2.383      5.723      4.696      2.937      1.753      0.2888738  2.515      0.09444554 -0.002224037 0.1375071  0.1480536  0.1928384  0.1572239  3.648647   2.504      2.153      0          0.1264336  28.458     0.458687   0.3824521  0.5349219 
1124.3     0.23       458.088    -9999      -9999      322.437    7.652      2.498      2.604      2.917      2.771      2.236      1.93       2.052      2.179      2.178      2.496      2.089      2.357      6.121      4.697      3.104      1.767      0.2643619  2.517      0.08820728 -0.002930204 0.1146191  0.152933   0.1855446  0.1204955  3.827039   2.507      2.089      0          0.06777001 28.375     0.4537661  0.3750695  0.5324627 
1124.4     0.23       443.846    -9999      -9999      326.419    7.571      2.558      2.537      2.869      2.754      2.276      1.964      2.083      2.229      2.253      2.588      1.997      2.04       5.737      4.05       3.205      1.776      0.2513011  2.468      0.08772045 -0.0001769412 0.1038755  0.1594627  0.1835515  0.1180194  4.15519    2.505      1.997      0          0.03811193 28.319     0.4467443  0.3626793  0.5308092 
