~Version
 VERS              .         2.0                           : CWLS LOG ASCII STANDARD - VERSION 2.0
 WRAP              .         NO                            : ONE LINE PER DEPTH STEP
 DLM               .         SPACE                         : DELIMITING CHARACTER(SPACE TAB OR COMMA)
~Well Information
#_______________________________________________________________________________
#
#PARAMETER_NAME    .UNIT     VALUE                         : DESCRIPTION
#_______________________________________________________________________________
STRT               .M        982                           : First reference value
STOP               .M        1218                          : Last reference value
STEP               .M        0.1                           : Step increment
NULL               .         -9999                         : Missing value
COMP               .                                       : Company
WELL               .         4289                          : Well name
FLD                .         УЗЕНЬ                         : Field
LOC                .                                       : Location
CNTY               .                                       : County
STAT               .                                       : State
CTRY               .                                       : Country
SRVC               .         AO "UPGF"                     : Service Company
DATE               .         29-30/12/2009                 : Date
UWI                .                                       : Unique Well ID
Block              .         4                             : 
Category           .         Нефтяная                      : 
Condition          .         В работе                      : 
Date               .         11.12.2009                    : 
EREF               .m        228.7                         : 100.8
Gorizont           .         14                            : 14
Interpretator      .         Ткачева И.Г.                  : 
Kupol              .         Основной                      : osnovnoi
Mud                .         Глинистый                     : 
Mud_density        .         1.33                          : 
Mud_resistivity    .         0.35                          : 
NGDU               .         НГДУ-1                        : 
ORIGINALWELLNAME   .         4289                          : 
Spud_date          .         2009                          : 1961
Uslovie            .         14                            : 
Viscosity          .         35                            : 
X                  .m        54362.08                      : 46154
Y                  .m        81918.16                      : 85761.93
YEAR               .         2019                          : 
~Parameter Information Block
#_______________________________________________________________________________
#
#PARAMETER_NAME    .UNIT     VALUE                         : DESCRIPTION
#_______________________________________________________________________________
SET                .         LQC_KAZNIPI_Petrel            : 
PBBOTTOM           .M        1218                          : Глубина подошвы планшета
PBSCALE            .         1 _ 500                       : Вертикальный масштаб планшета
PBTOP              .M        982                           : Глубина кровли планшета
TLFamily_CALI      .         Caliper                       : 
TLFamily_CILD      .         Conductivity                  : 
TLFamily_COLL      .         Net Reservoir Flag            : 
TLFamily_CSAT      .         Fluid Code                    : 
TLFamily_DEPT      .         Measured Depth                : 
TLFamily_DT        .         Compressional Slowness        : 
TLFamily_GR        .         Russian Gamma Ray             : 
TLFamily_GZ1       .         Gradient 045                  : 
TLFamily_GZ2       .         Gradient 105                  : 
TLFamily_GZ3       .         Gradient 225                  : 
TLFamily_GZ4       .         Gradient 425                  : 
TLFamily_GZ5       .         Gradient 850                  : 
TLFamily_IK1       .         Resistivity 05                : 
TLFamily_IK2       .         Resistivity 07                : 
TLFamily_IK3       .         Resistivity 10                : 
TLFamily_IK4       .         Resistivity 14                : 
TLFamily_IK5       .         Resistivity 20                : 
TLFamily_LLS       .         Lateral Log Resistivity       : 
TLFamily_MBK       .         Micro Lateral Log Resistivity : 
TLFamily_MINV      .         Micro Gradient Resistivity    : 
TLFamily_MNOR      .         Micro Resistivity             : 
TLFamily_NNKTB_1   .         Neutron Far                   : 
TLFamily_NNKTM_1   .         Neutron Near                  : 
TLFamily_NPHI      .         Neutron Porosity              : 
TLFamily_OGZ       .         Gradient Inverted 225         : 
TLFamily_PHIE      .         Effective Porosity            : 
TLFamily_PHIED     .         Effective Porosity            : 
TLFamily_PHIEN     .         Effective Porosity            : 
TLFamily_PHIES     .         Effective Porosity            : 
TLFamily_PHIT      .         Porosity                      : 
TLFamily_PRMB      .         Permeability                  : 
TLFamily_PRMB_DGR  .         Permeability                  : 
TLFamily_RHOB      .         Bulk Density                  : 
TLFamily_RT        .         Formation Resistivity         : 
TLFamily_SOIL_ARCHIE .         Oil Saturation                : 
TLFamily_SOIL_DW   .         Oil Saturation                : 
TLFamily_SP        .         Spontaneous Potential         : 
TLFamily_VSH_FIN   .         Shale Volume                  : 
TLFamily_VSH_GR    .         Shale Volume                  : 
TLFamily_VSH_SP    .         Shale Volume                  : 
~Curve Information
#_______________________________________________________________________________
#
#LOGNAME           .UNIT     LOG_ID                        : DESCRIPTION
#_______________________________________________________________________________
DEPT               .M                                      : Колонка глубины 
CALI               .м                                      : Каверномер 
CILD               .мСм/м                                  : Индукционный каротаж 
COLL               .unitless                               : Описание 
CSAT               .unitless                               : Описание 
DT                 .мкс/м                                  : Интервальное время пробега продольной волны 
GR                 .uR/h                                   : Гамма каротаж 
GZ1                .Ohmm                                   : Градиент-зонд  длиной 0.45м 
GZ2                .Ohmm                                   : Градиент-зонд  длиной 1.05м 
GZ3                .Ohmm                                   : Градиент-зонд  длиной 2.25м 
GZ4                .Ohmm                                   : Градиент-зонд  длиной 4.5м 
GZ5                .Ohmm                                   : Градиент-зонд  длиной 8.5м 
IK1                .Ohmm                                   :  
IK2                .Ohmm                                   :  
IK3                .Ohmm                                   :  
IK4                .Ohmm                                   :  
IK5                .Ohmm                                   :  
LLS                .Ohmm                                   : Боковой каротаж 
MBK                .Ohmm                                   : Микробоковой каротаж 
MINV               .Ohmm                                   : Микро-градиент зонд 
MNOR               .Ohmm                                   : Микро-потенциал зонд 
NNKTB_1            .у.е.                                   :  
NNKTM_1            .у.е.                                   :  
NPHI               .v/v                                    :  
OGZ                .Ohmm                                   :  
PHIE               .v/v                                    : Описание 
PHIED              .v/v                                    :  
PHIEN              .v/v                                    :  
PHIES              .v/v                                    :  
PHIT               .v/v                                    : Описание 
PRMB               .mD                                     :  
PRMB_DGR           .mD                                     :  
RHOB               .G/C3                                   : Плотность по ГГК-П 
RT                 .ohmm                                   : УЭС пласта 
SOIL_ARCHIE        .v/v                                    :  
SOIL_DW            .v/v                                    :  
SP                 .мВ                                     : Потенциал самополяризации 
VSH_FIN            .v/v                                    : Описание 
VSH_GR             .v/v                                    : Shale volume 
VSH_SP             .v/v                                    : Shale Volume 
~Ascii
# ...
1200.5     0.217      398.86     7          7          305.349    7.342      2.728      2.984      2.383      3.445      4.686      1.465      1.494      1.69       2.241      2.929      1.671      3.234      2.79       2.556      2.34       1.626      0.3830729  2.544      0.216468   0.2        0.2758904  0.1735137  0.2861399  28.62011   16.68615   2.336      1.671      0.3336229  0.4385479  25.134     0.3247957  0.2055821  0.4440093 
1200.6     0.218      458.57     7          7          299.718    7.434      2.461      2.543      2.096      3.07       4.333      1.477      1.505      1.653      2.013      2.493      1.676      2.453      2.876      2.603      2.192      1.592      0.4156253  2.44       0.2271482  0.2215569  0.3007355  0.1591522  0.3018301  45.13297   14.97068   2.3        1.676      0.3618912  0.4673701  26.57      0.3481511  0.2148938  0.4814084 
1200.7     0.219      493.747    7          7          298.486    7.528      2.314      2.262      1.869      2.759      3.977      1.487      1.526      1.655      1.9        2.292      1.725      2.063      2.962      2.681      2.13       1.578      0.4311148  2.35       0.2378014  0.2550898  0.308283   0.1500312  0.3176457  71.09125   13.39994   2.244      1.725      0.3950973  0.5000399  27.935     0.3722177  0.2248436  0.5195919 
1200.8     0.22       510.962    7          7          302.359    7.633      2.249      2.09       1.704      2.518      3.686      1.493      1.546      1.683      1.858      2.205      1.746      1.935      2.972      2.692      2.161      1.586      0.4237202  2.271      0.2132166  0.1999899  0.2925969  0.147063   0.2984506  24.91421   11.83943   2.189      1.746      0.3385504  0.4607305  29.227     0.3973433  0.2365034  0.5581831 
1200.9     0.221      519.768    7          7          310.683    7.74       2.217      1.983      1.581      2.323      3.462      1.494      1.554      1.71       1.852      2.163      1.742      1.93       2.927      2.666      2.269      1.612      0.3990713  2.188      0.2076635  0.2141394  0.2595908  0.1492601  0.2983299  19.66026   10.43601   2.156      1.742      0.3224425  0.4540787  30.43      0.4226682  0.2490076  0.5963288 
1201       0.222      527.151    7          7          321.329    7.838      2.192      1.923      1.483      2.154      3.273      1.49       1.55       1.717      1.853      2.129      1.742      1.921      2.929      2.703      2.423      1.648      0.3682074  2.09       0.1950839  0.2105905  0.2207654  0.1538956  0.2909255  11.497     9.297092   2.153      1.742      0.2845443  0.431549   31.513     0.4467938  0.2610392  0.6325484 
1201.1     0.224      535.916    -9999      -9999      331.167    7.922      2.167      1.903      1.399      2.001      3.089      1.479      1.537      1.706      1.853      2.09       1.755      1.905      3.028      2.816      2.588      1.689      0.3410974  1.975      0.1781968  0.1902688  0.1865759  0.1577458  0.2786404  5.594944   8.420333   2.179      1.755      0.2285381  0.3971832  32.431     0.4682467  0.2718137  0.6646798 
1201.2     0.225      546.206    -9999      -9999      337.242    8          2.142      1.903      1.325      1.86       2.904      1.459      1.517      1.686      1.845      2.046      1.771      1.856      3.207      2.913      2.734      1.727      0.3210493  1.852      0.1587974  0.1575231  0.1605655  0.1583038  0.2631167  2.446087   7.680407   2.227      1.771      0.1506988  0.349514   33.14      0.4863147  0.2822164  0.6904129 
1201.3     0.226      555.703    -9999      -9999      338.191    8.085      2.123      1.913      1.262      1.729      2.729      1.434      1.489      1.66       1.833      2.007      1.779      1.735      3.302      2.866      2.842      1.757      0.3084504  1.73       0.1386608  0.1183079  0.1430706  0.154604   0.2461626  1.036318   6.947916   2.287      1.779      0.04625262 0.2869923  33.62      0.501151   0.2940065  0.7082956 
1201.4     0.226      562.243    -9999      -9999      334.612    8.181      2.113      1.929      1.209      1.611      2.572      1.409      1.454      1.623      1.814      1.981      1.773      1.577      3.273      2.668      2.908      1.777      0.3018345  1.622      0.1201326  0.08085739 0.1324035  0.1471369  0.2302678  0.4702244  6.204284   2.345      1.773      0          0.2132241  33.901     0.5134274  0.3079157  0.7189391 
1201.5     0.226      567.651    -9999      -9999      328.672    8.289      2.112      1.952      1.161      1.511      2.437      1.39       1.421      1.57       1.784      1.96       1.745      1.424      3.118      2.419      2.938      1.785      0.298604   1.532      0.1046566  0.0508862  0.1255592  0.1375246  0.217141   0.2430262  5.462398   2.391      1.745      0          0.1329776  34.044     0.5243784  0.3243516  0.7244053 
1201.6     0.226      574.778    -9999      -9999      322.418    8.408      2.096      1.963      1.117      1.428      2.322      1.379      1.394      1.51       1.737      1.933      1.687      1.331      2.991      2.247      2.95       1.782      0.2954138  1.464      0.09258629 0.03168603 0.1187439  0.1273289  0.207427   0.1452382  4.747241   2.419      1.687      0          0.04975573 34.118     0.5353633  0.3434793  0.7272473 
1201.7     0.225      586.268    -9999      -9999      317.215    8.537      2.047      1.957      1.077      1.359      2.223      1.374      1.377      1.46       1.677      1.891      1.614      1.298      2.925      2.185      2.955      1.774      0.2920189  1.418      0.08394567 0.02250721 0.1114885  0.1178413  0.2012958  0.1004698  4.077353   2.43       1.614      0          0          34.154     0.5470619  0.3654906  0.7286331 
1201.8     0.226      599.746    -9999      -9999      313.479    8.675      1.967      1.941      1.044      1.302      2.137      1.371      1.367      1.429      1.62       1.844      1.553      1.316      2.938      2.216      2.958      1.765      0.2887105  1.391      0.07805038 0.02037128 0.1041067  0.1096732  0.1980484  0.07813407 3.465025   2.429      1.553      0          0          34.143     0.5594056  0.3906016  0.7282096 
1201.9     0.226      612.078    -9999      -9999      311.323    8.813      1.889      1.94       1.026      1.255      2.065      1.37       1.362      1.416      1.579      1.803      1.523      1.351      2.981      2.277      2.959      1.76       0.2870029  1.381      0.07464359 0.02240185 0.09828848 0.1032404  0.1973136  0.06756759 2.944657   2.421      1.523      0          0          34.093     0.5718619  0.4174377  0.7262861 
1202       0.227      620.193    -9999      -9999      310.499    8.943      1.828      1.956      1.03       1.218      2.014      1.368      1.36       1.411      1.558      1.777      1.514      1.38       3.026      2.317      2.962      1.759      0.2861558  1.383      0.07332239 0.02719878 0.09388347 0.0988849  0.1983051  0.06386553 2.526152   2.409      1.514      0          0          33.952     0.5826436  0.4444025  0.7208847 
1202.1     0.227      624.34     -9999      -9999      310.425    9.047      1.786      1.975      1.063      1.19       1.986      1.365      1.359      1.41       1.549      1.764      1.511      1.384      3.046      2.316      2.971      1.763      0.2857484  1.395      0.07425916 0.03428157 0.09153908 0.09695684 0.200501   0.06646881 2.234599   2.395      1.511      0          0          33.66      0.588513   0.4672231  0.7098027 
1202.2     0.227      626.275    -9999      -9999      310.345    9.114      1.75       1.979      1.124      1.169      1.979      1.36       1.356      1.409      1.544      1.758      1.505      1.376      3.046      2.295      2.983      1.766      0.2845061  1.412      0.07679838 0.04236578 0.09074327 0.09728608 0.2027499  0.07407136 2.064846   2.382      1.505      0          0          33.177     0.5871599  0.4825419  0.691778  
1202.3     0.226      627.898    -9999      -9999      309.75     9.146      1.72       1.964      1.206      1.151      1.984      1.356      1.354      1.406      1.537      1.753      1.5        1.37       3.029      2.289      2.99       1.767      0.2835619  1.433      0.08066275 0.05021248 0.09256753 0.09920824 0.2048148  0.08734296 1.988383   2.372      1.5        0          0          32.51      0.5787708  0.4900344  0.6675072 
