~Version
 VERS              .         2.0                           : CWLS LOG ASCII STANDARD - VERSION 2.0
 WRAP              .         NO                            : ONE LINE PER DEPTH STEP
 DLM               .         SPACE                         : DELIMITING CHARACTER(SPACE TAB OR COMMA)
~Well Information
#_______________________________________________________________________________
#
#PARAMETER_NAME    .UNIT     VALUE                         : DESCRIPTION
#_______________________________________________________________________________
STRT               .M        982                           : First reference value
STOP               .M        1218                          : Last reference value
STEP               .M        0.1                           : Step increment
NULL               .         -9999                         : Missing value
COMP               .                                       : Company
WELL               .         4289                          : Well name
FLD                .         УЗЕНЬ                         : Field
LOC                .                                       : Location
CNTY               .                                       : County
STAT               .                                       : State
CTRY               .                                       : Country
SRVC               .         AO "UPGF"                     : Service Company
DATE               .         29-30/12/2009                 : Date
UWI                .                                       : Unique Well ID
Block              .         4                             : 
Category           .         Нефтяная                      : 
Condition          .         В работе                      : 
Date               .         11.12.2009                    : 
EREF               .m        228.7                         : 100.8
Gorizont           .         14                            : 14
Interpretator      .         Ткачева И.Г.                  : 
Kupol              .         Основной                      : osnovnoi
Mud                .         Глинистый                     : 
Mud_density        .         1.33                          : 
Mud_resistivity    .         0.35                          : 
NGDU               .         НГДУ-1                        : 
ORIGINALWELLNAME   .         4289                          : 
Spud_date          .         2009                          : 1961
Uslovie            .         14                            : 
Viscosity          .         35                            : 
X                  .m        54362.08                      : 46154
Y                  .m        81918.16                      : 85761.93
YEAR               .         2019                          : 
~Parameter Information Block
#_______________________________________________________________________________
#
#PARAMETER_NAME    .UNIT     VALUE                         : DESCRIPTION
#_______________________________________________________________________________
SET                .         LQC_KAZNIPI_Petrel            : 
PBBOTTOM           .M        1218                          : Глубина подошвы планшета
PBSCALE            .         1 _ 500                       : Вертикальный масштаб планшета
PBTOP              .M        982                           : Глубина кровли планшета
TLFamily_CALI      .         Caliper                       : 
TLFamily_CILD      .         Conductivity                  : 
TLFamily_COLL      .         Net Reservoir Flag            : 
TLFamily_CSAT      .         Fluid Code                    : 
TLFamily_DEPT      .         Measured Depth                : 
TLFamily_DT        .         Compressional Slowness        : 
TLFamily_GR        .         Russian Gamma Ray             : 
TLFamily_GZ1       .         Gradient 045                  : 
TLFamily_GZ2       .         Gradient 105                  : 
TLFamily_GZ3       .         Gradient 225                  : 
TLFamily_GZ4       .         Gradient 425                  : 
TLFamily_GZ5       .         Gradient 850                  : 
TLFamily_IK1       .         Resistivity 05                : 
TLFamily_IK2       .         Resistivity 07                : 
TLFamily_IK3       .         Resistivity 10                : 
TLFamily_IK4       .         Resistivity 14                : 
TLFamily_IK5       .         Resistivity 20                : 
TLFamily_LLS       .         Lateral Log Resistivity       : 
TLFamily_MBK       .         Micro Lateral Log Resistivity : 
TLFamily_MINV      .         Micro Gradient Resistivity    : 
TLFamily_MNOR      .         Micro Resistivity             : 
TLFamily_NNKTB_1   .         Neutron Far                   : 
TLFamily_NNKTM_1   .         Neutron Near                  : 
TLFamily_NPHI      .         Neutron Porosity              : 
TLFamily_OGZ       .         Gradient Inverted 225         : 
TLFamily_PHIE      .         Effective Porosity            : 
TLFamily_PHIED     .         Effective Porosity            : 
TLFamily_PHIEN     .         Effective Porosity            : 
TLFamily_PHIES     .         Effective Porosity            : 
TLFamily_PHIT      .         Porosity                      : 
TLFamily_PRMB      .         Permeability                  : 
TLFamily_PRMB_DGR  .         Permeability                  : 
TLFamily_RHOB      .         Bulk Density                  : 
TLFamily_RT        .         Formation Resistivity         : 
TLFamily_SOIL_ARCHIE .         Oil Saturation                : 
TLFamily_SOIL_DW   .         Oil Saturation                : 
TLFamily_SP        .         Spontaneous Potential         : 
TLFamily_VSH_FIN   .         Shale Volume                  : 
TLFamily_VSH_GR    .         Shale Volume                  : 
TLFamily_VSH_SP    .         Shale Volume                  : 
~Curve Information
#_______________________________________________________________________________
#
#LOGNAME           .UNIT     LOG_ID                        : DESCRIPTION
#_______________________________________________________________________________
DEPT               .M                                      : Колонка глубины 
CALI               .м                                      : Каверномер 
CILD               .мСм/м                                  : Индукционный каротаж 
COLL               .unitless                               : Описание 
CSAT               .unitless                               : Описание 
DT                 .мкс/м                                  : Интервальное время пробега продольной волны 
GR                 .uR/h                                   : Гамма каротаж 
GZ1                .Ohmm                                   : Градиент-зонд  длиной 0.45м 
GZ2                .Ohmm                                   : Градиент-зонд  длиной 1.05м 
GZ3                .Ohmm                                   : Градиент-зонд  длиной 2.25м 
GZ4                .Ohmm                                   : Градиент-зонд  длиной 4.5м 
GZ5                .Ohmm                                   : Градиент-зонд  длиной 8.5м 
IK1                .Ohmm                                   :  
IK2                .Ohmm                                   :  
IK3                .Ohmm                                   :  
IK4                .Ohmm                                   :  
IK5                .Ohmm                                   :  
LLS                .Ohmm                                   : Боковой каротаж 
MBK                .Ohmm                                   : Микробоковой каротаж 
MINV               .Ohmm                                   : Микро-градиент зонд 
MNOR               .Ohmm                                   : Микро-потенциал зонд 
NNKTB_1            .у.е.                                   :  
NNKTM_1            .у.е.                                   :  
NPHI               .v/v                                    :  
OGZ                .Ohmm                                   :  
PHIE               .v/v                                    : Описание 
PHIED              .v/v                                    :  
PHIEN              .v/v                                    :  
PHIES              .v/v                                    :  
PHIT               .v/v                                    : Описание 
PRMB               .mD                                     :  
PRMB_DGR           .mD                                     :  
RHOB               .G/C3                                   : Плотность по ГГК-П 
RT                 .ohmm                                   : УЭС пласта 
SOIL_ARCHIE        .v/v                                    :  
SOIL_DW            .v/v                                    :  
SP                 .мВ                                     : Потенциал самополяризации 
VSH_FIN            .v/v                                    : Описание 
VSH_GR             .v/v                                    : Shale volume 
VSH_SP             .v/v                                    : Shale Volume 
~Ascii
# ...
1029.5     0.228      335.225    -9999      -9999      300.353    5.521      2.706      3.303      3.178      4.384      0.577      2.811      2.829      2.873      3          3.6        2.51       2.349      5.294      4.205      3.553      1.798      0.2115673  2.462      0.0125991  -0.008063126 0          0.04586042 0.1575397  0.004792078 13.76353   2.42       2.51       0          0          33.72      0.7120685  0.222399   0.7120685 
1029.6     0.228      321.021    -9999      -9999      301.515    5.51       2.79       3.347      3.232      4.577      0.574      2.837      2.898      2.989      3.14       3.794      2.594      2.481      5.604      4.446      3.493      1.806      0.2204058  2.474      0.01474988 -0.002841488 0          0.04709112 0.1627157  0.005252446 13.9427    2.411      2.594      0          0          33.74      0.7128251  0.2212275  0.7128251 
1029.7     0.229      309.463    -9999      -9999      301.643    5.546      2.87       3.403      3.295      4.712      0.572      2.844      2.941      3.087      3.278      3.968      2.698      2.623      5.874      4.691      3.422      1.82       0.2325539  2.469      0.01408613 -0.005136078 0          0.04739446 0.1660539  0.005105841 13.36483   2.415      2.698      0          0          33.728     0.7123711  0.2250846  0.7123711 
1029.8     0.229      301.588    -9999      -9999      300.966    5.619      2.946      3.462      3.352      4.773      0.571      2.832      2.961      3.153      3.389      4.096      2.803      2.744      5.941      4.9        3.388      1.841      0.2421877  2.441      0.01337977 -0.01440713 0.007566664 0.04697976 0.1658904  0.004954317 12.2655    2.431      2.803      0          0          33.691     0.7109727  0.2331136  0.7109727 
1029.9     0.229      297.37     -9999      -9999      299.898    5.708      3.029      3.528      3.397      4.764      0.571      2.797      2.959      3.185      3.457      4.168      2.883      2.821      5.832      5.002      3.405      1.867      0.2463461  2.389      0.01078648 -0.02647222 0.01248426 0.04634741 0.1628036  0.004435575 11.0468    2.452      2.883      0          0          33.63      0.7086722  0.2432909  0.7086722 
1030       0.229      295.826    -9999      -9999      298.873    5.799      3.125      3.604      3.428      4.708      0.569      2.733      2.932      3.189      3.488      4.195      2.917      2.844      5.633      5.001      3.451      1.893      0.2465371  2.319      0.01       -0.03829762 0.01379169 0.04609982 0.1584894  0.004289259 9.925828   2.473      2.917      0          0          33.54      0.7052891  0.2541564  0.7052891 
1030.1     0.229      296.624    -9999      -9999      298.253    5.889      3.235      3.693      3.448      4.627      0.562      2.636      2.87       3.162      3.49       4.181      2.909      2.841      5.463      4.934      3.492      1.912      0.2456903  2.241      0.01       -0.04696635 0.01430346 0.0465949  0.1550523  0.004289259 8.929094   2.489      2.909      0          0          33.43      0.7011722  0.2653797  0.7011722 
1030.2     0.229      300.815    -9999      -9999      298.36     5.986      3.345      3.787      3.457      4.537      0.553      2.517      2.766      3.091      3.461      4.109      2.86       2.822      5.324      4.834      3.503      1.921      0.2464103  2.163      0.01       -0.05080778 0.01643687 0.0480753  0.1540577  0.004289259 7.966611   2.497      2.86       0          0          33.315     0.6968892  0.2780316  0.6968892 
1030.3     0.23       310.676    -9999      -9999      299.505    6.095      3.434      3.876      3.451      4.433      0.545      2.394      2.629      2.964      3.384      3.949      2.767      2.769      5.199      4.677      3.479      1.917      0.2486465  2.089      0.01       -0.05107766 0.02005495 0.05085408 0.1552018  0.004289259 7.008286   2.499      2.767      0          0          33.202     0.6927017  0.2929696  0.6927017 
1030.4     0.23       328.376    -9999      -9999      301.904    6.22       3.471      3.939      3.421      4.309      0.544      2.29       2.484      2.793      3.242      3.691      2.624      2.645      5.091      4.442      3.428      1.9        0.2514078  2.019      0.01052138 -0.04777546 0.02416701 0.05517258 0.1582346  0.004385706 6.050336   2.495      2.624      0          0          33.091     0.6886085  0.311091   0.6886085 
1030.5     0.231      353.743    -9999      -9999      305.531    6.356      3.432      3.957      3.366      4.164      0.547      2.216      2.36       2.613      3.04       3.375      2.453      2.46       5.004      4.138      3.368      1.872      0.2527426  1.958      0.01527935 -0.0420502 0.02689433 0.06099391 0.1620874  0.005372404 5.156203   2.487      2.453      0          0          32.976     0.6843888  0.3320826  0.6843888 
1030.6     0.232      382.756    -9999      -9999      310.027    6.489      3.318      3.925      3.289      4.015      0.553      2.174      2.274      2.463      2.818      3.074      2.282      2.25       4.904      3.8        3.321      1.833      0.2494312  1.91       0.0196229  -0.03391013 0.02500439 0.06777445 0.165507   0.006465793 4.409733   2.475      2.282      0          0          32.858     0.6800811  0.3539803  0.6800811 
1030.7     0.232      408.201    -9999      -9999      314.762    6.601      3.159      3.864      3.205      3.884      0.558      2.158      2.227      2.364      2.627      2.851      2.152      2.075      4.761      3.503      3.301      1.79       0.2412384  1.882      0.02301377 -0.02394663 0.01827358 0.07471436 0.1679475  0.007471862 3.865614   2.46       2.152      0          0          32.736     0.6756509  0.3735366  0.6756509 
1030.8     0.232      424.689    -9999      -9999      319.045    6.677      2.997      3.805      3.131      3.784      0.562      2.158      2.209      2.314      2.498      2.723      2.073      1.966      4.622      3.31       3.299      1.747      0.230653   1.878      0.0255967  -0.01337356 0.009166088 0.08099757 0.1695698  0.008342016 3.535155   2.444      2.073      0          0          32.612     0.6711726  0.3874188  0.6711726 
1030.9     0.232      431.979    -9999      -9999      322.325    6.716      2.855      3.756      3.078      3.714      0.566      2.165      2.207      2.296      2.432      2.67       2.044      1.923      4.532      3.241      3.297      1.711      0.2219675  1.894      0.02735635 -0.005831782 0.001902971 0.08599785 0.1704048  0.008992159 3.376702   2.433      2.044      0          0          32.492     0.6668621  0.3947417  0.6668621 
1031       0.233      433.528    -9999      -9999      324.339    6.727      2.736      3.7        3.047      3.661      0.571      2.175      2.211      2.291      2.409      2.659      2.043      1.917      4.523      3.241      3.278      1.684      0.2177304  1.923      0.02896895 -0.002549716 0          0.08945657 0.1708211  0.009632373 3.333307   2.429      2.043      0          0          32.38      0.6628598  0.396832   0.6628598 
1031.1     0.234      432.26     -9999      -9999      325.112    6.728      2.635      3.621      3.032      3.62       0.58       2.183      2.219      2.291      2.407      2.668      2.056      1.921      4.551      3.248      3.23       1.668      0.2198988  1.958      0.02992211 -0.004109836 0.002399027 0.09147713 0.1713034  0.01003201 3.329391   2.433      2.056      0          0          32.274     0.6590901  0.3970226  0.6590901 
1031.2     0.237      429.609    -9999      -9999      324.874    6.726      2.559      3.522      3.024      3.589      0.593      2.187      2.224      2.294      2.416      2.687      2.075      1.933      4.618      3.252      3.153      1.663      0.2289049  1.996      0.03209312 -0.008691232 0.01260822 0.09236236 0.1726924  0.01100526 3.337232   2.442      2.075      0          0          32.171     0.6554444  0.3966414  0.6554444 
1031.3     0.241      426.043    -9999      -9999      323.947    6.724      2.516      3.425      3.021      3.57       0.61       2.187      2.228      2.296      2.431      2.713      2.098      1.954      4.701      3.267      3.066      1.666      0.2421797  2.035      0.03557099 -0.01272443 0.02701104 0.09242636 0.175437   0.01276495 3.345087   2.45       2.098      0          0          32.074     0.6520264  0.3962608  0.6520264 
