~Version
 VERS              .         2.0                           : CWLS LOG ASCII STANDARD - VERSION 2.0
 WRAP              .         NO                            : ONE LINE PER DEPTH STEP
 DLM               .         SPACE                         : DELIMITING CHARACTER(SPACE TAB OR COMMA)
~Well Information
#_______________________________________________________________________________
#
#PARAMETER_NAME    .UNIT     VALUE                         : DESCRIPTION
#_______________________________________________________________________________
STRT               .M        982                           : First reference value
STOP               .M        1218                          : Last reference value
STEP               .M        0.1                           : Step increment
NULL               .         -9999                         : Missing value
COMP               .                                       : Company
WELL               .         4289                          : Well name
FLD                .         УЗЕНЬ                         : Field
LOC                .                                       : Location
CNTY               .                                       : County
STAT               .                                       : State
CTRY               .                                       : Country
SRVC               .         AO "UPGF"                     : Service Company
DATE               .         29-30/12/2009                 : Date
UWI                .                                       : Unique Well ID
Block              .         4                             : 
Category           .         Нефтяная                      : 
Condition          .         В работе                      : 
Date               .         11.12.2009                    : 
EREF               .m        228.7                         : 100.8
Gorizont           .         14                            : 14
Interpretator      .         Ткачева И.Г.                  : 
Kupol              .         Основной                      : osnovnoi
Mud                .         Глинистый                     : 
Mud_density        .         1.33                          : 
Mud_resistivity    .         0.35                          : 
NGDU               .         НГДУ-1                        : 
ORIGINALWELLNAME   .         4289                          : 
Spud_date          .         2009                          : 1961
Uslovie            .         14                            : 
Viscosity          .         35                            : 
X                  .m        54362.08                      : 46154
Y                  .m        81918.16                      : 85761.93
YEAR               .         2019                          : 
~Parameter Information Block
#_______________________________________________________________________________
#
#PARAMETER_NAME    .UNIT     VALUE                         : DESCRIPTION
#_______________________________________________________________________________
SET                .         LQC_KAZNIPI_Petrel            : 
PBBOTTOM           .M        1218                          : Глубина подошвы планшета
PBSCALE            .         1 _ 500                       : Вертикальный масштаб планшета
PBTOP              .M        982                           : Глубина кровли планшета
TLFamily_CALI      .         Caliper                       : 
TLFamily_CILD      .         Conductivity                  : 
TLFamily_COLL      .         Net Reservoir Flag            : 
TLFamily_CSAT      .         Fluid Code                    : 
TLFamily_DEPT      .         Measured Depth                : 
TLFamily_DT        .         Compressional Slowness        : 
TLFamily_GR        .         Russian Gamma Ray             : 
TLFamily_GZ1       .         Gradient 045                  : 
TLFamily_GZ2       .         Gradient 105                  : 
TLFamily_GZ3       .         Gradient 225                  : 
TLFamily_GZ4       .         Gradient 425                  : 
TLFamily_GZ5       .         Gradient 850                  : 
TLFamily_IK1       .         Resistivity 05                : 
TLFamily_IK2       .         Resistivity 07                : 
TLFamily_IK3       .         Resistivity 10                : 
TLFamily_IK4       .         Resistivity 14                : 
TLFamily_IK5       .         Resistivity 20                : 
TLFamily_LLS       .         Lateral Log Resistivity       : 
TLFamily_MBK       .         Micro Lateral Log Resistivity : 
TLFamily_MINV      .         Micro Gradient Resistivity    : 
TLFamily_MNOR      .         Micro Resistivity             : 
TLFamily_NNKTB_1   .         Neutron Far                   : 
TLFamily_NNKTM_1   .         Neutron Near                  : 
TLFamily_NPHI      .         Neutron Porosity              : 
TLFamily_OGZ       .         Gradient Inverted 225         : 
TLFamily_PHIE      .         Effective Porosity            : 
TLFamily_PHIED     .         Effective Porosity            : 
TLFamily_PHIEN     .         Effective Porosity            : 
TLFamily_PHIES     .         Effective Porosity            : 
TLFamily_PHIT      .         Porosity                      : 
TLFamily_PRMB      .         Permeability                  : 
TLFamily_PRMB_DGR  .         Permeability                  : 
TLFamily_RHOB      .         Bulk Density                  : 
TLFamily_RT        .         Formation Resistivity         : 
TLFamily_SOIL_ARCHIE .         Oil Saturation                : 
TLFamily_SOIL_DW   .         Oil Saturation                : 
TLFamily_SP        .         Spontaneous Potential         : 
TLFamily_VSH_FIN   .         Shale Volume                  : 
TLFamily_VSH_GR    .         Shale Volume                  : 
TLFamily_VSH_SP    .         Shale Volume                  : 
~Curve Information
#_______________________________________________________________________________
#
#LOGNAME           .UNIT     LOG_ID                        : DESCRIPTION
#_______________________________________________________________________________
DEPT               .M                                      : Колонка глубины 
CALI               .м                                      : Каверномер 
CILD               .мСм/м                                  : Индукционный каротаж 
COLL               .unitless                               : Описание 
CSAT               .unitless                               : Описание 
DT                 .мкс/м                                  : Интервальное время пробега продольной волны 
GR                 .uR/h                                   : Гамма каротаж 
GZ1                .Ohmm                                   : Градиент-зонд  длиной 0.45м 
GZ2                .Ohmm                                   : Градиент-зонд  длиной 1.05м 
GZ3                .Ohmm                                   : Градиент-зонд  длиной 2.25м 
GZ4                .Ohmm                                   : Градиент-зонд  длиной 4.5м 
GZ5                .Ohmm                                   : Градиент-зонд  длиной 8.5м 
IK1                .Ohmm                                   :  
IK2                .Ohmm                                   :  
IK3                .Ohmm                                   :  
IK4                .Ohmm                                   :  
IK5                .Ohmm                                   :  
LLS                .Ohmm                                   : Боковой каротаж 
MBK                .Ohmm                                   : Микробоковой каротаж 
MINV               .Ohmm                                   : Микро-градиент зонд 
MNOR               .Ohmm                                   : Микро-потенциал зонд 
NNKTB_1            .у.е.                                   :  
NNKTM_1            .у.е.                                   :  
NPHI               .v/v                                    :  
OGZ                .Ohmm                                   :  
PHIE               .v/v                                    : Описание 
PHIED              .v/v                                    :  
PHIEN              .v/v                                    :  
PHIES              .v/v                                    :  
PHIT               .v/v                                    : Описание 
PRMB               .mD                                     :  
PRMB_DGR           .mD                                     :  
RHOB               .G/C3                                   : Плотность по ГГК-П 
RT                 .ohmm                                   : УЭС пласта 
SOIL_ARCHIE        .v/v                                    :  
SOIL_DW            .v/v                                    :  
SP                 .мВ                                     : Потенциал самополяризации 
VSH_FIN            .v/v                                    : Описание 
VSH_GR             .v/v                                    : Shale volume 
VSH_SP             .v/v                                    : Shale Volume 
~Ascii
# ...
1075.1     0.225      709.337    -9999      -9999      366.179    7.038      1.676      1.628      1.392      1.482      2.08       1.327      1.367      1.451      1.496      1.534      1.473      1.382      2.765      2.303      2.522      1.651      0.3430491  1.435      0.1304526  0.1232451  0.1315096  0.1366031  0.2679596  0.7302251  4.859118   2.227      1.473      0          0.2382081  31.759     0.6410288  0.3402279  0.6410288 
1075.2     0.225      711.469    -9999      -9999      366.008    7.077      1.733      1.668      1.421      1.487      2.077      1.313      1.353      1.435      1.493      1.529      1.461      1.348      2.706      2.136      2.465      1.646      0.3558834  1.455      0.1364588  0.1277283  0.1447782  0.1368698  0.2736834  0.9434222  4.66046    2.22       1.461      0          0.2579017  31.721     0.6397126  0.3460767  0.6397126 
1075.3     0.225      719.699    -9999      -9999      364.502    7.122      1.783      1.711      1.454      1.497      2.073      1.295      1.335      1.412      1.479      1.51       1.437      1.307      2.605      1.964      2.388      1.64       0.3748587  1.479      0.143451   0.1303534  0.1640959  0.1359037  0.2804531  1.271213   4.44131    2.216      1.437      0          0.2769404  31.691     0.6386752  0.3529505  0.6386752 
1075.4     0.225      733.123    -9999      -9999      361.8      7.161      1.809      1.748      1.485      1.507      2.068      1.279      1.319      1.387      1.457      1.48       1.408      1.276      2.513      1.84       2.309      1.635      0.3966428  1.502      0.1500108  0.1304146  0.1859713  0.1336464  0.2869536  1.681596   4.259735   2.216      1.408      0.006109149 0.2920823  31.683     0.6383986  0.359018   0.6383986 
1075.5     0.227      748.532    -9999      -9999      358.35     7.188      1.806      1.766      1.508      1.512      2.064      1.269      1.308      1.368      1.433      1.447      1.384      1.265      2.466      1.782      2.253      1.632      0.4136129  1.521      0.1542937  0.1296934  0.2027589  0.1304289  0.2913551  2.018609   4.138393   2.217      1.384      0.02232529 0.3002838  31.699     0.6389515  0.3632797  0.6389515 
1075.6     0.229      761.672    -9999      -9999      354.832    7.209      1.781      1.766      1.521      1.51       2.058      1.266      1.303      1.357      1.413      1.42       1.366      1.263      2.448      1.778      2.238      1.627      0.4163756  1.535      0.1537604  0.1293867  0.2050648  0.1268298  0.2911187  1.973216   4.046414   2.217      1.366      0.01333003 0.2943893  31.739     0.6403357  0.3666292  0.6403357 
1075.7     0.23       770.205    -9999      -9999      351.901    7.24       1.749      1.755      1.522      1.503      2.047      1.274      1.305      1.353      1.401      1.403      1.357      1.263      2.443      1.807      2.271      1.618      0.4011634  1.544      0.1482827  0.131989   0.1892691  0.12359    0.2860203  1.562116   3.914357   2.212      1.357      0          0.2742081  31.79      0.6421041  0.3716303  0.6421041 
1075.8     0.231      773.267    -9999      -9999      349.975    7.297      1.72       1.738      1.515      1.493      2.03       1.29       1.315      1.356      1.395      1.397      1.352      1.26       2.431      1.851      2.339      1.605      0.3742774  1.547      0.1400096  0.1369854  0.1617981  0.1212453  0.2781274  1.097679   3.682687   2.203      1.352      0          0.2436847  31.841     0.6438766  0.3810046  0.6438766 
1075.9     0.232      769.191    -9999      -9999      349.012    7.381      1.694      1.716      1.502      1.481      2.008      1.314      1.334      1.369      1.396      1.405      1.352      1.258      2.417      1.899      2.431      1.59       0.3424788  1.546      0.1315223  0.1450756  0.1295629  0.1199285  0.269924   0.764311   3.366034   2.189      1.352      0          0.2108962  31.879     0.6451998  0.395252   0.6451998 
1076       0.232      757.237    -9999      -9999      348.55     7.471      1.67       1.687      1.484      1.465      1.985      1.337      1.36       1.391      1.407      1.429      1.357      1.267      2.402      1.953      2.53       1.581      0.314677   1.539      0.1249735  0.1539571  0.1016115  0.1193519  0.2634724  0.578056   3.056913   2.174      1.357      0          0.1847606  31.892     0.6456531  0.4111089  0.6456531 
1076.1     0.232      737.719    -9999      -9999      347.889    7.539      1.647      1.654      1.464      1.448      1.966      1.356      1.386      1.421      1.431      1.47       1.372      1.293      2.393      2.015      2.62       1.583      0.2955331  1.531      0.1206804  0.1606211  0.08258262 0.1188376  0.2591045  0.4813405  2.842328   2.163      1.372      0          0.1698468  31.882     0.6453044  0.4235101  0.6453044 
1076.2     0.232      715.342    -9999      -9999      346.453    7.558      1.633      1.626      1.445      1.432      1.951      1.365      1.405      1.448      1.465      1.52       1.397      1.334      2.396      2.085      2.681      1.6        0.2888057  1.522      0.1194525  0.1644223  0.07616566 0.1177695  0.2576748  0.456781   2.78511    2.157      1.397      0          0.1712756  31.855     0.6443638  0.4270416  0.6443638 
1076.3     0.231      696.833    -9999      -9999      344.031    7.527      1.637      1.612      1.431      1.423      1.941      1.368      1.415      1.467      1.501      1.564      1.429      1.374      2.417      2.147      2.704      1.629      0.2939307  1.516      0.1207471  0.1646998  0.08170395 0.1158375  0.2587008  0.4827107  2.879072   2.157      1.429      0          0.1859524  31.819     0.6431115  0.4212948  0.6431115 
1076.4     0.23       685.193    -9999      -9999      340.791    7.469      1.663      1.616      1.425      1.421      1.93       1.366      1.418      1.476      1.528      1.593      1.456      1.394      2.46       2.195      2.693      1.659      0.3064234  1.515      0.1245277  0.1656603  0.09473513 0.1131877  0.2621313  0.5671699  3.063465   2.156      1.456      0          0.2093973  31.772     0.6414795  0.4107496  0.6414795 
1076.5     0.228      680.5      -9999      -9999      337.131    7.417      1.704      1.634      1.423      1.424      1.919      1.362      1.416      1.478      1.543      1.605      1.473      1.391      2.508      2.225      2.654      1.681      0.3226648  1.518      0.1303739  0.169153   0.1117194  0.1102492  0.2674946  0.727777   3.238803   2.151      1.473      0          0.2372142  31.707     0.6392283  0.40152    0.6392283 
1076.6     0.227      680.112    -9999      -9999      333.441    7.388      1.746      1.656      1.423      1.429      1.901      1.358      1.414      1.476      1.546      1.606      1.477      1.379      2.534      2.243      2.595      1.689      0.3393932  1.524      0.1379088  0.1765195  0.1296093  0.1075974  0.2742745  1.003605   3.340909   2.14       1.477      0          0.2659009  31.605     0.6357088  0.3964631  0.6357088 
1076.7     0.228      682.447    -9999      -9999      330.004    7.372      1.778      1.675      1.422      1.431      1.881      1.354      1.411      1.474      1.541      1.6        1.472      1.366      2.519      2.242      2.529      1.685      0.3544271  1.528      0.1458471  0.1854744  0.1463865  0.1056804  0.2810797  1.407994   3.398615   2.127      1.472      0.002468705 0.291124   31.451     0.630426   0.3937004  0.630426  
1076.8     0.23       686.378    -9999      -9999      326.945    7.344      1.794      1.69       1.418      1.43       1.858      1.354      1.411      1.472      1.534      1.59       1.463      1.353      2.468      2.225      2.471      1.674      0.3655187  1.53       0.1519108  0.1912416  0.1598246  0.1046664  0.2856181  1.82354    3.502011   2.12       1.463      0.03446401 0.306936   31.242     0.6233154  0.3889118  0.6233154 
1076.9     0.231      690.358    -9999      -9999      324.321    7.287      1.798      1.702      1.411      1.424      1.837      1.358      1.412      1.473      1.527      1.58       1.453      1.335      2.426      2.194      2.443      1.662      0.3683701  1.526      0.1544605  0.1931953  0.165586   0.1046001  0.2862762  2.033016   3.722314   2.12       1.453      0.04529209 0.3100278  30.98      0.6144972  0.3793431  0.6144972 
