~Version
 VERS              .         2.0                           : CWLS LOG ASCII STANDARD - VERSION 2.0
 WRAP              .         NO                            : ONE LINE PER DEPTH STEP
 DLM               .         SPACE                         : DELIMITING CHARACTER(SPACE TAB OR COMMA)
~Well Information
#_______________________________________________________________________________
#
#PARAMETER_NAME    .UNIT     VALUE                         : DESCRIPTION
#_______________________________________________________________________________
STRT               .M        982                           : First reference value
STOP               .M        1218                          : Last reference value
STEP               .M        0.1                           : Step increment
NULL               .         -9999                         : Missing value
COMP               .                                       : Company
WELL               .         4289                          : Well name
FLD                .         УЗЕНЬ                         : Field
LOC                .                                       : Location
CNTY               .                                       : County
STAT               .                                       : State
CTRY               .                                       : Country
SRVC               .         AO "UPGF"                     : Service Company
DATE               .         29-30/12/2009                 : Date
UWI                .                                       : Unique Well ID
Block              .         4                             : 
Category           .         Нефтяная                      : 
Condition          .         В работе                      : 
Date               .         11.12.2009                    : 
EREF               .m        228.7                         : 100.8
Gorizont           .         14                            : 14
Interpretator      .         Ткачева И.Г.                  : 
Kupol              .         Основной                      : osnovnoi
Mud                .         Глинистый                     : 
Mud_density        .         1.33                          : 
Mud_resistivity    .         0.35                          : 
NGDU               .         НГДУ-1                        : 
ORIGINALWELLNAME   .         4289                          : 
Spud_date          .         2009                          : 1961
Uslovie            .         14                            : 
Viscosity          .         35                            : 
X                  .m        54362.08                      : 46154
Y                  .m        81918.16                      : 85761.93
YEAR               .         2019                          : 
~Parameter Information Block
#_______________________________________________________________________________
#
#PARAMETER_NAME    .UNIT     VALUE                         : DESCRIPTION
#_______________________________________________________________________________
SET                .         LQC_KAZNIPI_Petrel            : 
PBBOTTOM           .M        1218                          : Глубина подошвы планшета
PBSCALE            .         1 _ 500                       : Вертикальный масштаб планшета
PBTOP              .M        982                           : Глубина кровли планшета
TLFamily_CALI      .         Caliper                       : 
TLFamily_CILD      .         Conductivity                  : 
TLFamily_COLL      .         Net Reservoir Flag            : 
TLFamily_CSAT      .         Fluid Code                    : 
TLFamily_DEPT      .         Measured Depth                : 
TLFamily_DT        .         Compressional Slowness        : 
TLFamily_GR        .         Russian Gamma Ray             : 
TLFamily_GZ1       .         Gradient 045                  : 
TLFamily_GZ2       .         Gradient 105                  : 
TLFamily_GZ3       .         Gradient 225                  : 
TLFamily_GZ4       .         Gradient 425                  : 
TLFamily_GZ5       .         Gradient 850                  : 
TLFamily_IK1       .         Resistivity 05                : 
TLFamily_IK2       .         Resistivity 07                : 
TLFamily_IK3       .         Resistivity 10                : 
TLFamily_IK4       .         Resistivity 14                : 
TLFamily_IK5       .         Resistivity 20                : 
TLFamily_LLS       .         Lateral Log Resistivity       : 
TLFamily_MBK       .         Micro Lateral Log Resistivity : 
TLFamily_MINV      .         Micro Gradient Resistivity    : 
TLFamily_MNOR      .         Micro Resistivity             : 
TLFamily_NNKTB_1   .         Neutron Far                   : 
TLFamily_NNKTM_1   .         Neutron Near                  : 
TLFamily_NPHI      .         Neutron Porosity              : 
TLFamily_OGZ       .         Gradient Inverted 225         : 
TLFamily_PHIE      .         Effective Porosity            : 
TLFamily_PHIED     .         Effective Porosity            : 
TLFamily_PHIEN     .         Effective Porosity            : 
TLFamily_PHIES     .         Effective Porosity            : 
TLFamily_PHIT      .         Porosity                      : 
TLFamily_PRMB      .         Permeability                  : 
TLFamily_PRMB_DGR  .         Permeability                  : 
TLFamily_RHOB      .         Bulk Density                  : 
TLFamily_RT        .         Formation Resistivity         : 
TLFamily_SOIL_ARCHIE .         Oil Saturation                : 
TLFamily_SOIL_DW   .         Oil Saturation                : 
TLFamily_SP        .         Spontaneous Potential         : 
TLFamily_VSH_FIN   .         Shale Volume                  : 
TLFamily_VSH_GR    .         Shale Volume                  : 
TLFamily_VSH_SP    .         Shale Volume                  : 
~Curve Information
#_______________________________________________________________________________
#
#LOGNAME           .UNIT     LOG_ID                        : DESCRIPTION
#_______________________________________________________________________________
DEPT               .M                                      : Колонка глубины 
CALI               .м                                      : Каверномер 
CILD               .мСм/м                                  : Индукционный каротаж 
COLL               .unitless                               : Описание 
CSAT               .unitless                               : Описание 
DT                 .мкс/м                                  : Интервальное время пробега продольной волны 
GR                 .uR/h                                   : Гамма каротаж 
GZ1                .Ohmm                                   : Градиент-зонд  длиной 0.45м 
GZ2                .Ohmm                                   : Градиент-зонд  длиной 1.05м 
GZ3                .Ohmm                                   : Градиент-зонд  длиной 2.25м 
GZ4                .Ohmm                                   : Градиент-зонд  длиной 4.5м 
GZ5                .Ohmm                                   : Градиент-зонд  длиной 8.5м 
IK1                .Ohmm                                   :  
IK2                .Ohmm                                   :  
IK3                .Ohmm                                   :  
IK4                .Ohmm                                   :  
IK5                .Ohmm                                   :  
LLS                .Ohmm                                   : Боковой каротаж 
MBK                .Ohmm                                   : Микробоковой каротаж 
MINV               .Ohmm                                   : Микро-градиент зонд 
MNOR               .Ohmm                                   : Микро-потенциал зонд 
NNKTB_1            .у.е.                                   :  
NNKTM_1            .у.е.                                   :  
NPHI               .v/v                                    :  
OGZ                .Ohmm                                   :  
PHIE               .v/v                                    : Описание 
PHIED              .v/v                                    :  
PHIEN              .v/v                                    :  
PHIES              .v/v                                    :  
PHIT               .v/v                                    : Описание 
PRMB               .mD                                     :  
PRMB_DGR           .mD                                     :  
RHOB               .G/C3                                   : Плотность по ГГК-П 
RT                 .ohmm                                   : УЭС пласта 
SOIL_ARCHIE        .v/v                                    :  
SOIL_DW            .v/v                                    :  
SP                 .мВ                                     : Потенциал самополяризации 
VSH_FIN            .v/v                                    : Описание 
VSH_GR             .v/v                                    : Shale volume 
VSH_SP             .v/v                                    : Shale Volume 
~Ascii
# ...
1215.7     0.229      462.962    -9999      -9999      303.661    9.66       2.33       2.142      1.678      1.06       1.223      1.666      1.686      1.76       1.931      2.466      1.753      1.862      2.592      2.849      2.789      1.787      0.329652   2.587      0.08143795 0.02201701 0.1278779  0.09441892 0.208311   0.09027892 1.79846    2.407      1.753      0          0.03746588 33.727     0.6114365  0.5105398  0.7123332 
1215.8     0.229      465.61     -9999      -9999      304.337    9.541      2.33       2.144      1.679      1.06       1.221      1.646      1.677      1.745      1.909      2.45       1.774      1.94       2.588      2.903      2.638      1.797      0.3692585  2.587      0.1024931  0.03637222 0.17192    0.0991872  0.2265772  0.2216049  2.053195   2.388      1.774      0          0.1667301  33.727     0.5979956  0.483658   0.7123332 
1215.9     0.228      471.354    -9999      -9999      304.958    9.431      2.33       2.144      1.68       1.06       1.219      1.626      1.663      1.725      1.879      2.416      1.784      2.005      2.584      2.944      2.525      1.807      0.4044746  2.587      0.1209989  0.04856615 0.2110281  0.1034025  0.2426357  0.4879227  2.320648   2.372      1.784      0          0.2524927  33.727     0.5862015  0.4600697  0.7123332 
1216       0.228      480.101    -9999      -9999      305.593    9.335      2.33       2.144      1.681      1.06       1.219      1.609      1.645      1.7        1.843      2.366      1.788      2.034      2.558      2.946      2.465      1.811      0.4245355  2.587      0.1325056  0.05613154 0.2343303  0.1070549  0.2521043  0.7970446  2.582378   2.363      1.788      0.02389651 0.2959325  33.727     0.5763795  0.4404258  0.7123332 
1216.1     0.227      490.723    -9999      -9999      306.301    9.236      2.33       2.145      1.683      1.06       1.22       1.597      1.629      1.672      1.806      2.308      1.788      2.046      2.469      2.889      2.456      1.808      0.4261025  2.587      0.1362422  0.05887716 0.2390949  0.1107545  0.2538303  0.9347458  2.88324    2.362      1.788      0.04725428 0.3064572  33.727     0.5666896  0.421046   0.7123332 
1216.2     0.227      499.925    -9999      -9999      307.064    9.119      2.33       2.147      1.684      1.06       1.22       1.591      1.618      1.648      1.769      2.26       1.785      2.005      2.331      2.786      2.484      1.799      0.4134736  2.587      0.1344116  0.05829881 0.2300641  0.1148718  0.2497372  0.8645428  3.284304   2.367      1.785      0.03520293 0.2952556  33.727     0.5557862  0.3992391  0.7123332 
1216.3     0.227      506.079    -9999      -9999      307.795    8.995      2.33       2.148      1.684      1.06       1.221      1.586      1.614      1.633      1.738      2.229      1.778      1.931      2.204      2.679      2.525      1.786      0.3958452  2.587      0.1307109  0.05712997 0.216046   0.1189566  0.2437664  0.7383125  3.770428   2.373      1.778      0.009630944 0.275514   33.727     0.5448461  0.3773589  0.7123332 
1216.4     0.226      508.507    -9999      -9999      308.413    8.892      2.33       2.147      1.684      1.06       1.223      1.582      1.614      1.629      1.717      2.217      1.773      1.856      2.174      2.635      2.558      1.774      0.3816879  2.587      0.1280693  0.05724558 0.2047366  0.1222256  0.2393341  0.659647   4.228488   2.376      1.773      0          0.2604565  33.727     0.5362161  0.360099   0.7123332 
1216.5     0.226      508.711    -9999      -9999      308.92     8.83       2.33       2.144      1.683      1.06       1.223      1.577      1.616      1.635      1.709      2.216      1.777      1.811      2.275      2.656      2.573      1.765      0.3740546  2.587      0.126337   0.05595877 0.1987544  0.1242979  0.2365637  0.6126691  4.530631   2.38       1.777      0          0.2520576  33.727     0.5312128  0.3500924  0.7123332 
1216.6     0.227      508.1      -9999      -9999      309.422    8.808      2.33       2.14       1.682      1.06       1.222      1.569      1.617      1.644      1.711      2.219      1.793      1.791      2.421      2.705      2.572      1.759      0.3719747  2.587      0.1249368  0.05215307 0.1972493  0.1254081  0.2348021  0.5771531  4.642955   2.387      1.793      0          0.2487334  33.727     0.529471   0.3466089  0.7123332 
1216.7     0.227      507.897    -9999      -9999      310.056    8.813      2.33       2.137      1.682      1.06       1.221      1.555      1.613      1.65       1.717      2.22       1.813      1.795      2.526      2.741      2.565      1.759      0.3738533  2.587      0.1241073  0.04727535 0.1989978  0.1260488  0.2340544  0.5570909  4.617186   2.395      1.813      0          0.2494797  33.727     0.5298654  0.3473975  0.7123332 
1216.8     0.228      508.914    -9999      -9999      310.888    8.847      2.33       2.136      1.684      1.06       1.221      1.533      1.599      1.646      1.721      2.215      1.829      1.824      2.537      2.766      2.561      1.764      0.3769052  2.587      0.1238942  0.04428079 0.2011569  0.1262449  0.2344026  0.5520508  4.445699   2.399      1.829      0          0.2529411  33.727     0.5325707  0.3528081  0.7123332 
1216.9     0.228      512.613    -9999      -9999      311.858    8.913      2.33       2.136      1.685      1.06       1.223      1.507      1.573      1.628      1.716      2.197      1.837      1.871      2.521      2.803      2.569      1.771      0.3774917  2.587      0.1233589  0.04428805 0.1999706  0.1258181  0.2349821  0.5395903  4.130788   2.397      1.837      0          0.254424   33.727     0.5379429  0.3635527  0.7123332 
1217       0.228      520.41     -9999      -9999      312.813    9.01       2.33       2.136      1.686      1.06       1.225      1.483      1.542      1.59       1.697      2.16       1.84       1.898      2.534      2.848      2.594      1.778      0.3735087  2.587      0.1210971  0.04546668 0.1932835  0.1245412  0.2344206  0.4899716  3.707991   2.392      1.84       0          0.2485297  33.727     0.546137   0.3799407  0.7123332 
1217.1     0.228      533.184    -9999      -9999      313.602    9.119      2.33       2.136      1.685      1.06       1.228      1.47       1.515      1.534      1.66       2.102      1.84       1.879      2.621      2.88       2.629      1.781      0.3655041  2.587      0.1162204  0.04392759 0.1820946  0.1226389  0.231546   0.3979621  3.284304   2.391      1.84       0          0.2306403  33.727     0.5557862  0.3992391  0.7123332 
1217.2     0.228      549.331    -9999      -9999      314.159    9.226      2.33       2.137      1.685      1.06       1.229      1.473      1.502      1.473      1.6        2.033      1.84       1.806      2.717      2.849      2.641      1.774      0.3598064  2.587      0.1105401  0.03813057 0.1731139  0.1203757  0.22793    0.3123404  2.915515   2.397      1.84       0          0.2079912  33.727     0.5657348  0.4191364  0.7123332 
1217.3     0.228      564.033    -9999      -9999      314.512    9.324      2.33       2.139      1.685      1.06       1.229      1.497      1.509      1.424      1.527      1.974      1.84       1.7        2.764      2.747      2.653      1.754      0.3493868  2.587      0.1019224  0.02823106 0.1595441  0.1179921  0.2212933  0.2162761  2.614192   2.41       1.84       0          0.1679777  33.727     0.5752812  0.4382292  0.7123332 
1217.4     0.228      573.443    -9999      -9999      314.738    9.407      2.33       2.14       1.686      1.06       1.226      1.54       1.536      1.395      1.455      1.938      1.84       1.567      2.683      2.562      2.636      1.725      0.3428174  2.587      0.09405624 0.01618496 0.1501946  0.1157892  0.2151752  0.154635   2.383482   2.427      1.84       0          0.1272583  33.727     0.5837056  0.455078   0.7123332 
1217.5     0.228      577.468    -9999      -9999      314.892    9.469      2.33       2.139      1.686      1.06       1.224      1.597      1.579      1.383      1.398      1.923      1.84       1.442      2.519      2.361      2.563      1.691      0.3480521  2.587      0.09123615 0.006360822 0.153283   0.1140646  0.2137046  0.1371112  2.224531   2.441      1.84       0          0.1134653  33.727     0.5902093  0.4680854  0.7123332 
