~Version
 VERS              .         2.0                           : CWLS LOG ASCII STANDARD - VERSION 2.0
 WRAP              .         NO                            : ONE LINE PER DEPTH STEP
 DLM               .         SPACE                         : DELIMITING CHARACTER(SPACE TAB OR COMMA)
~Well Information
#_______________________________________________________________________________
#
#PARAMETER_NAME    .UNIT     VALUE                         : DESCRIPTION
#_______________________________________________________________________________
STRT               .M        982                           : First reference value
STOP               .M        1218                          : Last reference value
STEP               .M        0.1                           : Step increment
NULL               .         -9999                         : Missing value
COMP               .                                       : Company
WELL               .         4289                          : Well name
FLD                .         УЗЕНЬ                         : Field
LOC                .                                       : Location
CNTY               .                                       : County
STAT               .                                       : State
CTRY               .                                       : Country
SRVC               .         AO "UPGF"                     : Service Company
DATE               .         29-30/12/2009                 : Date
UWI                .                                       : Unique Well ID
Block              .         4                             : 
Category           .         Нефтяная                      : 
Condition          .         В работе                      : 
Date               .         11.12.2009                    : 
EREF               .m        228.7                         : 100.8
Gorizont           .         14                            : 14
Interpretator      .         Ткачева И.Г.                  : 
Kupol              .         Основной                      : osnovnoi
Mud                .         Глинистый                     : 
Mud_density        .         1.33                          : 
Mud_resistivity    .         0.35                          : 
NGDU               .         НГДУ-1                        : 
ORIGINALWELLNAME   .         4289                          : 
Spud_date          .         2009                          : 1961
Uslovie            .         14                            : 
Viscosity          .         35                            : 
X                  .m        54362.08                      : 46154
Y                  .m        81918.16                      : 85761.93
YEAR               .         2019                          : 
~Parameter Information Block
#_______________________________________________________________________________
#
#PARAMETER_NAME    .UNIT     VALUE                         : DESCRIPTION
#_______________________________________________________________________________
SET                .         LQC_KAZNIPI_Petrel            : 
PBBOTTOM           .M        1218                          : Глубина подошвы планшета
PBSCALE            .         1 _ 500                       : Вертикальный масштаб планшета
PBTOP              .M        982                           : Глубина кровли планшета
TLFamily_CALI      .         Caliper                       : 
TLFamily_CILD      .         Conductivity                  : 
TLFamily_COLL      .         Net Reservoir Flag            : 
TLFamily_CSAT      .         Fluid Code                    : 
TLFamily_DEPT      .         Measured Depth                : 
TLFamily_DT        .         Compressional Slowness        : 
TLFamily_GR        .         Russian Gamma Ray             : 
TLFamily_GZ1       .         Gradient 045                  : 
TLFamily_GZ2       .         Gradient 105                  : 
TLFamily_GZ3       .         Gradient 225                  : 
TLFamily_GZ4       .         Gradient 425                  : 
TLFamily_GZ5       .         Gradient 850                  : 
TLFamily_IK1       .         Resistivity 05                : 
TLFamily_IK2       .         Resistivity 07                : 
TLFamily_IK3       .         Resistivity 10                : 
TLFamily_IK4       .         Resistivity 14                : 
TLFamily_IK5       .         Resistivity 20                : 
TLFamily_LLS       .         Lateral Log Resistivity       : 
TLFamily_MBK       .         Micro Lateral Log Resistivity : 
TLFamily_MINV      .         Micro Gradient Resistivity    : 
TLFamily_MNOR      .         Micro Resistivity             : 
TLFamily_NNKTB_1   .         Neutron Far                   : 
TLFamily_NNKTM_1   .         Neutron Near                  : 
TLFamily_NPHI      .         Neutron Porosity              : 
TLFamily_OGZ       .         Gradient Inverted 225         : 
TLFamily_PHIE      .         Effective Porosity            : 
TLFamily_PHIED     .         Effective Porosity            : 
TLFamily_PHIEN     .         Effective Porosity            : 
TLFamily_PHIES     .         Effective Porosity            : 
TLFamily_PHIT      .         Porosity                      : 
TLFamily_PRMB      .         Permeability                  : 
TLFamily_PRMB_DGR  .         Permeability                  : 
TLFamily_RHOB      .         Bulk Density                  : 
TLFamily_RT        .         Formation Resistivity         : 
TLFamily_SOIL_ARCHIE .         Oil Saturation                : 
TLFamily_SOIL_DW   .         Oil Saturation                : 
TLFamily_SP        .         Spontaneous Potential         : 
TLFamily_VSH_FIN   .         Shale Volume                  : 
TLFamily_VSH_GR    .         Shale Volume                  : 
TLFamily_VSH_SP    .         Shale Volume                  : 
~Curve Information
#_______________________________________________________________________________
#
#LOGNAME           .UNIT     LOG_ID                        : DESCRIPTION
#_______________________________________________________________________________
DEPT               .M                                      : Колонка глубины 
CALI               .м                                      : Каверномер 
CILD               .мСм/м                                  : Индукционный каротаж 
COLL               .unitless                               : Описание 
CSAT               .unitless                               : Описание 
DT                 .мкс/м                                  : Интервальное время пробега продольной волны 
GR                 .uR/h                                   : Гамма каротаж 
GZ1                .Ohmm                                   : Градиент-зонд  длиной 0.45м 
GZ2                .Ohmm                                   : Градиент-зонд  длиной 1.05м 
GZ3                .Ohmm                                   : Градиент-зонд  длиной 2.25м 
GZ4                .Ohmm                                   : Градиент-зонд  длиной 4.5м 
GZ5                .Ohmm                                   : Градиент-зонд  длиной 8.5м 
IK1                .Ohmm                                   :  
IK2                .Ohmm                                   :  
IK3                .Ohmm                                   :  
IK4                .Ohmm                                   :  
IK5                .Ohmm                                   :  
LLS                .Ohmm                                   : Боковой каротаж 
MBK                .Ohmm                                   : Микробоковой каротаж 
MINV               .Ohmm                                   : Микро-градиент зонд 
MNOR               .Ohmm                                   : Микро-потенциал зонд 
NNKTB_1            .у.е.                                   :  
NNKTM_1            .у.е.                                   :  
NPHI               .v/v                                    :  
OGZ                .Ohmm                                   :  
PHIE               .v/v                                    : Описание 
PHIED              .v/v                                    :  
PHIEN              .v/v                                    :  
PHIES              .v/v                                    :  
PHIT               .v/v                                    : Описание 
PRMB               .mD                                     :  
PRMB_DGR           .mD                                     :  
RHOB               .G/C3                                   : Плотность по ГГК-П 
RT                 .ohmm                                   : УЭС пласта 
SOIL_ARCHIE        .v/v                                    :  
SOIL_DW            .v/v                                    :  
SP                 .мВ                                     : Потенциал самополяризации 
VSH_FIN            .v/v                                    : Описание 
VSH_GR             .v/v                                    : Shale volume 
VSH_SP             .v/v                                    : Shale Volume 
~Ascii
# ...
997.2000000000001 0.21       145.841    1          3          264.726    4.24       4.224      4.521      2.432      2.807      1.06       2.453      2.603      3.306      5.581      11.313     3.117      2.693      3.039      4.412      3.671      1.926      0.2266195  3.616      0.1732024  0.2071857  0.158903   0.1535184  0.2172201  4.521537   40.70673   2.324      3.117      0.3960442  0.4702819  16.135     0.2052015  0.1428347  0.2675683 
997.3      0.212      145.082    1          3          265.334    4.345      4.246      4.543      2.481      2.79       1.074      2.486      2.61       3.315      5.657      11.411     3.157      2.656      3.156      4.516      3.632      1.952      0.2372048  3.661      0.1764558  0.2077845  0.1682503  0.1533325  0.2212782  5.194538   36.52654   2.323      3.157      0.4092994  0.483323   16.206     0.2089528  0.1492963  0.2686093 
997.4      0.215      144.844    1          3          265.533    4.46       4.274      4.565      2.53       2.775      1.089      2.532      2.628      3.327      5.694      11.442     3.2        2.681      3.166      4.533      3.596      1.98       0.248299   3.706      0.1793638  0.2077845  0.1779635  0.1523434  0.2250839  5.880443   32.43911   2.323      3.2        0.4213345  0.4953333  16.271     0.213138   0.1567091  0.2695668 
997.5      0.217      144.944    1          3          265.2      4.587      4.309      4.591      2.578      2.77       1.108      2.59       2.661      3.345      5.705      11.429     3.243      2.746      3.099      4.508      3.576      1.995      0.2545146  3.751      0.179235   0.2047904  0.1826063  0.1503082  0.2259775  5.848227   28.45453   2.328      3.243      0.4245879  0.499689   16.333     0.217904   0.1653239  0.2704841 
997.6      0.217      145.413    1          3          264.419    4.72       4.352      4.633      2.629      2.776      1.131      2.656      2.715      3.376      5.701      11.368     3.286      2.817      3.014      4.499      3.563      2.005      0.2586864  3.789      0.1770743  0.1988024  0.1850389  0.1473817  0.2249474  5.333397   24.80532   2.338      3.286      0.4220611  0.4991093  16.401     0.2231741  0.1748538  0.2714945 
997.7000000000001 0.216      146.289    1          3          263.416    4.85       4.403      4.697      2.687      2.797      1.156      2.725      2.786      3.425      5.681      11.256     3.33       2.86       2.965      4.524      3.537      2.007      0.2627634  3.81       0.1745013  0.1922156  0.1872894  0.1439988  0.2235616  4.779087   21.69116   2.349      3.33       0.4182883  0.4975658  16.483     0.2287093  0.1846994  0.2727192 
997.8      0.215      147.57     1          3          262.407    4.97       4.457      4.785      2.753      2.834      1.183      2.793      2.869      3.492      5.643      11.096     3.378      2.863      2.978      4.588      3.492      2.001      0.2676475  3.8        0.1719807  0.1850299  0.1903324  0.1405798  0.2222378  4.291986   19.16472   2.361      3.378      0.4148132  0.4963634  16.588     0.2342881  0.1942789  0.2742973 
997.9      0.215      149.199    1          3          261.499    5.075      4.517      4.894      2.826      2.883      1.213      2.858      2.953      3.569      5.592      10.899     3.434      2.863      3.048      4.679      3.437      1.987      0.2721289  3.744      0.1696139  0.1784431  0.1930287  0.13737    0.2210314  3.879888   17.19668   2.372      3.434      0.4122599  0.4959894  16.722     0.2396976  0.2030677  0.2763275 
998        0.215      151.168    1          3          260.674    5.163      4.587      5.02       2.901      2.934      1.248      2.92       3.033      3.645      5.54       10.67      3.491      2.899      3.137      4.784      3.4        1.969      0.2730093  3.636      0.1655314  0.1700599  0.192186   0.1343484  0.218069   3.259882   15.70383   2.386      3.491      0.404275   0.4910246  16.903     0.244919   0.2107392  0.2790988 
998.1      0.214      153.426    6          6          259.813    5.236      4.667      5.153      2.972      2.975      1.288      2.983      3.109      3.713      5.503      10.419     3.536      2.97       3.216      4.878      3.408      1.95       0.266911   3.487      0.158317   0.1592814  0.1843892  0.1312802  0.2119586  2.396471   14.56428   2.404      3.536      0.3844105  0.4761827  17.142     0.250066   0.2173224  0.2828097 
998.2000000000001 0.214      155.824    6          6          258.756    5.298      4.743      5.274      3.038      3.002      1.329      3.049      3.185      3.777      5.489      10.165     3.554      3.037      3.248      4.937      3.479      1.935      0.2530636  3.32       0.1485692  0.1491018  0.1687893  0.1278165  0.20335    1.58132    13.66163   2.421      3.554      0.350927   0.4503724  17.45      0.2553769  0.2230748  0.287679  
998.3      0.212      157.919    6          6          257.336    5.344      4.803      5.371      3.099      3.017      1.37       3.117      3.264      3.847      5.496      9.953      3.551      3.089      3.236      4.949      3.612      1.926      0.2336898  3.159      0.1373728  0.1407186  0.1476758  0.123724   0.1932845  0.9809242  13.02827   2.435      3.551      0.3048117  0.4148666  17.832     0.2606486  0.227441   0.2938562 
998.4      0.211      159.29     6          6          255.426    5.366      4.839      5.447      3.156      3.025      1.41       3.185      3.346      3.926      5.519      9.819      3.542      3.144      3.16       4.909      3.789      1.923      0.2127426  3.019      0.1274333  0.1383234  0.1251122  0.1188641  0.1843956  0.6419946  12.73582   2.439      3.542      0.2569325  0.3787554  18.294     0.2655464  0.2295593  0.3015336 
998.5      0.209      159.696    6          6          252.963    5.358      4.861      5.52       3.206      3.031      1.456      3.251      3.424      4.007      5.553      9.78       3.547      3.22       3.052      4.835      3.986      1.923      0.1930403  2.904      0.1196952  0.1419161  0.104003   0.1131665  0.1775721  0.4615342  12.8414    2.433      3.547      0.2157836  0.3487179  18.836     0.2698101  0.2287867  0.3108335 
998.6      0.209      159.228    6          6          250.03     5.328      4.88       5.604      3.252      3.04       1.511      3.314      3.497      4.083      5.598      9.825      3.57       3.299      2.928      4.746      4.171      1.926      0.1773486  2.81       0.1150284  0.151497   0.08698595 0.1066023  0.1737668  0.3782364  13.24517   2.417      3.57       0.1906031  0.3316828  19.449     0.2738263  0.2259127  0.3217399 
998.7000000000001 0.21       158.193    6          6          246.985    5.286      4.904      5.708      3.296      3.056      1.581      3.376      3.561      4.146      5.654      9.926      3.603      3.351      2.842      4.68       4.306      1.935      0.1681875  2.732      0.1132117  0.163473   0.07647927 0.09968294 0.1728248  0.3500372  13.83186   2.397      3.603      0.1828387  0.3282643  20.104     0.2779039  0.2219497  0.333858  
998.8      0.212      156.94     6          6          244.509    5.237      4.936      5.824      3.345      3.082      1.673      3.437      3.617      4.195      5.718      10.051     3.635      3.357      2.812      4.655      4.36       1.948      0.166299   2.664      0.1137479  0.1742515  0.07326204 0.09373014 0.1742247  0.3581337  14.54926   2.379      3.635      0.1895642  0.335699   20.758     0.2819302  0.217414   0.3464465 
998.9      0.215      155.785    6          6          243.528    5.177      4.974      5.95       3.401      3.117      1.792      3.5        3.67       4.234      5.783      10.169     3.663      3.327      2.829      4.671      4.33       1.965      0.1714491  2.599      0.1166992  0.182036   0.07728611 0.09077564 0.1779079  0.4061731  15.47858   2.366      3.663      0.2102934  0.353179   21.371     0.2853422  0.2119861  0.3586984 
999        0.219      154.761    6          6          244.885    5.097      5.016      6.079      3.465      3.163      1.947      3.566      3.721      4.27       5.846      10.276     3.69       3.297      2.847      4.701      4.242      1.982      0.181453   2.538      0.1214695  0.1850299  0.08662847 0.09275018 0.1831083  0.4978153  16.81066   2.361      3.69       0.2399973  0.3767143  21.905     0.287347   0.204959   0.3697351 
