~Version
 VERS              .         2.0                           : CWLS LOG ASCII STANDARD - VERSION 2.0
 WRAP              .         NO                            : ONE LINE PER DEPTH STEP
 DLM               .         SPACE                         : DELIMITING CHARACTER(SPACE TAB OR COMMA)
~Well Information
#_______________________________________________________________________________
#
#PARAMETER_NAME    .UNIT     VALUE                         : DESCRIPTION
#_______________________________________________________________________________
STRT               .M        982                           : First reference value
STOP               .M        1218                          : Last reference value
STEP               .M        0.1                           : Step increment
NULL               .         -9999                         : Missing value
COMP               .                                       : Company
WELL               .         4289                          : Well name
FLD                .         УЗЕНЬ                         : Field
LOC                .                                       : Location
CNTY               .                                       : County
STAT               .                                       : State
CTRY               .                                       : Country
SRVC               .         AO "UPGF"                     : Service Company
DATE               .         29-30/12/2009                 : Date
UWI                .                                       : Unique Well ID
Block              .         4                             : 
Category           .         Нефтяная                      : 
Condition          .         В работе                      : 
Date               .         11.12.2009                    : 
EREF               .m        228.7                         : 100.8
Gorizont           .         14                            : 14
Interpretator      .         Ткачева И.Г.                  : 
Kupol              .         Основной                      : osnovnoi
Mud                .         Глинистый                     : 
Mud_density        .         1.33                          : 
Mud_resistivity    .         0.35                          : 
NGDU               .         НГДУ-1                        : 
ORIGINALWELLNAME   .         4289                          : 
Spud_date          .         2009                          : 1961
Uslovie            .         14                            : 
Viscosity          .         35                            : 
X                  .m        54362.08                      : 46154
Y                  .m        81918.16                      : 85761.93
YEAR               .         2019                          : 
~Parameter Information Block
#_______________________________________________________________________________
#
#PARAMETER_NAME    .UNIT     VALUE                         : DESCRIPTION
#_______________________________________________________________________________
SET                .         LQC_KAZNIPI_Petrel            : 
PBBOTTOM           .M        1218                          : Глубина подошвы планшета
PBSCALE            .         1 _ 500                       : Вертикальный масштаб планшета
PBTOP              .M        982                           : Глубина кровли планшета
TLFamily_CALI      .         Caliper                       : 
TLFamily_CILD      .         Conductivity                  : 
TLFamily_COLL      .         Net Reservoir Flag            : 
TLFamily_CSAT      .         Fluid Code                    : 
TLFamily_DEPT      .         Measured Depth                : 
TLFamily_DT        .         Compressional Slowness        : 
TLFamily_GR        .         Russian Gamma Ray             : 
TLFamily_GZ1       .         Gradient 045                  : 
TLFamily_GZ2       .         Gradient 105                  : 
TLFamily_GZ3       .         Gradient 225                  : 
TLFamily_GZ4       .         Gradient 425                  : 
TLFamily_GZ5       .         Gradient 850                  : 
TLFamily_IK1       .         Resistivity 05                : 
TLFamily_IK2       .         Resistivity 07                : 
TLFamily_IK3       .         Resistivity 10                : 
TLFamily_IK4       .         Resistivity 14                : 
TLFamily_IK5       .         Resistivity 20                : 
TLFamily_LLS       .         Lateral Log Resistivity       : 
TLFamily_MBK       .         Micro Lateral Log Resistivity : 
TLFamily_MINV      .         Micro Gradient Resistivity    : 
TLFamily_MNOR      .         Micro Resistivity             : 
TLFamily_NNKTB_1   .         Neutron Far                   : 
TLFamily_NNKTM_1   .         Neutron Near                  : 
TLFamily_NPHI      .         Neutron Porosity              : 
TLFamily_OGZ       .         Gradient Inverted 225         : 
TLFamily_PHIE      .         Effective Porosity            : 
TLFamily_PHIED     .         Effective Porosity            : 
TLFamily_PHIEN     .         Effective Porosity            : 
TLFamily_PHIES     .         Effective Porosity            : 
TLFamily_PHIT      .         Porosity                      : 
TLFamily_PRMB      .         Permeability                  : 
TLFamily_PRMB_DGR  .         Permeability                  : 
TLFamily_RHOB      .         Bulk Density                  : 
TLFamily_RT        .         Formation Resistivity         : 
TLFamily_SOIL_ARCHIE .         Oil Saturation                : 
TLFamily_SOIL_DW   .         Oil Saturation                : 
TLFamily_SP        .         Spontaneous Potential         : 
TLFamily_VSH_FIN   .         Shale Volume                  : 
TLFamily_VSH_GR    .         Shale Volume                  : 
TLFamily_VSH_SP    .         Shale Volume                  : 
~Curve Information
#_______________________________________________________________________________
#
#LOGNAME           .UNIT     LOG_ID                        : DESCRIPTION
#_______________________________________________________________________________
DEPT               .M                                      : Колонка глубины 
CALI               .м                                      : Каверномер 
CILD               .мСм/м                                  : Индукционный каротаж 
COLL               .unitless                               : Описание 
CSAT               .unitless                               : Описание 
DT                 .мкс/м                                  : Интервальное время пробега продольной волны 
GR                 .uR/h                                   : Гамма каротаж 
GZ1                .Ohmm                                   : Градиент-зонд  длиной 0.45м 
GZ2                .Ohmm                                   : Градиент-зонд  длиной 1.05м 
GZ3                .Ohmm                                   : Градиент-зонд  длиной 2.25м 
GZ4                .Ohmm                                   : Градиент-зонд  длиной 4.5м 
GZ5                .Ohmm                                   : Градиент-зонд  длиной 8.5м 
IK1                .Ohmm                                   :  
IK2                .Ohmm                                   :  
IK3                .Ohmm                                   :  
IK4                .Ohmm                                   :  
IK5                .Ohmm                                   :  
LLS                .Ohmm                                   : Боковой каротаж 
MBK                .Ohmm                                   : Микробоковой каротаж 
MINV               .Ohmm                                   : Микро-градиент зонд 
MNOR               .Ohmm                                   : Микро-потенциал зонд 
NNKTB_1            .у.е.                                   :  
NNKTM_1            .у.е.                                   :  
NPHI               .v/v                                    :  
OGZ                .Ohmm                                   :  
PHIE               .v/v                                    : Описание 
PHIED              .v/v                                    :  
PHIEN              .v/v                                    :  
PHIES              .v/v                                    :  
PHIT               .v/v                                    : Описание 
PRMB               .mD                                     :  
PRMB_DGR           .mD                                     :  
RHOB               .G/C3                                   : Плотность по ГГК-П 
RT                 .ohmm                                   : УЭС пласта 
SOIL_ARCHIE        .v/v                                    :  
SOIL_DW            .v/v                                    :  
SP                 .мВ                                     : Потенциал самополяризации 
VSH_FIN            .v/v                                    : Описание 
VSH_GR             .v/v                                    : Shale volume 
VSH_SP             .v/v                                    : Shale Volume 
~Ascii
# ...
1137.8     0.226      533.864    -9999      -9999      317.236    8.202      2.018      2.326      1.986      1.892      1.838      1.553      1.597      1.679      1.806      2.099      1.634      1.507      2.687      2.51       2.487      1.664      0.3571974  2.522      0.0838059  -0.01256225 0.1609999  0.1029801  0.2113401  0.09987268 2.189092   2.471      1.634      0          0.01013672 33.874     0.5945379  0.471165   0.7179108 
1137.9     0.226      534.319    -9999      -9999      316.817    8.259      1.998      2.27       1.967      1.884      1.823      1.562      1.603      1.683      1.803      2.097      1.655      1.52       2.838      2.636      2.502      1.674      0.357183   2.617      0.08023189 -0.01740972 0.158225   0.09988039 0.2095605  0.0857526  2.065959   2.476      1.655      0          0          34.017     0.6029031  0.4824356  0.7233706 
1138       0.225      533.184    -9999      -9999      316.761    8.318      1.991      2.218      1.943      1.87       1.812      1.584      1.617      1.698      1.804      2.102      1.67       1.523      3.051      2.737      2.552      1.687      0.3493006  2.703      0.07456937 -0.02150703 0.1478073  0.09740783 0.205546   0.06735404 1.945798   2.48       1.67       0          0          34.106     0.6105857  0.4943857  0.7267858 
1138.1     0.225      529.145    -9999      -9999      317.075    8.365      1.991      2.169      1.913      1.85       1.804      1.619      1.643      1.726      1.816      2.12       1.67       1.506      3.217      2.76       2.629      1.7        0.3353101  2.776      0.06837235 -0.02277688 0.1319254  0.09596852 0.2005784  0.05171062 1.855096   2.48       1.67       0          0          34.151     0.6163172  0.5041168  0.7285177 
1138.2     0.224      522.563    -9999      -9999      317.658    8.384      1.989      2.121      1.882      1.831      1.797      1.663      1.68       1.766      1.84       2.15       1.665      1.477      3.283      2.708      2.735      1.712      0.3156693  2.847      0.06219731 -0.02087898 0.1115439  0.09592696 0.1948849  0.03973773 1.819641   2.476      1.665      0          0          34.164     0.6185617  0.5081048  0.7290186 
1138.3     0.222      513.86     -9999      -9999      318.433    8.371      1.98       2.075      1.858      1.816      1.788      1.703      1.723      1.812      1.879      2.191      1.674      1.459      3.281      2.649      2.853      1.722      0.2949645  2.922      0.05764527 -0.01573461 0.09136617 0.09730425 0.1899902  0.03272565 1.843825   2.468      1.674      0          0          34.152     0.6169645  0.5053729  0.7285561 
1138.4     0.221      503.278    -9999      -9999      319.433    8.331      1.969      2.041      1.849      1.809      1.775      1.731      1.759      1.856      1.925      2.243      1.724      1.495      3.294      2.669      2.939      1.728      0.2808622  3.004      0.0565088  -0.009275193 0.07885807 0.09994353 0.1878175  0.03117727 1.920275   2.459      1.724      0          0          34.117     0.6121337  0.4970585  0.7272089 
1138.5     0.219      490.91     -9999      -9999      320.622    8.278      1.974      2.035      1.859      1.81       1.759      1.744      1.781      1.891      1.975      2.307      1.816      1.612      3.421      2.823      2.954      1.729      0.2785005  3.08       0.0591582  -0.004302187 0.07855205 0.1032247  0.1891306  0.03490692 2.026474   2.453      1.816      0          0          34.074     0.6059043  0.4862521  0.7255564 
1138.6     0.218      478.322    -9999      -9999      321.689    8.221      2.014      2.067      1.877      1.818      1.744      1.744      1.791      1.914      2.022      2.376      1.927      1.782      3.643      3.076      2.889      1.726      0.2893902  3.133      0.06501409 -0.002895015 0.09153775 0.1063995  0.1936241  0.04481018 2.147253   2.453      1.927      0          0          34.039     0.599553   0.4748923  0.7242137 
1138.7     0.217      467.956    -9999      -9999      321.988    8.164      2.088      2.124      1.892      1.821      1.734      1.736      1.792      1.924      2.06       2.436      2.003      1.932      3.878      3.321      2.776      1.721      0.3100595  3.149      0.07267542 -0.005059434 0.1143345  0.1087512  0.1999024  0.0621274  2.275231   2.459      2.003      0          0.02493607 33.992     0.5931058  0.4637979  0.7224137 
1138.8     0.218      461.487    -9999      -9999      320.759    8.099      2.174      2.174      1.893      1.813      1.727      1.724      1.787      1.925      2.083      2.475      2.006      1.962      3.92       3.39       2.666      1.714      0.3317364  3.128      0.08004208 -0.008165943 0.1385195  0.1097727  0.2056388  0.08506121 2.430502   2.467      2.006      0          0.07565578 33.917     0.5855057  0.4514624  0.719549  
1138.9     0.219      459.538    -9999      -9999      317.485    8.019      2.244      2.194      1.875      1.787      1.721      1.712      1.781      1.92       2.09       2.487      1.943      1.892      3.753      3.273      2.593      1.709      0.3473765  3.084      0.08539812 -0.01023245 0.1573248  0.109102   0.2089373  0.1068903  2.63623    2.474      1.943      0          0.09186978 33.8       0.5759141  0.4367297  0.7150985 
1139       0.22       460.51     -9999      -9999      312.088    7.923      2.283      2.185      1.841      1.751      1.715      1.706      1.776      1.915      2.084      2.481      1.866      1.78       3.474      3.055      2.569      1.705      0.3518812  3.043      0.08781309 -0.008825697 0.1657087  0.1065563  0.2088307  0.1184867  2.906216   2.476      1.866      0          0.08245812 33.629     0.564159   0.4196836  0.7086346 
1139.1     0.222      461.814    -9999      -9999      305.019    7.827      2.294      2.168      1.797      1.711      1.711      1.71       1.778      1.913      2.072      2.473      1.816      1.726      3.284      2.913      2.578      1.705      0.3496092  3.025      0.08801199 -0.005469763 0.1675432  0.1019625  0.2063603  0.1194961  3.203851   2.475      1.816      0          0.06368317 33.402     0.5517151  0.4033029  0.7001274 
1139.2     0.223      461.814    -9999      -9999      297.009    7.753      2.285      2.158      1.753      1.679      1.708      1.731      1.79       1.916      2.065      2.473      1.8        1.711      3.231      2.867      2.599      1.709      0.3458919  3.04       0.08741616 -0.0006032343 0.1675069  0.09534483 0.2033717  0.1164977  3.453925   2.471      1.8        0          0.04845908 33.129     0.5405607  0.3911137  0.6900076 
1139.3     0.224      460.186    -9999      -9999      288.945    7.721      2.259      2.156      1.714      1.656      1.708      1.779      1.818      1.926      2.067      2.483      1.798      1.708      3.252      2.878      2.61       1.716      0.3458048  3.089      0.08718114 0.004218719 0.1701426  0.0871821  0.2013668  0.1153358  3.568023   2.466      1.798      0          0.04101918 32.819     0.5323099  0.3859575  0.6786622 
1139.4     0.224      456.649    -9999      -9999      281.703    7.737      2.221      2.161      1.686      1.641      1.713      1.863      1.87       1.946      2.08       2.505      1.797      1.676      3.297      2.875      2.603      1.724      0.3505374  3.172      0.08750033 0.007640555 0.176404   0.07845638 0.2006921  0.1169167  3.510511   2.462      1.797      0          0.04003046 32.491     0.5276767  0.3885271  0.6668263 
1139.5     0.225      450.066    -9999      -9999      276.121    7.78       2.18       2.171      1.666      1.633      1.73       1.994      1.963      1.987      2.106      2.547      1.801      1.64       3.354      2.871      2.582      1.734      0.3596647  3.29       0.08889453 0.009367547 0.1863201  0.07099599 0.2015737  0.1240796  3.360495   2.46       1.801      0          0.04934279 32.16      0.5252869  0.3955179  0.655056  
1139.6     0.225      437.82     -9999      -9999      272.834    7.812      2.146      2.185      1.657      1.634      1.764      2.183      2.119      2.066      2.152      2.629      1.82       1.632      3.483      2.899      2.565      1.744      0.3679806  3.442      0.09081759 0.009993662 0.1955685  0.06689057 0.2028906  0.1346853  3.253034   2.46       1.82       0          0.06566722 31.848     0.5224609  0.4008017  0.6441202 
