~Version
 VERS              .         2.0                           : CWLS LOG ASCII STANDARD - VERSION 2.0
 WRAP              .         NO                            : ONE LINE PER DEPTH STEP
 DLM               .         SPACE                         : DELIMITING CHARACTER(SPACE TAB OR COMMA)
~Well Information
#_______________________________________________________________________________
#
#PARAMETER_NAME    .UNIT     VALUE                         : DESCRIPTION
#_______________________________________________________________________________
STRT               .M        982                           : First reference value
STOP               .M        1218                          : Last reference value
STEP               .M        0.1                           : Step increment
NULL               .         -9999                         : Missing value
COMP               .                                       : Company
WELL               .         4289                          : Well name
FLD                .         УЗЕНЬ                         : Field
LOC                .                                       : Location
CNTY               .                                       : County
STAT               .                                       : State
CTRY               .                                       : Country
SRVC               .         AO "UPGF"                     : Service Company
DATE               .         29-30/12/2009                 : Date
UWI                .                                       : Unique Well ID
Block              .         4                             : 
Category           .         Нефтяная                      : 
Condition          .         В работе                      : 
Date               .         11.12.2009                    : 
EREF               .m        228.7                         : 100.8
Gorizont           .         14                            : 14
Interpretator      .         Ткачева И.Г.                  : 
Kupol              .         Основной                      : osnovnoi
Mud                .         Глинистый                     : 
Mud_density        .         1.33                          : 
Mud_resistivity    .         0.35                          : 
NGDU               .         НГДУ-1                        : 
ORIGINALWELLNAME   .         4289                          : 
Spud_date          .         2009                          : 1961
Uslovie            .         14                            : 
Viscosity          .         35                            : 
X                  .m        54362.08                      : 46154
Y                  .m        81918.16                      : 85761.93
YEAR               .         2019                          : 
~Parameter Information Block
#_______________________________________________________________________________
#
#PARAMETER_NAME    .UNIT     VALUE                         : DESCRIPTION
#_______________________________________________________________________________
SET                .         LQC_KAZNIPI_Petrel            : 
PBBOTTOM           .M        1218                          : Глубина подошвы планшета
PBSCALE            .         1 _ 500                       : Вертикальный масштаб планшета
PBTOP              .M        982                           : Глубина кровли планшета
TLFamily_CALI      .         Caliper                       : 
TLFamily_CILD      .         Conductivity                  : 
TLFamily_COLL      .         Net Reservoir Flag            : 
TLFamily_CSAT      .         Fluid Code                    : 
TLFamily_DEPT      .         Measured Depth                : 
TLFamily_DT        .         Compressional Slowness        : 
TLFamily_GR        .         Russian Gamma Ray             : 
TLFamily_GZ1       .         Gradient 045                  : 
TLFamily_GZ2       .         Gradient 105                  : 
TLFamily_GZ3       .         Gradient 225                  : 
TLFamily_GZ4       .         Gradient 425                  : 
TLFamily_GZ5       .         Gradient 850                  : 
TLFamily_IK1       .         Resistivity 05                : 
TLFamily_IK2       .         Resistivity 07                : 
TLFamily_IK3       .         Resistivity 10                : 
TLFamily_IK4       .         Resistivity 14                : 
TLFamily_IK5       .         Resistivity 20                : 
TLFamily_LLS       .         Lateral Log Resistivity       : 
TLFamily_MBK       .         Micro Lateral Log Resistivity : 
TLFamily_MINV      .         Micro Gradient Resistivity    : 
TLFamily_MNOR      .         Micro Resistivity             : 
TLFamily_NNKTB_1   .         Neutron Far                   : 
TLFamily_NNKTM_1   .         Neutron Near                  : 
TLFamily_NPHI      .         Neutron Porosity              : 
TLFamily_OGZ       .         Gradient Inverted 225         : 
TLFamily_PHIE      .         Effective Porosity            : 
TLFamily_PHIED     .         Effective Porosity            : 
TLFamily_PHIEN     .         Effective Porosity            : 
TLFamily_PHIES     .         Effective Porosity            : 
TLFamily_PHIT      .         Porosity                      : 
TLFamily_PRMB      .         Permeability                  : 
TLFamily_PRMB_DGR  .         Permeability                  : 
TLFamily_RHOB      .         Bulk Density                  : 
TLFamily_RT        .         Formation Resistivity         : 
TLFamily_SOIL_ARCHIE .         Oil Saturation                : 
TLFamily_SOIL_DW   .         Oil Saturation                : 
TLFamily_SP        .         Spontaneous Potential         : 
TLFamily_VSH_FIN   .         Shale Volume                  : 
TLFamily_VSH_GR    .         Shale Volume                  : 
TLFamily_VSH_SP    .         Shale Volume                  : 
~Curve Information
#_______________________________________________________________________________
#
#LOGNAME           .UNIT     LOG_ID                        : DESCRIPTION
#_______________________________________________________________________________
DEPT               .M                                      : Колонка глубины 
CALI               .м                                      : Каверномер 
CILD               .мСм/м                                  : Индукционный каротаж 
COLL               .unitless                               : Описание 
CSAT               .unitless                               : Описание 
DT                 .мкс/м                                  : Интервальное время пробега продольной волны 
GR                 .uR/h                                   : Гамма каротаж 
GZ1                .Ohmm                                   : Градиент-зонд  длиной 0.45м 
GZ2                .Ohmm                                   : Градиент-зонд  длиной 1.05м 
GZ3                .Ohmm                                   : Градиент-зонд  длиной 2.25м 
GZ4                .Ohmm                                   : Градиент-зонд  длиной 4.5м 
GZ5                .Ohmm                                   : Градиент-зонд  длиной 8.5м 
IK1                .Ohmm                                   :  
IK2                .Ohmm                                   :  
IK3                .Ohmm                                   :  
IK4                .Ohmm                                   :  
IK5                .Ohmm                                   :  
LLS                .Ohmm                                   : Боковой каротаж 
MBK                .Ohmm                                   : Микробоковой каротаж 
MINV               .Ohmm                                   : Микро-градиент зонд 
MNOR               .Ohmm                                   : Микро-потенциал зонд 
NNKTB_1            .у.е.                                   :  
NNKTM_1            .у.е.                                   :  
NPHI               .v/v                                    :  
OGZ                .Ohmm                                   :  
PHIE               .v/v                                    : Описание 
PHIED              .v/v                                    :  
PHIEN              .v/v                                    :  
PHIES              .v/v                                    :  
PHIT               .v/v                                    : Описание 
PRMB               .mD                                     :  
PRMB_DGR           .mD                                     :  
RHOB               .G/C3                                   : Плотность по ГГК-П 
RT                 .ohmm                                   : УЭС пласта 
SOIL_ARCHIE        .v/v                                    :  
SOIL_DW            .v/v                                    :  
SP                 .мВ                                     : Потенциал самополяризации 
VSH_FIN            .v/v                                    : Описание 
VSH_GR             .v/v                                    : Shale volume 
VSH_SP             .v/v                                    : Shale Volume 
~Ascii
# ...
1012.4     0.221      299.051    1          3          336.332    2.377      2.265      1.944      1.487      1.426      1.486      1.408      1.466      1.659      2.208      4.139      1.64       2.355      2.85       3.467      3.483      1.962      0.2591874  1.32       0.2236862  0.2125748  0.2024908  0.255993   0.2605407  38.93761   278.3599   2.315      1.64       0.346675   0.4098923  16.862     0.171808   0.0651478  0.2784681 
1012.5     0.223      294.751    1          3          337.316    2.388      2.284      1.944      1.485      1.427      1.48       1.401      1.46       1.659      2.234      4.214      1.649      2.364      2.829      3.44       3.549      1.947      0.2465952  1.325      0.2202669  0.2137725  0.1899727  0.2570557  0.2570733  33.65396   275.218    2.313      1.649      0.3395492  0.403058   16.813     0.1715835  0.06545047 0.2777166 
1012.6     0.224      292.079    1          3          338.857    2.394      2.306      1.919      1.473      1.423      1.473      1.393      1.451      1.65       2.251      4.262      1.65       2.369      2.789      3.407      3.647      1.933      0.2310415  1.325      0.2172918  0.2185628  0.1745705  0.258742   0.2539996  29.64348   273.5192   2.305      1.65       0.3318703  0.3956139  16.742     0.1711241  0.06561616 0.2766321 
1012.7     0.224      292.134    1          3          340.733    2.405      2.322      1.877      1.453      1.416      1.463      1.384      1.441      1.633      2.248      4.261      1.656      2.376      2.757      3.387      3.737      1.923      0.2184218  1.319      0.2162319  0.2257485  0.1621537  0.2607935  0.2528079  28.33332   270.4319   2.293      1.656      0.3301608  0.3938178  16.641     0.1705096  0.065921   0.2750981 
1012.8     0.224      294.751    1          3          342.646    2.425      2.334      1.837      1.431      1.408      1.452      1.376      1.432      1.615      2.222      4.214      1.668      2.4        2.743      3.388      3.779      1.917      0.2125468  1.309      0.2172491  0.2323353  0.1565173  0.2628947  0.2536699  29.58955   264.9077   2.282      1.668      0.3351496  0.3983847  16.508     0.1697864  0.06647891 0.2730939 
1012.9     0.225      298.993    1          3          344.487    2.454      2.347      1.811      1.412      1.402      1.442      1.369      1.426      1.6        2.186      4.14       1.671      2.413      2.757      3.397      3.753      1.916      0.2151506  1.298      0.2198925  0.2353294  0.1594021  0.264946   0.2561306  33.12079   257.0974   2.277      1.671      0.3426706  0.4053173  16.339     0.1689347  0.06729626 0.270573  
1013       0.225      303.571    1          3          346.233    2.489      2.359      1.796      1.397      1.399      1.434      1.364      1.422      1.59       2.154      4.063      1.657      2.393      2.797      3.414      3.669      1.919      0.2252911  1.289      0.2236498  0.2341317  0.1698783  0.2669396  0.2596698  38.87727   247.9771   2.279      1.657      0.3497369  0.4117562  16.133     0.1679176  0.06829613 0.267539  
1013.1     0.225      307.76     1          3          347.696    2.524      2.361      1.785      1.386      1.394      1.427      1.361      1.421      1.584      2.132      3.995      1.633      2.337      2.868      3.454      3.566      1.927      0.2396615  1.281      0.2275851  0.2293414  0.184677   0.2687368  0.2633266  45.98179   239.1805   2.287      1.633      0.3551408  0.4165378  15.884     0.1666195  0.06931084 0.2639281 
1013.2     0.226      311.125    1          3          348.491    2.554      2.352      1.78       1.379      1.389      1.42       1.36       1.421      1.581      2.115      3.942      1.619      2.277      2.957      3.524      3.497      1.94       0.2518371  1.276      0.2304547  0.2239521  0.1974023  0.2700096  0.2658389  51.9682    231.8893   2.296      1.619      0.3595575  0.4203081  15.588     0.164954   0.07019258 0.2597153 
1013.3     0.226      313.332    1          3          348.3      2.577      2.339      1.783      1.374      1.384      1.414      1.36       1.424      1.58       2.101      3.908      1.62       2.231      3.04       3.603      3.507      1.956      0.2543908  1.276      0.2304959  0.2203593  0.2006446  0.2704839  0.2654325  52.0597    226.4502   2.302      1.62       0.3598429  0.4200222  15.239     0.1628671  0.07087617 0.2548581 
1013.4     0.227      314.055    1          3          347.181    2.594      2.328      1.797      1.377      1.383      1.409      1.36       1.426      1.58       2.091      3.897      1.626      2.203      3.091      3.648      3.608      1.971      0.2446319  1.281      0.2268211  0.2185628  0.1917008  0.2701997  0.2612278  44.50769   222.5122   2.305      1.626      0.3519444  0.4117493  14.837     0.1603972  0.07138572 0.2494087 
1013.5     0.227      313.463    1          3          345.545    2.613      2.319      1.813      1.387      1.389      1.407      1.36       1.428      1.58       2.087      3.906      1.632      2.188      3.093      3.649      3.774      1.983      0.2272632  1.29       0.2202905  0.2161677  0.1752203  0.2694834  0.2541199  33.68777   218.1919   2.309      1.632      0.3363914  0.3959892  14.384     0.1577056  0.07195954 0.2434517 
1013.6     0.227      312.354    1          3          343.921    2.635      2.312      1.826      1.402      1.4        1.408      1.358      1.428      1.58       2.088      3.923      1.639      2.211      3.057      3.63       3.957      1.99       0.2090622  1.301      0.2135095  0.2137725  0.1579508  0.2688051  0.2467334  25.22732   213.2941   2.313      1.639      0.3194406  0.378769   13.887     0.154883   0.07262973 0.2371363 
1013.7     0.227      311.125    1          3          342.699    2.648      2.311      1.835      1.414      1.411      1.413      1.355      1.426      1.581      2.09       3.942      1.649      2.271      2.996      3.616      4.111      1.994      0.1950497  1.313      0.2078934  0.2101796  0.1449348  0.2685657  0.2404696  19.85398   210.4518   2.319      1.649      0.3054413  0.3642679  13.361     0.1518635  0.07302868 0.2306984 
1013.8     0.227      309.273    1          3          342.085    2.641      2.32       1.843      1.419      1.419      1.422      1.349      1.422      1.584      2.096      3.971      1.654      2.342      2.923      3.597      4.2        1.994      0.1871569  1.325      0.2053579  0.208982   0.1381102  0.2689815  0.2372397  17.81905   211.9776   2.321      1.654      0.2989751  0.3569304  12.829     0.1486264  0.07281359 0.2244392 
1013.9     0.227      306.018    1          3          342.104    2.611      2.333      1.848      1.417      1.424      1.432      1.341      1.416      1.586      2.109      4.023      1.646      2.361      2.829      3.541      4.209      1.995      0.1865648  1.336      0.207087   0.2125748  0.1386298  0.2700562  0.2382461  19.18276   218.6427   2.315      1.646      0.3024905  0.3592271  12.314     0.1452576  0.07189892 0.2186162 
1014       0.226      301.112    1          3          342.685    2.568      2.339      1.843      1.41       1.425      1.439      1.331      1.408      1.585      2.13       4.104      1.633      2.344      2.709      3.442      4.144      1.996      0.1924407  1.343      0.2127195  0.220958   0.1455681  0.2716326  0.2431881  24.39159   228.5631   2.301      1.633      0.316064   0.3714471  11.841     0.1420383  0.07060789 0.2134686 
1014.1     0.226      295.599    1          3          343.716    2.524      2.332      1.826      1.4        1.421      1.44       1.319      1.396      1.579      2.153      4.199      1.625      2.315      2.568      3.327      4.027      1.998      0.2037203  1.347      0.2207923  0.2311378  0.1577489  0.2734902  0.2506751  34.41652   239.1805   2.284      1.625      0.3363679  0.3905253  11.445     0.1393073  0.06931084 0.2093037 
1014.2     0.226      291.365    1          3          345.076    2.49       2.317      1.804      1.386      1.412      1.436      1.307      1.38       1.567      2.17       4.275      1.631      2.323      2.436      3.24       3.889      1.998      0.2177537  1.345      0.2291269  0.239521   0.1724363  0.2754233  0.2585845  49.10699   247.7214   2.27       1.631      0.358553   0.4117623  11.154     0.1373254  0.06832491 0.2063258 
