~Version
 VERS              .         2.0                           : CWLS LOG ASCII STANDARD - VERSION 2.0
 WRAP              .         NO                            : ONE LINE PER DEPTH STEP
 DLM               .         SPACE                         : DELIMITING CHARACTER(SPACE TAB OR COMMA)
~Well Information
#_______________________________________________________________________________
#
#PARAMETER_NAME    .UNIT     VALUE                         : DESCRIPTION
#_______________________________________________________________________________
STRT               .M        982                           : First reference value
STOP               .M        1218                          : Last reference value
STEP               .M        0.1                           : Step increment
NULL               .         -9999                         : Missing value
COMP               .                                       : Company
WELL               .         4289                          : Well name
FLD                .         УЗЕНЬ                         : Field
LOC                .                                       : Location
CNTY               .                                       : County
STAT               .                                       : State
CTRY               .                                       : Country
SRVC               .         AO "UPGF"                     : Service Company
DATE               .         29-30/12/2009                 : Date
UWI                .                                       : Unique Well ID
Block              .         4                             : 
Category           .         Нефтяная                      : 
Condition          .         В работе                      : 
Date               .         11.12.2009                    : 
EREF               .m        228.7                         : 100.8
Gorizont           .         14                            : 14
Interpretator      .         Ткачева И.Г.                  : 
Kupol              .         Основной                      : osnovnoi
Mud                .         Глинистый                     : 
Mud_density        .         1.33                          : 
Mud_resistivity    .         0.35                          : 
NGDU               .         НГДУ-1                        : 
ORIGINALWELLNAME   .         4289                          : 
Spud_date          .         2009                          : 1961
Uslovie            .         14                            : 
Viscosity          .         35                            : 
X                  .m        54362.08                      : 46154
Y                  .m        81918.16                      : 85761.93
YEAR               .         2019                          : 
~Parameter Information Block
#_______________________________________________________________________________
#
#PARAMETER_NAME    .UNIT     VALUE                         : DESCRIPTION
#_______________________________________________________________________________
SET                .         LQC_KAZNIPI_Petrel            : 
PBBOTTOM           .M        1218                          : Глубина подошвы планшета
PBSCALE            .         1 _ 500                       : Вертикальный масштаб планшета
PBTOP              .M        982                           : Глубина кровли планшета
TLFamily_CALI      .         Caliper                       : 
TLFamily_CILD      .         Conductivity                  : 
TLFamily_COLL      .         Net Reservoir Flag            : 
TLFamily_CSAT      .         Fluid Code                    : 
TLFamily_DEPT      .         Measured Depth                : 
TLFamily_DT        .         Compressional Slowness        : 
TLFamily_GR        .         Russian Gamma Ray             : 
TLFamily_GZ1       .         Gradient 045                  : 
TLFamily_GZ2       .         Gradient 105                  : 
TLFamily_GZ3       .         Gradient 225                  : 
TLFamily_GZ4       .         Gradient 425                  : 
TLFamily_GZ5       .         Gradient 850                  : 
TLFamily_IK1       .         Resistivity 05                : 
TLFamily_IK2       .         Resistivity 07                : 
TLFamily_IK3       .         Resistivity 10                : 
TLFamily_IK4       .         Resistivity 14                : 
TLFamily_IK5       .         Resistivity 20                : 
TLFamily_LLS       .         Lateral Log Resistivity       : 
TLFamily_MBK       .         Micro Lateral Log Resistivity : 
TLFamily_MINV      .         Micro Gradient Resistivity    : 
TLFamily_MNOR      .         Micro Resistivity             : 
TLFamily_NNKTB_1   .         Neutron Far                   : 
TLFamily_NNKTM_1   .         Neutron Near                  : 
TLFamily_NPHI      .         Neutron Porosity              : 
TLFamily_OGZ       .         Gradient Inverted 225         : 
TLFamily_PHIE      .         Effective Porosity            : 
TLFamily_PHIED     .         Effective Porosity            : 
TLFamily_PHIEN     .         Effective Porosity            : 
TLFamily_PHIES     .         Effective Porosity            : 
TLFamily_PHIT      .         Porosity                      : 
TLFamily_PRMB      .         Permeability                  : 
TLFamily_PRMB_DGR  .         Permeability                  : 
TLFamily_RHOB      .         Bulk Density                  : 
TLFamily_RT        .         Formation Resistivity         : 
TLFamily_SOIL_ARCHIE .         Oil Saturation                : 
TLFamily_SOIL_DW   .         Oil Saturation                : 
TLFamily_SP        .         Spontaneous Potential         : 
TLFamily_VSH_FIN   .         Shale Volume                  : 
TLFamily_VSH_GR    .         Shale Volume                  : 
TLFamily_VSH_SP    .         Shale Volume                  : 
~Curve Information
#_______________________________________________________________________________
#
#LOGNAME           .UNIT     LOG_ID                        : DESCRIPTION
#_______________________________________________________________________________
DEPT               .M                                      : Колонка глубины 
CALI               .м                                      : Каверномер 
CILD               .мСм/м                                  : Индукционный каротаж 
COLL               .unitless                               : Описание 
CSAT               .unitless                               : Описание 
DT                 .мкс/м                                  : Интервальное время пробега продольной волны 
GR                 .uR/h                                   : Гамма каротаж 
GZ1                .Ohmm                                   : Градиент-зонд  длиной 0.45м 
GZ2                .Ohmm                                   : Градиент-зонд  длиной 1.05м 
GZ3                .Ohmm                                   : Градиент-зонд  длиной 2.25м 
GZ4                .Ohmm                                   : Градиент-зонд  длиной 4.5м 
GZ5                .Ohmm                                   : Градиент-зонд  длиной 8.5м 
IK1                .Ohmm                                   :  
IK2                .Ohmm                                   :  
IK3                .Ohmm                                   :  
IK4                .Ohmm                                   :  
IK5                .Ohmm                                   :  
LLS                .Ohmm                                   : Боковой каротаж 
MBK                .Ohmm                                   : Микробоковой каротаж 
MINV               .Ohmm                                   : Микро-градиент зонд 
MNOR               .Ohmm                                   : Микро-потенциал зонд 
NNKTB_1            .у.е.                                   :  
NNKTM_1            .у.е.                                   :  
NPHI               .v/v                                    :  
OGZ                .Ohmm                                   :  
PHIE               .v/v                                    : Описание 
PHIED              .v/v                                    :  
PHIEN              .v/v                                    :  
PHIES              .v/v                                    :  
PHIT               .v/v                                    : Описание 
PRMB               .mD                                     :  
PRMB_DGR           .mD                                     :  
RHOB               .G/C3                                   : Плотность по ГГК-П 
RT                 .ohmm                                   : УЭС пласта 
SOIL_ARCHIE        .v/v                                    :  
SOIL_DW            .v/v                                    :  
SP                 .мВ                                     : Потенциал самополяризации 
VSH_FIN            .v/v                                    : Описание 
VSH_GR             .v/v                                    : Shale volume 
VSH_SP             .v/v                                    : Shale Volume 
~Ascii
982.0      0.229      478.322    -9999      -9999      335.624    10.035     3.194      6.253      6.36       2.747      2.327      2.869      2.506      2.318      2.228      2.376      1.957      1.364      2.456      2.315      2.475      1.657      0.3576083  2.779      0.1205768  0.04526929 0.1779809  0.1384803  0.23734    0.4792187  1.007348   2.393      1.957      0          0.2659336  25.045     0.5443254  0.6468683  0.4417825 
982.1      0.23       441.915    -9999      -9999      345.81     9.952      2.84       5.463      5.889      2.697      2.382      3.147      2.78       2.536      2.312      2.601      1.961      1.372      2.505      2.297      2.429      1.647      0.366116   3.06       0.1329325  0.05847559 0.189213   0.151109   0.2479247  0.8116915  1.086152   2.374      1.961      0.05476277 0.3125296  25.168     0.5360695  0.6272761  0.4448628 
982.2000000000001 0.23       383.074    -9999      -9999      353.396    9.873      2.561      4.793      5.586      2.746      2.479      3.368      3.066      2.873      2.556      3.071      2.047      1.43       2.612      2.392      2.486      1.659      0.3554775  3.429      0.1351643  0.06376886 0.1811074  0.1606166  0.2485101  0.8927469  1.166877   2.368      2.047      0.0869468  0.3324519  25.277     0.5283945  0.6091798  0.4476093 
982.3      0.23       325.615    -9999      -9999      357.543    9.818      2.38       4.311      5.475      2.925      2.597      3.487      3.285      3.236      2.961      3.729      2.353      1.723      2.914      2.825      2.65       1.695      0.3285936  3.877      0.1276745  0.06126522 0.1558457  0.1659126  0.2399658  0.6486343  1.226596   2.374      2.353      0.1011929  0.3496281  25.374     0.5234784  0.5968902  0.4500667 
982.4      0.23       286.49     -9999      -9999      357.56     9.803      2.348      4.098      5.56       3.238      2.72       3.499      3.391      3.521      3.427      4.366      3.034      2.662      3.551      3.806      2.9        1.755      0.2964225  4.354      0.1141343  0.05241572 0.1238719  0.1661153  0.2262973  0.3640845  1.243405   2.389      3.034      0.1204352  0.3799438  25.457     0.5228806  0.5935818  0.4521794 
982.5      0.229      265.564    -9999      -9999      352.876    9.834      2.525      4.196      5.802      3.645      2.836      3.411      3.384      3.658      3.815      4.805      4.097      4.44       4.499      5.268      3.193      1.834      0.2688382  4.772      0.09787859 0.03827849 0.09485243 0.1605048  0.2109745  0.1820149  1.208915   2.411      4.097      0.1266877  0.4091311  25.529     0.5272295  0.6004394  0.4540195 
982.6      0.228      259.671    -9999      -9999      343.439    9.901      2.927      4.527      6.105      4.055      2.939      3.229      3.271      3.644      4.024      4.945      5.132      6.519      5.323      6.564      3.468      1.917      0.2501352  5.031      0.08106123 0.02084717 0.07337542 0.1489611  0.1959603  0.08884002 1.137602   2.437      5.132      0.07407726 0.4068277  25.596     0.5356357  0.6155332  0.4557381 
982.7000000000001 0.227      264.916    -9999      -9999      330.207    9.988      3.483      4.896      6.348      4.379      3.017      2.99       3.078      3.495      4.036      4.82       5.563      7.671      5.592      7.018      3.661      1.983      0.2407304  5.069      0.06429914 0.0004322864 0.06032022 0.1321449  0.1815711  0.04346444 1.051242   2.467      5.563      0          0.3498548  25.672     0.5466975  0.6357     0.4576949 
982.8      0.228      281.562    -9999      -9999      315.218    10.082     4.031      5.079      6.416      4.556      3.054      2.749      2.854      3.262      3.876      4.462      5.124      7.053      5.078      6.285      3.709      2.015      0.2420906  4.889      0.05006562 -0.01910528 0.05755289 0.1117493  0.1700206  0.02368617 0.9652866  2.495      5.124      0          0.2295766  25.768     0.5592052  0.6582327  0.4601777 
982.9      0.228      308.136    -9999      -9999      301.053    10.181     4.403      4.969      6.248      4.577      3.034      2.564      2.664      3.013      3.595      3.989      4.159      5.147      4.121      4.939      3.585      2.003      0.2552286  4.554      0.04177777 -0.03114619 0.06613491 0.09034461 0.1646943  0.01663351 0.8823472  2.51       4.159      0          0.07370672 25.884     0.5730112  0.6828281  0.4631944 
983        0.229      340.813    -9999      -9999      289.901    10.276     4.519      4.644      5.857      4.46       2.95       2.448      2.544      2.823      3.285      3.529      3.25       3.159      3.209      3.674      3.312      1.953      0.2824     4.157      0.04254307 -0.03243692 0.08870815 0.07135797 0.1684486  0.01718537 0.8094664  2.507      3.25       0          0          26.014     0.5869451  0.7072935  0.4665968 
983.1      0.229      369.265    -9999      -9999      282.967    10.354     4.403      4.284      5.324      4.254      2.808      2.384      2.489      2.715      3.033      3.207      2.727      1.999      2.687      3.01       2.971      1.88       0.322097   3.791      0.05303687 -0.02315559 0.1243915  0.05787471 0.1815514  0.02688621 0.7541508  2.487      2.727      0          0.008399107 26.15      0.5991077  0.7280347  0.4701807 
983.2000000000001 0.23       387.48     -9999      -9999      280.432    10.392     4.148      4.045      4.765      4.008      2.63       2.345      2.468      2.666      2.885      3.03       2.523      1.559      2.572      2.811      2.654      1.803      0.3674102  3.516      0.07109409 -0.006142173 0.1673969  0.05202751 0.2011087  0.05807551 0.7285877  2.456      2.523      0          0.1278577  26.288     0.6061009  0.7383586  0.4738432 
983.3      0.231      397.583    -9999      -9999      281.739    10.383     3.839      3.971      4.272      3.779      2.451      2.32       2.46       2.639      2.809      2.94       2.457      1.462      2.627      2.823      2.433      1.737      0.4026936  3.349      0.08928507 0.01167668 0.202464   0.05371451 0.2194402  0.1261636  0.7345627  2.426      2.457      0          0.2298042  26.429     0.6067563  0.7359003  0.4776122 
983.4      0.233      405.031    -9999      -9999      286.007    10.327     3.541      4.026      3.889      3.596      2.298      2.303      2.455      2.611      2.76       2.877      2.41       1.41       2.69       2.821      2.324      1.687      0.4152312  3.272      0.1018867  0.02728676 0.2168466  0.06152677 0.2308426  0.2159471  0.7728574  2.402      2.41       0          0.2826092  26.575     0.6011653  0.7207869  0.4815436 
983.5      0.235      412.183    -9999      -9999      292.195    10.239     3.289      4.143      3.604      3.47       2.181      2.296      2.449      2.579      2.706      2.819      2.367      1.38       2.661      2.779      2.305      1.653      0.4060323  3.253      0.1078042  0.03959233 0.2108143  0.07300612 0.2347018  0.2779419  0.8371068  2.385      2.367      0          0.2985858  26.72      0.5915698  0.6976624  0.4854771 
983.6      0.238      419.635    -9999      -9999      299.231    10.138     3.097      4.261      3.385      3.387      2.097      2.3        2.442      2.544      2.644      2.761      2.333      1.361      2.596      2.718      2.335      1.633      0.3876522  3.271      0.1098778  0.04798952 0.1960225  0.0856214  0.2344428  0.303642   0.9174582  2.375      2.333      0          0.2980752  26.862     0.5806959  0.6720343  0.4893575 
983.7000000000001 0.241      426.315    -9999      -9999      306.05     10.049     2.962      4.334      3.208      3.331      2.037      2.323      2.437      2.511      2.583      2.711      2.313      1.352      2.527      2.671      2.38       1.621      0.3691528  3.317      0.1101286  0.05296579 0.1804755  0.09694462 0.2327745  0.3069077  0.9946309  2.37       2.313      0          0.2925249  27.004     0.5717493  0.6502327  0.4932659 
983.8      0.243      430.999    -9999      -9999      311.77     9.975      2.876      4.337      3.061      3.289      1.993      2.377      2.442      2.486      2.536      2.677      2.301      1.352      2.499      2.651      2.421      1.615      0.3552238  3.389      0.1097238  0.05446569 0.1687805  0.1059251  0.2309174  0.3016537  1.063717   2.37       2.301      0          0.2861515  27.15      0.5649795  0.6326452  0.4973137 
