~Version
 VERS              .         2.0                           : CWLS LOG ASCII STANDARD - VERSION 2.0
 WRAP              .         NO                            : ONE LINE PER DEPTH STEP
 DLM               .         SPACE                         : DELIMITING CHARACTER(SPACE TAB OR COMMA)
~Well Information
#_______________________________________________________________________________
#
#PARAMETER_NAME    .UNIT     VALUE                         : DESCRIPTION
#_______________________________________________________________________________
STRT               .M        982                           : First reference value
STOP               .M        1218                          : Last reference value
STEP               .M        0.1                           : Step increment
NULL               .         -9999                         : Missing value
COMP               .                                       : Company
WELL               .         4289                          : Well name
FLD                .         УЗЕНЬ                         : Field
LOC                .                                       : Location
CNTY               .                                       : County
STAT               .                                       : State
CTRY               .                                       : Country
SRVC               .         AO "UPGF"                     : Service Company
DATE               .         29-30/12/2009                 : Date
UWI                .                                       : Unique Well ID
Block              .         4                             : 
Category           .         Нефтяная                      : 
Condition          .         В работе                      : 
Date               .         11.12.2009                    : 
EREF               .m        228.7                         : 100.8
Gorizont           .         14                            : 14
Interpretator      .         Ткачева И.Г.                  : 
Kupol              .         Основной                      : osnovnoi
Mud                .         Глинистый                     : 
Mud_density        .         1.33                          : 
Mud_resistivity    .         0.35                          : 
NGDU               .         НГДУ-1                        : 
ORIGINALWELLNAME   .         4289                          : 
Spud_date          .         2009                          : 1961
Uslovie            .         14                            : 
Viscosity          .         35                            : 
X                  .m        54362.08                      : 46154
Y                  .m        81918.16                      : 85761.93
YEAR               .         2019                          : 
~Parameter Information Block
#_______________________________________________________________________________
#
#PARAMETER_NAME    .UNIT     VALUE                         : DESCRIPTION
#_______________________________________________________________________________
SET                .         LQC_KAZNIPI_Petrel            : 
PBBOTTOM           .M        1218                          : Глубина подошвы планшета
PBSCALE            .         1 _ 500                       : Вертикальный масштаб планшета
PBTOP              .M        982                           : Глубина кровли планшета
TLFamily_CALI      .         Caliper                       : 
TLFamily_CILD      .         Conductivity                  : 
TLFamily_COLL      .         Net Reservoir Flag            : 
TLFamily_CSAT      .         Fluid Code                    : 
TLFamily_DEPT      .         Measured Depth                : 
TLFamily_DT        .         Compressional Slowness        : 
TLFamily_GR        .         Russian Gamma Ray             : 
TLFamily_GZ1       .         Gradient 045                  : 
TLFamily_GZ2       .         Gradient 105                  : 
TLFamily_GZ3       .         Gradient 225                  : 
TLFamily_GZ4       .         Gradient 425                  : 
TLFamily_GZ5       .         Gradient 850                  : 
TLFamily_IK1       .         Resistivity 05                : 
TLFamily_IK2       .         Resistivity 07                : 
TLFamily_IK3       .         Resistivity 10                : 
TLFamily_IK4       .         Resistivity 14                : 
TLFamily_IK5       .         Resistivity 20                : 
TLFamily_LLS       .         Lateral Log Resistivity       : 
TLFamily_MBK       .         Micro Lateral Log Resistivity : 
TLFamily_MINV      .         Micro Gradient Resistivity    : 
TLFamily_MNOR      .         Micro Resistivity             : 
TLFamily_NNKTB_1   .         Neutron Far                   : 
TLFamily_NNKTM_1   .         Neutron Near                  : 
TLFamily_NPHI      .         Neutron Porosity              : 
TLFamily_OGZ       .         Gradient Inverted 225         : 
TLFamily_PHIE      .         Effective Porosity            : 
TLFamily_PHIED     .         Effective Porosity            : 
TLFamily_PHIEN     .         Effective Porosity            : 
TLFamily_PHIES     .         Effective Porosity            : 
TLFamily_PHIT      .         Porosity                      : 
TLFamily_PRMB      .         Permeability                  : 
TLFamily_PRMB_DGR  .         Permeability                  : 
TLFamily_RHOB      .         Bulk Density                  : 
TLFamily_RT        .         Formation Resistivity         : 
TLFamily_SOIL_ARCHIE .         Oil Saturation                : 
TLFamily_SOIL_DW   .         Oil Saturation                : 
TLFamily_SP        .         Spontaneous Potential         : 
TLFamily_VSH_FIN   .         Shale Volume                  : 
TLFamily_VSH_GR    .         Shale Volume                  : 
TLFamily_VSH_SP    .         Shale Volume                  : 
~Curve Information
#_______________________________________________________________________________
#
#LOGNAME           .UNIT     LOG_ID                        : DESCRIPTION
#_______________________________________________________________________________
DEPT               .M                                      : Колонка глубины 
CALI               .м                                      : Каверномер 
CILD               .мСм/м                                  : Индукционный каротаж 
COLL               .unitless                               : Описание 
CSAT               .unitless                               : Описание 
DT                 .мкс/м                                  : Интервальное время пробега продольной волны 
GR                 .uR/h                                   : Гамма каротаж 
GZ1                .Ohmm                                   : Градиент-зонд  длиной 0.45м 
GZ2                .Ohmm                                   : Градиент-зонд  длиной 1.05м 
GZ3                .Ohmm                                   : Градиент-зонд  длиной 2.25м 
GZ4                .Ohmm                                   : Градиент-зонд  длиной 4.5м 
GZ5                .Ohmm                                   : Градиент-зонд  длиной 8.5м 
IK1                .Ohmm                                   :  
IK2                .Ohmm                                   :  
IK3                .Ohmm                                   :  
IK4                .Ohmm                                   :  
IK5                .Ohmm                                   :  
LLS                .Ohmm                                   : Боковой каротаж 
MBK                .Ohmm                                   : Микробоковой каротаж 
MINV               .Ohmm                                   : Микро-градиент зонд 
MNOR               .Ohmm                                   : Микро-потенциал зонд 
NNKTB_1            .у.е.                                   :  
NNKTM_1            .у.е.                                   :  
NPHI               .v/v                                    :  
OGZ                .Ohmm                                   :  
PHIE               .v/v                                    : Описание 
PHIED              .v/v                                    :  
PHIEN              .v/v                                    :  
PHIES              .v/v                                    :  
PHIT               .v/v                                    : Описание 
PRMB               .mD                                     :  
PRMB_DGR           .mD                                     :  
RHOB               .G/C3                                   : Плотность по ГГК-П 
RT                 .ohmm                                   : УЭС пласта 
SOIL_ARCHIE        .v/v                                    :  
SOIL_DW            .v/v                                    :  
SP                 .мВ                                     : Потенциал самополяризации 
VSH_FIN            .v/v                                    : Описание 
VSH_GR             .v/v                                    : Shale volume 
VSH_SP             .v/v                                    : Shale Volume 
~Ascii
# ...
1153       0.22       129.764    1          2          295.877    6.427      8.767      23.771     39.167     31.133     3.195      8.454      8.485      9.089      10.448     13.828     5.785      5.401      3.581      5.159      3.31       1.837      0.2520284  3.255      0.2081079  0.2359281  0.1869105  0.2014851  0.2504365  20.03646   31.35007   2.276      5.785      0.6149372  0.668568   13.775     0.197327   0.1589096  0.2357444 
1153.1     0.219      133.539    1          2          302.386    6.399      8.411      22.873     37.267     29.79      2.98       7.826      7.937      8.723      10.057     13.142     6.036      4.698      3.65       5.389      3.229      1.819      0.2592088  3.166      0.212804   0.2347305  0.1939796  0.209702   0.255205   24.47964   32.49444   2.278      6.036      0.6298013  0.6820602  14.014     0.1976643  0.1566001  0.2387284 
1153.2     0.218      138.242    1          2          308.438    6.379      8.124      21.891     35.418     28.257     2.785      7.129      7.227      8.144      9.61       12.377     6.238      4.305      3.722      5.595      3.138      1.802      0.2687238  3.042      0.2165055  0.2293414  0.2032666  0.2169087  0.2590547  28.66593   33.33735   2.287      6.238      0.6409098  0.6921945  14.251     0.1983552  0.1549711  0.2417392 
1153.3     0.217      145.066    1          2          313.194    6.369      7.874      20.493     33.235     26.611     2.61       6.454      6.46       7.355      9.012      11.413     6.103      4.255      3.734      5.635      3.056      1.784      0.2771317  2.877      0.2183685  0.2215569  0.2113325  0.2222161  0.2611399  31.03652   33.76698   2.3        6.103      0.6399012  0.6913657  14.474     0.1993914  0.1541629  0.2446198 
1153.4     0.217      155.477    1          5          316.603    6.361      7.622      18.691     30.52      24.851     2.449      5.882      5.767      6.493      8.226      10.201     5.604      4.428      3.629      5.429      2.993      1.767      0.2830306  2.683      0.2194092  0.2155689  0.2168612  0.2257974  0.2624212  32.44501   34.11465   2.31       5.604      0.6267435  0.6794712  14.694     0.2005134  0.1535194  0.2475073 
1153.5     0.217      169.417    1          5          318.79     6.348      7.293      16.579     27.389     22.922     2.285      5.449      5.235      5.742      7.345      8.931      4.879      4.528      3.481      5.086      2.949      1.754      0.286987   2.483      0.2205153  0.2131737  0.2204476  0.2279246  0.263768   34.01235   34.68728   2.314      4.879      0.603412   0.658222   14.94      0.2016348  0.1524795  0.2507902 
1153.6     0.216      184.852    1          5          319.515    6.337      6.864      14.423     24.145     20.809     2.116      5.146      4.877      5.211      6.536      7.849      4.235      4.373      3.391      4.76       2.913      1.748      0.2917739  2.301      0.2222203  0.2137725  0.224678   0.2282103  0.2658346  36.5777    35.1793    2.313      4.235      0.5790065  0.6359909  15.252     0.2033209  0.151605   0.2550369 
1153.7     0.215      198.431    1          5          318.34     6.347      6.385      12.52      21.097     18.665     1.947      4.937      4.653      4.89       5.928      7.093      3.841      4.089      3.409      4.593      2.874      1.749      0.2995242  2.156      0.224278   0.2155689  0.2313761  0.225889   0.2685763  39.93295   34.73172   2.31       3.841      0.5627902  0.6215115  15.652     0.2065093  0.1523997  0.2606189 
1153.8     0.213      208.893    1          5          315.318    6.394      5.93       11.076     18.456     16.736     1.789      4.785      4.513      4.697      5.523      6.603      3.697      3.893      3.491      4.563      2.834      1.753      0.3087605  2.056      0.2250379  0.2155689  0.2388112  0.2207336  0.270507   41.24832   32.70317   2.31       3.697      0.5561892  0.6163505  16.147     0.2119675  0.1561912  0.2677439 
1153.9     0.212      217.268    1          5          311.428    6.478      5.559      10.163     16.334     15.216     1.651      4.668      4.42       4.572      5.246      6.257      3.662      3.895      3.523      4.579      2.805      1.756      0.3157304  1.998      0.2237623  0.2143712  0.2431826  0.213733   0.2709205  39.06414   29.36822   2.312      3.662      0.551991   0.6139333  16.732     0.2198419  0.163204   0.2764797 
1154       0.213      224.336    1          5          307.843    6.586      5.251      9.606      14.738     14.122     1.537      4.58       4.353      4.486      5.04       5.992      3.593      3.923      3.471      4.52       2.802      1.756      0.3163594  1.973      0.2204288  0.2143712  0.2405545  0.2063606  0.2697042  33.88704   25.57522   2.312      3.593      0.5420261  0.6067433  17.391     0.2297118  0.172685   0.2867386 
1154.1     0.215      229.357    1          5          305.22     6.716      4.967      9.184      13.581     13.387     1.451      4.514      4.297      4.431      4.892      5.817      3.47       3.813      3.305      4.351      2.832      1.753      0.3091666  1.977      0.2154453  0.2173653  0.229486   0.1994847  0.2672401  27.39861   21.65343   2.307      3.47       0.5251142  0.5938057  18.088     0.2414564  0.1848307  0.2980822 
1154.2     0.217      231.36     1          5          303.788    6.873      4.691      8.763      12.75      12.915     1.394      4.452      4.245      4.395      4.808      5.75       3.36       3.593      3.09       4.139      2.885      1.752      0.2983501  2.01       0.2104931  0.2239521  0.214126   0.1934012  0.2652413  22.18202   17.71004   2.296      3.36       0.5080168  0.5813342  18.777     0.2552244  0.2006432  0.3098057 
1154.3     0.218      230.757    1          5          304.27     7.055      4.474      8.404      12.191     12.707     1.362      4.353      4.189      4.369      4.773      5.77       3.366      3.476      2.866      4.009      2.946      1.757      0.2884529  2.076      0.2070207  0.2329342  0.1990502  0.1890776  0.2651351  19.1286    14.02847   2.281      3.366      0.501255   0.5786787  19.417     0.2709172  0.2206742  0.3211602 
1154.4     0.219      229.121    1          5          307.654    7.251      4.374      8.23       11.905     12.794     1.346      4.169      4.101      4.335      4.763      5.825      3.515      3.645      2.713      4.025      3.007      1.769      0.2811651  2.168      0.2048947  0.2407186  0.1861165  0.187849   0.2666791  17.4705    10.91479   2.268      3.515      0.5068767  0.587315   19.982     0.2880261  0.2444882  0.3315641 
1154.5     0.219      228.563    1          5          313.909    7.45       4.417      8.304      11.861     13.179     1.341      3.877      3.927      4.26       4.754      5.844      3.743      4.126      2.643      4.144      3.069      1.784      0.2749372  2.267      0.2032351  0.2461077  0.1739661  0.1896316  0.2688694  16.27668   8.459648   2.259      3.743      0.5178042  0.6006283  20.46      0.3059732  0.2712972  0.3406492 
1154.6     0.218      231.693    1          5          321.001    7.652      4.59       8.564      11.911     13.679     1.342      3.498      3.631      4.081      4.708      5.739      3.906      4.776      2.65       4.253      3.133      1.799      0.2686877  2.335      0.1999506  0.2467066  0.1614324  0.1917127  0.2696697  14.14906   6.531617   2.258      3.906      0.5205986  0.6070712  20.863     0.3250162  0.3015185  0.3485138 
1154.7     0.218      242.051    1          5          326.137    7.847      4.815      8.811      11.819     13.958     1.346      3.093      3.237      3.76       4.565      5.417      3.851      5.269      2.7        4.254      3.201      1.808      0.2605001  2.329      0.1936656  0.2431138  0.1467391  0.191144   0.2676137  10.8222    5.088408   2.264      3.851      0.5037855  0.5971979  21.217     0.3447304  0.3338821  0.3555788 
1154.8     0.217      262.87     1          5          327.829    8.019      4.951      8.764      11.369     13.658     1.346      2.73       2.832      3.329      4.254      4.868      3.516      5.23       2.783      4.087      3.263      1.811      0.2520505  2.227      0.1845434  0.2347305  0.1319594  0.1869404  0.2626062  7.334156   4.082568   2.278      3.516      0.4599091  0.5651675  21.558     0.3639122  0.3653     0.3625245 
