~Version
 VERS              .         2.0                           : CWLS LOG ASCII STANDARD - VERSION 2.0
 WRAP              .         NO                            : ONE LINE PER DEPTH STEP
 DLM               .         SPACE                         : DELIMITING CHARACTER(SPACE TAB OR COMMA)
~Well Information
#_______________________________________________________________________________
#
#PARAMETER_NAME    .UNIT     VALUE                         : DESCRIPTION
#_______________________________________________________________________________
STRT               .M        982                           : First reference value
STOP               .M        1218                          : Last reference value
STEP               .M        0.1                           : Step increment
NULL               .         -9999                         : Missing value
COMP               .                                       : Company
WELL               .         4289                          : Well name
FLD                .         УЗЕНЬ                         : Field
LOC                .                                       : Location
CNTY               .                                       : County
STAT               .                                       : State
CTRY               .                                       : Country
SRVC               .         AO "UPGF"                     : Service Company
DATE               .         29-30/12/2009                 : Date
UWI                .                                       : Unique Well ID
Block              .         4                             : 
Category           .         Нефтяная                      : 
Condition          .         В работе                      : 
Date               .         11.12.2009                    : 
EREF               .m        228.7                         : 100.8
Gorizont           .         14                            : 14
Interpretator      .         Ткачева И.Г.                  : 
Kupol              .         Основной                      : osnovnoi
Mud                .         Глинистый                     : 
Mud_density        .         1.33                          : 
Mud_resistivity    .         0.35                          : 
NGDU               .         НГДУ-1                        : 
ORIGINALWELLNAME   .         4289                          : 
Spud_date          .         2009                          : 1961
Uslovie            .         14                            : 
Viscosity          .         35                            : 
X                  .m        54362.08                      : 46154
Y                  .m        81918.16                      : 85761.93
YEAR               .         2019                          : 
~Parameter Information Block
#_______________________________________________________________________________
#
#PARAMETER_NAME    .UNIT     VALUE                         : DESCRIPTION
#_______________________________________________________________________________
SET                .         LQC_KAZNIPI_Petrel            : 
PBBOTTOM           .M        1218                          : Глубина подошвы планшета
PBSCALE            .         1 _ 500                       : Вертикальный масштаб планшета
PBTOP              .M        982                           : Глубина кровли планшета
TLFamily_CALI      .         Caliper                       : 
TLFamily_CILD      .         Conductivity                  : 
TLFamily_COLL      .         Net Reservoir Flag            : 
TLFamily_CSAT      .         Fluid Code                    : 
TLFamily_DEPT      .         Measured Depth                : 
TLFamily_DT        .         Compressional Slowness        : 
TLFamily_GR        .         Russian Gamma Ray             : 
TLFamily_GZ1       .         Gradient 045                  : 
TLFamily_GZ2       .         Gradient 105                  : 
TLFamily_GZ3       .         Gradient 225                  : 
TLFamily_GZ4       .         Gradient 425                  : 
TLFamily_GZ5       .         Gradient 850                  : 
TLFamily_IK1       .         Resistivity 05                : 
TLFamily_IK2       .         Resistivity 07                : 
TLFamily_IK3       .         Resistivity 10                : 
TLFamily_IK4       .         Resistivity 14                : 
TLFamily_IK5       .         Resistivity 20                : 
TLFamily_LLS       .         Lateral Log Resistivity       : 
TLFamily_MBK       .         Micro Lateral Log Resistivity : 
TLFamily_MINV      .         Micro Gradient Resistivity    : 
TLFamily_MNOR      .         Micro Resistivity             : 
TLFamily_NNKTB_1   .         Neutron Far                   : 
TLFamily_NNKTM_1   .         Neutron Near                  : 
TLFamily_NPHI      .         Neutron Porosity              : 
TLFamily_OGZ       .         Gradient Inverted 225         : 
TLFamily_PHIE      .         Effective Porosity            : 
TLFamily_PHIED     .         Effective Porosity            : 
TLFamily_PHIEN     .         Effective Porosity            : 
TLFamily_PHIES     .         Effective Porosity            : 
TLFamily_PHIT      .         Porosity                      : 
TLFamily_PRMB      .         Permeability                  : 
TLFamily_PRMB_DGR  .         Permeability                  : 
TLFamily_RHOB      .         Bulk Density                  : 
TLFamily_RT        .         Formation Resistivity         : 
TLFamily_SOIL_ARCHIE .         Oil Saturation                : 
TLFamily_SOIL_DW   .         Oil Saturation                : 
TLFamily_SP        .         Spontaneous Potential         : 
TLFamily_VSH_FIN   .         Shale Volume                  : 
TLFamily_VSH_GR    .         Shale Volume                  : 
TLFamily_VSH_SP    .         Shale Volume                  : 
~Curve Information
#_______________________________________________________________________________
#
#LOGNAME           .UNIT     LOG_ID                        : DESCRIPTION
#_______________________________________________________________________________
DEPT               .M                                      : Колонка глубины 
CALI               .м                                      : Каверномер 
CILD               .мСм/м                                  : Индукционный каротаж 
COLL               .unitless                               : Описание 
CSAT               .unitless                               : Описание 
DT                 .мкс/м                                  : Интервальное время пробега продольной волны 
GR                 .uR/h                                   : Гамма каротаж 
GZ1                .Ohmm                                   : Градиент-зонд  длиной 0.45м 
GZ2                .Ohmm                                   : Градиент-зонд  длиной 1.05м 
GZ3                .Ohmm                                   : Градиент-зонд  длиной 2.25м 
GZ4                .Ohmm                                   : Градиент-зонд  длиной 4.5м 
GZ5                .Ohmm                                   : Градиент-зонд  длиной 8.5м 
IK1                .Ohmm                                   :  
IK2                .Ohmm                                   :  
IK3                .Ohmm                                   :  
IK4                .Ohmm                                   :  
IK5                .Ohmm                                   :  
LLS                .Ohmm                                   : Боковой каротаж 
MBK                .Ohmm                                   : Микробоковой каротаж 
MINV               .Ohmm                                   : Микро-градиент зонд 
MNOR               .Ohmm                                   : Микро-потенциал зонд 
NNKTB_1            .у.е.                                   :  
NNKTM_1            .у.е.                                   :  
NPHI               .v/v                                    :  
OGZ                .Ohmm                                   :  
PHIE               .v/v                                    : Описание 
PHIED              .v/v                                    :  
PHIEN              .v/v                                    :  
PHIES              .v/v                                    :  
PHIT               .v/v                                    : Описание 
PRMB               .mD                                     :  
PRMB_DGR           .mD                                     :  
RHOB               .G/C3                                   : Плотность по ГГК-П 
RT                 .ohmm                                   : УЭС пласта 
SOIL_ARCHIE        .v/v                                    :  
SOIL_DW            .v/v                                    :  
SP                 .мВ                                     : Потенциал самополяризации 
VSH_FIN            .v/v                                    : Описание 
VSH_GR             .v/v                                    : Shale volume 
VSH_SP             .v/v                                    : Shale Volume 
~Ascii
# ...
1044.7     0.229      560.972    -9999      -9999      326.355    6.767      1.616      1.792      1.82       1.761      1.876      1.814      1.874      1.909      1.847      1.986      1.694      1.454      2.668      2.367      2.59       1.632      0.3195777  2.357      0.1008611  0.007595863 0.1534049  0.1415825  0.2088783  0.2067045  2.709867   2.471      1.694      0          0.08585984 27.373     0.5035539  0.4318441  0.5035539 
1044.8     0.229      513.651    -9999      -9999      320.996    6.776      1.671      1.802      1.819      1.783      1.895      1.823      1.919      2.009      2.021      2.192      1.839      1.625      2.923      2.693      2.711      1.665      0.3046864  2.414      0.09082267 -0.001486032 0.138365   0.1355891  0.1989366  0.1347145  2.680772   2.486      1.839      0          0.05902505 27.389     0.5040044  0.4337519  0.5040044 
1044.9     0.229      485.896    -9999      -9999      314.569    6.787      1.776      1.843      1.83       1.813      1.914      1.814      1.929      2.057      2.148      2.334      1.961      1.805      3.216      2.984      2.852      1.702      0.2887894  2.448      0.08233148 -0.002964649 0.1220493  0.1279098  0.1907175  0.09378573 2.645633   2.488      1.961      0          0.02942214 27.434     0.5052731  0.4360952  0.5052731 
1045       0.229      474.114    -9999      -9999      308.293    6.797      1.923      1.904      1.844      1.839      1.929      1.792      1.913      2.064      2.211      2.4        2.031      1.946      3.467      3.164      2.973      1.737      0.2775662  2.454      0.07667591 0.0001330404 0.1100888  0.119806   0.1855412  0.0736855  2.614088   2.482      2.031      0          0.003784353 27.513     0.5075073  0.4382363  0.5075073 
1045.1     0.231      473.075    -9999      -9999      303.652    6.796      2.084      1.97       1.851      1.854      1.935      1.763      1.878      2.039      2.223      2.406      2.021      1.988      3.57       3.185      3.037      1.762      0.2739465  2.438      0.07445754 0.004817162 0.1054188  0.1131366  0.1840055  0.06703357 2.617226   2.473      2.021      0          0          27.625     0.51069    0.4380217  0.51069   
1045.2     0.234      479.923    -9999      -9999      301.771    6.77       2.224      2.027      1.846      1.856      1.931      1.737      1.837      1.992      2.2        2.367      1.957      1.915      3.432      3.06       3.027      1.773      0.278875   2.41       0.07551902 0.008090018 0.1089789  0.1094881  0.1859566  0.07013801 2.700134   2.466      1.957      0          0          27.77      0.5148367  0.4324791  0.5148367 
1045.3     0.236      492.797    -9999      -9999      302.981    6.711      2.311      2.067      1.828      1.842      1.919      1.727      1.803      1.939      2.153      2.297      1.866      1.759      3.163      2.863      2.944      1.767      0.2918966  2.382      0.07989923 0.009960032 0.1203262  0.1094114  0.1914251  0.08454455 2.898145   2.461      1.866      0          0          27.946     0.5199102  0.4201604  0.5199102 
1045.4     0.236      508.304    -9999      -9999      306.675    6.624      2.336      2.091      1.803      1.816      1.898      1.742      1.792      1.897      2.096      2.218      1.787      1.585      2.88       2.678      2.818      1.747      0.3100469  2.363      0.08612747 0.009822931 0.1364886  0.1120709  0.1989455  0.1102675  3.216926   2.459      1.787      0          0.02634221 28.153     0.525934   0.4026327  0.525934  
1045.5     0.235      520.839    -9999      -9999      311.6      6.523      2.306      2.11       1.774      1.788      1.873      1.788      1.816      1.887      2.047      2.158      1.726      1.478      2.704      2.551      2.69       1.721      0.3287407  2.358      0.09297205 0.01012045 0.15295    0.1158457  0.2072413  0.1476474  3.631239   2.456      1.726      0          0.06148735 28.383     0.5326993  0.3831996  0.5326993 
1045.6     0.233      523.213    -9999      -9999      316.212    6.421      2.238      2.128      1.747      1.766      1.846      1.86       1.878      1.92       2.023      2.147      1.697      1.444      2.59       2.476      2.593      1.697      0.3428696  2.371      0.09802347 0.01034801 0.164742   0.1189804  0.2138117  0.1831431  4.103833   2.453      1.697      0          0.09003064 28.621     0.5397804  0.3645259  0.5397804 
1045.7     0.232      511.168    -9999      -9999      319.113    6.326      2.153      2.149      1.725      1.755      1.823      1.941      1.967      1.996      2.038      2.204      1.702      1.467      2.527      2.45       2.529      1.686      0.3548166  2.398      0.1014019  0.009487188 0.1745149  0.1202036  0.2186034  0.2115277  4.599151   2.452      1.702      0          0.1152038  28.84      0.5463689  0.3479531  0.5463689 
1045.8     0.23       487        -9999      -9999      319.377    6.234      2.073      2.173      1.714      1.755      1.809      2.013      2.058      2.097      2.103      2.328      1.759      1.533      2.543      2.516      2.493      1.691      0.366358   2.431      0.1030079  0.005907503 0.1842922  0.1188239  0.2213561  0.2265239  5.135744   2.456      1.759      0          0.1415191  29.016     0.5517145  0.3326221  0.5517145 
1045.9     0.228      459.053    -9999      -9999      316.925    6.142      2.024      2.211      1.714      1.764      1.805      2.062      2.129      2.197      2.208      2.49       1.866      1.656      2.674      2.68       2.487      1.713      0.3768933  2.462      0.1024882  -0.0009346012 0.1935554  0.1148439  0.2216633  0.2215588  5.734939   2.466      1.866      0          0.1656237  29.142     0.5555695  0.3179666  0.5555695 
1046       0.227      435.805    -9999      -9999      312.484    6.052      2.026      2.273      1.727      1.777      1.811      2.09       2.171      2.275      2.332      2.643      2.004      1.844      2.889      2.907      2.519      1.743      0.3800939  2.485      0.09887803 -0.008114122 0.1958731  0.1088751  0.218627   0.1899411  6.388701   2.477      2.004      0          0.1768768  29.229     0.5582448  0.3042547  0.5582448 
1046.1     0.226      420.029    -9999      -9999      307.322    5.97       2.087      2.354      1.749      1.792      1.826      2.106      2.191      2.326      2.446      2.758      2.12       2.033      3.059      3.086      2.588      1.772      0.3727744  2.498      0.09180505 -0.01455345 0.1878814  0.1020872  0.211991   0.1404786  7.049023   2.487      2.12       0          0.1611876  29.295     0.5602818  0.2922772  0.5602818 
1046.2     0.227      411.429    -9999      -9999      302.716    5.902      2.191      2.434      1.776      1.805      1.844      2.117      2.2        2.356      2.532      2.825      2.173      2.143      3.117      3.159      2.684      1.79       0.3550614  2.503      0.08217823 -0.01908104 0.169668   0.09594774 0.2026895  0.09317474 7.64807    2.494      2.173      0          0.1121906  29.344     0.5617983  0.282703   0.5617983 
1046.3     0.228      407.955    -9999      -9999      299.532    5.853      2.31       2.492      1.804      1.816      1.862      2.126      2.2        2.37       2.587      2.853      2.157      2.131      3.061      3.119      2.786      1.793      0.3323728  2.504      0.0716377  -0.02345812 0.1467031  0.0916681  0.1923285  0.0594377  8.111054   2.501      2.157      0          0.03175276 29.371     0.5626355  0.275999   0.5626355 
1046.4     0.231      408.694    -9999      -9999      298.039    5.823      2.411      2.52       1.831      1.822      1.877      2.134      2.196      2.37       2.606      2.847      2.113      2.043      3.002      3.047      2.87       1.784      0.3115935  2.506      0.0630576  -0.02646594 0.1259034  0.0897354  0.1837617  0.04122283 8.408244   2.506      2.113      0          0          29.373     0.5626975  0.2719732  0.5626975 
1046.5     0.234      411.68     -9999      -9999      297.925    5.809      2.476      2.532      1.857      1.829      1.89       2.141      2.19       2.365      2.595      2.823      2.085      1.961      3.049      3.025      2.909      1.771      0.2997453  2.514      0.05927382 -0.02630106 0.1143007  0.08982184 0.1798183  0.03507946 8.550632   2.506      2.085      0          0          29.349     0.5619533  0.2701147  0.5619533 
