~Version
 VERS              .         2.0                           : CWLS LOG ASCII STANDARD - VERSION 2.0
 WRAP              .         NO                            : ONE LINE PER DEPTH STEP
 DLM               .         SPACE                         : DELIMITING CHARACTER(SPACE TAB OR COMMA)
~Well Information
#_______________________________________________________________________________
#
#PARAMETER_NAME    .UNIT     VALUE                         : DESCRIPTION
#_______________________________________________________________________________
STRT               .M        982                           : First reference value
STOP               .M        1218                          : Last reference value
STEP               .M        0.1                           : Step increment
NULL               .         -9999                         : Missing value
COMP               .                                       : Company
WELL               .         4289                          : Well name
FLD                .         УЗЕНЬ                         : Field
LOC                .                                       : Location
CNTY               .                                       : County
STAT               .                                       : State
CTRY               .                                       : Country
SRVC               .         AO "UPGF"                     : Service Company
DATE               .         29-30/12/2009                 : Date
UWI                .                                       : Unique Well ID
Block              .         4                             : 
Category           .         Нефтяная                      : 
Condition          .         В работе                      : 
Date               .         11.12.2009                    : 
EREF               .m        228.7                         : 100.8
Gorizont           .         14                            : 14
Interpretator      .         Ткачева И.Г.                  : 
Kupol              .         Основной                      : osnovnoi
Mud                .         Глинистый                     : 
Mud_density        .         1.33                          : 
Mud_resistivity    .         0.35                          : 
NGDU               .         НГДУ-1                        : 
ORIGINALWELLNAME   .         4289                          : 
Spud_date          .         2009                          : 1961
Uslovie            .         14                            : 
Viscosity          .         35                            : 
X                  .m        54362.08                      : 46154
Y                  .m        81918.16                      : 85761.93
YEAR               .         2019                          : 
~Parameter Information Block
#_______________________________________________________________________________
#
#PARAMETER_NAME    .UNIT     VALUE                         : DESCRIPTION
#_______________________________________________________________________________
SET                .         LQC_KAZNIPI_Petrel            : 
PBBOTTOM           .M        1218                          : Глубина подошвы планшета
PBSCALE            .         1 _ 500                       : Вертикальный масштаб планшета
PBTOP              .M        982                           : Глубина кровли планшета
TLFamily_CALI      .         Caliper                       : 
TLFamily_CILD      .         Conductivity                  : 
TLFamily_COLL      .         Net Reservoir Flag            : 
TLFamily_CSAT      .         Fluid Code                    : 
TLFamily_DEPT      .         Measured Depth                : 
TLFamily_DT        .         Compressional Slowness        : 
TLFamily_GR        .         Russian Gamma Ray             : 
TLFamily_GZ1       .         Gradient 045                  : 
TLFamily_GZ2       .         Gradient 105                  : 
TLFamily_GZ3       .         Gradient 225                  : 
TLFamily_GZ4       .         Gradient 425                  : 
TLFamily_GZ5       .         Gradient 850                  : 
TLFamily_IK1       .         Resistivity 05                : 
TLFamily_IK2       .         Resistivity 07                : 
TLFamily_IK3       .         Resistivity 10                : 
TLFamily_IK4       .         Resistivity 14                : 
TLFamily_IK5       .         Resistivity 20                : 
TLFamily_LLS       .         Lateral Log Resistivity       : 
TLFamily_MBK       .         Micro Lateral Log Resistivity : 
TLFamily_MINV      .         Micro Gradient Resistivity    : 
TLFamily_MNOR      .         Micro Resistivity             : 
TLFamily_NNKTB_1   .         Neutron Far                   : 
TLFamily_NNKTM_1   .         Neutron Near                  : 
TLFamily_NPHI      .         Neutron Porosity              : 
TLFamily_OGZ       .         Gradient Inverted 225         : 
TLFamily_PHIE      .         Effective Porosity            : 
TLFamily_PHIED     .         Effective Porosity            : 
TLFamily_PHIEN     .         Effective Porosity            : 
TLFamily_PHIES     .         Effective Porosity            : 
TLFamily_PHIT      .         Porosity                      : 
TLFamily_PRMB      .         Permeability                  : 
TLFamily_PRMB_DGR  .         Permeability                  : 
TLFamily_RHOB      .         Bulk Density                  : 
TLFamily_RT        .         Formation Resistivity         : 
TLFamily_SOIL_ARCHIE .         Oil Saturation                : 
TLFamily_SOIL_DW   .         Oil Saturation                : 
TLFamily_SP        .         Spontaneous Potential         : 
TLFamily_VSH_FIN   .         Shale Volume                  : 
TLFamily_VSH_GR    .         Shale Volume                  : 
TLFamily_VSH_SP    .         Shale Volume                  : 
~Curve Information
#_______________________________________________________________________________
#
#LOGNAME           .UNIT     LOG_ID                        : DESCRIPTION
#_______________________________________________________________________________
DEPT               .M                                      : Колонка глубины 
CALI               .м                                      : Каверномер 
CILD               .мСм/м                                  : Индукционный каротаж 
COLL               .unitless                               : Описание 
CSAT               .unitless                               : Описание 
DT                 .мкс/м                                  : Интервальное время пробега продольной волны 
GR                 .uR/h                                   : Гамма каротаж 
GZ1                .Ohmm                                   : Градиент-зонд  длиной 0.45м 
GZ2                .Ohmm                                   : Градиент-зонд  длиной 1.05м 
GZ3                .Ohmm                                   : Градиент-зонд  длиной 2.25м 
GZ4                .Ohmm                                   : Градиент-зонд  длиной 4.5м 
GZ5                .Ohmm                                   : Градиент-зонд  длиной 8.5м 
IK1                .Ohmm                                   :  
IK2                .Ohmm                                   :  
IK3                .Ohmm                                   :  
IK4                .Ohmm                                   :  
IK5                .Ohmm                                   :  
LLS                .Ohmm                                   : Боковой каротаж 
MBK                .Ohmm                                   : Микробоковой каротаж 
MINV               .Ohmm                                   : Микро-градиент зонд 
MNOR               .Ohmm                                   : Микро-потенциал зонд 
NNKTB_1            .у.е.                                   :  
NNKTM_1            .у.е.                                   :  
NPHI               .v/v                                    :  
OGZ                .Ohmm                                   :  
PHIE               .v/v                                    : Описание 
PHIED              .v/v                                    :  
PHIEN              .v/v                                    :  
PHIES              .v/v                                    :  
PHIT               .v/v                                    : Описание 
PRMB               .mD                                     :  
PRMB_DGR           .mD                                     :  
RHOB               .G/C3                                   : Плотность по ГГК-П 
RT                 .ohmm                                   : УЭС пласта 
SOIL_ARCHIE        .v/v                                    :  
SOIL_DW            .v/v                                    :  
SP                 .мВ                                     : Потенциал самополяризации 
VSH_FIN            .v/v                                    : Описание 
VSH_GR             .v/v                                    : Shale volume 
VSH_SP             .v/v                                    : Shale Volume 
~Ascii
# ...
1168.2     0.232      625.629    -9999      -9999      303.513    8.822      1.665      1.861      1.701      1.287      1.073      1.423      1.438      1.554      1.665      1.76       1.663      1.236      1.957      1.993      2.921      1.719      0.2813467  1.446      0.1107476  0.08162937 0.125552   0.1250615  0.2120188  0.3151173  3.405394   2.359      1.663      0          0.118116   28.987     0.4721054  0.3933802  0.5508306 
1168.3     0.233      631.83     -9999      -9999      306.731    8.787      1.658      1.781      1.723      1.26       1.07       1.396      1.422      1.533      1.651      1.741      1.594      1.21       1.843      1.877      2.856      1.705      0.2889834  1.426      0.1125407  0.07914755 0.131276   0.1271986  0.2150552  0.3401613  3.546041   2.361      1.594      0          0.1125839  29.571     0.4779014  0.3869327  0.5688702 
1168.4     0.234      637.83     -9999      -9999      313.365    8.783      1.642      1.72       1.744      1.24       1.066      1.381      1.414      1.514      1.635      1.723      1.535      1.19       1.767      1.799      2.772      1.691      0.300874   1.428      0.1163443  0.0761117  0.1404284  0.1324929  0.2206387  0.400071   3.562479   2.363      1.535      0          0.121177   30.117     0.4861988  0.3862027  0.5861949 
1168.5     0.234      642.242    -9999      -9999      319.666    8.847      1.617      1.693      1.775      1.237      1.064      1.379      1.414      1.502      1.62       1.71       1.496      1.183      1.767      1.771      2.696      1.682      0.3137277  1.459      0.1183002  0.0711432  0.1485575  0.1352     0.2256658  0.4348755  3.308358   2.366      1.496      0          0.1276421  30.633     0.500516   0.3980513  0.6029807 
1168.6     0.233      643.613    -9999      -9999      322.311    8.982      1.59       1.704      1.819      1.254      1.07       1.39       1.423      1.499      1.61       1.706      1.48       1.19       1.823      1.781      2.653      1.678      0.3218208  1.522      0.1148246  0.0634207  0.1496077  0.1314455  0.2267683  0.3749636  2.8302     2.371      1.48       0          0.1154061  31.128     0.5218578  0.4242502  0.6194654 
1168.7     0.232      641.218    -9999      -9999      323.253    9.125      1.569      1.74       1.875      1.289      1.084      1.414      1.443      1.508      1.608      1.713      1.484      1.211      1.906      1.826      2.653      1.68       0.3225339  1.612      0.1074151  0.05416209 0.1427738  0.1253094  0.2242646  0.2733671  2.39886    2.378      1.484      0          0.08751018 31.601     0.5447278  0.4538846  0.6355711 
1168.8     0.232      632.16     -9999      -9999      322.595    9.303      1.55       1.781      1.932      1.335      1.108      1.445      1.473      1.531      1.619      1.74       1.502      1.24       2.001      1.897      2.692      1.685      0.3156401  1.719      0.09548551 0.04382861 0.1267318  0.1158961  0.2182815  0.1643544  1.952611   2.385      1.502      0          0.03578471 32.051     0.5724493  0.4936806  0.651218  
1168.9     0.232      617.044    -9999      -9999      321.681    9.496      1.533      1.812      1.98       1.386      1.144      1.474      1.505      1.565      1.646      1.787      1.53       1.274      2.115      1.989      2.759      1.691      0.3035216  1.831      0.08113247 0.03393522 0.1043371  0.1051251  0.2106083  0.08911037 1.562047   2.39       1.53       0          0          32.479     0.6035894  0.5407823  0.6663966 
1169       0.231      598.573    -9999      -9999      320.77     9.679      1.526      1.834      2.014      1.44       1.187      1.495      1.53       1.601      1.687      1.848      1.569      1.315      2.267      2.092      2.873      1.698      0.2836067  1.94       0.06443338 0.02512765 0.07397918 0.09419332 0.2006975  0.043714   1.264137   2.393      1.569      0          0          32.88      0.635235   0.5895873  0.6808825 
1169.1     0.23       581.831    -9999      -9999      318.372    9.838      1.546      1.854      2.034      1.497      1.234      1.505      1.543      1.628      1.732      1.907      1.619      1.369      2.473      2.213      2.976      1.705      0.2675534  2.04       0.04899499 0.01672892 0.04809203 0.08216403 0.1916514  0.02262894 1.051833   2.396      1.619      0          0          33.251     0.6650346  0.6355543  0.694515  
1169.2     0.23       570.005    -9999      -9999      315.959    9.971      1.595      1.873      2.044      1.553      1.277      1.507      1.545      1.643      1.767      1.951      1.669      1.424      2.71       2.341      3.025      1.712      0.2614777  2.128      0.03751507 0.008385589 0.03315695 0.07100268 0.1859303  0.01386846 0.9018952  2.4        1.669      0          0          33.586     0.691881   0.6767455  0.7070165 
1169.3     0.231      563.776    -9999      -9999      313.967    10.082     1.66       1.886      2.042      1.601      1.315      1.501      1.537      1.646      1.787      1.975      1.703      1.47       2.911      2.448      3.049      1.719      0.2596061  2.198      0.02846216 0.0007158875 0.0234292  0.06124138 0.1819842  0.009426408 0.7932562  2.404      1.703      0          0          33.882     0.7156876  0.7131599  0.7182153 
1169.4     0.233      562.753    -9999      -9999      312.608    10.17      1.722      1.882      2.024      1.632      1.355      1.487      1.523      1.641      1.793      1.979      1.705      1.482      2.99       2.496      3.051      1.727      0.2615588  2.244      0.02141776 -0.007909036 0.01877865 0.05338367 0.1792321  0.006980185 0.7165083  2.411      1.705      0          0          34.137     0.7356975  0.7434165  0.7279785 
1169.5     0.235      565.835    -9999      -9999      311.869    10.229     1.769      1.859      1.982      1.641      1.406      1.468      1.505      1.629      1.786      1.967      1.68       1.469      2.935      2.479      3.038      1.734      0.2656753  2.263      0.01692723 -0.01530952 0.01811566 0.04797554 0.1778484  0.005763567 0.6692558  2.418      1.68       0          0          34.343     0.7501808  0.7644176  0.735944  
1169.6     0.236      571.322    -9999      -9999      311.567    10.257     1.797      1.82       1.92       1.628      1.471      1.447      1.489      1.612      1.769      1.946      1.637      1.435      2.807      2.424      3.025      1.74       0.269563   2.264      0.01420393 -0.02187011 0.01936683 0.04511509 0.1768389  0.005131559 0.6479344  2.426      1.637      0          0          34.492     0.7581702  0.7745907  0.7417496 
1169.7     0.236      577.468    -9999      -9999      311.513    10.254     1.804      1.775      1.845      1.597      1.547      1.429      1.476      1.594      1.747      1.923      1.594      1.405      2.69       2.36       3.021      1.743      0.271107   2.257      0.01356022 -0.02452558 0.02052311 0.04468312 0.1764472  0.004992593 0.6501862  2.43       1.594      0          0          34.58      0.759345   0.7734942  0.7451958 
1169.8     0.236      582.933    -9999      -9999      311.617    10.223     1.79       1.733      1.768      1.556      1.618      1.416      1.469      1.579      1.723      1.903      1.557      1.385      2.613      2.301      3.027      1.743      0.2701003  2.255      0.01554858 -0.02098968 0.02121547 0.04641994 0.1773311  0.005434448 0.6739156  2.426      1.557      0          0          34.604     0.7541963  0.7622549  0.7461379 
1169.9     0.236      587.67     -9999      -9999      311.894    10.173     1.758      1.7        1.694      1.515      1.672      1.407      1.464      1.566      1.701      1.886      1.533      1.383      2.541      2.24       3.039      1.739      0.26695    2.269      0.01956504 -0.01228047 0.02122629 0.0497493  0.1792928  0.006449856 0.7140268  2.415      1.533      0          0          34.569     0.7446173  0.7444704  0.7447643 
1170       0.237      591.35     -9999      -9999      312.392    10.119     1.721      1.681      1.63       1.484      1.698      1.399      1.46       1.556      1.681      1.873      1.524      1.389      2.437      2.185      3.043      1.733      0.2645698  2.305      0.02510301 -0.0008840375 0.0224423  0.05375076 0.1824931  0.008168206 0.7600328  2.4        1.524      0          0          34.491     0.7337196  0.7257286  0.7417105 
