~Version
 VERS              .         2.0                           : CWLS LOG ASCII STANDARD - VERSION 2.0
 WRAP              .         NO                            : ONE LINE PER DEPTH STEP
 DLM               .         SPACE                         : DELIMITING CHARACTER(SPACE TAB OR COMMA)
~Well Information
#_______________________________________________________________________________
#
#PARAMETER_NAME    .UNIT     VALUE                         : DESCRIPTION
#_______________________________________________________________________________
STRT               .M        982                           : First reference value
STOP               .M        1218                          : Last reference value
STEP               .M        0.1                           : Step increment
NULL               .         -9999                         : Missing value
COMP               .                                       : Company
WELL               .         4289                          : Well name
FLD                .         УЗЕНЬ                         : Field
LOC                .                                       : Location
CNTY               .                                       : County
STAT               .                                       : State
CTRY               .                                       : Country
SRVC               .         AO "UPGF"                     : Service Company
DATE               .         29-30/12/2009                 : Date
UWI                .                                       : Unique Well ID
Block              .         4                             : 
Category           .         Нефтяная                      : 
Condition          .         В работе                      : 
Date               .         11.12.2009                    : 
EREF               .m        228.7                         : 100.8
Gorizont           .         14                            : 14
Interpretator      .         Ткачева И.Г.                  : 
Kupol              .         Основной                      : osnovnoi
Mud                .         Глинистый                     : 
Mud_density        .         1.33                          : 
Mud_resistivity    .         0.35                          : 
NGDU               .         НГДУ-1                        : 
ORIGINALWELLNAME   .         4289                          : 
Spud_date          .         2009                          : 1961
Uslovie            .         14                            : 
Viscosity          .         35                            : 
X                  .m        54362.08                      : 46154
Y                  .m        81918.16                      : 85761.93
YEAR               .         2019                          : 
~Parameter Information Block
#_______________________________________________________________________________
#
#PARAMETER_NAME    .UNIT     VALUE                         : DESCRIPTION
#_______________________________________________________________________________
SET                .         LQC_KAZNIPI_Petrel            : 
PBBOTTOM           .M        1218                          : Глубина подошвы планшета
PBSCALE            .         1 _ 500                       : Вертикальный масштаб планшета
PBTOP              .M        982                           : Глубина кровли планшета
TLFamily_CALI      .         Caliper                       : 
TLFamily_CILD      .         Conductivity                  : 
TLFamily_COLL      .         Net Reservoir Flag            : 
TLFamily_CSAT      .         Fluid Code                    : 
TLFamily_DEPT      .         Measured Depth                : 
TLFamily_DT        .         Compressional Slowness        : 
TLFamily_GR        .         Russian Gamma Ray             : 
TLFamily_GZ1       .         Gradient 045                  : 
TLFamily_GZ2       .         Gradient 105                  : 
TLFamily_GZ3       .         Gradient 225                  : 
TLFamily_GZ4       .         Gradient 425                  : 
TLFamily_GZ5       .         Gradient 850                  : 
TLFamily_IK1       .         Resistivity 05                : 
TLFamily_IK2       .         Resistivity 07                : 
TLFamily_IK3       .         Resistivity 10                : 
TLFamily_IK4       .         Resistivity 14                : 
TLFamily_IK5       .         Resistivity 20                : 
TLFamily_LLS       .         Lateral Log Resistivity       : 
TLFamily_MBK       .         Micro Lateral Log Resistivity : 
TLFamily_MINV      .         Micro Gradient Resistivity    : 
TLFamily_MNOR      .         Micro Resistivity             : 
TLFamily_NNKTB_1   .         Neutron Far                   : 
TLFamily_NNKTM_1   .         Neutron Near                  : 
TLFamily_NPHI      .         Neutron Porosity              : 
TLFamily_OGZ       .         Gradient Inverted 225         : 
TLFamily_PHIE      .         Effective Porosity            : 
TLFamily_PHIED     .         Effective Porosity            : 
TLFamily_PHIEN     .         Effective Porosity            : 
TLFamily_PHIES     .         Effective Porosity            : 
TLFamily_PHIT      .         Porosity                      : 
TLFamily_PRMB      .         Permeability                  : 
TLFamily_PRMB_DGR  .         Permeability                  : 
TLFamily_RHOB      .         Bulk Density                  : 
TLFamily_RT        .         Formation Resistivity         : 
TLFamily_SOIL_ARCHIE .         Oil Saturation                : 
TLFamily_SOIL_DW   .         Oil Saturation                : 
TLFamily_SP        .         Spontaneous Potential         : 
TLFamily_VSH_FIN   .         Shale Volume                  : 
TLFamily_VSH_GR    .         Shale Volume                  : 
TLFamily_VSH_SP    .         Shale Volume                  : 
~Curve Information
#_______________________________________________________________________________
#
#LOGNAME           .UNIT     LOG_ID                        : DESCRIPTION
#_______________________________________________________________________________
DEPT               .M                                      : Колонка глубины 
CALI               .м                                      : Каверномер 
CILD               .мСм/м                                  : Индукционный каротаж 
COLL               .unitless                               : Описание 
CSAT               .unitless                               : Описание 
DT                 .мкс/м                                  : Интервальное время пробега продольной волны 
GR                 .uR/h                                   : Гамма каротаж 
GZ1                .Ohmm                                   : Градиент-зонд  длиной 0.45м 
GZ2                .Ohmm                                   : Градиент-зонд  длиной 1.05м 
GZ3                .Ohmm                                   : Градиент-зонд  длиной 2.25м 
GZ4                .Ohmm                                   : Градиент-зонд  длиной 4.5м 
GZ5                .Ohmm                                   : Градиент-зонд  длиной 8.5м 
IK1                .Ohmm                                   :  
IK2                .Ohmm                                   :  
IK3                .Ohmm                                   :  
IK4                .Ohmm                                   :  
IK5                .Ohmm                                   :  
LLS                .Ohmm                                   : Боковой каротаж 
MBK                .Ohmm                                   : Микробоковой каротаж 
MINV               .Ohmm                                   : Микро-градиент зонд 
MNOR               .Ohmm                                   : Микро-потенциал зонд 
NNKTB_1            .у.е.                                   :  
NNKTM_1            .у.е.                                   :  
NPHI               .v/v                                    :  
OGZ                .Ohmm                                   :  
PHIE               .v/v                                    : Описание 
PHIED              .v/v                                    :  
PHIEN              .v/v                                    :  
PHIES              .v/v                                    :  
PHIT               .v/v                                    : Описание 
PRMB               .mD                                     :  
PRMB_DGR           .mD                                     :  
RHOB               .G/C3                                   : Плотность по ГГК-П 
RT                 .ohmm                                   : УЭС пласта 
SOIL_ARCHIE        .v/v                                    :  
SOIL_DW            .v/v                                    :  
SP                 .мВ                                     : Потенциал самополяризации 
VSH_FIN            .v/v                                    : Описание 
VSH_GR             .v/v                                    : Shale volume 
VSH_SP             .v/v                                    : Shale Volume 
~Ascii
# ...
1185.3     0.216      166.415    1          5          280.49     7.011      8.82       23.274     32.287     17.847     9.069      6.67       6.319      6.413      7.184      9.177      5.445      7.511      3.056      4.81       2.974      1.832      0.3063898  4.796      0.2136915  0.2173653  0.242381   0.1813282  0.2552992  25.42392   24.6528    2.307      5.445      0.6128663  0.6659108  11.763     0.1939663  0.1752947  0.2126379 
1185.4     0.216      171.707    1          5          276.163    6.929      8.141      20.919     29.449     16.357     8.298      6.447      6.073      6.139      6.781      8.752      5.223      6.817      2.94       4.63       2.997      1.829      0.3011021  4.738      0.2098685  0.2155689  0.2381217  0.1759149  0.2508076  21.5989    27.15562   2.31       5.223      0.598974   0.6527313  11.815     0.1908497  0.1685083  0.2131911 
1185.5     0.215      175.608    1          5          271.912    6.854      7.591      18.885     26.853     15.034     7.597      6.222      5.839      5.894      6.52       8.463      5.091      6.441      2.839      4.489      3.054      1.823      0.2889231  4.711      0.2040296  0.21497    0.2268336  0.1702851  0.2443896  16.83763   29.66664   2.311      5.091      0.58403    0.6386698  11.869     0.1881498  0.1625316  0.2137681 
1185.6     0.215      179.458    1          5          268.416    6.805      7.156      17.207     24.6       13.945     6.982      6.002      5.616      5.659      6.309      8.196      4.983      6.234      2.776      4.4        3.137      1.814      0.2722515  4.706      0.1968067  0.2143712  0.2107166  0.1653322  0.2368062  12.37359   31.43128   2.312      4.983      0.5664241  0.6223569  11.909     0.1864694  0.1587418  0.214197  
1185.7     0.215      183.344    1          5          266.407    6.787      6.797      15.778     22.658     13.086     6.462      5.801      5.409      5.447      6.126      7.943      4.882      6.048      2.75       4.352      3.227      1.805      0.2557671  4.713      0.1901706  0.2137725  0.1944317  0.1623077  0.2300405  9.323505   32.10556   2.313      4.882      0.5489627  0.6063651  11.924     0.1858651  0.1573719  0.2143582 
1185.8     0.215      186.796    1          5          266.723    6.782      6.491      14.486     20.94      12.417     6.033      5.626      5.224      5.277      5.977      7.731      4.79       5.849      2.743      4.327      3.303      1.797      0.2427456  4.727      0.1860541  0.2137725  0.1814939  0.162896   0.2258696  7.822248   32.29541   2.313      4.79       0.5361609  0.5946503  11.912     0.1856114  0.1569935  0.2142292 
1185.9     0.215      189.234    1          5          270.067    6.777      6.234      13.302     19.383     11.859     5.692      5.473      5.066      5.159      5.871      7.588      4.713      5.655      2.743      4.309      3.35       1.791      0.2348565  4.742      0.1854681  0.2143712  0.1737184  0.1683147  0.2252097  7.629181   32.48638   2.312      4.713      0.5313343  0.5901154  11.883     0.185267   0.156616   0.213918  
1186       0.215      190.727    1          5          276.26     6.769      6.028      12.278     17.977     11.409     5.421      5.334      4.938      5.087      5.804      7.503      4.659      5.486      2.739      4.286      3.361      1.785      0.231924   4.755      0.1883584  0.2161677  0.1709453  0.1779621  0.2279963  8.630018   32.79429   2.309      4.659      0.5350965  0.5933303  11.849     0.184784   0.1560139  0.2135541 
1186.1     0.216      191.603    1          5          283.83     6.773      5.873      11.445     16.741     11.065     5.204      5.2        4.836      5.047      5.761      7.454      4.627      5.353      2.73       4.261      3.342      1.779      0.2329378  4.762      0.1935798  0.2197605  0.1719658  0.189013   0.2332134  10.78264   32.63999   2.303      4.627      0.5445668  0.601851   11.817     0.1847636  0.1563146  0.2132125 
1186.2     0.217      192.254    1          5          290.591    6.798      5.76       10.79      15.701     10.836     5.026      5.071      4.754      5.021      5.728      7.418      4.614      5.255      2.738      4.251      3.3        1.773      0.237061   4.763      0.1997055  0.2251498  0.1758259  0.1981407  0.2395101  14.00192   31.69181   2.294      4.614      0.5561725  0.6125136  11.789     0.1855609  0.1582076  0.2129142 
1186.3     0.217      192.838    1          5          295.128    6.846      5.675      10.262     14.837     10.69      4.884      4.944      4.683      4.999      5.694      7.386      4.609      5.195      2.769      4.271      3.246      1.768      0.2432678  4.759      0.2052256  0.2305389  0.181475   0.2036628  0.2453928  17.71876   29.94783   2.285      4.609      0.5663676  0.6220784  11.759     0.1872511  0.1619068  0.2125954 
1186.4     0.218      193.39     1          5          297.368    6.905      5.607      9.824      14.088     10.596     4.774      4.82       4.62       4.971      5.657      7.356      4.595      5.14       2.825      4.313      3.189      1.766      0.2509975  4.752      0.2099116  0.2353294  0.188496   0.2059096  0.2505395  21.63869   27.93512   2.277      4.595      0.5742036  0.6295643  11.724     0.1893984  0.1665723  0.2122245 
1186.5     0.218      194.022    1          5          298.206    6.955      5.547      9.454      13.387     10.525     4.685      4.701      4.567      4.934      5.613      7.322      4.558      5.059      2.875      4.363      3.134      1.766      0.2593515  4.745      0.2134684  0.2377245  0.1962553  0.2064255  0.2544829  25.18324   26.3357    2.273      4.558      0.5787944  0.6340113  11.681     0.1912006  0.1706312  0.2117701 
1186.6     0.219      194.753    1          5          298.349    6.976      5.489      9.138      12.711     10.462     4.6        4.591      4.527      4.893      5.561      7.283      4.497      4.922      2.918      4.399      3.078      1.768      0.2688535  4.743      0.2165721  0.2377245  0.205565   0.2064267  0.2577115  28.74739   25.69155   2.273      4.497      0.5814183  0.6364353  11.627     0.1917835  0.1723652  0.2112017 
1186.7     0.219      195.511    1          5          298.121    6.96       5.434      8.871      12.072     10.397     4.51       4.496      4.499      4.854      5.509      7.243      4.42       4.764      2.952      4.419      3.016      1.77       0.2798931  4.749      0.2203646  0.2377245  0.2169283  0.206441   0.2612936  33.79443   26.18087   2.273      4.42       0.5843445  0.6388547  11.566     0.1908025  0.1710425  0.2105625 
1186.8     0.219      196.297    1          5          297.564    6.917      5.382      8.646      11.483     10.328     4.411      4.419      4.477      4.821      5.464      7.202      4.344      4.625      2.987      4.416      2.95       1.774      0.2929435  4.764      0.2255138  0.239521   0.2306551  0.2063653  0.2660031  42.09408   27.54262   2.27       4.344      0.5892936  0.6429532  11.509     0.1887527  0.1675375  0.209968  
1186.9     0.218      197.151    1          5          296.774    6.866      5.331      8.456      10.936     10.25      4.31       4.358      4.456      4.793      5.433      7.158      4.278      4.547      2.998      4.383      2.892      1.776      0.3046341  4.785      0.2313498  0.2449102  0.24309    0.2060491  0.2713553  53.99043   29.24981   2.261      4.278      0.5954356  0.6481482  11.466     0.1864974  0.1634735  0.2095213 
1187       0.218      198.213    1          5          295.906    6.825      5.278      8.289      10.418     10.163     4.211      4.306      4.427      4.762      5.409      7.104      4.231      4.528      2.961      4.311      2.86       1.776      0.3110118  4.811      0.2360652  0.2526947  0.2500394  0.2054615  0.2756991  66.01736   30.69869   2.248      4.231      0.6004171  0.6524091  11.44      0.1847649  0.1602778  0.209252  
1187.1     0.218      199.553    1          5          295.153    6.803      5.222      8.139      9.928      10.065     4.124      4.258      4.388      4.722      5.385      7.037      4.198      4.551      2.877      4.209      2.862      1.772      0.3093064  4.842      0.2375602  0.2592815  0.2486365  0.2047627  0.2769974  70.3638    31.50551   2.237      4.198      0.6011452  0.6529197  11.426     0.1838481  0.158589   0.2091071 
