~Version
 VERS              .         2.0                           : CWLS LOG ASCII STANDARD - VERSION 2.0
 WRAP              .         NO                            : ONE LINE PER DEPTH STEP
 DLM               .         SPACE                         : DELIMITING CHARACTER(SPACE TAB OR COMMA)
~Well Information
#_______________________________________________________________________________
#
#PARAMETER_NAME    .UNIT     VALUE                         : DESCRIPTION
#_______________________________________________________________________________
STRT               .M        982                           : First reference value
STOP               .M        1218                          : Last reference value
STEP               .M        0.1                           : Step increment
NULL               .         -9999                         : Missing value
COMP               .                                       : Company
WELL               .         4289                          : Well name
FLD                .         УЗЕНЬ                         : Field
LOC                .                                       : Location
CNTY               .                                       : County
STAT               .                                       : State
CTRY               .                                       : Country
SRVC               .         AO "UPGF"                     : Service Company
DATE               .         29-30/12/2009                 : Date
UWI                .                                       : Unique Well ID
Block              .         4                             : 
Category           .         Нефтяная                      : 
Condition          .         В работе                      : 
Date               .         11.12.2009                    : 
EREF               .m        228.7                         : 100.8
Gorizont           .         14                            : 14
Interpretator      .         Ткачева И.Г.                  : 
Kupol              .         Основной                      : osnovnoi
Mud                .         Глинистый                     : 
Mud_density        .         1.33                          : 
Mud_resistivity    .         0.35                          : 
NGDU               .         НГДУ-1                        : 
ORIGINALWELLNAME   .         4289                          : 
Spud_date          .         2009                          : 1961
Uslovie            .         14                            : 
Viscosity          .         35                            : 
X                  .m        54362.08                      : 46154
Y                  .m        81918.16                      : 85761.93
YEAR               .         2019                          : 
~Parameter Information Block
#_______________________________________________________________________________
#
#PARAMETER_NAME    .UNIT     VALUE                         : DESCRIPTION
#_______________________________________________________________________________
SET                .         LQC_KAZNIPI_Petrel            : 
PBBOTTOM           .M        1218                          : Глубина подошвы планшета
PBSCALE            .         1 _ 500                       : Вертикальный масштаб планшета
PBTOP              .M        982                           : Глубина кровли планшета
TLFamily_CALI      .         Caliper                       : 
TLFamily_CILD      .         Conductivity                  : 
TLFamily_COLL      .         Net Reservoir Flag            : 
TLFamily_CSAT      .         Fluid Code                    : 
TLFamily_DEPT      .         Measured Depth                : 
TLFamily_DT        .         Compressional Slowness        : 
TLFamily_GR        .         Russian Gamma Ray             : 
TLFamily_GZ1       .         Gradient 045                  : 
TLFamily_GZ2       .         Gradient 105                  : 
TLFamily_GZ3       .         Gradient 225                  : 
TLFamily_GZ4       .         Gradient 425                  : 
TLFamily_GZ5       .         Gradient 850                  : 
TLFamily_IK1       .         Resistivity 05                : 
TLFamily_IK2       .         Resistivity 07                : 
TLFamily_IK3       .         Resistivity 10                : 
TLFamily_IK4       .         Resistivity 14                : 
TLFamily_IK5       .         Resistivity 20                : 
TLFamily_LLS       .         Lateral Log Resistivity       : 
TLFamily_MBK       .         Micro Lateral Log Resistivity : 
TLFamily_MINV      .         Micro Gradient Resistivity    : 
TLFamily_MNOR      .         Micro Resistivity             : 
TLFamily_NNKTB_1   .         Neutron Far                   : 
TLFamily_NNKTM_1   .         Neutron Near                  : 
TLFamily_NPHI      .         Neutron Porosity              : 
TLFamily_OGZ       .         Gradient Inverted 225         : 
TLFamily_PHIE      .         Effective Porosity            : 
TLFamily_PHIED     .         Effective Porosity            : 
TLFamily_PHIEN     .         Effective Porosity            : 
TLFamily_PHIES     .         Effective Porosity            : 
TLFamily_PHIT      .         Porosity                      : 
TLFamily_PRMB      .         Permeability                  : 
TLFamily_PRMB_DGR  .         Permeability                  : 
TLFamily_RHOB      .         Bulk Density                  : 
TLFamily_RT        .         Formation Resistivity         : 
TLFamily_SOIL_ARCHIE .         Oil Saturation                : 
TLFamily_SOIL_DW   .         Oil Saturation                : 
TLFamily_SP        .         Spontaneous Potential         : 
TLFamily_VSH_FIN   .         Shale Volume                  : 
TLFamily_VSH_GR    .         Shale Volume                  : 
TLFamily_VSH_SP    .         Shale Volume                  : 
~Curve Information
#_______________________________________________________________________________
#
#LOGNAME           .UNIT     LOG_ID                        : DESCRIPTION
#_______________________________________________________________________________
DEPT               .M                                      : Колонка глубины 
CALI               .м                                      : Каверномер 
CILD               .мСм/м                                  : Индукционный каротаж 
COLL               .unitless                               : Описание 
CSAT               .unitless                               : Описание 
DT                 .мкс/м                                  : Интервальное время пробега продольной волны 
GR                 .uR/h                                   : Гамма каротаж 
GZ1                .Ohmm                                   : Градиент-зонд  длиной 0.45м 
GZ2                .Ohmm                                   : Градиент-зонд  длиной 1.05м 
GZ3                .Ohmm                                   : Градиент-зонд  длиной 2.25м 
GZ4                .Ohmm                                   : Градиент-зонд  длиной 4.5м 
GZ5                .Ohmm                                   : Градиент-зонд  длиной 8.5м 
IK1                .Ohmm                                   :  
IK2                .Ohmm                                   :  
IK3                .Ohmm                                   :  
IK4                .Ohmm                                   :  
IK5                .Ohmm                                   :  
LLS                .Ohmm                                   : Боковой каротаж 
MBK                .Ohmm                                   : Микробоковой каротаж 
MINV               .Ohmm                                   : Микро-градиент зонд 
MNOR               .Ohmm                                   : Микро-потенциал зонд 
NNKTB_1            .у.е.                                   :  
NNKTM_1            .у.е.                                   :  
NPHI               .v/v                                    :  
OGZ                .Ohmm                                   :  
PHIE               .v/v                                    : Описание 
PHIED              .v/v                                    :  
PHIEN              .v/v                                    :  
PHIES              .v/v                                    :  
PHIT               .v/v                                    : Описание 
PRMB               .mD                                     :  
PRMB_DGR           .mD                                     :  
RHOB               .G/C3                                   : Плотность по ГГК-П 
RT                 .ohmm                                   : УЭС пласта 
SOIL_ARCHIE        .v/v                                    :  
SOIL_DW            .v/v                                    :  
SP                 .мВ                                     : Потенциал самополяризации 
VSH_FIN            .v/v                                    : Описание 
VSH_GR             .v/v                                    : Shale volume 
VSH_SP             .v/v                                    : Shale Volume 
~Ascii
# ...
1090.3     0.229      723.226    -9999      -9999      269.058    8.192      2.322      2.131      1.505      1.52       1.621      1.293      1.351      1.434      1.486      1.502      1.438      1.219      1.491      1.53       2.35       1.642      0.3870034  1.272      0.1097256  0.07728224 0.2024365  0.04945796 0.2296995  0.3016768  1.41298    2.334      1.438      0          0.09404595 29.263     0.5592934  0.5633893  0.5592934 
1090.4     0.227      739.11     -9999      -9999      265.565    8.48       2.062      2.019      1.395      1.386      1.532      1.292      1.345      1.41       1.435      1.467      1.408      1.229      1.513      1.553      2.441      1.616      0.3502542  1.225      0.09449731 0.07865331 0.16327    0.04156867 0.2160426  0.1575714  2.191979   2.329      1.408      0          0          29.499     0.5666189  0.4709115  0.5666189 
1090.5     0.228      743.318    -9999      -9999      268.789    8.713      1.862      1.954      1.316      1.297      1.463      1.301      1.347      1.394      1.412      1.458      1.412      1.24       1.537      1.585      2.551      1.593      0.3142647  1.204      0.07980999 0.06991719 0.1249712  0.04454161 0.2028564  0.08422337 1.743601   2.341      1.412      0          0          29.722     0.5736168  0.5170389  0.5736168 
1090.6     0.23       742.848    -9999      -9999      278.204    8.852      1.704      1.896      1.262      1.241      1.432      1.331      1.36       1.384      1.4        1.459      1.42       1.242      1.547      1.59       2.656      1.576      0.2857219  1.201      0.06924932 0.05651545 0.09430483 0.0569277  0.1936761  0.05368136 1.521091   2.361      1.42       0          0          29.925     0.5800517  0.5466812  0.5800517 
1090.7     0.233      736.795    -9999      -9999      291.899    8.879      1.586      1.833      1.23       1.208      1.443      1.396      1.399      1.386      1.397      1.472      1.429      1.237      1.548      1.573      2.733      1.567      0.2679443  1.218      0.06410206 0.04326379 0.07462724 0.07441515 0.1897639  0.04310064 1.481283   2.381      1.429      0          0          30.105     0.5858093  0.552633   0.5858093 
1090.8     0.235      721.458    -9999      -9999      306.991    8.804      1.506      1.76       1.221      1.195      1.506      1.506      1.482      1.419      1.406      1.506      1.445      1.232      1.553      1.563      2.769      1.567      0.2614411  1.262      0.06426489 0.03432919 0.0664109  0.09205458 0.1910403  0.04340099 1.594521   2.394      1.445      0          0          30.266     0.5910006  0.5362576  0.5910006 
1090.9     0.235      686.774    -9999      -9999      320.61     8.641      1.464      1.695      1.247      1.21       1.618      1.654      1.618      1.504      1.444      1.589      1.471      1.234      1.571      1.589      2.768      1.578      0.2650784  1.349      0.06798938 0.02908708 0.06848355 0.1063975  0.1957819  0.05087288 1.871371   2.401      1.471      0          0          30.412     0.595742   0.502322   0.595742  
1091       0.234      630.841    -9999      -9999      330.875    8.413      1.45       1.653      1.325      1.281      1.772      1.811      1.788      1.655      1.533      1.744      1.506      1.257      1.603      1.669      2.752      1.602      0.2756688  1.507      0.0736039  0.02696254 0.07769335 0.1161558  0.2022938  0.06463695 2.341077   2.403      1.506      0          0          30.54      0.5999255  0.4584262  0.5999255 
1091.1     0.232      559.707    -9999      -9999      337.16     8.142      1.456      1.655      1.476      1.439      1.949      1.939      1.95       1.852      1.684      1.991      1.567      1.313      1.644      1.802      2.753      1.636      0.286521   1.764      0.07816561 0.02559202 0.08739603 0.1215088  0.2076027  0.07851902 3.055017   2.404      1.567      0          0          30.646     0.6034089  0.411213   0.6034089 
1091.2     0.231      492.797    -9999      -9999      339.642    7.859      1.507      1.751      1.713      1.71       2.121      2.018      2.066      2.046      1.881      2.297      1.696      1.541      1.694      2          2.8        1.679      0.2913875  2.126      0.07862671 0.02139222 0.09135852 0.1231294  0.2086515  0.08007841 4.033952   2.41       1.696      0          0          30.729     0.6061484  0.3670914  0.6061484 
1091.3     0.23       441.767    -9999      -9999      338.726    7.589      1.662      1.999      2.024      2.06       2.27       2.044      2.123      2.19       2.083      2.602      1.94       2.033      1.752      2.243      2.9        1.727      0.287654   2.543      0.07364432 0.01251738 0.08689275 0.1215228  0.2041451  0.06474847 5.258986   2.424      1.94       0          0.02715873 30.796     0.6083674  0.3294168  0.6083674 
1091.4     0.23       410.554    -9999      -9999      334.779    7.359      1.975      2.405      2.365      2.413      2.383      2.026      2.127      2.264      2.243      2.832      2.253      2.744      1.805      2.487      3.029      1.774      0.2788246  2.91       0.06403749 -0.002273333 0.07743849 0.1169473  0.1949444  0.0429821  6.591908   2.448      2.253      0          0.02334108 30.853     0.6102608  0.3003893  0.6102608 
1091.5     0.231      395.971    -9999      -9999      328.245    7.192      2.376      2.816      2.657      2.67       2.461      1.958      2.085      2.276      2.338      2.954      2.518      3.249      1.838      2.632      3.142      1.816      0.2720013  3.116      0.05364558 -0.01879507 0.0700878  0.109644   0.1848954  0.02759334 7.766888   2.475      2.518      0          0          30.901     0.6118591  0.280929   0.6118591 
1091.6     0.231      395.171    -9999      -9999      319.977    7.101      2.711      3.014      2.816      2.763      2.5        1.849      1.997      2.234      2.373      2.961      2.577      3.207      1.825      2.615      3.189      1.843      0.2719557  3.103      0.04587175 -0.03224964 0.06962388 0.100241   0.1773935  0.01980679 8.49306    2.497      2.577      0          0          30.939     0.6131268  0.2708609  0.6131268 
1091.7     0.23       406.731    -9999      -9999      311.492    7.077      2.849      2.883      2.789      2.667      2.492      1.721      1.876      2.143      2.359      2.863      2.432      2.644      1.767      2.45       3.148      1.85       0.2806116  2.89       0.04343486 -0.03785361 0.07795998 0.09019822 0.1751645  0.0178516  8.695641   2.506      2.432      0          0          30.968     0.6140959  0.2682662  0.6140959 
1091.8     0.23       430.999    -9999      -9999      304.85     7.103      2.833      2.532      2.592      2.419      2.421      1.611      1.749      2.013      2.295      2.677      2.168      1.967      1.683      2.226      3.028      1.833      0.2965848  2.556      0.04727698 -0.03382504 0.09369034 0.08196565 0.1791644  0.02103015 8.47639    2.499      2.168      0          0          30.99      0.6148317  0.2710782  0.6148317 
1091.9     0.229      468.125    -9999      -9999      302.031    7.17       2.77       2.168      2.296      2.104      2.285      1.544      1.648      1.872      2.18       2.435      1.913      1.529      1.599      2.005      2.87       1.795      0.3151777  2.205      0.05593535 -0.02257391 0.1120953  0.0782846  0.1879449  0.030424   7.936543   2.48       1.913      0          0          31.007     0.6154011  0.2784612  0.6154011 
1092       0.228      513.651    -9999      -9999      304.202    7.279      2.713      1.915      1.99       1.809      2.111      1.533      1.591      1.756      2.03       2.192      1.702      1.339      1.533      1.813      2.717      1.746      0.3314585  1.926      0.06678654 -0.008853401 0.1282988  0.08091423 0.1988464  0.04832888 7.130769   2.457      1.702      0          0          31.014     0.6156356  0.2909043  0.6156356 
1092.1     0.227      557.447    -9999      -9999      311.204    7.422      2.61       1.777      1.74       1.587      1.945      1.577      1.589      1.688      1.885      2          1.545      1.288      1.478      1.647      2.6        1.7        0.3422792  1.761      0.07763409 0.004342548 0.1391526  0.08940711 0.2096724  0.07675907 6.196378   2.435      1.545      0          0          31.011     0.6155351  0.3080759  0.6155351 
