~Version
 VERS              .         2.0                           : CWLS LOG ASCII STANDARD - VERSION 2.0
 WRAP              .         NO                            : ONE LINE PER DEPTH STEP
 DLM               .         SPACE                         : DELIMITING CHARACTER(SPACE TAB OR COMMA)
~Well Information
#_______________________________________________________________________________
#
#PARAMETER_NAME    .UNIT     VALUE                         : DESCRIPTION
#_______________________________________________________________________________
STRT               .M        982                           : First reference value
STOP               .M        1218                          : Last reference value
STEP               .M        0.1                           : Step increment
NULL               .         -9999                         : Missing value
COMP               .                                       : Company
WELL               .         4289                          : Well name
FLD                .         УЗЕНЬ                         : Field
LOC                .                                       : Location
CNTY               .                                       : County
STAT               .                                       : State
CTRY               .                                       : Country
SRVC               .         AO "UPGF"                     : Service Company
DATE               .         29-30/12/2009                 : Date
UWI                .                                       : Unique Well ID
Block              .         4                             : 
Category           .         Нефтяная                      : 
Condition          .         В работе                      : 
Date               .         11.12.2009                    : 
EREF               .m        228.7                         : 100.8
Gorizont           .         14                            : 14
Interpretator      .         Ткачева И.Г.                  : 
Kupol              .         Основной                      : osnovnoi
Mud                .         Глинистый                     : 
Mud_density        .         1.33                          : 
Mud_resistivity    .         0.35                          : 
NGDU               .         НГДУ-1                        : 
ORIGINALWELLNAME   .         4289                          : 
Spud_date          .         2009                          : 1961
Uslovie            .         14                            : 
Viscosity          .         35                            : 
X                  .m        54362.08                      : 46154
Y                  .m        81918.16                      : 85761.93
YEAR               .         2019                          : 
~Parameter Information Block
#_______________________________________________________________________________
#
#PARAMETER_NAME    .UNIT     VALUE                         : DESCRIPTION
#_______________________________________________________________________________
SET                .         LQC_KAZNIPI_Petrel            : 
PBBOTTOM           .M        1218                          : Глубина подошвы планшета
PBSCALE            .         1 _ 500                       : Вертикальный масштаб планшета
PBTOP              .M        982                           : Глубина кровли планшета
TLFamily_CALI      .         Caliper                       : 
TLFamily_CILD      .         Conductivity                  : 
TLFamily_COLL      .         Net Reservoir Flag            : 
TLFamily_CSAT      .         Fluid Code                    : 
TLFamily_DEPT      .         Measured Depth                : 
TLFamily_DT        .         Compressional Slowness        : 
TLFamily_GR        .         Russian Gamma Ray             : 
TLFamily_GZ1       .         Gradient 045                  : 
TLFamily_GZ2       .         Gradient 105                  : 
TLFamily_GZ3       .         Gradient 225                  : 
TLFamily_GZ4       .         Gradient 425                  : 
TLFamily_GZ5       .         Gradient 850                  : 
TLFamily_IK1       .         Resistivity 05                : 
TLFamily_IK2       .         Resistivity 07                : 
TLFamily_IK3       .         Resistivity 10                : 
TLFamily_IK4       .         Resistivity 14                : 
TLFamily_IK5       .         Resistivity 20                : 
TLFamily_LLS       .         Lateral Log Resistivity       : 
TLFamily_MBK       .         Micro Lateral Log Resistivity : 
TLFamily_MINV      .         Micro Gradient Resistivity    : 
TLFamily_MNOR      .         Micro Resistivity             : 
TLFamily_NNKTB_1   .         Neutron Far                   : 
TLFamily_NNKTM_1   .         Neutron Near                  : 
TLFamily_NPHI      .         Neutron Porosity              : 
TLFamily_OGZ       .         Gradient Inverted 225         : 
TLFamily_PHIE      .         Effective Porosity            : 
TLFamily_PHIED     .         Effective Porosity            : 
TLFamily_PHIEN     .         Effective Porosity            : 
TLFamily_PHIES     .         Effective Porosity            : 
TLFamily_PHIT      .         Porosity                      : 
TLFamily_PRMB      .         Permeability                  : 
TLFamily_PRMB_DGR  .         Permeability                  : 
TLFamily_RHOB      .         Bulk Density                  : 
TLFamily_RT        .         Formation Resistivity         : 
TLFamily_SOIL_ARCHIE .         Oil Saturation                : 
TLFamily_SOIL_DW   .         Oil Saturation                : 
TLFamily_SP        .         Spontaneous Potential         : 
TLFamily_VSH_FIN   .         Shale Volume                  : 
TLFamily_VSH_GR    .         Shale Volume                  : 
TLFamily_VSH_SP    .         Shale Volume                  : 
~Curve Information
#_______________________________________________________________________________
#
#LOGNAME           .UNIT     LOG_ID                        : DESCRIPTION
#_______________________________________________________________________________
DEPT               .M                                      : Колонка глубины 
CALI               .м                                      : Каверномер 
CILD               .мСм/м                                  : Индукционный каротаж 
COLL               .unitless                               : Описание 
CSAT               .unitless                               : Описание 
DT                 .мкс/м                                  : Интервальное время пробега продольной волны 
GR                 .uR/h                                   : Гамма каротаж 
GZ1                .Ohmm                                   : Градиент-зонд  длиной 0.45м 
GZ2                .Ohmm                                   : Градиент-зонд  длиной 1.05м 
GZ3                .Ohmm                                   : Градиент-зонд  длиной 2.25м 
GZ4                .Ohmm                                   : Градиент-зонд  длиной 4.5м 
GZ5                .Ohmm                                   : Градиент-зонд  длиной 8.5м 
IK1                .Ohmm                                   :  
IK2                .Ohmm                                   :  
IK3                .Ohmm                                   :  
IK4                .Ohmm                                   :  
IK5                .Ohmm                                   :  
LLS                .Ohmm                                   : Боковой каротаж 
MBK                .Ohmm                                   : Микробоковой каротаж 
MINV               .Ohmm                                   : Микро-градиент зонд 
MNOR               .Ohmm                                   : Микро-потенциал зонд 
NNKTB_1            .у.е.                                   :  
NNKTM_1            .у.е.                                   :  
NPHI               .v/v                                    :  
OGZ                .Ohmm                                   :  
PHIE               .v/v                                    : Описание 
PHIED              .v/v                                    :  
PHIEN              .v/v                                    :  
PHIES              .v/v                                    :  
PHIT               .v/v                                    : Описание 
PRMB               .mD                                     :  
PRMB_DGR           .mD                                     :  
RHOB               .G/C3                                   : Плотность по ГГК-П 
RT                 .ohmm                                   : УЭС пласта 
SOIL_ARCHIE        .v/v                                    :  
SOIL_DW            .v/v                                    :  
SP                 .мВ                                     : Потенциал самополяризации 
VSH_FIN            .v/v                                    : Описание 
VSH_GR             .v/v                                    : Shale volume 
VSH_SP             .v/v                                    : Shale Volume 
~Ascii
# ...
1107.4     0.221      504.075    -9999      -9999      322.057    8.899      1.964      2.012      1.767      1.88       1.68       1.699      1.761      1.863      2.01       2.239      1.804      1.87       2.269      2.59       2.528      1.725      0.3704217  1.941      0.09882186 0.06592193 0.1475286  0.08301508 0.243709   0.1894866  1.452469   2.31       1.804      0          0.1896538  32.73      0.6754336  0.5570838  0.6754336 
1107.5     0.221      505.275    -9999      -9999      320.124    8.866      2.036      2.076      1.772      1.896      1.694      1.682      1.745      1.851      2.012      2.233      1.849      1.918      2.332      2.651      2.497      1.753      0.3904042  1.916      0.1033601  0.05904962 0.1688697  0.08216094 0.2473641  0.2299523  1.500318   2.323      1.849      0          0.220022   32.616     0.6713167  0.5497593  0.6713167 
1107.6     0.221      510.962    -9999      -9999      317.395    8.835      2.118      2.126      1.773      1.9        1.713      1.658      1.72       1.827      1.998      2.205      1.831      1.863      2.319      2.605      2.493      1.767      0.397352   1.885      0.1037923  0.05348932 0.1773466  0.0805411  0.2468024  0.2342309  1.546703   2.334      1.831      0          0.2162748  32.487     0.666683   0.5429665  0.666683  
1107.7     0.221      520.839    -9999      -9999      314.396    8.816      2.18       2.156      1.768      1.893      1.736      1.632      1.693      1.796      1.968      2.158      1.768      1.753      2.258      2.498      2.507      1.764      0.3920353  1.857      0.1009286  0.0504131  0.1736912  0.07868133 0.2428587  0.2073002  1.575837   2.341      1.768      0          0.1859367  32.346     0.6616488  0.5388447  0.6616488 
1107.8     0.221      533.184    -9999      -9999      311.767    8.82       2.203      2.17       1.761      1.88       1.756      1.61       1.671      1.767      1.93       2.102      1.695      1.66       2.184      2.396      2.532      1.747      0.3780941  1.837      0.09566252 0.04849622 0.1613542  0.07713712 0.2365499  0.1655999  1.569659   2.346      1.695      0          0.1378624  32.209     0.6567875  0.5397097  0.6567875 
1107.9     0.221      544.776    -9999      -9999      310.001    8.852      2.186      2.18       1.755      1.865      1.768      1.594      1.656      1.747      1.893      2.052      1.644      1.613      2.122      2.326      2.561      1.726      0.3620299  1.827      0.09042243 0.04822874 0.1466755  0.07636307 0.2304092  0.1324344  1.521091   2.348      1.644      0          0.09141164 32.09      0.6525891  0.5466812  0.6525891 
1108       0.221      552.987    -9999      -9999      309.282    8.905      2.143      2.19       1.751      1.856      1.772      1.584      1.647      1.736      1.867      2.018      1.618      1.603      2.073      2.288      2.588      1.705      0.3471106  1.826      0.08565534 0.0477159  0.132776   0.07647409 0.2249792  0.1080694  1.443935   2.35       1.618      0          0.05174681 32.002     0.6494988  0.5584258  0.6494988 
1108.1     0.221      557.447    -9999      -9999      309.321    8.971      2.093      2.202      1.751      1.851      1.77       1.578      1.639      1.73       1.85       2          1.608      1.604      2.03       2.264      2.606      1.689      0.336741   1.829      0.08265049 0.0476055  0.123134   0.077212   0.2215014  0.09507047 1.353302   2.351      1.608      0          0.02689232 31.939     0.6472939  0.5734048  0.6472939 
1108.2     0.221      559.455    -9999      -9999      309.563    9.041      2.049      2.213      1.753      1.847      1.767      1.574      1.63       1.724      1.837      1.992      1.6        1.604      1.991      2.244      2.615      1.678      0.330561   1.829      0.08058134 0.04618807 0.1175185  0.07803742 0.2190653  0.08704021 1.263383   2.354      1.6        0          0.008587459 31.89      0.6455833  0.5897311  0.6455833 
1108.3     0.221      560.718    -9999      -9999      309.441    9.101      2.018      2.22       1.755      1.837      1.763      1.571      1.622      1.717      1.824      1.987      1.588      1.598      1.972      2.224      2.614      1.671      0.3282384  1.824      0.07918251 0.04351831 0.1156787  0.07835049 0.2173526  0.0819993  1.191082   2.359      1.588      0          0          31.848     0.6441202  0.6040942  0.6441202 
1108.4     0.22       562.243    -9999      -9999      308.782    9.14       1.997      2.213      1.756      1.82       1.759      1.571      1.616      1.708      1.811      1.981      1.573      1.586      1.98       2.207      2.598      1.666      0.3301594  1.815      0.07894291 0.04081703 0.1180359  0.07797583 0.2168295  0.08116565 1.146319   2.364      1.573      0          0          31.81      0.6427986  0.6136175  0.6427986 
1108.5     0.22       564.033    -9999      -9999      307.848    9.152      1.977      2.184      1.755      1.801      1.753      1.575      1.613      1.7        1.801      1.974      1.559      1.57       2.012      2.197      2.563      1.663      0.3374442  1.806      0.08016925 0.03750888 0.1257444  0.07725442 0.2177804  0.0855238  1.132887   2.37       1.559      0          0          31.773     0.6415143  0.6165779  0.6415143 
1108.6     0.22       565.835    -9999      -9999      307.204    9.147      1.96       2.134      1.75       1.781      1.747      1.589      1.617      1.696      1.795      1.967      1.551      1.558      2.043      2.186      2.508      1.661      0.350506   1.803      0.08404452 0.03600426 0.1392409  0.07688837 0.2213731  0.1008942  1.138465   2.373      1.551      0          0.01470802 31.735     0.6401972  0.6153426  0.6401972 
1108.7     0.219      565.577    -9999      -9999      307.37     9.131      1.952      2.082      1.742      1.766      1.742      1.62       1.632      1.703      1.794      1.968      1.55       1.555      2.055      2.175      2.441      1.662      0.3689284  1.811      0.09088087 0.03693259 0.1581542  0.07755584 0.2278904  0.1350493  1.156498   2.372      1.55       0          0.05940823 31.692     0.6387097  0.6114064  0.6387097 
1108.8     0.219      561.733    -9999      -9999      308.597    9.102      1.961      2.05       1.733      1.756      1.74       1.667      1.666      1.726      1.803      1.983      1.553      1.561      2.053      2.171      2.379      1.669      0.3899043  1.831      0.09885395 0.03730741 0.1796883  0.07956609 0.2355005  0.1897461  1.189912   2.372      1.553      0          0.1075594  31.643     0.637018   0.6043366  0.637018  
1108.9     0.218      551.03     -9999      -9999      310.813    9.051      1.976      2.046      1.73       1.751      1.741      1.723      1.72       1.77       1.829      2.026      1.567      1.573      2.058      2.193      2.346      1.682      0.4058532  1.866      0.1045796  0.03471774 0.1962396  0.08278144 0.2408346  0.2422289  1.251035   2.377      1.567      0          0.1420557  31.59      0.6351926  0.5921009  0.6351926 
1109       0.217      532.055    -9999      -9999      313.614    8.97       1.983      2.06       1.737      1.751      1.746      1.774      1.787      1.838      1.88       2.107      1.6        1.592      2.09       2.255      2.36       1.7        0.4093821  1.913      0.1048513  0.02739    0.2004487  0.08671509 0.2406642  0.2450519  1.354631   2.39       1.6        0          0.1513897  31.53      0.6331313  0.573175   0.6331313 
1109.1     0.216      506.079    -9999      -9999      316.411    8.862      1.983      2.082      1.757      1.75       1.754      1.808      1.851      1.918      1.958      2.229      1.665      1.626      2.148      2.361      2.423      1.719      0.3980417  1.965      0.09872703 0.01585424 0.1897642  0.09056269 0.2341136  0.1887218  1.506223   2.41       1.665      0          0.1344665  31.472     0.6311442  0.5488781  0.6311442 
1109.2     0.215      479.21     -9999      -9999      318.545    8.742      1.988      2.109      1.788      1.75       1.768      1.823      1.897      1.991      2.054      2.371      1.752      1.69       2.226      2.513      2.52       1.734      0.3761995  2.014      0.08829618 0.003013903 0.1684183  0.09345637 0.2233602  0.1209532  1.694638   2.432      1.752      0          0.09447202 31.428     0.6296402  0.5230874  0.6296402 
