~Version
 VERS              .         2.0                           : CWLS LOG ASCII STANDARD - VERSION 2.0
 WRAP              .         NO                            : ONE LINE PER DEPTH STEP
 DLM               .         SPACE                         : DELIMITING CHARACTER(SPACE TAB OR COMMA)
~Well Information
#_______________________________________________________________________________
#
#PARAMETER_NAME    .UNIT     VALUE                         : DESCRIPTION
#_______________________________________________________________________________
STRT               .M        982                           : First reference value
STOP               .M        1218                          : Last reference value
STEP               .M        0.1                           : Step increment
NULL               .         -9999                         : Missing value
COMP               .                                       : Company
WELL               .         4289                          : Well name
FLD                .         УЗЕНЬ                         : Field
LOC                .                                       : Location
CNTY               .                                       : County
STAT               .                                       : State
CTRY               .                                       : Country
SRVC               .         AO "UPGF"                     : Service Company
DATE               .         29-30/12/2009                 : Date
UWI                .                                       : Unique Well ID
Block              .         4                             : 
Category           .         Нефтяная                      : 
Condition          .         В работе                      : 
Date               .         11.12.2009                    : 
EREF               .m        228.7                         : 100.8
Gorizont           .         14                            : 14
Interpretator      .         Ткачева И.Г.                  : 
Kupol              .         Основной                      : osnovnoi
Mud                .         Глинистый                     : 
Mud_density        .         1.33                          : 
Mud_resistivity    .         0.35                          : 
NGDU               .         НГДУ-1                        : 
ORIGINALWELLNAME   .         4289                          : 
Spud_date          .         2009                          : 1961
Uslovie            .         14                            : 
Viscosity          .         35                            : 
X                  .m        54362.08                      : 46154
Y                  .m        81918.16                      : 85761.93
YEAR               .         2019                          : 
~Parameter Information Block
#_______________________________________________________________________________
#
#PARAMETER_NAME    .UNIT     VALUE                         : DESCRIPTION
#_______________________________________________________________________________
SET                .         LQC_KAZNIPI_Petrel            : 
PBBOTTOM           .M        1218                          : Глубина подошвы планшета
PBSCALE            .         1 _ 500                       : Вертикальный масштаб планшета
PBTOP              .M        982                           : Глубина кровли планшета
TLFamily_CALI      .         Caliper                       : 
TLFamily_CILD      .         Conductivity                  : 
TLFamily_COLL      .         Net Reservoir Flag            : 
TLFamily_CSAT      .         Fluid Code                    : 
TLFamily_DEPT      .         Measured Depth                : 
TLFamily_DT        .         Compressional Slowness        : 
TLFamily_GR        .         Russian Gamma Ray             : 
TLFamily_GZ1       .         Gradient 045                  : 
TLFamily_GZ2       .         Gradient 105                  : 
TLFamily_GZ3       .         Gradient 225                  : 
TLFamily_GZ4       .         Gradient 425                  : 
TLFamily_GZ5       .         Gradient 850                  : 
TLFamily_IK1       .         Resistivity 05                : 
TLFamily_IK2       .         Resistivity 07                : 
TLFamily_IK3       .         Resistivity 10                : 
TLFamily_IK4       .         Resistivity 14                : 
TLFamily_IK5       .         Resistivity 20                : 
TLFamily_LLS       .         Lateral Log Resistivity       : 
TLFamily_MBK       .         Micro Lateral Log Resistivity : 
TLFamily_MINV      .         Micro Gradient Resistivity    : 
TLFamily_MNOR      .         Micro Resistivity             : 
TLFamily_NNKTB_1   .         Neutron Far                   : 
TLFamily_NNKTM_1   .         Neutron Near                  : 
TLFamily_NPHI      .         Neutron Porosity              : 
TLFamily_OGZ       .         Gradient Inverted 225         : 
TLFamily_PHIE      .         Effective Porosity            : 
TLFamily_PHIED     .         Effective Porosity            : 
TLFamily_PHIEN     .         Effective Porosity            : 
TLFamily_PHIES     .         Effective Porosity            : 
TLFamily_PHIT      .         Porosity                      : 
TLFamily_PRMB      .         Permeability                  : 
TLFamily_PRMB_DGR  .         Permeability                  : 
TLFamily_RHOB      .         Bulk Density                  : 
TLFamily_RT        .         Formation Resistivity         : 
TLFamily_SOIL_ARCHIE .         Oil Saturation                : 
TLFamily_SOIL_DW   .         Oil Saturation                : 
TLFamily_SP        .         Spontaneous Potential         : 
TLFamily_VSH_FIN   .         Shale Volume                  : 
TLFamily_VSH_GR    .         Shale Volume                  : 
TLFamily_VSH_SP    .         Shale Volume                  : 
~Curve Information
#_______________________________________________________________________________
#
#LOGNAME           .UNIT     LOG_ID                        : DESCRIPTION
#_______________________________________________________________________________
DEPT               .M                                      : Колонка глубины 
CALI               .м                                      : Каверномер 
CILD               .мСм/м                                  : Индукционный каротаж 
COLL               .unitless                               : Описание 
CSAT               .unitless                               : Описание 
DT                 .мкс/м                                  : Интервальное время пробега продольной волны 
GR                 .uR/h                                   : Гамма каротаж 
GZ1                .Ohmm                                   : Градиент-зонд  длиной 0.45м 
GZ2                .Ohmm                                   : Градиент-зонд  длиной 1.05м 
GZ3                .Ohmm                                   : Градиент-зонд  длиной 2.25м 
GZ4                .Ohmm                                   : Градиент-зонд  длиной 4.5м 
GZ5                .Ohmm                                   : Градиент-зонд  длиной 8.5м 
IK1                .Ohmm                                   :  
IK2                .Ohmm                                   :  
IK3                .Ohmm                                   :  
IK4                .Ohmm                                   :  
IK5                .Ohmm                                   :  
LLS                .Ohmm                                   : Боковой каротаж 
MBK                .Ohmm                                   : Микробоковой каротаж 
MINV               .Ohmm                                   : Микро-градиент зонд 
MNOR               .Ohmm                                   : Микро-потенциал зонд 
NNKTB_1            .у.е.                                   :  
NNKTM_1            .у.е.                                   :  
NPHI               .v/v                                    :  
OGZ                .Ohmm                                   :  
PHIE               .v/v                                    : Описание 
PHIED              .v/v                                    :  
PHIEN              .v/v                                    :  
PHIES              .v/v                                    :  
PHIT               .v/v                                    : Описание 
PRMB               .mD                                     :  
PRMB_DGR           .mD                                     :  
RHOB               .G/C3                                   : Плотность по ГГК-П 
RT                 .ohmm                                   : УЭС пласта 
SOIL_ARCHIE        .v/v                                    :  
SOIL_DW            .v/v                                    :  
SP                 .мВ                                     : Потенциал самополяризации 
VSH_FIN            .v/v                                    : Описание 
VSH_GR             .v/v                                    : Shale volume 
VSH_SP             .v/v                                    : Shale Volume 
~Ascii
# ...
1059.9     0.235      485.163    -9999      -9999      291.948    5.676      2.215      2.299      1.54       1.355      1.842      1.965      2.047      2.14       2.214      2.338      1.627      1.497      2.16       2.272      2.885      1.646      0.2654718  2.247      0.07985394 0.04440124 0.09703817 0.0981224  0.1893408  0.08438139 10.02956   2.407      1.627      0          0          27.615     0.5104051  0.2530797  0.5104051 
1060       0.237      473.593    -9999      -9999      298.459    5.685      2.129      2.392      1.54       1.343      1.823      1.986      2.079      2.161      2.233      2.403      1.721      1.621      2.335      2.497      2.97       1.665      0.2568548  2.321      0.06919355 0.02687387 0.08104446 0.09966232 0.1834755  0.05355382 9.921871   2.428      1.721      0          0          28.385     0.5327585  0.2541978  0.5327585 
1060.1     0.24       464.282    -9999      -9999      300.152    5.661      2.089      2.486      1.56       1.345      1.828      1.996      2.098      2.177      2.254      2.458      1.817      1.736      2.448      2.656      3.031      1.69       0.254245   2.39       0.05852354 0.01032705 0.0707348  0.09450879 0.1778106  0.03397473 10.21165   2.447      1.817      0          0          29.159     0.5560914  0.2512272  0.5560914 
1060.2     0.243      458.088    -9999      -9999      298.272    5.612      2.089      2.553      1.594      1.355      1.847      1.998      2.106      2.183      2.275      2.496      1.887      1.82       2.469      2.722      3.04       1.713      0.2593426  2.44       0.05016785 -0.003019347 0.06843995 0.08508296 0.1742602  0.02378967 10.82982   2.461      1.887      0          0          29.876     0.5784928  0.2452696  0.5784928 
1060.3     0.244      455.536    -9999      -9999      295.043    5.549      2.125      2.591      1.639      1.369      1.868      1.994      2.107      2.178      2.286      2.512      1.93       1.87       2.407      2.719      2.995      1.73       0.2716958  2.476      0.04533452 -0.01283069 0.07420664 0.07462762 0.1737083  0.01935813 11.67992   2.47       1.93       0          0          30.495     0.598452   0.2378169  0.598452  
1060.4     0.243      456.489    -9999      -9999      292.744    5.484      2.194      2.612      1.694      1.39       1.88       1.984      2.101      2.165      2.286      2.506      1.95       1.894      2.352      2.692      2.916      1.738      0.2881097  2.507      0.04433352 -0.01836003 0.08506054 0.06630005 0.1763215  0.01854908 12.627     2.473      1.95       0          0          31.004     0.6153005  0.230365   0.6153005 
1060.5     0.24       460.835    -9999      -9999      292.843    5.427      2.289      2.63       1.752      1.418      1.883      1.97       2.087      2.152      2.277      2.479      1.96       1.9        2.369      2.682      2.836      1.741      0.3044354  2.536      0.04619196 -0.0202562 0.09677806 0.06205401 0.1811754  0.02007914 13.52052   2.471      1.96       0          0          31.417     0.6292646  0.2240226  0.6292646 
1060.6     0.237      467.283    -9999      -9999      295.645    5.388      2.389      2.643      1.804      1.451      1.878      1.956      2.067      2.143      2.266      2.44       1.959      1.887      2.477      2.663      2.778      1.737      0.3150225  2.563      0.04909962 -0.01811835 0.1034143  0.06200285 0.1866512  0.02273014 14.16803   2.463      1.959      0          0          31.765     0.6412367  0.219784   0.6412367 
1060.7     0.235      474.114    -9999      -9999      300.373    5.38       2.456      2.634      1.843      1.483      1.869      1.945      2.05       2.142      2.259      2.4        1.938      1.837      2.54       2.609      2.743      1.729      0.3197812  2.583      0.05230799 -0.01219565 0.1045081  0.06461151 0.1922419  0.02606327 14.30464   2.449      1.938      0          0          32.083     0.6523429  0.2189245  0.6523429 
1060.8     0.235      478.677    -9999      -9999      305.665    5.408      2.464      2.597      1.866      1.507      1.853      1.94       2.041      2.147      2.254      2.374      1.892      1.766      2.516      2.517      2.72       1.718      0.3209949  2.596      0.0555057  -0.003275011 0.102063   0.06772916 0.197818   0.02987158 13.83219   2.43       1.892      0          0          32.396     0.6634303  0.2219475  0.6634303 
1060.9     0.235      478.855    -9999      -9999      310.068    5.464      2.417      2.547      1.875      1.521      1.833      1.936      2.045      2.158      2.255      2.373      1.839      1.702      2.406      2.454      2.703      1.708      0.3212526  2.607      0.05793424 0.005627232 0.09863419 0.06954129 0.2026428  0.03313147 12.93358   2.411      1.839      0          0          32.707     0.6746014  0.2281194  0.6746014 
1061       0.235      473.94     -9999      -9999      312.549    5.53       2.347      2.508      1.876      1.526      1.806      1.934      2.056      2.175      2.263      2.401      1.802      1.686      2.352      2.46       2.702      1.702      0.3193778  2.619      0.05752048 0.01038478 0.09314273 0.06903394 0.20458    0.03255194 11.94916   2.399      1.802      0          0          33.008     0.6855608  0.2356141  0.6855608 
1061.1     0.235      464.613    -9999      -9999      312.75     5.59       2.286      2.49       1.88       1.525      1.775      1.93       2.068      2.194      2.282      2.456      1.807      1.719      2.375      2.541      2.735      1.703      0.312589   2.632      0.05283239 0.00935205 0.08303204 0.06611309 0.2020512  0.02665276 11.11941   2.397      1.807      0          0          33.281     0.695627   0.2426409  0.695627  
1061.2     0.235      454.588    -9999      -9999      310.951    5.643      2.246      2.485      1.894      1.519      1.741      1.925      2.073      2.21       2.309      2.518      1.851      1.793      2.479      2.679      2.814      1.711      0.2990397  2.642      0.04303383 0.001381204 0.0665294  0.06119089 0.1941724  0.01754886 10.43452   2.407      1.851      0          0          33.521     0.7045766  0.2490221  0.7045766 
1061.3     0.236      447.159    -9999      -9999      307.825    5.69       2.23       2.484      1.919      1.509      1.707      1.914      2.066      2.214      2.335      2.566      1.925      1.893      2.609      2.852      2.938      1.723      0.2795213  2.645      0.02932955 -0.01165597 0.04453874 0.05510587 0.1820752  0.009781657 9.86254    2.426      1.925      0          0          33.72      0.7120685  0.2548211  0.7120685 
1061.4     0.237      443.995    -9999      -9999      304.108    5.732      2.247      2.491      1.948      1.495      1.673      1.9        2.044      2.203      2.349      2.587      1.994      1.992      2.739      3.017      3.085      1.733      0.2578419  2.637      0.01474557 -0.02549984 0.02096901 0.04876754 0.16872    0.005251481 9.377996   2.447      1.994      0          0          33.871     0.7177965  0.2601173  0.7177965 
1061.5     0.238      445.044    -9999      -9999      300.411    5.758      2.298      2.513      1.97       1.479      1.643      1.887      2.01       2.173      2.344      2.58       2.034      2.046      2.832      3.105      3.219      1.734      0.238234   2.617      0.01       -0.03647371 0.0001781178 0.04301412 0.1569829  0.004289259 9.090042   2.464      2.034      0          0          33.965     0.7213814  0.263451   0.7213814 
1061.6     0.238      450.066    -9999      -9999      297.094    5.76       2.362      2.535      1.974      1.461      1.62       1.886      1.978      2.131      2.321      2.547      2.016      2.013      2.845      3.061      3.297      1.724      0.2251837  2.591      0.01       -0.04223583 0          0.03823475 0.1492949  0.004289259 9.068254   2.473      2.016      0          0          34.009     0.7230643  0.2637092  0.7230643 
1061.7     0.237      457.287    -9999      -9999      294.23     5.735      2.404      2.537      1.956      1.443      1.605      1.904      1.963      2.094      2.287      2.501      1.949      1.901      2.768      2.907      3.302      1.706      0.2200997  2.568      0.01       -0.04109756 0          0.03440258 0.1467302  0.004289259 9.344303   2.471      1.949      0          0          34.016     0.7233323  0.2604998  0.7233323 
