~Version
 VERS              .         2.0                           : CWLS LOG ASCII STANDARD - VERSION 2.0
 WRAP              .         NO                            : ONE LINE PER DEPTH STEP
 DLM               .         SPACE                         : DELIMITING CHARACTER(SPACE TAB OR COMMA)
~Well Information
#_______________________________________________________________________________
#
#PARAMETER_NAME    .UNIT     VALUE                         : DESCRIPTION
#_______________________________________________________________________________
STRT               .M        900                           : First reference value
STOP               .M        1234                          : Last reference value
STEP               .M        0.2                           : Step increment
NULL               .         -9999                         : Missing value
COMP               .                                       : Company
WELL               .         4621                          : Well name
FLD                .         Узень                         : Field
LOC                .                                       : Location
CNTY               .         Казахстан                     : County
STAT               .                                       : State
CTRY               .                                       : Country
SRVC               .                                       : Service Company
DATE               .                                       : Date
UWI                .                                       : Unique Well ID
Block              .         4                             : 
Category           .         Нефтяная                      : 
Condition          .         Ликвидированная               : 
Date               .         25.10.1990                    : 
EREF               .m        230.2                         : 100.8
Gorizont           .         13                            : 14
Interpretator      .         Ткачева И.Г.                  : 
Kupol              .         Основной                      : osnovnoi
Mud                .         0                             : 
Mud_density        .         0                             : 
Mud_resistivity    .         0                             : 
NGDU               .         НГДУ-1                        : 
ORIGINALWELLNAME   .         4621                          : 
Spud_date          .         1990                          : 1961
Uslovie            .         13                            : 
Viscosity          .         0                             : 
X                  .m        54257.1                       : 46154
Y                  .m        81873.23                      : 85761.93
YEAR               .         2019                          : 
~Parameter Information Block
#_______________________________________________________________________________
#
#PARAMETER_NAME    .UNIT     VALUE                         : DESCRIPTION
#_______________________________________________________________________________
SET                .         LQC_KAZNIPI_Petrel            : 
GSDD               .         CSAT                          : CSATкрив,0,DEPT,BOTTOM,,,,0
TLFamily_CALI      .         Caliper                       : 
TLFamily_CILD      .         Conductivity                  : 
TLFamily_COLL      .         Net Reservoir Flag            : 
TLFamily_CSAT      .         Fluid Code                    : 
TLFamily_DEPT      .         Measured Depth                : 
TLFamily_GR        .         Russian Gamma Ray             : 
TLFamily_GZ1       .         Gradient 045                  : 
TLFamily_GZ2       .         Gradient 105                  : 
TLFamily_GZ3       .         Gradient 225                  : 
TLFamily_GZ4       .         Gradient 425                  : 
TLFamily_GZ5       .         Gradient 850                  : 
TLFamily_LLS       .         Lateral Log Resistivity       : 
TLFamily_MINV      .         Micro Gradient Resistivity    : 
TLFamily_MNOR      .         Micro Resistivity             : 
TLFamily_NGLD      .         Neutron Gamma                 : 
TLFamily_OGZ       .         Gradient Inverted 225         : 
TLFamily_PHIE      .         Effective Porosity            : 
TLFamily_PHIEN     .         Effective Porosity            : 
TLFamily_PHIT      .         Porosity                      : 
TLFamily_PRMB      .         Permeability                  : 
TLFamily_PRMB_DGR  .         Permeability                  : 
TLFamily_RT        .         Formation Resistivity         : 
TLFamily_SOIL_ARCHIE .         Oil Saturation                : 
TLFamily_SOIL_DW   .         Oil Saturation                : 
TLFamily_SP        .         Spontaneous Potential         : 
TLFamily_VSH_FIN   .         Shale Volume                  : 
TLFamily_VSH_GR    .         Shale Volume                  : 
TLFamily_VSH_SP    .         Shale Volume                  : 
~Curve Information
#_______________________________________________________________________________
#
#LOGNAME           .UNIT     LOG_ID                        : DESCRIPTION
#_______________________________________________________________________________
DEPT               .M                                      : Колонка глубины 
CALI               .м                                      : Каверномер 
CILD               .мСм/м                                  : Индукционный каротаж зондом 6Ф1 
COLL               .unitless                               : Описание 
CSAT               .unitless                               : Описание 
GR                 .uR/h                                   : Гамма каротаж 
GZ1                .Ohmm                                   : Градиент-зонд  длиной 0.45м 
GZ2                .Ohmm                                   : Градиент-зонд  длиной 1.05м 
GZ3                .Ohmm                                   : Градиент-зонд  длиной 2.25м 
GZ4                .Ohmm                                   : Градиент-зонд  длиной 4.5м 
GZ5                .Ohmm                                   : Градиент-зонд  длиной 8.5м 
LLS                .Ohmm                                   : Боковой каротаж 
MINV               .Ohmm                                   : Микро-градиент зонд 
MNOR               .Ohmm                                   : Микро-потенциал зонд 
NGLD               .у.е.                                   : Показания зонда НГК-60 аппаратуры ДРСТ-3-90 
OGZ                .Ohmm                                   : Обращенный градиент-зонд 
PHIE               .v/v                                    : Описание 
PHIEN              .v/v                                    :  
PHIT               .v/v                                    : Описание 
PRMB               .mD                                     :  
PRMB_DGR           .mD                                     :  
RT                 .ohmm                                   : Удельное электрическое сопротивление 
SOIL_ARCHIE        .v/v                                    :  
SOIL_DW            .v/v                                    :  
SP                 .мВ                                     : Потенциал самополяризации 
VSH_FIN            .v/v                                    : Описание 
VSH_GR             .v/v                                    : Shale volume 
VSH_SP             .v/v                                    : Shale Volume 
~Ascii
# ...
1134       0.22       0.37       -9999      -9999      10.46      8.271      7.704      2.159      1.628      1.562      2.375      1.202      1.229      1.056      2.367      0.160739   0.160739   0.35488    2.657259   1.791763   2.375      0.2677492  0.534454   87.801     0.5883061  0.5113181  0.6652942 
1134.2     0.225      0.37       -9999      -9999      10.665     8.275      7.703001   2.085      1.62       1.526      2.33       1.396      1.25       1.056      2.294      0.1571982  0.1571982  0.35488    2.284809   1.58766    2.33       0.2466728  0.5260449  87.674     0.5990358  0.5372025  0.660869  
1134.4     0.229      0.37       -9999      -9999      10.876     8.283      7.743001   2.025      1.575      1.499      2.379      1.591      1.378      1.08       2.228      0.1465831  0.1465831  0.3484     1.452887   1.401837   2.379      0.2071562  0.5130188  87.588     0.6115665  0.5652138  0.6579192 
1134.6     0.233      0.37       -9999      -9999      10.865     8.297001   7.690001   1.97       1.536      1.491      2.405      1.748      1.4        1.091      2.172      0.1440591  0.1440591  0.34543    1.304613   1.410963   2.405      0.1991667  0.5099087  87.551     0.6102149  0.563718   0.6567119 
1134.8     0.235      0.372      -9999      -9999      10.801     8.339      7.598      1.957      1.52       1.486      2.441      1.824      1.375      1.101      2.136      0.1426251  0.1426251  0.34273    1.227215   1.465255   2.441      0.1977715  0.5093151  87.575     0.6063786  0.5550936  0.6576635 
1135       0.236      0.377      -9999      -9999      10.727     8.355      7.523      2.001      1.542      1.49       2.461      1.863      1.363      1.111      2.129      0.1409348  0.1409348  0.34003    1.141859   1.530638   2.461      0.1924961  0.5067065  87.676     0.6033188  0.5452862  0.6613515 
1135.2     0.236      0.384      -9999      -9999      10.654     8.349      7.465      2.09       1.584      1.47       2.455      1.825      1.347      1.111      2.131      0.1414429  0.1414429  0.34003    1.166873   1.597997   2.455      0.1941004  0.506756   87.853     0.6017792  0.535781   0.6677774 
1135.4     0.236      0.395      -9999      -9999      10.532     8.326      7.424      2.211      1.562      1.434      2.345      1.757      1.242      1.117      2.126      0.1411472  0.1411472  0.33841    1.152251   1.717251   2.345      0.1750743  0.4934035  88.058     0.597766   0.5202639  0.6752681 
1135.6     0.236      0.406      -9999      -9999      10.523     8.323001   7.458      2.321      1.524      1.404      2.237      1.646      1.169      1.104      2.111      0.1436561  0.1436561  0.34192    1.28238    1.726393   2.237      0.1694617  0.4880198  88.253     0.6007999  0.5191372  0.6824625 
1135.8     0.238      0.415      -9999      -9999      10.396     8.331      7.570001   2.384      1.466      1.376      2.166      1.531      1.157      1.089      2.103      0.1494596  0.1494596  0.34597    1.64253    1.860708   2.166      0.1853848  0.4910477  88.387     0.5954859  0.5034955  0.6874764 
1136       0.24       0.421      -9999      -9999      10.191     8.404      7.676001   2.379      1.376      1.349      2.141      1.493      1.163      1.076      2.098      0.1565909  0.1565909  0.34948    2.226388   2.099912   2.141      0.2135191  0.5000745  88.447     0.5845125  0.4792351  0.68979   
1136.2     0.242      0.428      -9999      -9999      10.021     8.506      7.802      2.334      1.272      1.309      2.114      1.469      1.173      1.073      2.101      0.1607141  0.1607141  0.35029    2.65444    2.321437   2.114      0.2265296  0.5024972  88.421     0.5744725  0.4600059  0.688939  
1136.4     0.243      0.433      -9999      -9999      9.867      8.588      7.912      2.258      1.24       1.27       2.094      1.438      1.167      1.073      2.121      0.1640667  0.1640667  0.35029    3.062463   2.542221   2.094      0.2369172  0.5040077  88.321     0.5643132  0.4432533  0.6853731 
1136.6     0.244      0.435      -9999      -9999      9.735      8.625      8.001      2.196      1.213      1.241      2.088      1.437      1.188      1.076      2.159      0.1662038  0.1662038  0.34948    3.354713   2.748103   2.088      0.2444534  0.5050159  88.209     0.5553825  0.4293805  0.6813845 
1136.8     0.245      0.433      -9999      -9999      9.654      8.638      8.086      2.138      1.196      1.225      2.102      1.451      1.211      1.083      2.197      0.16599    0.16599    0.34759    3.324264   2.88261    2.102      0.2459742  0.5047635  88.155     0.5503031  0.4210835  0.6795227 
1137       0.244      0.429      -9999      -9999      9.571      8.646999   8.166      2.091      1.209      1.215      2.114      1.469      1.257      1.091      2.238      0.1651459  0.1651459  0.34543    3.206723   3.027272   2.114      0.2446394  0.5032977  88.162     0.5463154  0.4127479  0.6798828 
1137.2     0.243      0.422      -9999      -9999      9.509      8.62       8.193      2.043      1.25       1.221      2.152      1.515      1.284      1.097      2.296      0.164091   0.164091   0.34381    3.065641   3.140049   2.152      0.2467355  0.5050616  88.233     0.544603   0.4066291  0.682577  
1137.4     0.241      0.41       -9999      -9999      9.592      8.614      8.215      1.994      1.291      1.229      2.255      1.663      1.325      1.102      2.38       0.1605344  0.1605344  0.34246    2.634176   2.989998   2.255      0.2488824  0.5112695  88.371     0.5512897  0.4148411  0.6877382 
1137.6     0.238      0.395      -9999      -9999      9.789      8.618      8.213      1.965      1.344      1.273      2.398      1.815      1.389      1.108      2.489      0.1544194  0.1544194  0.34084    2.029454   2.661936   2.398      0.2451386  0.5176537  88.56      0.564911   0.4350025  0.6948195 
1137.8     0.233      0.379      -9999      -9999      9.883      8.609      8.149      1.96       1.417      1.393      2.579      1.957      1.495      1.126      2.626      0.1466385  0.1466385  0.33598    1.456328   2.518337   2.579      0.2368786  0.5215313  88.765     0.5737621  0.4449652  0.7025589 
1138       0.228      0.364      -9999      -9999      9.961      8.565      8.033      1.981      1.499      1.524      2.78       2.065      1.568      1.149      2.758      0.1377535  0.1377535  0.32977    0.9969828  2.40508    2.78       0.2220692  0.5228007  88.969     0.5818681  0.453405   0.7103311 
1138.2     0.224      0.35       -9999      -9999      10.139     8.512      7.88       2.022      1.609      1.662      2.898      2.152      1.615      1.153      2.87       0.1323468  0.1323468  0.32869    0.7916646  2.16533    2.898      0.210023   0.524733   89.134     0.5949795  0.4732694  0.7166896 
1138.4     0.223      0.34       -9999      -9999      10.297     8.367      7.7        2.096      1.781      1.803      2.927      2.116      1.623      1.134      2.919      0.1336682  0.1336682  0.33382    0.8375633  1.972618   2.927      0.2204801  0.5334195  89.255     0.6065206  0.4916299  0.7214113 
1138.6     0.222      0.334      -9999      -9999      10.363     8.203      7.516      2.164      1.872      1.897      2.881      2.067      1.607      1.112      2.903      0.1378036  0.1378036  0.33976    0.9991121  1.897287   2.881      0.2352301  0.540085   89.332     0.6119893  0.4995088  0.7244697 
1138.8     0.223      0.33       -9999      -9999      10.298     8.068      7.376      2.221      1.929      1.909      2.796      1.993      1.606      1.083      2.853      0.1467185  0.1467185  0.34759    1.461302   1.971454   2.796      0.2656164  0.5502912  89.36      0.6087017  0.4917484  0.7256551 
1139       0.225      0.329      -9999      -9999      10.219     7.979      7.277999   2.269      1.933      1.916      2.669      1.893      1.553      1.064      2.797      0.1533977  0.1533977  0.35272    1.942925   2.065511   2.669      0.2779661  0.5513964  89.354     0.6040069  0.4824785  0.7255353 
