~Version
 VERS              .         2.0                           : CWLS LOG ASCII STANDARD - VERSION 2.0
 WRAP              .         NO                            : ONE LINE PER DEPTH STEP
 DLM               .         SPACE                         : DELIMITING CHARACTER(SPACE TAB OR COMMA)
~Well Information
#_______________________________________________________________________________
#
#PARAMETER_NAME    .UNIT     VALUE                         : DESCRIPTION
#_______________________________________________________________________________
STRT               .M        900                           : First reference value
STOP               .M        1234                          : Last reference value
STEP               .M        0.2                           : Step increment
NULL               .         -9999                         : Missing value
COMP               .                                       : Company
WELL               .         4621                          : Well name
FLD                .         Узень                         : Field
LOC                .                                       : Location
CNTY               .         Казахстан                     : County
STAT               .                                       : State
CTRY               .                                       : Country
SRVC               .                                       : Service Company
DATE               .                                       : Date
UWI                .                                       : Unique Well ID
Block              .         4                             : 
Category           .         Нефтяная                      : 
Condition          .         Ликвидированная               : 
Date               .         25.10.1990                    : 
EREF               .m        230.2                         : 100.8
Gorizont           .         13                            : 14
Interpretator      .         Ткачева И.Г.                  : 
Kupol              .         Основной                      : osnovnoi
Mud                .         0                             : 
Mud_density        .         0                             : 
Mud_resistivity    .         0                             : 
NGDU               .         НГДУ-1                        : 
ORIGINALWELLNAME   .         4621                          : 
Spud_date          .         1990                          : 1961
Uslovie            .         13                            : 
Viscosity          .         0                             : 
X                  .m        54257.1                       : 46154
Y                  .m        81873.23                      : 85761.93
YEAR               .         2019                          : 
~Parameter Information Block
#_______________________________________________________________________________
#
#PARAMETER_NAME    .UNIT     VALUE                         : DESCRIPTION
#_______________________________________________________________________________
SET                .         LQC_KAZNIPI_Petrel            : 
GSDD               .         CSAT                          : CSATкрив,0,DEPT,BOTTOM,,,,0
TLFamily_CALI      .         Caliper                       : 
TLFamily_CILD      .         Conductivity                  : 
TLFamily_COLL      .         Net Reservoir Flag            : 
TLFamily_CSAT      .         Fluid Code                    : 
TLFamily_DEPT      .         Measured Depth                : 
TLFamily_GR        .         Russian Gamma Ray             : 
TLFamily_GZ1       .         Gradient 045                  : 
TLFamily_GZ2       .         Gradient 105                  : 
TLFamily_GZ3       .         Gradient 225                  : 
TLFamily_GZ4       .         Gradient 425                  : 
TLFamily_GZ5       .         Gradient 850                  : 
TLFamily_LLS       .         Lateral Log Resistivity       : 
TLFamily_MINV      .         Micro Gradient Resistivity    : 
TLFamily_MNOR      .         Micro Resistivity             : 
TLFamily_NGLD      .         Neutron Gamma                 : 
TLFamily_OGZ       .         Gradient Inverted 225         : 
TLFamily_PHIE      .         Effective Porosity            : 
TLFamily_PHIEN     .         Effective Porosity            : 
TLFamily_PHIT      .         Porosity                      : 
TLFamily_PRMB      .         Permeability                  : 
TLFamily_PRMB_DGR  .         Permeability                  : 
TLFamily_RT        .         Formation Resistivity         : 
TLFamily_SOIL_ARCHIE .         Oil Saturation                : 
TLFamily_SOIL_DW   .         Oil Saturation                : 
TLFamily_SP        .         Spontaneous Potential         : 
TLFamily_VSH_FIN   .         Shale Volume                  : 
TLFamily_VSH_GR    .         Shale Volume                  : 
TLFamily_VSH_SP    .         Shale Volume                  : 
~Curve Information
#_______________________________________________________________________________
#
#LOGNAME           .UNIT     LOG_ID                        : DESCRIPTION
#_______________________________________________________________________________
DEPT               .M                                      : Колонка глубины 
CALI               .м                                      : Каверномер 
CILD               .мСм/м                                  : Индукционный каротаж зондом 6Ф1 
COLL               .unitless                               : Описание 
CSAT               .unitless                               : Описание 
GR                 .uR/h                                   : Гамма каротаж 
GZ1                .Ohmm                                   : Градиент-зонд  длиной 0.45м 
GZ2                .Ohmm                                   : Градиент-зонд  длиной 1.05м 
GZ3                .Ohmm                                   : Градиент-зонд  длиной 2.25м 
GZ4                .Ohmm                                   : Градиент-зонд  длиной 4.5м 
GZ5                .Ohmm                                   : Градиент-зонд  длиной 8.5м 
LLS                .Ohmm                                   : Боковой каротаж 
MINV               .Ohmm                                   : Микро-градиент зонд 
MNOR               .Ohmm                                   : Микро-потенциал зонд 
NGLD               .у.е.                                   : Показания зонда НГК-60 аппаратуры ДРСТ-3-90 
OGZ                .Ohmm                                   : Обращенный градиент-зонд 
PHIE               .v/v                                    : Описание 
PHIEN              .v/v                                    :  
PHIT               .v/v                                    : Описание 
PRMB               .mD                                     :  
PRMB_DGR           .mD                                     :  
RT                 .ohmm                                   : Удельное электрическое сопротивление 
SOIL_ARCHIE        .v/v                                    :  
SOIL_DW            .v/v                                    :  
SP                 .мВ                                     : Потенциал самополяризации 
VSH_FIN            .v/v                                    : Описание 
VSH_GR             .v/v                                    : Shale volume 
VSH_SP             .v/v                                    : Shale Volume 
~Ascii
# ...
1160       0.218      0.27       -9999      -9999      11.686     5.407      25.374     33.839     25.62      3.638      3.643      2.024      1.77       1.151      2.129      0.1581676  0.1581676  0.3247     2.381253   2.688621   3.643      0.392463   0.6003324  84.964     0.5046437  0.4332344  0.576053  
1160.2     0.221      0.301      -9999      -9999      11.918     6.322      20.665     28.01      21.83      2.936      2.823      1.918      1.529      1.191      1.976      0.132429   0.132429   0.3127     0.7944447  2.22221    2.823      0.2006751  0.5031174  86.435     0.5462759  0.468285   0.6242669 
1160.4     0.223      0.323      -9999      -9999      12.816     7.236      15.727     22.05      17.708     2.231      2.462      1.69       1.222      1.233      1.864      0.08470037 0.08470037 0.3001     0.1037563  1.062937   2.462      0          0.3614763  87.817     0.6527261  0.6328347  0.6726176 
1160.6     0.226      0.342      -9999      -9999      14.085     7.99       10.454     16.456     13.119     1.651      2.386      1.52       1.036      1.252      1.788      0.04562387 0.04562387 0.2944     0.0195985  0.3748952  2.386      0          0.2130379  88.77      0.7538671  0.8        0.7077342 
1160.8     0.228      0.362      -9999      -9999      14.677     8.391      7.357      11.18      9.753999   1.203      2.476      1.339      1.073      1.253      1.732      0.04155041 0.04155041 0.2941     0.01647299 0.2305522  2.476      0          0.2087445  89.37      0.7653018  0.8        0.7306035 
1161       0.229      0.382      -9999      -9999      14.598     8.421      6.948      7.411      7.556      0.9        2.468      1.15       1.033      1.253      1.694      0.03887583 0.03887583 0.2941     0.01469713 0.2460058  2.468      0          0.1948133  89.678     0.7734066  0.8        0.7468131 
1161.2     0.229      0.4        -9999      -9999      14.561     8.446      7.244      6.337      6.035      0.742      2.432      1.022      0.976      1.26       1.674      0.03674279 0.03674279 0.292      0.01341911 0.2535957  2.432      0          0.1737008  89.575     0.7735067  0.8        0.7470134 
1161.4     0.229      0.413      -9999      -9999      14.519     8.51       7.495      5.3        5.035      0.705      2.328      1.104      1.035      1.268      1.669      0.0368381  0.0368381  0.2896     0.01347377 0.2624952  2.328      0          0.150553   89.079     0.7659451  0.8        0.7318902 
1161.6     0.227      0.418      -9999      -9999      14.424     8.570001   7.685999   4.43       4.676      0.736      2.276      1.161      1.071      1.274      1.679      0.03942424 0.03942424 0.2878     0.01504495 0.2837943  2.276      0          0.1503678  88.273     0.7526538  0.8        0.7053075 
1161.8     0.226      0.417      -9999      -9999      14.268     8.656      7.884      4.067999   4.327      0.836      2.221      1.229      1.085      1.269      1.687      0.04360317 0.04360317 0.2893     0.0179802  0.3225836  2.221      0          0.16411    87.728     0.7445358  0.8        0.6890716 
1162       0.226      0.413      -9999      -9999      14.076     8.723      8.034      3.762      4.053      0.99       2.192      1.338      1.137      1.244      1.694      0.05322983 0.05322983 0.2968     0.02710838 0.3776766  2.192      0          0.2162634  87.267     0.7380915  0.8        0.676183  
1162.2     0.224      0.409      -9999      -9999      13.813     8.686      8.079      3.293      3.881      1.188      2.241      1.428      1.205      1.206      1.705      0.06995584 0.06995584 0.3082     0.05532354 0.4687278  2.241      0          0.3022444  86.25      0.721952   0.8        0.6439041 
1162.4     0.222      0.404      -9999      -9999      13.676     8.589001   8.094      3.021      3.807      1.417      2.295      1.494      1.268      1.189      1.72       0.07953259 0.07953259 0.3133     0.08323283 0.5245451  2.295      0          0.344655   85.348     0.7083861  0.8        0.6167721 
1162.6     0.221      0.395      -9999      -9999      13.457     8.56       8.124      2.863      3.712      1.646      2.319      1.475      1.277      1.184      1.75       0.0872013  0.0872013  0.3148     0.115435   0.6279001  2.319      0          0.3689769  84.575     0.689693   0.7845889  0.5947973 
1162.8     0.22       0.383      -9999      -9999      13.238     8.579      8.075      2.717      3.666      1.875      2.322      1.418      1.247      1.195      1.798      0.0964318  0.0964318  0.3115     0.1711232  0.7516199  2.322      0          0.3856769  83.831     0.6517218  0.7290346  0.5744089 
1163       0.22       0.373      -9999      -9999      13.179     8.482      7.947001   2.607      3.704      2.102      2.537      1.455      1.371      1.236      1.862      0.08976288 0.08976288 0.2992     0.128761   0.7889347  2.537      0          0.3816622  83.085     0.634658   0.7147525  0.5545635 
1163.2     0.22       0.368      -9999      -9999      13.115     8.343      7.764999   2.573      3.793      2.302      2.909      1.561      1.563      1.284      1.902      0.07908273 0.07908273 0.2848     0.08165112 0.8315094  2.909      0          0.3777327  82.735     0.6233856  0.6995762  0.547195  
1163.4     0.22       0.369      -9999      -9999      12.887     8.172      7.566999   2.536      3.802      2.457      3.16       1.591      1.611      1.317      1.946      0.07908316 0.07908316 0.2749     0.0816526  1.002732   3.16       0          0.388557   82.344     0.5933843  0.6480826  0.538686  
1163.6     0.22       0.377      -9999      -9999      12.729     8.033      7.389999   2.504      3.723      2.531      3.31       1.649      1.642      1.334      2.035      0.08200282 0.08200282 0.2698     0.09248029 1.14166    3.31       0          0.4022694  81.722     0.5690824  0.6146389  0.5235258 
1163.8     0.221      0.391      -9999      -9999      12.611     7.953      7.32       2.512      3.493      2.512      3.334      1.665      1.644      1.335      2.096      0.08831507 0.08831507 0.2695     0.1210507  1.25783    3.334      0          0.4187649  81.049     0.5490452  0.5907927  0.5072977 
1164       0.221      0.407      -9999      -9999      12.474     8.03       7.341      2.507      3.099      2.422      3.074      1.608      1.511      1.334      2.131      0.0958495  0.0958495  0.2698     0.1669257  1.407615   3.074      0          0.4120642  80.32      0.5271227  0.5642651  0.4899804 
1164.2     0.221      0.422      -9999      -9999      12.365     8.222999   7.479      2.46       2.623      2.279      2.67       1.494      1.298      1.312      2.124      0.1040433  0.1040433  0.2764     0.2367512  1.539429   2.67       0          0.3967068  80.594     0.522293   0.5440125  0.5005735 
1164.4     0.222      0.437      -9999      -9999      12.263     8.434      7.657      2.371      2.225      2.148      2.382      1.431      1.216      1.283      2.065      0.1137349  0.1137349  0.2851     0.3579352  1.673936   2.382      0.0116721  0.3935843  80.92      0.5192882  0.5257196  0.5128568 
1164.6     0.222      0.452      -9999      -9999      12.206     8.566      7.846      2.242      1.906      2.047      2.286      1.376      1.166      1.26       1.961      0.1193734  0.1193734  0.292      0.4552427  1.754155   2.286      0.03398767 0.4009738  81.418     0.5231109  0.5157664  0.5304555 
1164.8     0.223      0.464      -9999      -9999      12.185     8.657      8.014001   2.08       1.687      1.998      2.198      1.366      1.136      1.243      1.847      0.1208604  0.1208604  0.2971     0.4850494  1.784669   2.198      0.02658003 0.3985034  82.158     0.5340593  0.5121472  0.5559716 
1165       0.223      0.474      -9999      -9999      12.163     8.704      8.15       1.946      1.595      2.003      2.114      1.367      1.123      1.224      1.73       0.1231599  0.1231599  0.3028     0.535031   1.817207   2.114      0.02475813 0.3981808  82.829     0.5443639  0.5083827  0.580345  
