~Version
 VERS              .         2.0                           : CWLS LOG ASCII STANDARD - VERSION 2.0
 WRAP              .         NO                            : ONE LINE PER DEPTH STEP
 DLM               .         SPACE                         : DELIMITING CHARACTER(SPACE TAB OR COMMA)
~Well Information
#_______________________________________________________________________________
#
#PARAMETER_NAME    .UNIT     VALUE                         : DESCRIPTION
#_______________________________________________________________________________
STRT               .M        900                           : First reference value
STOP               .M        1234                          : Last reference value
STEP               .M        0.2                           : Step increment
NULL               .         -9999                         : Missing value
COMP               .                                       : Company
WELL               .         4621                          : Well name
FLD                .         Узень                         : Field
LOC                .                                       : Location
CNTY               .         Казахстан                     : County
STAT               .                                       : State
CTRY               .                                       : Country
SRVC               .                                       : Service Company
DATE               .                                       : Date
UWI                .                                       : Unique Well ID
Block              .         4                             : 
Category           .         Нефтяная                      : 
Condition          .         Ликвидированная               : 
Date               .         25.10.1990                    : 
EREF               .m        230.2                         : 100.8
Gorizont           .         13                            : 14
Interpretator      .         Ткачева И.Г.                  : 
Kupol              .         Основной                      : osnovnoi
Mud                .         0                             : 
Mud_density        .         0                             : 
Mud_resistivity    .         0                             : 
NGDU               .         НГДУ-1                        : 
ORIGINALWELLNAME   .         4621                          : 
Spud_date          .         1990                          : 1961
Uslovie            .         13                            : 
Viscosity          .         0                             : 
X                  .m        54257.1                       : 46154
Y                  .m        81873.23                      : 85761.93
YEAR               .         2019                          : 
~Parameter Information Block
#_______________________________________________________________________________
#
#PARAMETER_NAME    .UNIT     VALUE                         : DESCRIPTION
#_______________________________________________________________________________
SET                .         LQC_KAZNIPI_Petrel            : 
GSDD               .         CSAT                          : CSATкрив,0,DEPT,BOTTOM,,,,0
TLFamily_CALI      .         Caliper                       : 
TLFamily_CILD      .         Conductivity                  : 
TLFamily_COLL      .         Net Reservoir Flag            : 
TLFamily_CSAT      .         Fluid Code                    : 
TLFamily_DEPT      .         Measured Depth                : 
TLFamily_GR        .         Russian Gamma Ray             : 
TLFamily_GZ1       .         Gradient 045                  : 
TLFamily_GZ2       .         Gradient 105                  : 
TLFamily_GZ3       .         Gradient 225                  : 
TLFamily_GZ4       .         Gradient 425                  : 
TLFamily_GZ5       .         Gradient 850                  : 
TLFamily_LLS       .         Lateral Log Resistivity       : 
TLFamily_MINV      .         Micro Gradient Resistivity    : 
TLFamily_MNOR      .         Micro Resistivity             : 
TLFamily_NGLD      .         Neutron Gamma                 : 
TLFamily_OGZ       .         Gradient Inverted 225         : 
TLFamily_PHIE      .         Effective Porosity            : 
TLFamily_PHIEN     .         Effective Porosity            : 
TLFamily_PHIT      .         Porosity                      : 
TLFamily_PRMB      .         Permeability                  : 
TLFamily_PRMB_DGR  .         Permeability                  : 
TLFamily_RT        .         Formation Resistivity         : 
TLFamily_SOIL_ARCHIE .         Oil Saturation                : 
TLFamily_SOIL_DW   .         Oil Saturation                : 
TLFamily_SP        .         Spontaneous Potential         : 
TLFamily_VSH_FIN   .         Shale Volume                  : 
TLFamily_VSH_GR    .         Shale Volume                  : 
TLFamily_VSH_SP    .         Shale Volume                  : 
~Curve Information
#_______________________________________________________________________________
#
#LOGNAME           .UNIT     LOG_ID                        : DESCRIPTION
#_______________________________________________________________________________
DEPT               .M                                      : Колонка глубины 
CALI               .м                                      : Каверномер 
CILD               .мСм/м                                  : Индукционный каротаж зондом 6Ф1 
COLL               .unitless                               : Описание 
CSAT               .unitless                               : Описание 
GR                 .uR/h                                   : Гамма каротаж 
GZ1                .Ohmm                                   : Градиент-зонд  длиной 0.45м 
GZ2                .Ohmm                                   : Градиент-зонд  длиной 1.05м 
GZ3                .Ohmm                                   : Градиент-зонд  длиной 2.25м 
GZ4                .Ohmm                                   : Градиент-зонд  длиной 4.5м 
GZ5                .Ohmm                                   : Градиент-зонд  длиной 8.5м 
LLS                .Ohmm                                   : Боковой каротаж 
MINV               .Ohmm                                   : Микро-градиент зонд 
MNOR               .Ohmm                                   : Микро-потенциал зонд 
NGLD               .у.е.                                   : Показания зонда НГК-60 аппаратуры ДРСТ-3-90 
OGZ                .Ohmm                                   : Обращенный градиент-зонд 
PHIE               .v/v                                    : Описание 
PHIEN              .v/v                                    :  
PHIT               .v/v                                    : Описание 
PRMB               .mD                                     :  
PRMB_DGR           .mD                                     :  
RT                 .ohmm                                   : Удельное электрическое сопротивление 
SOIL_ARCHIE        .v/v                                    :  
SOIL_DW            .v/v                                    :  
SP                 .мВ                                     : Потенциал самополяризации 
VSH_FIN            .v/v                                    : Описание 
VSH_GR             .v/v                                    : Shale volume 
VSH_SP             .v/v                                    : Shale Volume 
~Ascii
# ...
1050.8     0.225      0.318      -9999      -9999      6.594      -9999      -9999      2.421      -9999      -9999      2.57       1.607      1.52       1.16       3.02       0.1425525  0.1425525  0.3268     1.223422   4.21821    2.57       0.2165786  0.5071283  91.414     0.5583258  0.3604569  0.7561947 
1051       0.225      0.315      -9999      -9999      6.593      -9999      -9999      2.507      -9999      -9999      2.554      1.727      1.536      1.159      3.038      0.1428604  0.1428604  0.32707    1.239596   4.221269   2.554      0.2157546  0.5062396  91.408     0.5582107  0.3603503  0.7560711 
1051.2     0.226      0.312      -9999      -9999      6.582      -9999      -9999      2.57       -9999      -9999      2.547      1.766      1.533      1.149      3.058      0.1457675  0.1457675  0.32977    1.403217   4.255039   2.547      0.2284009  0.5117828  91.403     0.5575835  0.3591797  0.7559872 
1051.4     0.226      0.311      -9999      -9999      6.596      -9999      -9999      2.609      -9999      -9999      2.581      1.825      1.553      1.151      3.094      0.1450018  0.1450018  0.32923    1.358138   4.212102   2.581      0.2296624  0.5135562  91.397     0.5582671  0.3606703  0.7558639 
1051.6     0.226      0.31       -9999      -9999      6.564      -9999      -9999      2.636      -9999      -9999      2.613      1.891      1.574      1.16       3.145      0.143166   0.143166   0.3268     1.255854   4.310885   2.613      0.2255569  0.5119807  91.389     0.5564668  0.3572724  0.7556611 
1051.8     0.226      0.309      -9999      -9999      6.528      -9999      -9999      2.662      -9999      -9999      2.621      1.914      1.585      1.169      3.216      0.1414004  0.1414004  0.32437    1.164759   4.424787   2.621      0.2182637  0.5081717  91.38      0.5544534  0.3534881  0.7554187 
1052       0.226      0.308      -9999      -9999      6.404      -9999      -9999      2.696      -9999      -9999      2.6        1.886      1.59       1.178      3.31       0.141124   0.141124   0.32194    1.151111   4.840651   2.6        0.2139689  0.5034907  91.369     0.5479273  0.3407573  0.7550973 
1052.2     0.226      0.305      -9999      -9999      6.206      -9999      -9999      2.738      -9999      -9999      2.559      1.849      1.581      1.197      3.422      0.1392585  0.1392585  0.31681    1.063076   5.587221   2.559      0.1988527  0.4919468  91.356     0.5380347  0.3213728  0.7546965 
1052.4     0.226      0.303      -9999      -9999      5.982      -9999      -9999      2.774      -9999      -9999      2.517      1.821      1.558      1.212      3.544      0.1386874  0.1386874  0.31276    1.037492   6.571552   2.517      0.1897116  0.4827836  91.341     0.5274928  0.300769   0.7542167 
1052.6     0.226      0.299      -9999      -9999      5.826      -9999      -9999      2.798      -9999      -9999      2.518      1.833      1.577      1.227      3.655      0.1369545  0.1369545  0.30871    0.9635804  7.357773   2.518      0.1809422  0.4761923  91.326     0.5204712  0.2872054  0.7537369 
1052.8     0.227      0.292      -9999      -9999      5.708      -9999      -9999      2.795      -9999      -9999      2.534      1.842      1.598      1.243      3.757      0.1343392  0.1343392  0.30439    0.8618788  8.014381   2.534      0.169544   0.4694119  91.311     0.5153054  0.2773536  0.7532572 
1053       0.227      0.283      -9999      -9999      5.476      -9999      -9999      2.79       -9999      -9999      2.527      1.832      1.584      1.259      3.83       0.133127   0.133127   0.30007    0.8184503  9.481111   2.527      0.1618744  0.4620789  91.297     0.505888   0.2589584  0.7528177 
1053.2     0.226      0.272      -9999      -9999      5.187      -9999      -9999      2.787      -9999      -9999      2.538      1.868      1.577      1.27       3.851      0.1337107  0.1337107  0.2971     0.8390834  11.68909   2.538      0.1667623  0.4607768  91.286     0.495119   0.2377408  0.7524972 
1053.4     0.226      0.26       -9999      -9999      4.906      -9999      -9999      2.8        -9999      -9999      2.663      1.936      1.623      1.291      3.807      0.1312093  0.1312093  0.29143    0.7541763  14.32798   2.663      0.1718403  0.4634197  91.277     0.4855172  0.2187788  0.7522556 
1053.6     0.224      0.25       -9999      -9999      4.639      -9999      -9999      2.85       -9999      -9999      2.861      2.026      1.69       1.323      3.701      0.125344   0.125344   0.28279    0.5872641  17.38542   2.861      0.1667101  0.4633742  91.269     0.4771091  0.2021646  0.7520535 
1053.8     0.223      0.243      -9999      -9999      4.529      -9999      -9999      2.945      -9999      -9999      3.107      2.142      1.835      1.362      3.553      0.1158957  0.1158957  0.27226    0.3924884  18.82747   3.107      0.1417187  0.4570498  91.264     0.4738314  0.1956924  0.7519703 
1054       0.221      0.24       -9999      -9999      4.412      -9999      -9999      3.049      -9999      -9999      3.337      2.21       1.925      1.411      3.409      0.1037843  0.1037843  0.25903    0.2341501  20.49278   3.337      0.08625467 0.4369777  91.258     0.4704416  0.1890357  0.7518476 
1054.2     0.221      0.238      -9999      -9999      4.272      -9999      -9999      3.154      -9999      -9999      3.521      2.209      2.023      1.447      3.231      0.09534986 0.09534986 0.24931    0.1634063  22.68015   3.521      0.04071474 0.4208682  91.252     0.4665459  0.1813672  0.7517246 
1054.4     0.221      0.236      -9999      -9999      4.358      -9999      -9999      3.264      -9999      -9999      3.542      2.175      2.07       1.458      3.03       0.09162908 0.09162908 0.24634    0.1394283  21.31032   3.542      0.009642987 0.4097863  91.246     0.468821   0.1860401  0.7516019 
1054.6     0.22       0.234      -9999      -9999      4.481      -9999      -9999      3.387      -9999      -9999      3.401      2.081      2.012      1.44       2.852      0.09536546 0.09536546 0.2512     0.163515   19.49365   3.401      0.02511655 0.4136223  91.241     0.4722258  0.1929335  0.7515181 
1054.8     0.22       0.234      -9999      -9999      4.558      -9999      -9999      3.55       -9999      -9999      3.273      2.004      1.925      1.415      2.705      0.1014023  0.1014023  0.25795    0.2115316  18.43607   3.273      0.05907706 0.425165   91.235     0.4743869  0.1973784  0.7513955 
1055       0.221      0.238      -9999      -9999      4.674      -9999      -9999      3.757      -9999      -9999      3.276      2.046      1.96       1.398      2.553      0.1048757  0.1048757  0.26254    0.2453076  16.95017   3.276      0.08666965 0.4387461  91.229     0.4777705  0.2042685  0.7512725 
1055.2     0.221      0.25       -9999      -9999      4.917      -9999      -9999      4.003      -9999      -9999      3.412      2.146      2.034      1.383      2.433      0.1064276  0.1064276  0.26659    0.262093   14.21427   3.412      0.1153281  0.4582784  91.224     0.4853406  0.2194918  0.7511894 
1055.4     0.222      0.273      -9999      -9999      5.337      -9999      -9999      4.286      -9999      -9999      3.546      2.297      2.161      1.37       2.329      0.105167   0.105167   0.2701     0.2483744  10.48551   3.546      0.1221133  0.4707521  91.218     0.4997968  0.2485269  0.7510667 
1055.6     0.224      0.3        -9999      -9999      5.849      -9999      -9999      4.416999   -9999      -9999      3.628      2.48       2.306      1.352      2.238      0.1033419  0.1033419  0.27496    0.2297736  7.236202   3.628      0.1181362  0.4794554  91.212     0.5200549  0.2891661  0.7509438 
1055.8     0.228      0.325      -9999      -9999      6.309      -9999      -9999      4.364      -9999      -9999      3.534      2.456      2.237      1.306      2.144      0.1088275  0.1088275  0.28738    0.2903405  5.185509   3.534      0.146531   0.4967307  91.206     0.5410681  0.331315   0.7508213 
