~Version
 VERS              .         2.0                           : CWLS LOG ASCII STANDARD - VERSION 2.0
 WRAP              .         NO                            : ONE LINE PER DEPTH STEP
 DLM               .         SPACE                         : DELIMITING CHARACTER(SPACE TAB OR COMMA)
~Well Information
#_______________________________________________________________________________
#
#PARAMETER_NAME    .UNIT     VALUE                         : DESCRIPTION
#_______________________________________________________________________________
STRT               .M        900                           : First reference value
STOP               .M        1234                          : Last reference value
STEP               .M        0.2                           : Step increment
NULL               .         -9999                         : Missing value
COMP               .                                       : Company
WELL               .         4621                          : Well name
FLD                .         Узень                         : Field
LOC                .                                       : Location
CNTY               .         Казахстан                     : County
STAT               .                                       : State
CTRY               .                                       : Country
SRVC               .                                       : Service Company
DATE               .                                       : Date
UWI                .                                       : Unique Well ID
Block              .         4                             : 
Category           .         Нефтяная                      : 
Condition          .         Ликвидированная               : 
Date               .         25.10.1990                    : 
EREF               .m        230.2                         : 100.8
Gorizont           .         13                            : 14
Interpretator      .         Ткачева И.Г.                  : 
Kupol              .         Основной                      : osnovnoi
Mud                .         0                             : 
Mud_density        .         0                             : 
Mud_resistivity    .         0                             : 
NGDU               .         НГДУ-1                        : 
ORIGINALWELLNAME   .         4621                          : 
Spud_date          .         1990                          : 1961
Uslovie            .         13                            : 
Viscosity          .         0                             : 
X                  .m        54257.1                       : 46154
Y                  .m        81873.23                      : 85761.93
YEAR               .         2019                          : 
~Parameter Information Block
#_______________________________________________________________________________
#
#PARAMETER_NAME    .UNIT     VALUE                         : DESCRIPTION
#_______________________________________________________________________________
SET                .         LQC_KAZNIPI_Petrel            : 
GSDD               .         CSAT                          : CSATкрив,0,DEPT,BOTTOM,,,,0
TLFamily_CALI      .         Caliper                       : 
TLFamily_CILD      .         Conductivity                  : 
TLFamily_COLL      .         Net Reservoir Flag            : 
TLFamily_CSAT      .         Fluid Code                    : 
TLFamily_DEPT      .         Measured Depth                : 
TLFamily_GR        .         Russian Gamma Ray             : 
TLFamily_GZ1       .         Gradient 045                  : 
TLFamily_GZ2       .         Gradient 105                  : 
TLFamily_GZ3       .         Gradient 225                  : 
TLFamily_GZ4       .         Gradient 425                  : 
TLFamily_GZ5       .         Gradient 850                  : 
TLFamily_LLS       .         Lateral Log Resistivity       : 
TLFamily_MINV      .         Micro Gradient Resistivity    : 
TLFamily_MNOR      .         Micro Resistivity             : 
TLFamily_NGLD      .         Neutron Gamma                 : 
TLFamily_OGZ       .         Gradient Inverted 225         : 
TLFamily_PHIE      .         Effective Porosity            : 
TLFamily_PHIEN     .         Effective Porosity            : 
TLFamily_PHIT      .         Porosity                      : 
TLFamily_PRMB      .         Permeability                  : 
TLFamily_PRMB_DGR  .         Permeability                  : 
TLFamily_RT        .         Formation Resistivity         : 
TLFamily_SOIL_ARCHIE .         Oil Saturation                : 
TLFamily_SOIL_DW   .         Oil Saturation                : 
TLFamily_SP        .         Spontaneous Potential         : 
TLFamily_VSH_FIN   .         Shale Volume                  : 
TLFamily_VSH_GR    .         Shale Volume                  : 
TLFamily_VSH_SP    .         Shale Volume                  : 
~Curve Information
#_______________________________________________________________________________
#
#LOGNAME           .UNIT     LOG_ID                        : DESCRIPTION
#_______________________________________________________________________________
DEPT               .M                                      : Колонка глубины 
CALI               .м                                      : Каверномер 
CILD               .мСм/м                                  : Индукционный каротаж зондом 6Ф1 
COLL               .unitless                               : Описание 
CSAT               .unitless                               : Описание 
GR                 .uR/h                                   : Гамма каротаж 
GZ1                .Ohmm                                   : Градиент-зонд  длиной 0.45м 
GZ2                .Ohmm                                   : Градиент-зонд  длиной 1.05м 
GZ3                .Ohmm                                   : Градиент-зонд  длиной 2.25м 
GZ4                .Ohmm                                   : Градиент-зонд  длиной 4.5м 
GZ5                .Ohmm                                   : Градиент-зонд  длиной 8.5м 
LLS                .Ohmm                                   : Боковой каротаж 
MINV               .Ohmm                                   : Микро-градиент зонд 
MNOR               .Ohmm                                   : Микро-потенциал зонд 
NGLD               .у.е.                                   : Показания зонда НГК-60 аппаратуры ДРСТ-3-90 
OGZ                .Ohmm                                   : Обращенный градиент-зонд 
PHIE               .v/v                                    : Описание 
PHIEN              .v/v                                    :  
PHIT               .v/v                                    : Описание 
PRMB               .mD                                     :  
PRMB_DGR           .mD                                     :  
RT                 .ohmm                                   : Удельное электрическое сопротивление 
SOIL_ARCHIE        .v/v                                    :  
SOIL_DW            .v/v                                    :  
SP                 .мВ                                     : Потенциал самополяризации 
VSH_FIN            .v/v                                    : Описание 
VSH_GR             .v/v                                    : Shale volume 
VSH_SP             .v/v                                    : Shale Volume 
~Ascii
# ...
962.4      0.212      0.259      -9999      -9999      9.459      -9999      -9999      5.074      -9999      -9999      2.912      1.512      1.566      1.182      2.647      0.1769758  0.1769758  0.32086    5.311043   4.38183    2.912      0.3880478  0.568889   79.324     0.4360126  0.354899   0.5171262 
962.6      0.212      0.269      -9999      -9999      9.66       -9999      -9999      4.650001   -9999      -9999      2.883      1.612      1.607      1.162      2.535      0.1777318  0.1777318  0.32626    5.485063   3.909554   2.883      0.387445   0.5718148  79.689     0.4500856  0.3718166  0.5283546 
962.8      0.211      0.278      -9999      -9999      9.915      -9999      -9999      4.296      -9999      -9999      2.846      1.626      1.643      1.146      2.481      0.1773199  0.1773199  0.33058    5.389543   3.382929   2.846      0.3824741  0.57209    79.873     0.4644247  0.3944447  0.5344046 
963        0.212      0.284      -9999      -9999      10.18      -9999      -9999      4.029      -9999      -9999      2.823      1.563      1.6        1.142      2.481      0.1742594  0.1742594  0.33166    4.73004    2.91068    2.823      0.370647   0.5682865  79.856     0.4769716  0.4194206  0.5345225 
963.2000000000001 0.213      0.289      -9999      -9999      10.229     -9999      -9999      3.906      -9999      -9999      2.825      1.493      1.545      1.149      2.55       0.1728973  0.1728973  0.32977    4.463082   2.830873   2.825      0.3665414  0.5656062  79.564     0.4753719  0.4242091  0.5265347 
963.4      0.214      0.291      -9999      -9999      9.998      -9999      -9999      3.911      -9999      -9999      2.83       1.423      1.496      1.169      2.68       0.1732713  0.1732713  0.32437    4.534841   3.227312   2.83       0.3682569  0.5619606  79.098     0.457875   0.4021031  0.5136469 
963.6      0.215      0.293      -9999      -9999      9.571      -9999      -9999      3.985      -9999      -9999      2.835      1.309      1.425      1.186      2.842      0.1776096  0.1776096  0.31978    5.456553   4.112043   2.835      0.3822299  0.5627936  78.502     0.4308195  0.3642285  0.4974104 
963.8      0.216      0.294      -9999      -9999      9.048      -9999      -9999      4.074      -9999      -9999      2.834      1.306      1.396      1.195      2.987      0.1848986  0.1848986  0.31735    7.446083   5.532603   2.834      0.4033966  0.5676264  77.848     0.401368   0.3226645  0.4800714 
964        0.217      0.297      -9999      -9999      8.553      -9999      -9999      4.116      -9999      -9999      2.834      1.374      1.45       1.198      3.099      0.1920656  0.1920656  0.31654    10.1083    7.326593   2.834      0.4228335  0.5734835  77.324     0.3771953  0.2877039  0.4666868 
964.2000000000001 0.217      0.3        -9999      -9999      8.209      -9999      -9999      4.045      -9999      -9999      2.803      1.428      1.515      1.192      3.155      0.197694   0.197694   0.31816    12.8508    8.905681   2.803      0.4342593  0.5773705  77.217     0.3650485  0.2656644  0.4644326 
964.4      0.216      0.304      -9999      -9999      8.049      -9999      -9999      3.856      -9999      -9999      2.773      1.448      1.54       1.173      3.155      0.2030886  0.2030886  0.32329    16.17524   9.751972   2.773      0.4445727  0.5836701  77.502     0.3642468  0.2559969  0.4724968 
964.6      0.214      0.309      -9999      -9999      8.231      -9999      -9999      3.597      -9999      -9999      2.742      1.505      1.583      1.16       3.099      0.2020907  0.2020907  0.3268     15.50131   8.795205   2.742      0.4392343  0.5831887  78.085     0.3779069  0.267022   0.4887919 
964.8      0.213      0.315      -9999      -9999      8.648      -9999      -9999      3.295      -9999      -9999      2.711      1.532      1.59       1.148      3.043      0.1967568  0.1967568  0.33004    12.34726   6.942142   2.711      0.4229463  0.5787928  78.952     0.4038886  0.2941063  0.5136709 
965        0.213      0.318      -9999      -9999      9.179      -9999      -9999      3.018      -9999      -9999      2.677      1.587      1.608      1.13       3.003      0.1902509  0.1902509  0.3349     9.355474   5.136297   2.677      0.4022675  0.5741942  79.965     0.4383307  0.3326075  0.5440539 
965.2000000000001 0.214      0.318      -9999      -9999      9.599      -9999      -9999      2.837      -9999      -9999      2.688      1.627      1.606      1.122      3.013      0.1814952  0.1814952  0.33706    6.440047   4.047234   2.688      0.3784269  0.5688092  80.985     0.4714086  0.3665989  0.5762182 
965.4      0.216      0.316      -9999      -9999      9.937      -9999      -9999      2.753      -9999      -9999      2.687      1.581      1.569      1.114      3.074      0.1739353  0.1739353  0.33922    4.665111   3.340966   2.687      0.3548497  0.5632463  81.862     0.5008627  0.3964604  0.6052651 
965.6      0.218      0.312      -9999      -9999      10.12      -9999      -9999      2.732      -9999      -9999      2.691      1.538      1.568      1.114      3.17       0.1677196  0.1677196  0.33922    3.578748   3.011474   2.691      0.3345394  0.557414   82.453     0.5196983  0.4136306  0.625766  
965.8      0.222      0.305      -9999      -9999      10.199     -9999      -9999      2.774      -9999      -9999      2.726      1.51       1.589      1.123      3.264      0.1626764  0.1626764  0.33679    2.886156   2.879471   2.726      0.3207388  0.5531217  82.672     0.5276169  0.4212709  0.6339629 
966        0.226      0.295      -9999      -9999      10.107     -9999      -9999      2.835      -9999      -9999      2.771      1.421      1.572      1.131      3.361      0.1621579  0.1621579  0.33463    2.823035   3.033767   2.771      0.3240609  0.5544553  82.62      0.5226426  0.4123867  0.6328984 
966.2000000000001 0.229      0.284      -9999      -9999      9.853      -9999      -9999      2.905      -9999      -9999      2.796      1.3        1.586      1.137      3.442      0.1662356  0.1662356  0.33301    3.359267   3.504052   2.796      0.3413069  0.5593317  82.277     0.505377   0.3888194  0.6219346 
966.4      0.23       0.271      -9999      -9999      9.759      -9999      -9999      2.997      -9999      -9999      2.907      1.594      1.776      1.14       3.511      0.1701025  0.1701025  0.3322     3.961579   3.696006   2.907      0.3660558  0.5709975  81.657     0.4912047  0.3804433  0.6019661 
966.6      0.23       0.259      -9999      -9999      9.793      -9999      -9999      3.125      -9999      -9999      3.207      1.537      1.91       1.137      3.574      0.1744299  0.1744299  0.33301    4.764558   3.625391   3.207      0.4077122  0.5961149  80.883     0.4805458  0.3834519  0.5776398 
966.8      0.229      0.252      -9999      -9999      9.883      -9999      -9999      3.272      -9999      -9999      3.368      1.406      1.858      1.132      3.645      0.1784719  0.1784719  0.33436    5.660969   3.44491    3.368      0.4326057  0.6103492  80.079     0.4723882  0.3915313  0.5532451 
967        0.226      0.249      -9999      -9999      10.062     -9999      -9999      3.393      -9999      -9999      3.357      1.319      1.776      1.133      3.706      0.1790852  0.1790852  0.33409    5.810982   3.112224   3.357      0.4334291  0.6100414  79.328     0.4697117  0.4081097  0.5313136 
967.2000000000001 0.226      0.251      -9999      -9999      10.321     -9999      -9999      3.435      -9999      -9999      3.314      1.233      1.662      1.132      3.706      0.178457   0.178457   0.33436    5.657365   2.686896   3.314      0.4282441  0.6071747  78.625     0.4724334  0.4333479  0.5115189 
967.4      0.227      0.253      -9999      -9999      10.339     -9999      -9999      3.419      -9999      -9999      3.201      0.942      1.428      1.138      3.602      0.1793443  0.1793443  0.33274    5.875575   2.659595   3.201      0.4213648  0.5998918  77.999     0.4648353  0.4351588  0.4945118 
