~Version
 VERS              .         2.0                           : CWLS LOG ASCII STANDARD - VERSION 2.0
 WRAP              .         NO                            : ONE LINE PER DEPTH STEP
 DLM               .         SPACE                         : DELIMITING CHARACTER(SPACE TAB OR COMMA)
~Well Information
#_______________________________________________________________________________
#
#PARAMETER_NAME    .UNIT     VALUE                         : DESCRIPTION
#_______________________________________________________________________________
STRT               .M        900                           : First reference value
STOP               .M        1234                          : Last reference value
STEP               .M        0.2                           : Step increment
NULL               .         -9999                         : Missing value
COMP               .                                       : Company
WELL               .         4621                          : Well name
FLD                .         Узень                         : Field
LOC                .                                       : Location
CNTY               .         Казахстан                     : County
STAT               .                                       : State
CTRY               .                                       : Country
SRVC               .                                       : Service Company
DATE               .                                       : Date
UWI                .                                       : Unique Well ID
Block              .         4                             : 
Category           .         Нефтяная                      : 
Condition          .         Ликвидированная               : 
Date               .         25.10.1990                    : 
EREF               .m        230.2                         : 100.8
Gorizont           .         13                            : 14
Interpretator      .         Ткачева И.Г.                  : 
Kupol              .         Основной                      : osnovnoi
Mud                .         0                             : 
Mud_density        .         0                             : 
Mud_resistivity    .         0                             : 
NGDU               .         НГДУ-1                        : 
ORIGINALWELLNAME   .         4621                          : 
Spud_date          .         1990                          : 1961
Uslovie            .         13                            : 
Viscosity          .         0                             : 
X                  .m        54257.1                       : 46154
Y                  .m        81873.23                      : 85761.93
YEAR               .         2019                          : 
~Parameter Information Block
#_______________________________________________________________________________
#
#PARAMETER_NAME    .UNIT     VALUE                         : DESCRIPTION
#_______________________________________________________________________________
SET                .         LQC_KAZNIPI_Petrel            : 
GSDD               .         CSAT                          : CSATкрив,0,DEPT,BOTTOM,,,,0
TLFamily_CALI      .         Caliper                       : 
TLFamily_CILD      .         Conductivity                  : 
TLFamily_COLL      .         Net Reservoir Flag            : 
TLFamily_CSAT      .         Fluid Code                    : 
TLFamily_DEPT      .         Measured Depth                : 
TLFamily_GR        .         Russian Gamma Ray             : 
TLFamily_GZ1       .         Gradient 045                  : 
TLFamily_GZ2       .         Gradient 105                  : 
TLFamily_GZ3       .         Gradient 225                  : 
TLFamily_GZ4       .         Gradient 425                  : 
TLFamily_GZ5       .         Gradient 850                  : 
TLFamily_LLS       .         Lateral Log Resistivity       : 
TLFamily_MINV      .         Micro Gradient Resistivity    : 
TLFamily_MNOR      .         Micro Resistivity             : 
TLFamily_NGLD      .         Neutron Gamma                 : 
TLFamily_OGZ       .         Gradient Inverted 225         : 
TLFamily_PHIE      .         Effective Porosity            : 
TLFamily_PHIEN     .         Effective Porosity            : 
TLFamily_PHIT      .         Porosity                      : 
TLFamily_PRMB      .         Permeability                  : 
TLFamily_PRMB_DGR  .         Permeability                  : 
TLFamily_RT        .         Formation Resistivity         : 
TLFamily_SOIL_ARCHIE .         Oil Saturation                : 
TLFamily_SOIL_DW   .         Oil Saturation                : 
TLFamily_SP        .         Spontaneous Potential         : 
TLFamily_VSH_FIN   .         Shale Volume                  : 
TLFamily_VSH_GR    .         Shale Volume                  : 
TLFamily_VSH_SP    .         Shale Volume                  : 
~Curve Information
#_______________________________________________________________________________
#
#LOGNAME           .UNIT     LOG_ID                        : DESCRIPTION
#_______________________________________________________________________________
DEPT               .M                                      : Колонка глубины 
CALI               .м                                      : Каверномер 
CILD               .мСм/м                                  : Индукционный каротаж зондом 6Ф1 
COLL               .unitless                               : Описание 
CSAT               .unitless                               : Описание 
GR                 .uR/h                                   : Гамма каротаж 
GZ1                .Ohmm                                   : Градиент-зонд  длиной 0.45м 
GZ2                .Ohmm                                   : Градиент-зонд  длиной 1.05м 
GZ3                .Ohmm                                   : Градиент-зонд  длиной 2.25м 
GZ4                .Ohmm                                   : Градиент-зонд  длиной 4.5м 
GZ5                .Ohmm                                   : Градиент-зонд  длиной 8.5м 
LLS                .Ohmm                                   : Боковой каротаж 
MINV               .Ohmm                                   : Микро-градиент зонд 
MNOR               .Ohmm                                   : Микро-потенциал зонд 
NGLD               .у.е.                                   : Показания зонда НГК-60 аппаратуры ДРСТ-3-90 
OGZ                .Ohmm                                   : Обращенный градиент-зонд 
PHIE               .v/v                                    : Описание 
PHIEN              .v/v                                    :  
PHIT               .v/v                                    : Описание 
PRMB               .mD                                     :  
PRMB_DGR           .mD                                     :  
RT                 .ohmm                                   : Удельное электрическое сопротивление 
SOIL_ARCHIE        .v/v                                    :  
SOIL_DW            .v/v                                    :  
SP                 .мВ                                     : Потенциал самополяризации 
VSH_FIN            .v/v                                    : Описание 
VSH_GR             .v/v                                    : Shale volume 
VSH_SP             .v/v                                    : Shale Volume 
~Ascii
# ...
1030       0.216      0.21       6          6          5.324      -9999      -9999      8.622      -9999      -9999      21.731     2.194      2.194      2.22       8.413      0.01       0          0.04059999 0.004289259 10.5844    21.731     0          0          82.437     0.3329186  0.2475761  0.418261  
1030.2     0.217      0.236      6          6          5.758      -9999      -9999      8.404      -9999      -9999      15.454     2.102      1.809      2.022      7.798      0.01       0          0.09405998 0.004289259 7.729053   15.454     0          0          84.536     0.3828475  0.2814897  0.4842054 
1030.4     0.217      0.259      6          6          6.089      -9999      -9999      7.77       -9999      -9999      7.754      1.931      1.54       1.603      6.78       0.06513572 0.06513572 0.20719    0.04504323 6.08122    7.754      0.07700435 0.4971966  86.401     0.4304675  0.3104449  0.55049   
1030.6     0.218      0.277      -9999      -9999      6.264      -9999      -9999      6.707      -9999      -9999      3.478      1.929      1.579      1.236      5.515      0.1514477  0.1514477  0.30628    1.78787    5.357156   3.478      0.3551769  0.5688419  87.954     0.469189   0.3269384  0.6114395 
1030.8     0.218      0.29       -9999      -9999      6.345      -9999      -9999      5.397      -9999      -9999      2.632      1.968      1.611      1.144      4.194      0.1667538  0.1667538  0.33112    3.434331   5.051857   2.632      0.3241898  0.5447616  89.135     0.4980795  0.3348664  0.6612926 
1031       0.218      0.301      -9999      -9999      6.472      -9999      -9999      4.325      -9999      -9999      2.599      2.032      1.641      1.137      3.244      0.1566927  0.1566927  0.33301    2.23608    4.607977   2.599      0.2823128  0.5325085  89.942     0.5342948  0.3476808  0.7209088 
1031.2     0.218      0.309      -9999      -9999      6.554      -9999      -9999      3.608      -9999      -9999      2.673      2.025      1.654      1.147      2.67       0.1490829  0.1490829  0.33031    1.616349   4.342227   2.673      0.2603191  0.5279043  90.514     0.5491731  0.3562171  0.742129  
1031.4     0.218      0.316      -9999      -9999      6.664      -9999      -9999      3.296      -9999      -9999      2.779      1.984      1.645      1.129      2.474      0.1498805  0.1498805  0.33517    1.672281   4.009644   2.779      0.2770631  0.5421219  90.863     0.5614833  0.3679984  0.7549681 
1031.6     0.218      0.321      -9999      -9999      6.758      -9999      -9999      3.267      -9999      -9999      2.841      1.94       1.635      1.115      2.497      0.1505483  0.1505483  0.33895    1.720591   3.745697   2.841      0.2872747  0.5510613  91.099     0.5709143  0.3783743  0.7634542 
1031.8     0.219      0.323      -9999      -9999      6.752      -9999      -9999      3.505      -9999      -9999      2.845      1.86       1.608      1.111      2.533      0.1507518  0.1507518  0.34003    1.735591   3.762015   2.845      0.2885827  0.5524962  91.271     0.5735703  0.3777033  0.7694374 
1032       0.22       0.324      -9999      -9999      6.676      -9999      -9999      3.76       -9999      -9999      2.804      1.821      1.575      1.108      2.553      0.1523278  0.1523278  0.34084    1.856256   3.974939   2.804      0.2901785  0.5516534  91.387     0.5712492  0.369307   0.7731915 
1032.2     0.221      0.323      -9999      -9999      6.622      -9999      -9999      3.911      -9999      -9999      2.753      1.775      1.567      1.122      2.558      0.1492192  0.1492192  0.33706    1.625773   4.133512   2.753      0.2710651  0.5408241  91.454     0.5692145  0.3634548  0.7749742 
1032.4     0.222      0.322      -9999      -9999      6.548      -9999      -9999      3.914      -9999      -9999      2.713      1.755      1.565      1.148      2.543      0.1434637  0.1434637  0.33004    1.271905   4.361141   2.713      0.2404616  0.5243858  91.482     0.5653826  0.3555855  0.7751797 
1032.6     0.222      0.318      -9999      -9999      6.553      -9999      -9999      3.869      -9999      -9999      2.68       1.788      1.569      1.168      2.52       0.1380366  0.1380366  0.32464    1.009092   4.345373   2.68       0.2099939  0.5095142  91.496     0.5654649  0.3561118  0.7748179 
1032.8     0.222      0.313      -9999      -9999      6.681      -9999      -9999      3.736      -9999      -9999      2.687      1.881      1.591      1.199      2.509      0.1274789  0.1274789  0.31627    0.6432452  3.960567   2.687      0.1543406  0.4872373  91.507     0.5720943  0.3698536  0.7743349 
1033       0.222      0.307      -9999      -9999      6.794      -9999      -9999      3.613      -9999      -9999      2.745      1.929      1.621      1.217      2.522      0.1206242  0.1206242  0.31141    0.4801884  3.649277   2.745      0.1214848  0.4772893  91.518     0.5781386  0.3824251  0.7738522 
1033.2     0.221      0.301      -9999      -9999      6.864      -9999      -9999      3.497      -9999      -9999      2.851      1.982      1.654      1.201      2.54       0.1237104  0.1237104  0.31573    0.5477396  3.468841   2.851      0.1557482  0.4962079  91.528     0.5818777  0.3904261  0.7733293 
1033.4     0.22       0.295      -9999      -9999      7.005      -9999      -9999      3.39       -9999      -9999      3.001      1.99       1.699      1.174      2.555      0.1283763  0.1283763  0.32302    0.6683415  3.13202    3.001      0.2019718  0.5225019  91.533     0.5898294  0.4070543  0.7726045 
1033.6     0.22       0.293      -9999      -9999      7.197      -9999      -9999      3.311      -9999      -9999      3.152      2.086      1.759      1.14       2.555      0.1337308  0.1337308  0.3322     0.8398036  2.725336   3.152      0.2474127  0.5490637  91.541     0.6014217  0.4308415  0.7720019 
1033.8     0.221      0.294      -9999      -9999      7.393      -9999      -9999      3.317      -9999      -9999      3.231      2.153      1.84       1.11       2.528      0.1376936  0.1376936  0.3403     0.9944383  2.364598   3.231      0.2747858  0.5660208  91.548     0.6139587  0.4565587  0.7713587 
1034       0.222      0.298      -9999      -9999      7.573      -9999      -9999      3.309      -9999      -9999      3.212      2.128      1.852      1.092      2.464      0.1385399  0.1385399  0.34516    1.030989   2.075524   3.212      0.2766466  0.5696078  91.555     0.6261214  0.4815266  0.7707163 
1034.2     0.224      0.303      -9999      -9999      7.693      -9999      -9999      3.29       -9999      -9999      3.095      2.035      1.785      1.091      2.393      0.1360117  0.1360117  0.34543    0.9256037  1.902721   3.095      0.2520387  0.5588291  91.567     0.6346009  0.4989258  0.770276  
1034.4     0.227      0.31       -9999      -9999      7.768      -9999      -9999      3.262      -9999      -9999      2.937      2.015      1.73       1.102      2.337      0.131261   0.131261   0.34246    0.7558403  1.802102   2.937      0.2093103  0.5387368  91.58      0.639997   0.5101182  0.7698758 
1034.6     0.23       0.318      -9999      -9999      7.788      -9999      -9999      3.246      -9999      -9999      2.775      1.911      1.656      1.1        2.304      0.1313676  0.1313676  0.343      0.7592837  1.776181   2.775      0.1885492  0.5260809  91.593     0.6413104  0.513145   0.7694758 
1034.8     0.232      0.324      -9999      -9999      7.77       -9999      -9999      3.243      -9999      -9999      2.666      1.827      1.558      1.083      2.304      0.1364532  0.1364532  0.34759    0.9431974  1.799493   2.666      0.2000519  0.5270994  91.609     0.6398085  0.5104201  0.7691969 
1035       0.234      0.331      -9999      -9999      7.726      -9999      -9999      3.243      -9999      -9999      2.623      1.79       1.516      1.066      2.337      0.1421717  0.1421717  0.35218    1.20371    1.857775   2.623      0.2222371  0.5341982  91.626     0.636389   0.5038199  0.768958  
