~Version
 VERS              .         2.0                           : CWLS LOG ASCII STANDARD - VERSION 2.0
 WRAP              .         NO                            : ONE LINE PER DEPTH STEP
 DLM               .         SPACE                         : DELIMITING CHARACTER(SPACE TAB OR COMMA)
~Well Information
#_______________________________________________________________________________
#
#PARAMETER_NAME    .UNIT     VALUE                         : DESCRIPTION
#_______________________________________________________________________________
STRT               .M        900                           : First reference value
STOP               .M        1234                          : Last reference value
STEP               .M        0.2                           : Step increment
NULL               .         -9999                         : Missing value
COMP               .                                       : Company
WELL               .         4621                          : Well name
FLD                .         Узень                         : Field
LOC                .                                       : Location
CNTY               .         Казахстан                     : County
STAT               .                                       : State
CTRY               .                                       : Country
SRVC               .                                       : Service Company
DATE               .                                       : Date
UWI                .                                       : Unique Well ID
Block              .         4                             : 
Category           .         Нефтяная                      : 
Condition          .         Ликвидированная               : 
Date               .         25.10.1990                    : 
EREF               .m        230.2                         : 100.8
Gorizont           .         13                            : 14
Interpretator      .         Ткачева И.Г.                  : 
Kupol              .         Основной                      : osnovnoi
Mud                .         0                             : 
Mud_density        .         0                             : 
Mud_resistivity    .         0                             : 
NGDU               .         НГДУ-1                        : 
ORIGINALWELLNAME   .         4621                          : 
Spud_date          .         1990                          : 1961
Uslovie            .         13                            : 
Viscosity          .         0                             : 
X                  .m        54257.1                       : 46154
Y                  .m        81873.23                      : 85761.93
YEAR               .         2019                          : 
~Parameter Information Block
#_______________________________________________________________________________
#
#PARAMETER_NAME    .UNIT     VALUE                         : DESCRIPTION
#_______________________________________________________________________________
SET                .         LQC_KAZNIPI_Petrel            : 
GSDD               .         CSAT                          : CSATкрив,0,DEPT,BOTTOM,,,,0
TLFamily_CALI      .         Caliper                       : 
TLFamily_CILD      .         Conductivity                  : 
TLFamily_COLL      .         Net Reservoir Flag            : 
TLFamily_CSAT      .         Fluid Code                    : 
TLFamily_DEPT      .         Measured Depth                : 
TLFamily_GR        .         Russian Gamma Ray             : 
TLFamily_GZ1       .         Gradient 045                  : 
TLFamily_GZ2       .         Gradient 105                  : 
TLFamily_GZ3       .         Gradient 225                  : 
TLFamily_GZ4       .         Gradient 425                  : 
TLFamily_GZ5       .         Gradient 850                  : 
TLFamily_LLS       .         Lateral Log Resistivity       : 
TLFamily_MINV      .         Micro Gradient Resistivity    : 
TLFamily_MNOR      .         Micro Resistivity             : 
TLFamily_NGLD      .         Neutron Gamma                 : 
TLFamily_OGZ       .         Gradient Inverted 225         : 
TLFamily_PHIE      .         Effective Porosity            : 
TLFamily_PHIEN     .         Effective Porosity            : 
TLFamily_PHIT      .         Porosity                      : 
TLFamily_PRMB      .         Permeability                  : 
TLFamily_PRMB_DGR  .         Permeability                  : 
TLFamily_RT        .         Formation Resistivity         : 
TLFamily_SOIL_ARCHIE .         Oil Saturation                : 
TLFamily_SOIL_DW   .         Oil Saturation                : 
TLFamily_SP        .         Spontaneous Potential         : 
TLFamily_VSH_FIN   .         Shale Volume                  : 
TLFamily_VSH_GR    .         Shale Volume                  : 
TLFamily_VSH_SP    .         Shale Volume                  : 
~Curve Information
#_______________________________________________________________________________
#
#LOGNAME           .UNIT     LOG_ID                        : DESCRIPTION
#_______________________________________________________________________________
DEPT               .M                                      : Колонка глубины 
CALI               .м                                      : Каверномер 
CILD               .мСм/м                                  : Индукционный каротаж зондом 6Ф1 
COLL               .unitless                               : Описание 
CSAT               .unitless                               : Описание 
GR                 .uR/h                                   : Гамма каротаж 
GZ1                .Ohmm                                   : Градиент-зонд  длиной 0.45м 
GZ2                .Ohmm                                   : Градиент-зонд  длиной 1.05м 
GZ3                .Ohmm                                   : Градиент-зонд  длиной 2.25м 
GZ4                .Ohmm                                   : Градиент-зонд  длиной 4.5м 
GZ5                .Ohmm                                   : Градиент-зонд  длиной 8.5м 
LLS                .Ohmm                                   : Боковой каротаж 
MINV               .Ohmm                                   : Микро-градиент зонд 
MNOR               .Ohmm                                   : Микро-потенциал зонд 
NGLD               .у.е.                                   : Показания зонда НГК-60 аппаратуры ДРСТ-3-90 
OGZ                .Ohmm                                   : Обращенный градиент-зонд 
PHIE               .v/v                                    : Описание 
PHIEN              .v/v                                    :  
PHIT               .v/v                                    : Описание 
PRMB               .mD                                     :  
PRMB_DGR           .mD                                     :  
RT                 .ohmm                                   : Удельное электрическое сопротивление 
SOIL_ARCHIE        .v/v                                    :  
SOIL_DW            .v/v                                    :  
SP                 .мВ                                     : Потенциал самополяризации 
VSH_FIN            .v/v                                    : Описание 
VSH_GR             .v/v                                    : Shale volume 
VSH_SP             .v/v                                    : Shale Volume 
~Ascii
# ...
920.8      0.245      -9999      -9999      -9999      7.481      -9999      -9999      4.718      -9999      -9999      -9999      -9999      -9999      1.129      6.251      0.1922896  0.1922896  0.33517    10.20534   13.46025   -9999      -9999      -9999      85.326     0.432971   0.2244317  0.6415104 
921        0.243      -9999      -9999      -9999      7.609      -9999      -9999      5.125      -9999      -9999      -9999      -9999      -9999      1.128      6.391      0.191586   0.191586   0.33544    9.903652   12.51735   -9999      -9999      -9999      85.313     0.4359212  0.2311869  0.6406555 
921.2000000000001 0.241      -9999      -9999      -9999      7.748      -9999      -9999      5.347      -9999      -9999      -9999      -9999      -9999      1.126      6.522999   0.1919685  0.1919685  0.33598    10.06656   11.56809   -9999      -9999      -9999      85.133     0.4363983  0.2387531  0.6340436 
921.4      0.241      -9999      -9999      -9999      7.945      -9999      -9999      5.392      -9999      -9999      -9999      -9999      -9999      1.118      6.217999   0.1938135  0.1938135  0.33814    10.89064   10.34472   -9999      -9999      -9999      84.874     0.4373531  0.2499025  0.6248038 
921.6      0.243      -9999      -9999      -9999      8.132      -9999      -9999      5.297      -9999      -9999      -9999      -9999      -9999      1.104      5.712999   0.1971242  0.1971242  0.34192    12.5423    9.303375   -9999      -9999      -9999      84.642     0.4387751  0.2609672  0.6165829 
921.8      0.246      -9999      -9999      -9999      8.289      -9999      -9999      5.143      -9999      -9999      -9999      -9999      -9999      1.079      5.129      0.2029012  0.2029012  0.34867    16.04654   8.510486   -9999      -9999      -9999      84.541     0.4417235  0.2706343  0.6128127 
922        0.249      -9999      -9999      -9999      8.394      -9999      -9999      4.957      -9999      -9999      -9999      -9999      -9999      1.039      4.471      0.2124509  0.2124509  0.35947    24.11375   8.018281   -9999      -9999      -9999      84.58      0.4455123  0.2772986  0.613726  
922.2000000000001 0.251      -9999      -9999      -9999      8.497      -9999      -9999      4.983      -9999      -9999      -9999      -9999      -9999      1.008      3.742      0.2189507  0.2189507  0.36784    31.81679   7.563125   -9999      -9999      -9999      84.73      0.4511797  0.2839953  0.6183641 
922.4      0.25       -9999      -9999      -9999      8.595      -9999      -9999      5.143      -9999      -9999      -9999      -9999      -9999      0.994      3.378      0.2204593  0.2204593  0.37162    33.93117   7.154068   -9999      -9999      -9999      84.956     0.4580628  0.2905171  0.6256084 
922.6      0.248      -9999      -9999      -9999      8.703      -9999      -9999      5.391      -9999      -9999      -9999      -9999      -9999      0.99       3.132      0.2190554  0.2190554  0.3727     31.95915   6.728851   -9999      -9999      -9999      85.193     0.4655897  0.2978779  0.6333016 
922.8      0.246      -9999      -9999      -9999      8.721      -9999      -9999      5.648      -9999      -9999      -9999      -9999      -9999      0.999      3          0.2154975  0.2154975  0.37027    27.4596    6.66048    -9999      -9999      -9999      85.367     0.4690076  0.2991227  0.6388925 
923        0.244      -9999      -9999      -9999      8.639      -9999      -9999      5.883999   -9999      -9999      -9999      -9999      -9999      1.027      2.985      0.2088073  0.2088073  0.36271    20.64312   6.97768    -9999      -9999      -9999      85.389     0.466372   0.2934937  0.6392502 
923.2000000000001 0.241      -9999      -9999      -9999      8.422      -9999      -9999      6.049      -9999      -9999      -9999      -9999      -9999      1.066      3.178      0.202057   0.202057   0.35218    15.47906   7.891902   -9999      -9999      -9999      85.153     0.4549181  0.2791032  0.6307329 
923.4      0.239      -9999      -9999      -9999      8.105      -9999      -9999      6.306      -9999      -9999      -9999      -9999      -9999      1.088      3.594      0.2019888  0.2019888  0.34624    15.43411   9.446991   -9999      -9999      -9999      84.697     0.4371246  0.2593398  0.6149095 
923.6      0.236      -9999      -9999      -9999      7.849      -9999      -9999      6.667      -9999      -9999      -9999      -9999      -9999      1.094      4.232      0.205863   0.205863   0.34462    18.20709   10.92381   -9999      -9999      -9999      84.153     0.4204758  0.2444057  0.5965458 
923.8      0.232      -9999      -9999      -9999      7.773      -9999      -9999      7.131      -9999      -9999      -9999      -9999      -9999      1.089      4.852      0.2109585  0.2109585  0.34597    22.6267    11.40516   -9999      -9999      -9999      83.592     0.4091258  0.2401399  0.5781116 
924        0.228      -9999      -9999      -9999      7.912      -9999      -9999      7.422      -9999      -9999      -9999      -9999      -9999      1.086      5.446001   0.213085   0.213085   0.34678    24.77473   10.54024   -9999      -9999      -9999      83.099     0.4051365  0.2479992  0.5622738 
924.2000000000001 0.225      -9999      -9999      -9999      8.184      -9999      -9999      7.198999   -9999      -9999      -9999      -9999      -9999      1.07       5.779      0.2165577  0.2165577  0.3511     28.72971   9.032898   -9999      -9999      -9999      82.753     0.4077041  0.2641302  0.5512779 
924.4      0.222      -9999      -9999      -9999      8.562      -9999      -9999      6.709      -9999      -9999      -9999      -9999      -9999      1.059      5.82       0.2165034  0.2165034  0.35407    28.66332   7.289278   -9999      -9999      -9999      82.572     0.4168684  0.2883044  0.5454325 
924.6      0.221      -9999      -9999      -9999      8.803      -9999      -9999      5.944      -9999      -9999      -9999      -9999      -9999      1.052      5.581      0.2155654  0.2155654  0.35596    27.53922   6.357696   -9999      -9999      -9999      82.603     0.4254383  0.3048597  0.5460168 
924.8      0.22       -9999      -9999      -9999      8.858      -9999      -9999      4.957      -9999      -9999      -9999      -9999      -9999      1.043      5.184      0.2165173  0.2165173  0.35839    28.68036   6.162365   -9999      -9999      -9999      82.781     0.4299172  0.3087692  0.5510651 
925        0.22       -9999      -9999      -9999      8.809      -9999      -9999      4.092      -9999      -9999      -9999      -9999      -9999      1.033      4.674      0.2187498  0.2187498  0.36109    31.54538   6.336093   -9999      -9999      -9999      82.999     0.4313338  0.3052838  0.5573839 
925.2000000000001 0.22       -9999      -9999      -9999      8.589      -9999      -9999      3.683      -9999      -9999      -9999      -9999      -9999      1.016      4.217      0.2250257  0.2250257  0.36568    41.22678   7.178464   -9999      -9999      -9999      83.171     0.4262252  0.2901135  0.5623369 
925.4      0.22       -9999      -9999      -9999      8.306      -9999      -9999      3.39       -9999      -9999      -9999      -9999      -9999      1.005      3.836      0.2308628  0.2308628  0.36865    52.88063   8.428791   -9999      -9999      -9999      83.216     0.4175371  0.2717023  0.5633719 
925.6      0.22       -9999      -9999      -9999      8.095      -9999      -9999      3.254      -9999      -9999      -9999      -9999      -9999      1.003      3.577      0.2342397  0.2342397  0.36919    61.0724    9.500741   -9999      -9999      -9999      83.091     0.4089404  0.2587397  0.5591411 
925.8      0.22       -9999      -9999      -9999      8.082      -9999      -9999      3.259      -9999      -9999      -9999      -9999      -9999      1.009      3.434      0.2341022  0.2341022  0.36757    60.71536   9.571081   -9999      -9999      -9999      82.835     0.4044479  0.2579616  0.5509343 
