~Version
 VERS              .         2.0                           : CWLS LOG ASCII STANDARD - VERSION 2.0
 WRAP              .         NO                            : ONE LINE PER DEPTH STEP
 DLM               .         SPACE                         : DELIMITING CHARACTER(SPACE TAB OR COMMA)
~Well Information
#_______________________________________________________________________________
#
#PARAMETER_NAME    .UNIT     VALUE                         : DESCRIPTION
#_______________________________________________________________________________
STRT               .M        900                           : First reference value
STOP               .M        1234                          : Last reference value
STEP               .M        0.2                           : Step increment
NULL               .         -9999                         : Missing value
COMP               .                                       : Company
WELL               .         4621                          : Well name
FLD                .         Узень                         : Field
LOC                .                                       : Location
CNTY               .         Казахстан                     : County
STAT               .                                       : State
CTRY               .                                       : Country
SRVC               .                                       : Service Company
DATE               .                                       : Date
UWI                .                                       : Unique Well ID
Block              .         4                             : 
Category           .         Нефтяная                      : 
Condition          .         Ликвидированная               : 
Date               .         25.10.1990                    : 
EREF               .m        230.2                         : 100.8
Gorizont           .         13                            : 14
Interpretator      .         Ткачева И.Г.                  : 
Kupol              .         Основной                      : osnovnoi
Mud                .         0                             : 
Mud_density        .         0                             : 
Mud_resistivity    .         0                             : 
NGDU               .         НГДУ-1                        : 
ORIGINALWELLNAME   .         4621                          : 
Spud_date          .         1990                          : 1961
Uslovie            .         13                            : 
Viscosity          .         0                             : 
X                  .m        54257.1                       : 46154
Y                  .m        81873.23                      : 85761.93
YEAR               .         2019                          : 
~Parameter Information Block
#_______________________________________________________________________________
#
#PARAMETER_NAME    .UNIT     VALUE                         : DESCRIPTION
#_______________________________________________________________________________
SET                .         LQC_KAZNIPI_Petrel            : 
GSDD               .         CSAT                          : CSATкрив,0,DEPT,BOTTOM,,,,0
TLFamily_CALI      .         Caliper                       : 
TLFamily_CILD      .         Conductivity                  : 
TLFamily_COLL      .         Net Reservoir Flag            : 
TLFamily_CSAT      .         Fluid Code                    : 
TLFamily_DEPT      .         Measured Depth                : 
TLFamily_GR        .         Russian Gamma Ray             : 
TLFamily_GZ1       .         Gradient 045                  : 
TLFamily_GZ2       .         Gradient 105                  : 
TLFamily_GZ3       .         Gradient 225                  : 
TLFamily_GZ4       .         Gradient 425                  : 
TLFamily_GZ5       .         Gradient 850                  : 
TLFamily_LLS       .         Lateral Log Resistivity       : 
TLFamily_MINV      .         Micro Gradient Resistivity    : 
TLFamily_MNOR      .         Micro Resistivity             : 
TLFamily_NGLD      .         Neutron Gamma                 : 
TLFamily_OGZ       .         Gradient Inverted 225         : 
TLFamily_PHIE      .         Effective Porosity            : 
TLFamily_PHIEN     .         Effective Porosity            : 
TLFamily_PHIT      .         Porosity                      : 
TLFamily_PRMB      .         Permeability                  : 
TLFamily_PRMB_DGR  .         Permeability                  : 
TLFamily_RT        .         Formation Resistivity         : 
TLFamily_SOIL_ARCHIE .         Oil Saturation                : 
TLFamily_SOIL_DW   .         Oil Saturation                : 
TLFamily_SP        .         Spontaneous Potential         : 
TLFamily_VSH_FIN   .         Shale Volume                  : 
TLFamily_VSH_GR    .         Shale Volume                  : 
TLFamily_VSH_SP    .         Shale Volume                  : 
~Curve Information
#_______________________________________________________________________________
#
#LOGNAME           .UNIT     LOG_ID                        : DESCRIPTION
#_______________________________________________________________________________
DEPT               .M                                      : Колонка глубины 
CALI               .м                                      : Каверномер 
CILD               .мСм/м                                  : Индукционный каротаж зондом 6Ф1 
COLL               .unitless                               : Описание 
CSAT               .unitless                               : Описание 
GR                 .uR/h                                   : Гамма каротаж 
GZ1                .Ohmm                                   : Градиент-зонд  длиной 0.45м 
GZ2                .Ohmm                                   : Градиент-зонд  длиной 1.05м 
GZ3                .Ohmm                                   : Градиент-зонд  длиной 2.25м 
GZ4                .Ohmm                                   : Градиент-зонд  длиной 4.5м 
GZ5                .Ohmm                                   : Градиент-зонд  длиной 8.5м 
LLS                .Ohmm                                   : Боковой каротаж 
MINV               .Ohmm                                   : Микро-градиент зонд 
MNOR               .Ohmm                                   : Микро-потенциал зонд 
NGLD               .у.е.                                   : Показания зонда НГК-60 аппаратуры ДРСТ-3-90 
OGZ                .Ohmm                                   : Обращенный градиент-зонд 
PHIE               .v/v                                    : Описание 
PHIEN              .v/v                                    :  
PHIT               .v/v                                    : Описание 
PRMB               .mD                                     :  
PRMB_DGR           .mD                                     :  
RT                 .ohmm                                   : Удельное электрическое сопротивление 
SOIL_ARCHIE        .v/v                                    :  
SOIL_DW            .v/v                                    :  
SP                 .мВ                                     : Потенциал самополяризации 
VSH_FIN            .v/v                                    : Описание 
VSH_GR             .v/v                                    : Shale volume 
VSH_SP             .v/v                                    : Shale Volume 
~Ascii
900.0      0.224      -9999      -9999      -9999      8.366      -9999      -9999      -9999      -9999      -9999      -9999      -9999      -9999      1.047      -9999      0.2144463  0.2144463  0.35731    26.25574   8.14668    -9999      -9999      -9999      83.029     0.4329202  0.2755055  0.5903349 
900.2000000000001 0.224      -9999      -9999      -9999      8.415      -9999      -9999      4.427      -9999      -9999      -9999      -9999      -9999      1.057      4.532001   0.2112273  0.2112273  0.35461    22.88762   7.923313   -9999      -9999      -9999      83.029     0.4344929  0.278651   0.5903349 
900.4      0.224      -9999      -9999      -9999      8.421      -9999      -9999      4.427      -9999      -9999      -9999      -9999      -9999      1.069      4.532001   0.2079234  0.2079234  0.35137    19.87941   7.896385   -9999      -9999      -9999      83.029     0.4346867  0.2790386  0.5903349 
900.6      0.225      -9999      -9999      -9999      8.561      -9999      -9999      4.49       -9999      -9999      -9999      -9999      -9999      1.077      4.585      0.2045439  0.2045439  0.34921    17.21105   7.293414   -9999      -9999      -9999      82.973     0.4383821  0.2882376  0.5885265 
900.8      0.226      -9999      -9999      -9999      8.608      -9999      -9999      4.577      -9999      -9999      -9999      -9999      -9999      1.075      4.643      0.2047121  0.2047121  0.34975    17.33495   7.101495   -9999      -9999      -9999      82.945     0.4395088  0.2913934  0.5876242 
901        0.227      -9999      -9999      -9999      8.575      -9999      -9999      4.650001   -9999      -9999      -9999      -9999      -9999      1.081      4.71       0.2033307  0.2033307  0.34813    16.34314   7.235711   -9999      -9999      -9999      82.969     0.4387858  0.289174   0.5883976 
901.2000000000001 0.227      -9999      -9999      -9999      8.607      -9999      -9999      4.7        -9999      -9999      -9999      -9999      -9999      1.074      4.765      0.2040166  0.2040166  0.35002    16.82829   7.105525   -9999      -9999      -9999      83.128     0.4424346  0.2913259  0.5935434 
901.4      0.227      -9999      -9999      -9999      8.687      -9999      -9999      4.716      -9999      -9999      -9999      -9999      -9999      1.06       4.806      0.2056417  0.2056417  0.3538     18.03605   6.790212   -9999      -9999      -9999      83.361     0.4489646  0.2967758  0.6011534 
901.6      0.228      -9999      -9999      -9999      8.716      -9999      -9999      4.718      -9999      -9999      -9999      -9999      -9999      1.057      4.836      0.204622   0.204622   0.35461    17.26846   6.679403   -9999      -9999      -9999      83.636     0.4545091  0.2987764  0.6102418 
901.8      0.228      -9999      -9999      -9999      8.761      -9999      -9999      4.708      -9999      -9999      -9999      -9999      -9999      1.059      4.859      0.2022188  0.2022188  0.35407    15.58623   6.511024   -9999      -9999      -9999      83.88      0.4601551  0.3019076  0.6184025 
902        0.229      -9999      -9999      -9999      8.776      -9999      -9999      4.679      -9999      -9999      -9999      -9999      -9999      1.049      4.859      0.2038989  0.2038989  0.35677    16.74404   6.455843   -9999      -9999      -9999      84.032     0.4632457  0.3029586  0.6235329 
902.2000000000001 0.229      -9999      -9999      -9999      8.696      -9999      -9999      4.642      -9999      -9999      -9999      -9999      -9999      1.049      4.852      0.2048951  0.2048951  0.35677    17.47076   6.755629   -9999      -9999      -9999      84.018     0.460227   0.2973952  0.6230589 
902.4      0.23       -9999      -9999      -9999      8.605      -9999      -9999      4.605      -9999      -9999      -9999      -9999      -9999      1.057      4.834001   0.2048706  0.2048706  0.35461    17.45257   7.113595   -9999      -9999      -9999      83.818     0.4537556  0.2911909  0.6163203 
902.6      0.23       -9999      -9999      -9999      8.576      -9999      -9999      4.564      -9999      -9999      -9999      -9999      -9999      1.057      4.806      0.2074128  0.2074128  0.35461    19.4512    7.231607   -9999      -9999      -9999      83.413     0.4460521  0.2892411  0.6028631 
902.8      0.231      -9999      -9999      -9999      8.549      -9999      -9999      4.519      -9999      -9999      -9999      -9999      -9999      1.049      4.776      0.2129361  0.2129361  0.35677    24.61796   7.343241   -9999      -9999      -9999      82.841     0.4358601  0.2874374  0.5842829 
903        0.231      -9999      -9999      -9999      8.702      -9999      -9999      4.487      -9999      -9999      -9999      -9999      -9999      1.045      4.765      0.2155515  0.2155515  0.35785    27.52295   6.73267    -9999      -9999      -9999      82.218     0.4312076  0.2978089  0.5646063 
903.2000000000001 0.231      -9999      -9999      -9999      8.984      -9999      -9999      4.474      -9999      -9999      -9999      -9999      -9999      1.038      4.776      0.2165404  0.2165404  0.35974    28.70861   5.737199   -9999      -9999      -9999      81.742     0.4339381  0.3179155  0.5499607 
903.4      0.23       -9999      -9999      -9999      9.222      -9999      -9999      4.485001   -9999      -9999      -9999      -9999      -9999      1.025      4.804      0.2181999  0.2181999  0.36325    30.81414   5.012502   -9999      -9999      -9999      81.517     0.4395457  0.3359376  0.5431539 
903.6      0.229      -9999      -9999      -9999      9.387      -9999      -9999      4.527      -9999      -9999      -9999      -9999      -9999      1.019      4.844      0.2171274  0.2171274  0.36487    29.43633   4.564538   -9999      -9999      -9999      81.624     0.4477049  0.3490281  0.5463818 
903.8      0.228      -9999      -9999      -9999      9.559      -9999      -9999      4.598      -9999      -9999      -9999      -9999      -9999      1.031      4.887      0.2096171  0.2096171  0.36163    21.36854   4.140136   -9999      -9999      -9999      82.007     0.4606452  0.3632173  0.5580731 
904        0.228      -9999      -9999      -9999      9.607      -9999      -9999      4.676      -9999      -9999      -9999      -9999      -9999      1.044      4.913      0.2022959  0.2022959  0.35812    15.63755   4.028903   -9999      -9999      -9999      82.616     0.4721943  0.3672791  0.5771095 
904.2000000000001 0.228      -9999      -9999      -9999      9.486      -9999      -9999      4.744      -9999      -9999      -9999      -9999      -9999      1.049      4.887      0.1984695  0.1984695  0.35677    13.28298   4.315216   -9999      -9999      -9999      83.395     0.4796983  0.357126   0.6022707 
904.4      0.228      -9999      -9999      -9999      9.255      -9999      -9999      4.784      -9999      -9999      -9999      -9999      -9999      1.049      4.837      0.1971683  0.1971683  0.35677    12.5659    4.919521   -9999      -9999      -9999      84.186     0.4836415  0.3385158  0.6287672 
904.6      0.228      -9999      -9999      -9999      9.014      -9999      -9999      4.789001   -9999      -9999      -9999      -9999      -9999      1.055      4.753      0.1950658  0.1950658  0.35515    11.48813   5.64037    -9999      -9999      -9999      84.802     0.4851038  0.3201328  0.6500747 
904.8      0.227      -9999      -9999      -9999      8.794      -9999      -9999      4.776      -9999      -9999      -9999      -9999      -9999      1.042      4.641      0.1990533  0.1990533  0.35866    13.61782   6.390246   -9999      -9999      -9999      85.17      0.4836567  0.3042247  0.6630887 
905        0.226      -9999      -9999      -9999      8.712      -9999      -9999      4.768      -9999      -9999      -9999      -9999      -9999      1.022      4.513999   0.2047905  0.2047905  0.36406    17.39303   6.694576   -9999      -9999      -9999      85.273     0.4826348  0.2984996  0.66677   
