~Version
 VERS              .         2.0                           : CWLS LOG ASCII STANDARD - VERSION 2.0
 WRAP              .         NO                            : ONE LINE PER DEPTH STEP
 DLM               .         SPACE                         : DELIMITING CHARACTER(SPACE TAB OR COMMA)
~Well Information
#_______________________________________________________________________________
#
#PARAMETER_NAME    .UNIT     VALUE                         : DESCRIPTION
#_______________________________________________________________________________
STRT               .M        900                           : First reference value
STOP               .M        1234                          : Last reference value
STEP               .M        0.2                           : Step increment
NULL               .         -9999                         : Missing value
COMP               .                                       : Company
WELL               .         4621                          : Well name
FLD                .         Узень                         : Field
LOC                .                                       : Location
CNTY               .         Казахстан                     : County
STAT               .                                       : State
CTRY               .                                       : Country
SRVC               .                                       : Service Company
DATE               .                                       : Date
UWI                .                                       : Unique Well ID
Block              .         4                             : 
Category           .         Нефтяная                      : 
Condition          .         Ликвидированная               : 
Date               .         25.10.1990                    : 
EREF               .m        230.2                         : 100.8
Gorizont           .         13                            : 14
Interpretator      .         Ткачева И.Г.                  : 
Kupol              .         Основной                      : osnovnoi
Mud                .         0                             : 
Mud_density        .         0                             : 
Mud_resistivity    .         0                             : 
NGDU               .         НГДУ-1                        : 
ORIGINALWELLNAME   .         4621                          : 
Spud_date          .         1990                          : 1961
Uslovie            .         13                            : 
Viscosity          .         0                             : 
X                  .m        54257.1                       : 46154
Y                  .m        81873.23                      : 85761.93
YEAR               .         2019                          : 
~Parameter Information Block
#_______________________________________________________________________________
#
#PARAMETER_NAME    .UNIT     VALUE                         : DESCRIPTION
#_______________________________________________________________________________
SET                .         LQC_KAZNIPI_Petrel            : 
GSDD               .         CSAT                          : CSATкрив,0,DEPT,BOTTOM,,,,0
TLFamily_CALI      .         Caliper                       : 
TLFamily_CILD      .         Conductivity                  : 
TLFamily_COLL      .         Net Reservoir Flag            : 
TLFamily_CSAT      .         Fluid Code                    : 
TLFamily_DEPT      .         Measured Depth                : 
TLFamily_GR        .         Russian Gamma Ray             : 
TLFamily_GZ1       .         Gradient 045                  : 
TLFamily_GZ2       .         Gradient 105                  : 
TLFamily_GZ3       .         Gradient 225                  : 
TLFamily_GZ4       .         Gradient 425                  : 
TLFamily_GZ5       .         Gradient 850                  : 
TLFamily_LLS       .         Lateral Log Resistivity       : 
TLFamily_MINV      .         Micro Gradient Resistivity    : 
TLFamily_MNOR      .         Micro Resistivity             : 
TLFamily_NGLD      .         Neutron Gamma                 : 
TLFamily_OGZ       .         Gradient Inverted 225         : 
TLFamily_PHIE      .         Effective Porosity            : 
TLFamily_PHIEN     .         Effective Porosity            : 
TLFamily_PHIT      .         Porosity                      : 
TLFamily_PRMB      .         Permeability                  : 
TLFamily_PRMB_DGR  .         Permeability                  : 
TLFamily_RT        .         Formation Resistivity         : 
TLFamily_SOIL_ARCHIE .         Oil Saturation                : 
TLFamily_SOIL_DW   .         Oil Saturation                : 
TLFamily_SP        .         Spontaneous Potential         : 
TLFamily_VSH_FIN   .         Shale Volume                  : 
TLFamily_VSH_GR    .         Shale Volume                  : 
TLFamily_VSH_SP    .         Shale Volume                  : 
~Curve Information
#_______________________________________________________________________________
#
#LOGNAME           .UNIT     LOG_ID                        : DESCRIPTION
#_______________________________________________________________________________
DEPT               .M                                      : Колонка глубины 
CALI               .м                                      : Каверномер 
CILD               .мСм/м                                  : Индукционный каротаж зондом 6Ф1 
COLL               .unitless                               : Описание 
CSAT               .unitless                               : Описание 
GR                 .uR/h                                   : Гамма каротаж 
GZ1                .Ohmm                                   : Градиент-зонд  длиной 0.45м 
GZ2                .Ohmm                                   : Градиент-зонд  длиной 1.05м 
GZ3                .Ohmm                                   : Градиент-зонд  длиной 2.25м 
GZ4                .Ohmm                                   : Градиент-зонд  длиной 4.5м 
GZ5                .Ohmm                                   : Градиент-зонд  длиной 8.5м 
LLS                .Ohmm                                   : Боковой каротаж 
MINV               .Ohmm                                   : Микро-градиент зонд 
MNOR               .Ohmm                                   : Микро-потенциал зонд 
NGLD               .у.е.                                   : Показания зонда НГК-60 аппаратуры ДРСТ-3-90 
OGZ                .Ohmm                                   : Обращенный градиент-зонд 
PHIE               .v/v                                    : Описание 
PHIEN              .v/v                                    :  
PHIT               .v/v                                    : Описание 
PRMB               .mD                                     :  
PRMB_DGR           .mD                                     :  
RT                 .ohmm                                   : Удельное электрическое сопротивление 
SOIL_ARCHIE        .v/v                                    :  
SOIL_DW            .v/v                                    :  
SP                 .мВ                                     : Потенциал самополяризации 
VSH_FIN            .v/v                                    : Описание 
VSH_GR             .v/v                                    : Shale volume 
VSH_SP             .v/v                                    : Shale Volume 
~Ascii
# ...
1071.6     0.219      0.231      -9999      -9999      3.667      7.594      6.013      3.767      2.477      1.904      3.144      2.435      2.191      1.555      3.417      0.1015828  0.1015828  0.22015    0.2131662  35.1547    3.144      0.04263757 0.3522863  85.764     0.3592945  0.1516483  0.5669407 
1071.8     0.219      0.23       -9999      -9999      3.606      7.64       6.03       3.827      2.566      1.986      3.144      2.473      2.187      1.574      3.249      0.09579249 0.09579249 0.21502    0.1665203  36.74299   3.144      0          0.3280332  85.975     0.3612955  0.1489365  0.5736544 
1072       0.218      0.229      -9999      -9999      3.569      7.647999   6.044      3.917      2.644      2.072      3.171      2.445      2.196      1.588      3.056      0.09050166 0.09050166 0.21124    0.1328827  37.74112   3.171      0          0.3089555  86.311     0.3658737  0.1473154  0.5844321 
1072.2     0.218      0.229      -9999      -9999      3.552      7.600999   5.989      4.035      2.742      2.116      3.249      2.301      2.136      1.599      2.858      0.08531345 0.08531345 0.20827    0.1065051  38.20879   3.249      0          0.2960391  86.746     0.3725956  0.1465764  0.5986148 
1072.4     0.218      0.231      -9999      -9999      3.572      7.517      5.869999   4.179      2.824      2.189      3.405      2.451      2.212      1.601      2.66       0.08193278 0.08193278 0.20773    0.09220444 37.65919   3.405      0          0.3010102  87.237     0.3812037  0.1474462  0.6149613 
1072.6     0.218      0.234      -9999      -9999      3.655      7.491      5.79       4.338      2.963      2.279      3.481      2.542      2.234      1.611      2.459      0.07568797 0.07568797 0.20503    0.07064523 35.46164   3.481      0          0.282753   87.76      0.3919456  0.151111   0.6327802 
1072.8     0.218      0.238      -9999      -9999      3.743      7.466      5.674      4.488      3.106      2.352      3.503      2.557      2.199      1.63       2.261      0.06645386 0.06645386 0.1999     0.04764801 33.27156   3.503      0          0.2392879  88.358     0.4043823  0.1550961  0.6536684 
1073       0.218      0.247      -9999      -9999      3.902      7.391      5.545      4.608      3.225      2.403      3.547      2.74       2.204      1.631      2.065      0.06150028 0.06150028 0.19963    0.0385738  29.65178   3.547      0          0.2231462  88.941     0.4185749  0.1625649  0.6745849 
1073.2     0.218      0.261      -9999      -9999      4.098      7.336      5.465      4.695      3.348      2.466      3.506      2.723      2.168      1.596      1.888      0.06677752 0.06677752 0.20908    0.0483103  25.72691   3.506      0          0.2629735  89.365     0.4312197  0.1722685  0.6901708 
1073.4     0.218      0.281      -9999      -9999      4.338      7.325      5.424      4.75       3.468      2.494      3.372      2.642      2.095      1.534      1.733      0.07928213 0.07928213 0.22582    0.08234847 21.62132   3.372      0          0.3265302  89.712     0.4440541  0.1849428  0.7031655 
1073.6     0.219      0.312      -9999      -9999      4.722      7.259      5.381      4.752      3.554      2.506      3.217      2.448      1.987      1.441      1.608      0.09897013 0.09897013 0.25093    0.1906887  16.37091   3.217      0.03115496 0.4046765  89.991     0.4604845  0.2071895  0.7137794 
1073.8     0.22       0.35       -9999      -9999      5.263      7.289001   5.477      4.689      3.547      2.499      3.065      2.374      1.85       1.325      1.506      0.1229762  0.1229762  0.28225    0.5308543  11.06294   3.065      0.1796995  0.4772172  90.208     0.4826479  0.243146   0.7221498 
1074       0.221      0.392      -9999      -9999      5.905      7.45       5.718      4.527      3.509      2.47       2.767      1.911      1.603      1.217      1.438      0.142708   0.142708   0.31141    1.231562   6.948522   2.767      0.243984   0.5106373  90.369     0.5112182  0.2939959  0.7284404 
1074.2     0.224      0.432      -9999      -9999      6.285      7.746      6.137      4.286      3.397      2.407      2.436      1.638      1.348      1.121      1.395      0.1623995  0.1623995  0.33733    2.852268   5.27645    2.436      0.2828597  0.5274313  90.438     0.5300925  0.3289712  0.7312137 
1074.4     0.231      0.464      -9999      -9999      6.652      8.062      6.702      3.979      3.237      2.35       2.129      1.349      1.079      1.044      1.377      0.1769276  0.1769276  0.35812    5.300125   4.044652   2.129      0.2909974  0.5285365  90.441     0.5490679  0.3666945  0.7314413 
1074.6     0.236      0.486      -9999      -9999      7.396      8.428      7.253      3.641      3.003      2.305      1.887      1.095      0.891      0.993      1.379      0.1757592  0.1757592  0.37189    5.042484   2.359464   1.887      0.2453507  0.509534   90.445     0.5943359  0.456964   0.7317076 
1074.8     0.239      0.501      -9999      -9999      7.995      8.694999   7.684      3.314      2.786      2.258      1.747      0.988      0.85       0.955      1.407      0.1713654  0.1713654  0.38215    4.180815   1.528846   1.747      0.2001074  0.494028   90.448     0.6387413  0.5455471  0.7319353 
1075       0.239      0.511      -9999      -9999      8.461      8.822      7.984      3.039      2.614      2.235      1.757      0.875      0.807      0.935      1.445      0.1923237  0.1923237  0.38755    10.22019   2.435744   1.757      0.2785183  0.5212512  90.45      0.5915949  0.4510655  0.7321244 
1075.2     0.239      0.518      -9999      -9999      8.809      8.839001   8.15       2.806      2.476      2.258      1.808      0.949      0.82       0.927      1.476      0.187148   0.187148   0.38971    8.195845   1.935938   1.808      0.2710252  0.5247399  90.45      0.6138241  0.4954123  0.732236  
1075.4     0.239      0.523      -9999      -9999      8.872      8.824      8.225      2.609      2.34       2.292      1.871      0.995      0.875      0.925      1.494      0.1862827  0.1862827  0.39025    7.898895   1.8571     1.871      0.2797471  0.5323868  90.448     0.6180826  0.5038947  0.7322705 
1075.6     0.238      0.529      -9999      -9999      8.758      8.826      8.285      2.455      2.25       2.313      1.921      1.028      0.926      0.927      1.504      0.1882651  0.1882651  0.38971    8.595775   2.002204   1.921      0.2951345  0.5399743  90.444     0.610439   0.4886503  0.7322277 
1075.8     0.238      0.533      -9999      -9999      8.588      8.806      8.326      2.324      2.188      2.356      1.934      1.09       0.957      0.934      1.506      0.1900052  0.1900052  0.38782    9.257977   2.239918   1.934      0.3029697  0.5417562  90.438     0.5994387  0.4667697  0.7321076 
1076       0.238      0.537      -9999      -9999      8.388      8.782999   8.342      2.201      2.095      2.381      1.925      1.086      0.943      0.951      1.509      0.189457   0.189457   0.38323    9.04401    2.555962   1.925      0.299682   0.536787   90.435     0.587191   0.4422788  0.7321032 
1076.2     0.238      0.54       -9999      -9999      8.176      8.755      8.350999   2.083      2.022      2.361      1.911      1.071      0.914      0.959      1.524      0.1913435  0.1913435  0.38107    9.801744   2.939786   1.911      0.3033171  0.5352437  90.433     0.5749289  0.41772    0.7321377 
1076.4     0.238      0.542      -9999      -9999      8.12       8.758001   8.360999   1.973      1.934      2.324      1.882      1.056      0.878      0.966      1.555      0.1904673  0.1904673  0.37918    9.442235   3.050463   1.882      0.2954894  0.5294116  90.433     0.5718566  0.4114636  0.7322496 
1076.6     0.237      0.543      -9999      -9999      8.168      8.753001   8.381      1.876      1.864      2.295      1.861      1.028      0.86       0.971      1.585      0.1882086  0.1882086  0.37783    8.575073   2.955346   1.861      0.2843729  0.5235439  90.434     0.5746103  0.4168205  0.7324001 
