~Version
 VERS              .         2.0                           : CWLS LOG ASCII STANDARD - VERSION 2.0
 WRAP              .         NO                            : ONE LINE PER DEPTH STEP
 DLM               .         SPACE                         : DELIMITING CHARACTER(SPACE TAB OR COMMA)
~Well Information
#_______________________________________________________________________________
#
#PARAMETER_NAME    .UNIT     VALUE                         : DESCRIPTION
#_______________________________________________________________________________
STRT               .M        900                           : First reference value
STOP               .M        1234                          : Last reference value
STEP               .M        0.2                           : Step increment
NULL               .         -9999                         : Missing value
COMP               .                                       : Company
WELL               .         4621                          : Well name
FLD                .         Узень                         : Field
LOC                .                                       : Location
CNTY               .         Казахстан                     : County
STAT               .                                       : State
CTRY               .                                       : Country
SRVC               .                                       : Service Company
DATE               .                                       : Date
UWI                .                                       : Unique Well ID
Block              .         4                             : 
Category           .         Нефтяная                      : 
Condition          .         Ликвидированная               : 
Date               .         25.10.1990                    : 
EREF               .m        230.2                         : 100.8
Gorizont           .         13                            : 14
Interpretator      .         Ткачева И.Г.                  : 
Kupol              .         Основной                      : osnovnoi
Mud                .         0                             : 
Mud_density        .         0                             : 
Mud_resistivity    .         0                             : 
NGDU               .         НГДУ-1                        : 
ORIGINALWELLNAME   .         4621                          : 
Spud_date          .         1990                          : 1961
Uslovie            .         13                            : 
Viscosity          .         0                             : 
X                  .m        54257.1                       : 46154
Y                  .m        81873.23                      : 85761.93
YEAR               .         2019                          : 
~Parameter Information Block
#_______________________________________________________________________________
#
#PARAMETER_NAME    .UNIT     VALUE                         : DESCRIPTION
#_______________________________________________________________________________
SET                .         LQC_KAZNIPI_Petrel            : 
GSDD               .         CSAT                          : CSATкрив,0,DEPT,BOTTOM,,,,0
TLFamily_CALI      .         Caliper                       : 
TLFamily_CILD      .         Conductivity                  : 
TLFamily_COLL      .         Net Reservoir Flag            : 
TLFamily_CSAT      .         Fluid Code                    : 
TLFamily_DEPT      .         Measured Depth                : 
TLFamily_GR        .         Russian Gamma Ray             : 
TLFamily_GZ1       .         Gradient 045                  : 
TLFamily_GZ2       .         Gradient 105                  : 
TLFamily_GZ3       .         Gradient 225                  : 
TLFamily_GZ4       .         Gradient 425                  : 
TLFamily_GZ5       .         Gradient 850                  : 
TLFamily_LLS       .         Lateral Log Resistivity       : 
TLFamily_MINV      .         Micro Gradient Resistivity    : 
TLFamily_MNOR      .         Micro Resistivity             : 
TLFamily_NGLD      .         Neutron Gamma                 : 
TLFamily_OGZ       .         Gradient Inverted 225         : 
TLFamily_PHIE      .         Effective Porosity            : 
TLFamily_PHIEN     .         Effective Porosity            : 
TLFamily_PHIT      .         Porosity                      : 
TLFamily_PRMB      .         Permeability                  : 
TLFamily_PRMB_DGR  .         Permeability                  : 
TLFamily_RT        .         Formation Resistivity         : 
TLFamily_SOIL_ARCHIE .         Oil Saturation                : 
TLFamily_SOIL_DW   .         Oil Saturation                : 
TLFamily_SP        .         Spontaneous Potential         : 
TLFamily_VSH_FIN   .         Shale Volume                  : 
TLFamily_VSH_GR    .         Shale Volume                  : 
TLFamily_VSH_SP    .         Shale Volume                  : 
~Curve Information
#_______________________________________________________________________________
#
#LOGNAME           .UNIT     LOG_ID                        : DESCRIPTION
#_______________________________________________________________________________
DEPT               .M                                      : Колонка глубины 
CALI               .м                                      : Каверномер 
CILD               .мСм/м                                  : Индукционный каротаж зондом 6Ф1 
COLL               .unitless                               : Описание 
CSAT               .unitless                               : Описание 
GR                 .uR/h                                   : Гамма каротаж 
GZ1                .Ohmm                                   : Градиент-зонд  длиной 0.45м 
GZ2                .Ohmm                                   : Градиент-зонд  длиной 1.05м 
GZ3                .Ohmm                                   : Градиент-зонд  длиной 2.25м 
GZ4                .Ohmm                                   : Градиент-зонд  длиной 4.5м 
GZ5                .Ohmm                                   : Градиент-зонд  длиной 8.5м 
LLS                .Ohmm                                   : Боковой каротаж 
MINV               .Ohmm                                   : Микро-градиент зонд 
MNOR               .Ohmm                                   : Микро-потенциал зонд 
NGLD               .у.е.                                   : Показания зонда НГК-60 аппаратуры ДРСТ-3-90 
OGZ                .Ohmm                                   : Обращенный градиент-зонд 
PHIE               .v/v                                    : Описание 
PHIEN              .v/v                                    :  
PHIT               .v/v                                    : Описание 
PRMB               .mD                                     :  
PRMB_DGR           .mD                                     :  
RT                 .ohmm                                   : Удельное электрическое сопротивление 
SOIL_ARCHIE        .v/v                                    :  
SOIL_DW            .v/v                                    :  
SP                 .мВ                                     : Потенциал самополяризации 
VSH_FIN            .v/v                                    : Описание 
VSH_GR             .v/v                                    : Shale volume 
VSH_SP             .v/v                                    : Shale Volume 
~Ascii
# ...
1201.6     0.208      0.274      1          2          7.664      6.546      4.264      4.713      3.766      3.849      3.214      1.833      2.105      1.223      4.095      0.2528628  0.2528628  0.3031     135.142    40.10656   3.214      0.5718114  0.633215   56.85      0.1522339  0.1437037  0.1607642 
1201.8     0.208      0.274      1          2          7.714      6.515      4.199      4.729      3.651      3.755      3.252      1.821      2.105      1.223      4.048999   0.2521455  0.2521455  0.3031     131.0703   38.29673   3.252      0.5731118  0.6349253  57.108     0.1544076  0.1464389  0.1623762 
1202       0.208      0.273      1          2          7.751      6.489      4.209      4.739      3.501      3.655      3.396      1.905      2.102      1.222      3.988      0.2518688  0.2518688  0.3034     129.5326   37.01026   3.396      0.5813035  0.642787   57.332     0.1561552  0.1484964  0.163814  
1202.2     0.208      0.273      1          2          7.781      6.571      4.307      4.747      3.343      3.504      3.615      1.973      2.112      1.218      3.914      0.2526009  0.2526009  0.3046     133.6412   35.99894   3.615      0.5944305  0.6549876  57.506     0.1575729  0.1501859  0.1649598 
1202.4     0.208      0.273      1          2          7.818      6.715      4.469999   4.747      3.177      3.373      3.828      1.949      2.13       1.206      3.823      0.2557297  0.2557297  0.3082     152.719    34.78965   3.828      0.6093918  0.6687186  57.616     0.1590008  0.1522961  0.1657056 
1202.6     0.208      0.275      1          2          7.807      6.875      4.699      4.7        3.003      3.215      3.969      2.021      2.184      1.195      3.739      0.2590758  0.2590758  0.3115     176.1447   35.14486   3.969      0.6202895  0.6784228  57.665     0.1588613  0.1516656  0.166057  
1202.8     0.208      0.28       1          2          7.732      7.035      4.985      4.595      2.851      3.119      3.938      2.016      2.206      1.191      3.686      0.2609546  0.2609546  0.3127     190.8401   37.66539   3.938      0.6212807  0.6788586  57.678     0.1568044  0.1474362  0.1661725 
1203       0.209      0.285      1          2          7.653      7.191      5.201      4.469      2.768      3.116      3.761      2.007      2.268      1.193      3.668      0.261056   0.261056   0.3121     191.6678   40.51606   3.761      0.6131499  0.671079   57.685     0.1546787  0.1431088  0.1662486 
1203.2     0.209      0.287      1          2          7.574      7.225999   5.318      4.333      2.762      3.206      3.558      1.994      2.301      1.195      3.678      0.2611333  0.2611333  0.3115     192.3001   43.5825    3.558      0.6030472  0.6614932  57.695     0.1526265  0.1389084  0.1663446 
1203.4     0.208      0.289      1          2          7.511      7.177001   5.315      4.205      2.791      3.341      3.706      2.065      2.271      1.209      3.734      0.2574621  0.2574621  0.3073     164.4296   46.19336   3.706      0.6057346  0.6637049  57.699     0.1510241  0.1356472  0.166401  
1203.6     0.208      0.29       1          2          7.517      7.039001   5.19       4.131      2.859      3.447      4.036      2.037      2.25       1.218      3.818      0.2547129  0.2547129  0.3046     146.2376   45.9381    4.036      0.6176465  0.6746266  57.693     0.1511729  0.1359545  0.1663914 
1203.8     0.208      0.288      1          2          7.568      6.885001   4.989      4.124      2.942      3.535      4.095      1.865      2.162      1.229      3.876      0.2509909  0.2509909  0.3013     124.7725   43.82466   4.095      0.6153415  0.6729113  57.676     0.1524517  0.1385944  0.166309  
1204       0.208      0.286      1          2          7.624      6.745999   4.836      4.155      2.974      3.585      4.172      1.757      2.088      1.242      3.889      0.2466306  0.2466306  0.2974     103.5989   41.61581   4.172      0.6128247  0.6710687  57.646     0.1538467  0.1415523  0.166141  
1204.2     0.208      0.285      1          2          7.663      6.718      4.792      4.197      2.944      3.605      4.22       1.687      2.011      1.254      3.876      0.2427307  0.2427307  0.2938     87.72408   40.1436    4.22       0.6095141  0.6684101  57.599     0.1547556  0.1436495  0.1658618 
1204.4     0.208      0.285      1          2          7.704      6.779      4.863      4.215      2.901      3.717      3.977      1.651      2.016      1.26       3.876      0.2406266  0.2406266  0.292      80.19486   38.65205   3.977      0.5954379  0.655952   57.534     0.155677   0.1458877  0.1654662 
1204.6     0.208      0.287      1          2          7.697      6.927      4.9        4.199      2.933      3.908      3.612      1.619      1.975      1.262      3.879      0.2401731  0.2401731  0.2914     78.65877   38.90271   3.612      0.5760472  0.6382697  57.452     0.155233   0.1455031  0.1649628 
1204.8     0.208      0.291      1          2          7.686      6.972      4.84       4.15       3.076      4.144001   3.584      1.683      2.012      1.261      3.909      0.2406592  0.2406592  0.2917     80.3063    39.29994   3.584      0.5752447  0.6373851  57.366     0.1546692  0.1449008  0.1644375 
1205       0.208      0.295      1          2          7.698      6.89       4.706999   4.134      3.297      4.399      3.596      1.713      2.001      1.254      3.983      0.2427189  0.2427189  0.2938     87.67999   38.86681   3.596      0.5790465  0.6407833  57.297     0.1547913  0.145558   0.1640247 
1205.2     0.208      0.298      1          2          7.729      6.759      4.569      4.165      3.488      4.597      3.625      1.714      2.009      1.246      4.084001   0.2448611  0.2448611  0.2962     96.06825   37.76988   3.625      0.5838275  0.6452197  57.269     0.1555723  0.1472696  0.1638751 
1205.4     0.209      0.301      1          2          7.756      6.640999   4.424      4.26       3.616      4.593      3.614      1.658      1.976      1.241      4.166      0.2460824  0.2460824  0.2977     101.2048   36.83974   3.614      0.5850356  0.6464592  57.293     0.1564169  0.1487767  0.1640571 
1205.6     0.209      0.304      1          2          7.851      6.535      4.332      4.409      3.586      4.447999   3.512      1.649      1.997      1.241      4.224      0.245105   0.245105   0.2977     97.07292   33.74542   3.512      0.5779628  0.6407579  57.366     0.1593786  0.1542031  0.1645541 
1205.8     0.21       0.305      1          2          7.884      6.527      4.362      4.524      3.364      4.175      3.414      1.691      1.961      1.239      4.242      0.2452577  0.2452577  0.2983     97.70708   32.73251   3.414      0.5725524  0.6361573  57.482     0.1607342  0.156134   0.1653344 
1206       0.21       0.307      1          2          7.883      6.591      4.489      4.553      3.042      3.787      3.329      1.668      1.91       1.238      4.222      0.2454078  0.2454078  0.2986     98.33446   32.76276   3.329      0.5676954  0.6318505  57.625     0.1611885  0.1560752  0.1663018 
1206.2     0.211      0.311      1          2          7.859      6.711      4.613      4.498      2.763      3.393      3.224      1.644      1.881      1.241      4.163      0.2445624  0.2445624  0.2977     94.85207   33.49701   3.224      0.5598237  0.624704   57.782     0.161023   0.154669   0.1673771 
1206.4     0.211      0.314      1          2          7.82       6.802001   4.663      4.359      2.497      3.06       3.181      1.661      1.857      1.255      4.051      0.2405413  0.2405413  0.2935     79.90361   34.72546   3.181      0.550599   0.6163853  57.951     0.1604809  0.152411   0.1685509 
1206.6     0.211      0.316      1          2          7.678      6.807001   4.71       4.144001   2.287      2.803      3.139      1.658      1.788      1.269      3.846      0.2374338  0.2374338  0.2893     69.98543   39.59135   3.139      0.5426369  0.6084545  58.139     0.1571703  0.1444643  0.1698763 
