~Version
 VERS              .         2.0                           : CWLS LOG ASCII STANDARD - VERSION 2.0
 WRAP              .         NO                            : ONE LINE PER DEPTH STEP
 DLM               .         SPACE                         : DELIMITING CHARACTER(SPACE TAB OR COMMA)
~Well Information
#_______________________________________________________________________________
#
#PARAMETER_NAME    .UNIT     VALUE                         : DESCRIPTION
#_______________________________________________________________________________
STRT               .M        900                           : First reference value
STOP               .M        1234                          : Last reference value
STEP               .M        0.2                           : Step increment
NULL               .         -9999                         : Missing value
COMP               .                                       : Company
WELL               .         4621                          : Well name
FLD                .         Узень                         : Field
LOC                .                                       : Location
CNTY               .         Казахстан                     : County
STAT               .                                       : State
CTRY               .                                       : Country
SRVC               .                                       : Service Company
DATE               .                                       : Date
UWI                .                                       : Unique Well ID
Block              .         4                             : 
Category           .         Нефтяная                      : 
Condition          .         Ликвидированная               : 
Date               .         25.10.1990                    : 
EREF               .m        230.2                         : 100.8
Gorizont           .         13                            : 14
Interpretator      .         Ткачева И.Г.                  : 
Kupol              .         Основной                      : osnovnoi
Mud                .         0                             : 
Mud_density        .         0                             : 
Mud_resistivity    .         0                             : 
NGDU               .         НГДУ-1                        : 
ORIGINALWELLNAME   .         4621                          : 
Spud_date          .         1990                          : 1961
Uslovie            .         13                            : 
Viscosity          .         0                             : 
X                  .m        54257.1                       : 46154
Y                  .m        81873.23                      : 85761.93
YEAR               .         2019                          : 
~Parameter Information Block
#_______________________________________________________________________________
#
#PARAMETER_NAME    .UNIT     VALUE                         : DESCRIPTION
#_______________________________________________________________________________
SET                .         LQC_KAZNIPI_Petrel            : 
GSDD               .         CSAT                          : CSATкрив,0,DEPT,BOTTOM,,,,0
TLFamily_CALI      .         Caliper                       : 
TLFamily_CILD      .         Conductivity                  : 
TLFamily_COLL      .         Net Reservoir Flag            : 
TLFamily_CSAT      .         Fluid Code                    : 
TLFamily_DEPT      .         Measured Depth                : 
TLFamily_GR        .         Russian Gamma Ray             : 
TLFamily_GZ1       .         Gradient 045                  : 
TLFamily_GZ2       .         Gradient 105                  : 
TLFamily_GZ3       .         Gradient 225                  : 
TLFamily_GZ4       .         Gradient 425                  : 
TLFamily_GZ5       .         Gradient 850                  : 
TLFamily_LLS       .         Lateral Log Resistivity       : 
TLFamily_MINV      .         Micro Gradient Resistivity    : 
TLFamily_MNOR      .         Micro Resistivity             : 
TLFamily_NGLD      .         Neutron Gamma                 : 
TLFamily_OGZ       .         Gradient Inverted 225         : 
TLFamily_PHIE      .         Effective Porosity            : 
TLFamily_PHIEN     .         Effective Porosity            : 
TLFamily_PHIT      .         Porosity                      : 
TLFamily_PRMB      .         Permeability                  : 
TLFamily_PRMB_DGR  .         Permeability                  : 
TLFamily_RT        .         Formation Resistivity         : 
TLFamily_SOIL_ARCHIE .         Oil Saturation                : 
TLFamily_SOIL_DW   .         Oil Saturation                : 
TLFamily_SP        .         Spontaneous Potential         : 
TLFamily_VSH_FIN   .         Shale Volume                  : 
TLFamily_VSH_GR    .         Shale Volume                  : 
TLFamily_VSH_SP    .         Shale Volume                  : 
~Curve Information
#_______________________________________________________________________________
#
#LOGNAME           .UNIT     LOG_ID                        : DESCRIPTION
#_______________________________________________________________________________
DEPT               .M                                      : Колонка глубины 
CALI               .м                                      : Каверномер 
CILD               .мСм/м                                  : Индукционный каротаж зондом 6Ф1 
COLL               .unitless                               : Описание 
CSAT               .unitless                               : Описание 
GR                 .uR/h                                   : Гамма каротаж 
GZ1                .Ohmm                                   : Градиент-зонд  длиной 0.45м 
GZ2                .Ohmm                                   : Градиент-зонд  длиной 1.05м 
GZ3                .Ohmm                                   : Градиент-зонд  длиной 2.25м 
GZ4                .Ohmm                                   : Градиент-зонд  длиной 4.5м 
GZ5                .Ohmm                                   : Градиент-зонд  длиной 8.5м 
LLS                .Ohmm                                   : Боковой каротаж 
MINV               .Ohmm                                   : Микро-градиент зонд 
MNOR               .Ohmm                                   : Микро-потенциал зонд 
NGLD               .у.е.                                   : Показания зонда НГК-60 аппаратуры ДРСТ-3-90 
OGZ                .Ohmm                                   : Обращенный градиент-зонд 
PHIE               .v/v                                    : Описание 
PHIEN              .v/v                                    :  
PHIT               .v/v                                    : Описание 
PRMB               .mD                                     :  
PRMB_DGR           .mD                                     :  
RT                 .ohmm                                   : Удельное электрическое сопротивление 
SOIL_ARCHIE        .v/v                                    :  
SOIL_DW            .v/v                                    :  
SP                 .мВ                                     : Потенциал самополяризации 
VSH_FIN            .v/v                                    : Описание 
VSH_GR             .v/v                                    : Shale volume 
VSH_SP             .v/v                                    : Shale Volume 
~Ascii
# ...
1009.2     0.212      0.473      1          3          2.009      -9999      -9999      1.619      -9999      -9999      2.182      1.309      1.464      1.382      1.859      0.2221987  0.2221987  0.26686    36.54412   116.8405   2.182      0.4252761  0.4939823  67.14      0.1353372  0.09286387 0.1778105 
1009.4     0.213      0.467      1          3          2.023      -9999      -9999      1.645      -9999      -9999      2.209      1.328      1.506      1.385      1.882      0.2213851  0.2213851  0.26605    35.2978    115.6616   2.209      0.4267548  0.4954188  67.125     0.1353481  0.09324923 0.1774471 
1009.6     0.213      0.461      1          3          2.046      -9999      -9999      1.679      -9999      -9999      2.267      1.307      1.523      1.394      1.92       0.2187946  0.2187946  0.26362    31.6057    113.7504   2.267      0.427849   0.4967716  67.183     0.1358344  0.09388581 0.177783  
1009.8     0.213      0.454      1          3          2.098      -9999      -9999      1.705      -9999      -9999      2.319      1.281      1.546      1.406      1.951      0.215115   0.215115   0.26038    27.01529   109.5452   2.319      0.4254813  0.4952742  67.331     0.1371666  0.09534109 0.1789922 
1010       0.214      0.448      1          3          2.167      -9999      -9999      1.721      -9999      -9999      2.34       1.268      1.542      1.426      1.981      0.2091066  0.2091066  0.25498    20.90834   104.2043   2.34       0.4136158  0.4853016  67.529     0.1390103  0.09730703 0.1807136 
1010.2     0.214      0.442      1          3          2.209      -9999      -9999      1.729      -9999      -9999      2.371      1.262      1.578      1.451      1.999      0.2018412  0.2018412  0.24823    15.3372    101.0816   2.371      0.3989977  0.4728775  67.742     0.1405722  0.09852349 0.182621  
1010.4     0.213      0.436      1          3          2.245      -9999      -9999      1.729      -9999      -9999      2.394      1.271      1.587      1.467      2.007      0.1970717  0.1970717  0.24391    12.51425   98.47956   2.394      0.3891228  0.4646914  67.928     0.1419341  0.09957825 0.18429   
1010.6     0.213      0.431      1          3          2.231      -9999      -9999      1.729      -9999      -9999      2.389      1.311      1.608      1.479      1.999      0.1937471  0.1937471  0.24067    10.85989   99.48339   2.389      0.3793947  0.4560835  68.04      0.1421905  0.09916673 0.1852142 
1010.8     0.212      0.427      1          3          2.202      -9999      -9999      1.724      -9999      -9999      2.38       1.356      1.611      1.497      1.974      0.1890972  0.1890972  0.23581    8.906285   101.5954   2.38       0.3650004  0.4429124  68.022     0.141554   0.09831969 0.1847884 
1011       0.212      0.424      1          3          2.181      -9999      -9999      1.713      -9999      -9999      2.386      1.385      1.674      1.508      1.928      0.1864554  0.1864554  0.23284    7.957261   103.1528   2.386      0.3579305  0.4361854  67.911     0.1405595  0.09771084 0.1834082 
1011.2     0.212      0.422      1          3          2.153      -9999      -9999      1.721      -9999      -9999      2.373      1.411      1.653      1.507      1.88       0.1871937  0.1871937  0.23311    8.211835   105.2664   2.373      0.3584943  0.4359617  67.733     0.1391402  0.0969049  0.1813755 
1011.4     0.213      0.42       1          3          2.101      -9999      -9999      1.75       -9999      -9999      2.356      1.443      1.647      1.507      1.852      0.1878334  0.1878334  0.23311    8.438943   109.3074   2.356      0.3582358  0.4347432  67.513     0.1372019  0.09542574 0.178978  
1011.6     0.213      0.418      1          3          2.119      -9999      -9999      1.8        -9999      -9999      2.375      1.441      1.664      1.503      1.842      0.1892204  0.1892204  0.23419    8.95323    107.8914   2.375      0.364734   0.4402506  67.289     0.1362714  0.09593518 0.1766076 
1011.8     0.214      0.416      1          3          2.172      -9999      -9999      1.865      -9999      -9999      2.39       1.42       1.643      1.488      1.844      0.1933565  0.1933565  0.23824    10.68044   103.8275   2.39       0.3784249  0.45253    67.094     0.1360106  0.09745105 0.1745702 
1012       0.214      0.415      1          3          2.2        -9999      -9999      1.931      -9999      -9999      2.361      1.444      1.589      1.478      1.855      0.1961477  0.1961477  0.24094    12.03063   101.7427   2.361      0.3826087  0.4560539  66.968     0.1357343  0.09826154 0.1732071 
1012.2     0.214      0.416      1          3          2.222      -9999      -9999      1.973      -9999      -9999      2.338      1.454      1.604      1.471      1.875      0.1979661  0.1979661  0.24283    13.00082   100.1341   2.338      0.384731   0.4579631  66.968     0.1359512  0.09890307 0.1729994 
1012.4     0.214      0.418      1          3          2.247      -9999      -9999      1.988      -9999      -9999      2.315      1.397      1.574      1.459      1.885      0.2009422  0.2009422  0.24607    14.76032   98.33697   2.315      0.3898513  0.4628277  67.086     0.1367508  0.09963718 0.1738644 
1012.6     0.214      0.421      1          3          2.263      -9999      -9999      1.975      -9999      -9999      2.276      1.395      1.535      1.449      1.887      0.2032865  0.2032865  0.24877    16.31235   97.20376   2.276      0.3911489  0.46428    67.291     0.1378289  0.1001099  0.175548  
1012.8     0.214      0.425      1          3          2.265      -9999      -9999      1.946      -9999      -9999      2.25       1.41       1.559      1.438      1.89       0.2058904  0.2058904  0.25174    18.22838   97.06301   2.25       0.3946058  0.4677437  67.542     0.1389382  0.1001691  0.1777072 
1013       0.214      0.429      1          3          2.259      -9999      -9999      1.925      -9999      -9999      2.258      1.398      1.588      1.419      1.892      0.2107003  0.2107003  0.25687    22.37893   97.48582   2.258      0.4076477  0.4799401  67.783     0.1399081  0.09999149 0.1798247 
1013.2     0.214      0.432      1          3          2.258      -9999      -9999      1.931      -9999      -9999      2.259      1.384      1.598      1.408      1.895      0.2133636  0.2133636  0.25984    25.07092   97.55647   2.259      0.4142145  0.4862295  67.996     0.1408375  0.09996191 0.1817131 
1013.4     0.214      0.436      1          3          2.316      -9999      -9999      1.959      -9999      -9999      2.248      1.4        1.592      1.405      1.897      0.2136577  0.2136577  0.26065    25.38732   93.54247   2.248      0.413575   0.486198   68.157     0.142401   0.1016917  0.1831102 
1013.6     0.214      0.44       1          3          2.371      -9999      -9999      2.001      -9999      -9999      2.241      1.412      1.621      1.396      1.9        0.2157601  0.2157601  0.26308    27.76891   89.88873   2.241      0.4177034  0.4902598  68.211     0.1433936  0.1033597  0.1834275 
1013.8     0.214      0.443      1          3          2.433      -9999      -9999      2.046      -9999      -9999      2.232      1.385      1.572      1.396      1.885      0.2156055  0.2156055  0.26308    27.58645   85.94083   2.232      0.4162385  0.4890785  68.138     0.143862   0.1052727  0.1824512 
1014       0.215      0.445      1          3          2.51       -9999      -9999      2.083      -9999      -9999      2.228      1.368      1.564      1.389      1.834      0.2174093  0.2174093  0.26497    29.7924    81.27832   2.228      0.419971   0.4925191  67.971     0.1441233  0.107698   0.1805487 
1014.2     0.215      0.448      1          3          2.56       -9999      -9999      2.093      -9999      -9999      2.245      1.398      1.595      1.381      1.775      0.219655   0.219655   0.26713    32.78696   78.38706   2.245      0.427186   0.4989891  67.777     0.1438636  0.1093027  0.1784246 
