~Version
 VERS              .         2.0                           : CWLS LOG ASCII STANDARD - VERSION 2.0
 WRAP              .         NO                            : ONE LINE PER DEPTH STEP
 DLM               .         SPACE                         : DELIMITING CHARACTER(SPACE TAB OR COMMA)
~Well Information
#_______________________________________________________________________________
#
#PARAMETER_NAME    .UNIT     VALUE                         : DESCRIPTION
#_______________________________________________________________________________
STRT               .M        900                           : First reference value
STOP               .M        1234                          : Last reference value
STEP               .M        0.2                           : Step increment
NULL               .         -9999                         : Missing value
COMP               .                                       : Company
WELL               .         4621                          : Well name
FLD                .         Узень                         : Field
LOC                .                                       : Location
CNTY               .         Казахстан                     : County
STAT               .                                       : State
CTRY               .                                       : Country
SRVC               .                                       : Service Company
DATE               .                                       : Date
UWI                .                                       : Unique Well ID
Block              .         4                             : 
Category           .         Нефтяная                      : 
Condition          .         Ликвидированная               : 
Date               .         25.10.1990                    : 
EREF               .m        230.2                         : 100.8
Gorizont           .         13                            : 14
Interpretator      .         Ткачева И.Г.                  : 
Kupol              .         Основной                      : osnovnoi
Mud                .         0                             : 
Mud_density        .         0                             : 
Mud_resistivity    .         0                             : 
NGDU               .         НГДУ-1                        : 
ORIGINALWELLNAME   .         4621                          : 
Spud_date          .         1990                          : 1961
Uslovie            .         13                            : 
Viscosity          .         0                             : 
X                  .m        54257.1                       : 46154
Y                  .m        81873.23                      : 85761.93
YEAR               .         2019                          : 
~Parameter Information Block
#_______________________________________________________________________________
#
#PARAMETER_NAME    .UNIT     VALUE                         : DESCRIPTION
#_______________________________________________________________________________
SET                .         LQC_KAZNIPI_Petrel            : 
GSDD               .         CSAT                          : CSATкрив,0,DEPT,BOTTOM,,,,0
TLFamily_CALI      .         Caliper                       : 
TLFamily_CILD      .         Conductivity                  : 
TLFamily_COLL      .         Net Reservoir Flag            : 
TLFamily_CSAT      .         Fluid Code                    : 
TLFamily_DEPT      .         Measured Depth                : 
TLFamily_GR        .         Russian Gamma Ray             : 
TLFamily_GZ1       .         Gradient 045                  : 
TLFamily_GZ2       .         Gradient 105                  : 
TLFamily_GZ3       .         Gradient 225                  : 
TLFamily_GZ4       .         Gradient 425                  : 
TLFamily_GZ5       .         Gradient 850                  : 
TLFamily_LLS       .         Lateral Log Resistivity       : 
TLFamily_MINV      .         Micro Gradient Resistivity    : 
TLFamily_MNOR      .         Micro Resistivity             : 
TLFamily_NGLD      .         Neutron Gamma                 : 
TLFamily_OGZ       .         Gradient Inverted 225         : 
TLFamily_PHIE      .         Effective Porosity            : 
TLFamily_PHIEN     .         Effective Porosity            : 
TLFamily_PHIT      .         Porosity                      : 
TLFamily_PRMB      .         Permeability                  : 
TLFamily_PRMB_DGR  .         Permeability                  : 
TLFamily_RT        .         Formation Resistivity         : 
TLFamily_SOIL_ARCHIE .         Oil Saturation                : 
TLFamily_SOIL_DW   .         Oil Saturation                : 
TLFamily_SP        .         Spontaneous Potential         : 
TLFamily_VSH_FIN   .         Shale Volume                  : 
TLFamily_VSH_GR    .         Shale Volume                  : 
TLFamily_VSH_SP    .         Shale Volume                  : 
~Curve Information
#_______________________________________________________________________________
#
#LOGNAME           .UNIT     LOG_ID                        : DESCRIPTION
#_______________________________________________________________________________
DEPT               .M                                      : Колонка глубины 
CALI               .м                                      : Каверномер 
CILD               .мСм/м                                  : Индукционный каротаж зондом 6Ф1 
COLL               .unitless                               : Описание 
CSAT               .unitless                               : Описание 
GR                 .uR/h                                   : Гамма каротаж 
GZ1                .Ohmm                                   : Градиент-зонд  длиной 0.45м 
GZ2                .Ohmm                                   : Градиент-зонд  длиной 1.05м 
GZ3                .Ohmm                                   : Градиент-зонд  длиной 2.25м 
GZ4                .Ohmm                                   : Градиент-зонд  длиной 4.5м 
GZ5                .Ohmm                                   : Градиент-зонд  длиной 8.5м 
LLS                .Ohmm                                   : Боковой каротаж 
MINV               .Ohmm                                   : Микро-градиент зонд 
MNOR               .Ohmm                                   : Микро-потенциал зонд 
NGLD               .у.е.                                   : Показания зонда НГК-60 аппаратуры ДРСТ-3-90 
OGZ                .Ohmm                                   : Обращенный градиент-зонд 
PHIE               .v/v                                    : Описание 
PHIEN              .v/v                                    :  
PHIT               .v/v                                    : Описание 
PRMB               .mD                                     :  
PRMB_DGR           .mD                                     :  
RT                 .ohmm                                   : Удельное электрическое сопротивление 
SOIL_ARCHIE        .v/v                                    :  
SOIL_DW            .v/v                                    :  
SP                 .мВ                                     : Потенциал самополяризации 
VSH_FIN            .v/v                                    : Описание 
VSH_GR             .v/v                                    : Shale volume 
VSH_SP             .v/v                                    : Shale Volume 
~Ascii
# ...
1222.4     0.214      0.41       -9999      -9999      10.583     8.379999   7.795001   2.169      1.286      1.447      2.355      1.071      1.153      1.191      2.052      0.1224479  0.1224479  0.3127     0.5190275  3.741137   2.355      0.06824091 0.4401923  80.721     0.5765215  0.3785625  0.5765215 
1222.6     0.214      0.415      -9999      -9999      10.552     8.350999   7.731      2.25       1.288      1.542      2.345      1.029      1.134      1.181      2.113      0.1289157  0.1289157  0.3157     0.6838948  3.845399   2.345      0.1073088  0.4527306  80.335     0.5660131  0.3743373  0.5660131 
1222.8     0.214      0.42       -9999      -9999      10.487     8.354      7.723      2.321      1.281      1.61       2.326      1.105      1.157      1.171      2.189      0.1343237  0.1343237  0.3187     0.8613088  4.073539   2.326      0.1353996  0.4619548  80.048     0.5587161  0.3656304  0.5587161 
1223       0.215      0.425      -9999      -9999      10.42      8.323001   7.663      2.381      1.29       1.642      2.289      1.229      1.236      1.158      2.255      0.1469165  0.1469165  0.3226     1.473699   4.322877   2.289      0.1942737  0.4794053  79.124     0.5323741  0.3568674  0.5323741 
1223.2     0.215      0.428      -9999      -9999      10.413     8.318      7.651      2.431      1.315      1.656      2.247      1.421      1.389      1.153      2.314      0.1571296  0.1571296  0.3241     2.278139   4.349792   2.247      0.2334494  0.4892419  78.159     0.5059708  0.355964   0.5059708 
1223.4     0.216      0.429      -9999      -9999      10.373     8.321001   7.691999   2.47       1.337      1.656      2.228      1.669      1.549      1.144      2.365      0.1681275  0.1681275  0.3268     3.641564   4.506838   2.228      0.2744251  0.5027769  77.197     0.4808256  0.3508459  0.4808256 
1223.6     0.218      0.429      -9999      -9999      10.286     8.319      7.717      2.491      1.346      1.646      2.226      1.705      1.583      1.131      2.39       0.1760794  0.1760794  0.3307     5.11183    4.868269   2.226      0.302755   0.5149342  76.685     0.4685471  0.3399665  0.4685471 
1223.8     0.219      0.427      -9999      -9999      10.207     8.305      7.732      2.494      1.367      1.635      2.239      1.631      1.503      1.127      2.395      0.1814909  0.1814909  0.3319     6.438868   5.221516   2.239      0.3227501  0.523088   76.143     0.4557852  0.3303801  0.4557852 
1224       0.22       0.422      -9999      -9999      10.11      8.308      7.786      2.483      1.375      1.606      2.285      1.52       1.412      1.118      2.385      0.1917931  0.1917931  0.3346     9.99152    5.690499   2.285      0.3606767  0.540336   75.173     0.4327482  0.3189783  0.4327482 
1224.2     0.221      0.413      -9999      -9999      10.006     8.297001   7.778999   2.455      1.347      1.572      2.351      1.362      1.258      1.097      2.352      0.2047842  0.2047842  0.3409     17.38831   6.240212   2.351      0.4041634  0.5634311  74.274     0.4124722  0.3071905  0.4124722 
1224.4     0.223      0.405      -9999      -9999      9.908      8.320001   7.822999   2.41       1.346      1.523      2.386      1.355      1.132      1.09       2.304      0.2128446  0.2128446  0.343      24.52201   6.806717   2.386      0.427846   0.5748709  73.433     0.3944103  0.2964817  0.3944103 
1224.6     0.224      0.397      -9999      -9999      9.824      8.333      7.892001   2.35       1.38       1.486      2.399      1.46       1.137      1.082      2.258      0.2194483  0.2194483  0.3454     32.49916   7.333055   2.399      0.4442897  0.582956   72.803     0.381672   0.2876004  0.381672  
1224.8     0.225      0.392      -9999      -9999      9.741      8.324      7.931      2.279      1.378      1.45       2.436      1.564      1.197      1.07       2.2        0.2263807  0.2263807  0.349      43.67947   7.893095   2.436      0.4630114  0.5938299  72.279     0.3715737  0.2790861  0.3715737 
1225       0.226      0.387      -9999      -9999      9.703      8.320001   7.933001   2.211      1.354      1.461      2.459      1.645      1.228      1.039      2.2        0.2382242  0.2382242  0.3583     72.38487   8.163581   2.459      0.4885993  0.6101632  71.858     0.3638661  0.2752725  0.3638661 
1225.2     0.227      0.383      -9999      -9999      9.699      8.326      7.956      2.154      1.344      1.494      2.449      1.687      1.22       1.026      2.2        0.2435081  0.2435081  0.3622     90.68159   8.192584   2.449      0.4973175  0.6153229  71.602     0.3596723  0.2748742  0.3596723 
1225.4     0.227      0.376      -9999      -9999      9.763      8.319      7.908      2.109      1.328      1.543      2.441      1.51       1.215      1.028      -9999      0.2434408  0.2434408  0.3616     90.42153   7.740619   2.441      0.4964238  0.6142715  71.471     0.3580582  0.2813179  0.3580582 
1225.6     0.227      0.367      -9999      -9999      9.847      8.323001   7.819      2.093      1.282      1.579      2.456      1.334      1.173      1.035      -9999      0.2414299  0.2414299  0.3595     82.98994   7.185023   2.456      0.4942288  0.6128144  71.406     0.3577882  0.2900054  0.3577882 
1225.8     0.228      0.358      -9999      -9999      9.855      8.341      7.759      2.112      1.257      1.63       2.563      1.554      1.254      1.047      -9999      0.2377983  0.2377983  0.3559     71.0819    7.134239   2.563      0.4976619  0.616352   71.359     0.357884   0.2908465  0.357884  
1226       0.228      0.356      -9999      -9999      9.755      8.357      7.74       2.135      1.257      1.658      2.73       1.743      1.472      1.053      -9999      0.2360137  0.2360137  0.3541     65.8724    7.795719   2.73       0.5091135  0.6260062  71.305     0.3578375  0.2805043  0.3578375 
1226.2     0.229      0.36       -9999      -9999      9.582      8.353      7.747      2.143      1.277      1.677      2.842      1.831      1.554      1.044      -9999      0.2391435  0.2391435  0.3568     75.27927   9.088169   2.842      0.5237839  0.6370506  71.189     0.3565349  0.2634731  0.3565349 
1226.4     0.229      0.369      -9999      -9999      9.481      8.37       7.751      2.133      1.278      1.68       2.821      1.823      1.527      1.033      -9999      0.2429182  0.2429182  0.3601     88.42863   9.939627   2.821      0.5285977  0.6399913  71.066     0.3550963  0.2540123  0.3550963 
1226.6     0.228      0.376      -9999      -9999      9.518      8.383      7.766      2.109      1.291      1.686      2.575      1.74       1.442      1.027      -9999      0.2446737  0.2446737  0.3619     95.30332   9.618822   2.575      0.5110516  0.6254005  71.021     0.3552313  0.257438   0.3552313 
1226.8     0.228      0.382      -9999      -9999      9.657      8.387999   7.786      2.075      1.307      1.687      2.326      1.33       1.192      1.023      -9999      0.2454293  0.2454293  0.3631     98.42461   8.503443   2.326      0.4885267  0.6071258  71.036     0.3565779  0.2707258  0.3565779 
1227       0.227      0.397      -9999      -9999      9.887      8.378      7.8        2.046      1.317      1.687      2.163      1.307      1.106      1.021      -9999      0.2449449  0.2449449  0.3637     96.41224   6.934652   2.163      0.4698767  0.5926601  71.146     0.3598639  0.294236   0.3598639 
1227.2     0.227      0.407      -9999      -9999      10.182     8.384      7.796      2.033      1.317      1.684      2.107      1.362      1.074      1.026      -9999      0.2418254  0.2418254  0.3622     84.40165   5.338556   2.107      0.4572861  0.5841008  71.333     0.3647715  0.3274031  0.3647715 
1227.4     0.226      0.412      -9999      -9999      10.351     8.364      7.789999   2.027      1.317      1.713      2.155      1.314      1.092      1.06       -9999      0.2298447  0.2298447  0.352      50.63366   4.59562    2.155      0.4386937  0.5729911  71.54      0.3701677  0.3480623  0.3701677 
