~Version
 VERS              .         2.0                           : CWLS LOG ASCII STANDARD - VERSION 2.0
 WRAP              .         NO                            : ONE LINE PER DEPTH STEP
 DLM               .         SPACE                         : DELIMITING CHARACTER(SPACE TAB OR COMMA)
~Well Information
#_______________________________________________________________________________
#
#PARAMETER_NAME    .UNIT     VALUE                         : DESCRIPTION
#_______________________________________________________________________________
STRT               .M        900                           : First reference value
STOP               .M        1234                          : Last reference value
STEP               .M        0.2                           : Step increment
NULL               .         -9999                         : Missing value
COMP               .                                       : Company
WELL               .         4621                          : Well name
FLD                .         Узень                         : Field
LOC                .                                       : Location
CNTY               .         Казахстан                     : County
STAT               .                                       : State
CTRY               .                                       : Country
SRVC               .                                       : Service Company
DATE               .                                       : Date
UWI                .                                       : Unique Well ID
Block              .         4                             : 
Category           .         Нефтяная                      : 
Condition          .         Ликвидированная               : 
Date               .         25.10.1990                    : 
EREF               .m        230.2                         : 100.8
Gorizont           .         13                            : 14
Interpretator      .         Ткачева И.Г.                  : 
Kupol              .         Основной                      : osnovnoi
Mud                .         0                             : 
Mud_density        .         0                             : 
Mud_resistivity    .         0                             : 
NGDU               .         НГДУ-1                        : 
ORIGINALWELLNAME   .         4621                          : 
Spud_date          .         1990                          : 1961
Uslovie            .         13                            : 
Viscosity          .         0                             : 
X                  .m        54257.1                       : 46154
Y                  .m        81873.23                      : 85761.93
YEAR               .         2019                          : 
~Parameter Information Block
#_______________________________________________________________________________
#
#PARAMETER_NAME    .UNIT     VALUE                         : DESCRIPTION
#_______________________________________________________________________________
SET                .         LQC_KAZNIPI_Petrel            : 
GSDD               .         CSAT                          : CSATкрив,0,DEPT,BOTTOM,,,,0
TLFamily_CALI      .         Caliper                       : 
TLFamily_CILD      .         Conductivity                  : 
TLFamily_COLL      .         Net Reservoir Flag            : 
TLFamily_CSAT      .         Fluid Code                    : 
TLFamily_DEPT      .         Measured Depth                : 
TLFamily_GR        .         Russian Gamma Ray             : 
TLFamily_GZ1       .         Gradient 045                  : 
TLFamily_GZ2       .         Gradient 105                  : 
TLFamily_GZ3       .         Gradient 225                  : 
TLFamily_GZ4       .         Gradient 425                  : 
TLFamily_GZ5       .         Gradient 850                  : 
TLFamily_LLS       .         Lateral Log Resistivity       : 
TLFamily_MINV      .         Micro Gradient Resistivity    : 
TLFamily_MNOR      .         Micro Resistivity             : 
TLFamily_NGLD      .         Neutron Gamma                 : 
TLFamily_OGZ       .         Gradient Inverted 225         : 
TLFamily_PHIE      .         Effective Porosity            : 
TLFamily_PHIEN     .         Effective Porosity            : 
TLFamily_PHIT      .         Porosity                      : 
TLFamily_PRMB      .         Permeability                  : 
TLFamily_PRMB_DGR  .         Permeability                  : 
TLFamily_RT        .         Formation Resistivity         : 
TLFamily_SOIL_ARCHIE .         Oil Saturation                : 
TLFamily_SOIL_DW   .         Oil Saturation                : 
TLFamily_SP        .         Spontaneous Potential         : 
TLFamily_VSH_FIN   .         Shale Volume                  : 
TLFamily_VSH_GR    .         Shale Volume                  : 
TLFamily_VSH_SP    .         Shale Volume                  : 
~Curve Information
#_______________________________________________________________________________
#
#LOGNAME           .UNIT     LOG_ID                        : DESCRIPTION
#_______________________________________________________________________________
DEPT               .M                                      : Колонка глубины 
CALI               .м                                      : Каверномер 
CILD               .мСм/м                                  : Индукционный каротаж зондом 6Ф1 
COLL               .unitless                               : Описание 
CSAT               .unitless                               : Описание 
GR                 .uR/h                                   : Гамма каротаж 
GZ1                .Ohmm                                   : Градиент-зонд  длиной 0.45м 
GZ2                .Ohmm                                   : Градиент-зонд  длиной 1.05м 
GZ3                .Ohmm                                   : Градиент-зонд  длиной 2.25м 
GZ4                .Ohmm                                   : Градиент-зонд  длиной 4.5м 
GZ5                .Ohmm                                   : Градиент-зонд  длиной 8.5м 
LLS                .Ohmm                                   : Боковой каротаж 
MINV               .Ohmm                                   : Микро-градиент зонд 
MNOR               .Ohmm                                   : Микро-потенциал зонд 
NGLD               .у.е.                                   : Показания зонда НГК-60 аппаратуры ДРСТ-3-90 
OGZ                .Ohmm                                   : Обращенный градиент-зонд 
PHIE               .v/v                                    : Описание 
PHIEN              .v/v                                    :  
PHIT               .v/v                                    : Описание 
PRMB               .mD                                     :  
PRMB_DGR           .mD                                     :  
RT                 .ohmm                                   : Удельное электрическое сопротивление 
SOIL_ARCHIE        .v/v                                    :  
SOIL_DW            .v/v                                    :  
SP                 .мВ                                     : Потенциал самополяризации 
VSH_FIN            .v/v                                    : Описание 
VSH_GR             .v/v                                    : Shale volume 
VSH_SP             .v/v                                    : Shale Volume 
~Ascii
# ...
1113.2     0.252      0.419      -9999      -9999      9.851      8.485      7.912      1.957      1.457      1.375      2.096      0.587      0.934      1.106      2.06       0.1464866  0.1464866  0.34138    1.446919   2.566331   2.096      0.1581249  0.4743519  90.091     0.5905862  0.4415482  0.7396243 
1113.4     0.253      0.418      -9999      -9999      9.741      8.51       7.915      1.96       1.428      1.385      2.095      0.588      0.948      1.11       2.073      0.1473317  0.1473317  0.3403     1.500028   2.738393   2.095      0.1621452  0.474299   90.085     0.5847523  0.4300016  0.7395029 
1113.6     0.253      0.415      -9999      -9999      9.761      8.547      7.967999   1.955      1.441      1.386      2.109      0.608      0.97       1.119      2.101      0.1445662  0.1445662  0.33787    1.333139   2.706273   2.109      0.1508608  0.4699697  90.081     0.585769   0.4320783  0.7394598 
1113.8     0.253      0.411      -9999      -9999      9.986      8.571      8.002      1.944      1.443      1.405      2.139      0.592      0.992      1.122      2.147      0.1397797  0.1397797  0.33706    1.086969   2.369868   2.139      0.1313674  0.466322   90.079     0.5978191  0.4561438  0.7394946 
1114       0.253      0.407      -9999      -9999      10.261     8.594      8.014001   1.939      1.432      1.395      2.179      0.582      1.002      1.116      2.202      0.1362263  0.1362263  0.33868    0.9341133  2.014961   2.179      0.1193564  0.4678661  90.079     0.613496   0.4873848  0.7396073 
1114.2     0.253      0.405      -9999      -9999      10.468     8.599      7.999      1.949      1.414      1.369      2.248      0.606      1.023      1.102      2.258      0.1358631  0.1358631  0.34246    0.9197551  1.783327   2.248      0.1301255  0.4792815  90.081     0.6260512  0.5123045  0.7397981 
1114.4     0.253      0.405      -9999      -9999      10.735     8.541      7.951      1.97       1.398      1.366      2.285      0.623      1.04       1.089      2.299      0.1337197  0.1337197  0.34597    0.8394029  1.523432   2.285      0.1247249  0.4839119  90.084     0.6431829  0.546338   0.7400278 
1114.6     0.252      0.407      -9999      -9999      10.976     8.487      7.894001   1.991      1.379      1.347      2.285      0.606      1.023      1.072      2.309      0.1328769  0.1328769  0.35056    0.8097686  1.321529   2.285      0.119892   0.4870915  90.088     0.6596457  0.5789947  0.7402966 
1114.8     0.251      0.41       -9999      -9999      11.009     8.482      7.850999   2.007      1.35       1.339      2.272      0.587      0.98       1.069      2.276      0.1328865  0.1328865  0.35137    0.8100986  1.296049   2.272      0.1175877  0.4864012  90.091     0.6620713  0.5836158  0.7405268 
1115       0.251      0.415      -9999      -9999      10.919     8.456      7.821      2.007      1.326      1.343      2.244      0.583      0.939      1.081      2.213      0.1316803  0.1316803  0.34813    0.7694801  1.366723   2.244      0.1053615  0.4784244  90.093     0.6559081  0.5710989  0.7407174 
1115.2     0.25       0.419      -9999      -9999      10.686     8.441001   7.814      1.988      1.319      1.344      2.17       0.569      0.942      1.095      2.154      0.133025   0.133025   0.34435    0.8149002  1.568113   2.17       0.09917904 0.4678233  90.093     0.6403787  0.539927   0.7408303 
1115.4     0.249      0.424      -9999      -9999      10.285     8.462      7.854      1.952      1.28       1.342      2.118      0.55       0.926      1.11       2.114      0.1371725  0.1371725  0.3403     0.9725795  1.986632   2.118      0.112908   0.4632472  90.091     0.6155379  0.4902107  0.7408652 
1115.6     0.249      0.429      -9999      -9999      9.922      8.509      7.902      1.915      1.205      1.342      2.082      0.537      0.907      1.131      2.114      0.1382822  0.1382822  0.33463    1.019715   2.461057   2.082      0.1119961  0.4544308  90.087     0.5949935  0.4491652  0.7408217 
1115.8     0.249      0.43       -9999      -9999      9.759      8.543      7.975      1.891      1.139      1.322      2.037      0.53       0.895      1.154      2.172      0.1349458  0.1349458  0.32842    0.8844686  2.709467   2.037      0.08355608 0.4368356  90.081     0.5862853  0.4318702  0.7407004 
1116       0.249      0.424      -9999      -9999      9.713      8.579      8.083      1.904      1.106      1.32       2.001      0.51       0.896      1.177      2.301      0.1295347  0.1295347  0.32221    0.7021912  2.784001   2.001      0.04232192 0.416208   90.076     0.5838645  0.427111   0.7406179 
1116.2     0.249      0.411      -9999      -9999      9.806      8.644      8.217      1.962      1.071      1.338      2.115      0.597      1.053      1.194      2.492      0.1233681  0.1233681  0.31762    0.5398021  2.635373   2.115      0.02640756 0.4167265  90.07      0.5886421  0.4367876  0.7404967 
1116.4     0.247      0.397      -9999      -9999      9.973      8.716      8.236      2.062      1.105      1.403      2.388      0.773      1.287      1.197      2.728      0.1196196  0.1196196  0.31681    0.460049   2.388114   2.388      0.05527183 0.4440553  90.064     0.5975465  0.4547175  0.7403755 
1116.6     0.244      0.384      -9999      -9999      9.997      8.663      8.141      2.167      1.216      1.493      2.631      0.886      1.475      1.189      2.972      0.1213647  0.1213647  0.31897    0.4955952  2.35454    2.631      0.108587   0.4753832  90.058     0.5988039  0.457354   0.7402537 
1116.8     0.241      0.376      -9999      -9999      9.816      8.511      7.991      2.25       1.356      1.587      2.769      0.935      1.558      1.182      3.109      0.1264879  0.1264879  0.32086    0.6166249  2.619872   2.769      0.1604994  0.4980817  90.053     0.5890063  0.4378411  0.7401716 
1117       0.24       0.373      -9999      -9999      9.595      8.381      7.838      2.285      1.446      1.664      2.828      0.936      1.564      1.169      3.132      0.1337634  0.1337634  0.32437    0.8409722  2.984711   2.828      0.2082827  0.5167119  90.047     0.5775956  0.4151411  0.7400501 
1117.2     0.24       0.372      -9999      -9999      9.277      8.274      7.682      2.253      1.502      1.684      2.716      0.872      1.366      1.157      3.056      0.1420748  0.1420748  0.32761    1.198747   3.600616   2.716      0.2343955  0.5207066  90.041     0.562228   0.384527   0.739929  
1117.4     0.243      0.369      -9999      -9999      8.894      8.187      7.619      2.174      1.489      1.631      2.471      0.766      1.112      1.157      2.919      0.1476802  0.1476802  0.32761    1.522487   4.513418   2.471      0.2261899  0.5047088  90.036     0.5452419  0.350637   0.7398468 
1117.6     0.248      0.363      -9999      -9999      8.654      8.224      7.627999   2.093      1.407      1.557      2.288      0.736      0.963      1.175      2.738      0.1460902  0.1460902  0.32275    1.422668   5.199909   2.288      0.1901398  0.4783388  90.03      0.5353327  0.3309399  0.7397254 
1117.8     0.251      0.356      -9999      -9999      8.678      8.331      7.666999   2.036      1.324      1.488      2.245      0.956      1.079      1.186      2.616      0.1428236  0.1428236  0.31978    1.237648   5.126804   2.245      0.1666442  0.4658064  90.024     0.5362316  0.3328588  0.7396044 
1118       0.252      0.349      -9999      -9999      8.852      8.424      7.676001   2.017      1.302      1.437      2.331      1.236      1.173      1.196      2.54       0.1377926  0.1377926  0.31708    0.9986455  4.626645   2.331      0.1552396  0.4658658  90.018     0.5432951  0.3471073  0.7394829 
1118.2     0.251      0.342      -9999      -9999      9.216      8.442      7.627999   2.057      1.316      1.403      2.421      1.469      1.302      1.217      2.5        0.1268874  0.1268874  0.31141    0.6272212  3.732552   2.421      0.1083396  0.4535349  90.013     0.5591593  0.3789178  0.7394009 
