~Version
 VERS              .         2.0                           : CWLS LOG ASCII STANDARD - VERSION 2.0
 WRAP              .         NO                            : ONE LINE PER DEPTH STEP
 DLM               .         SPACE                         : DELIMITING CHARACTER(SPACE TAB OR COMMA)
~Well Information
#_______________________________________________________________________________
#
#PARAMETER_NAME    .UNIT     VALUE                         : DESCRIPTION
#_______________________________________________________________________________
STRT               .M        900                           : First reference value
STOP               .M        1234                          : Last reference value
STEP               .M        0.2                           : Step increment
NULL               .         -9999                         : Missing value
COMP               .                                       : Company
WELL               .         4621                          : Well name
FLD                .         Узень                         : Field
LOC                .                                       : Location
CNTY               .         Казахстан                     : County
STAT               .                                       : State
CTRY               .                                       : Country
SRVC               .                                       : Service Company
DATE               .                                       : Date
UWI                .                                       : Unique Well ID
Block              .         4                             : 
Category           .         Нефтяная                      : 
Condition          .         Ликвидированная               : 
Date               .         25.10.1990                    : 
EREF               .m        230.2                         : 100.8
Gorizont           .         13                            : 14
Interpretator      .         Ткачева И.Г.                  : 
Kupol              .         Основной                      : osnovnoi
Mud                .         0                             : 
Mud_density        .         0                             : 
Mud_resistivity    .         0                             : 
NGDU               .         НГДУ-1                        : 
ORIGINALWELLNAME   .         4621                          : 
Spud_date          .         1990                          : 1961
Uslovie            .         13                            : 
Viscosity          .         0                             : 
X                  .m        54257.1                       : 46154
Y                  .m        81873.23                      : 85761.93
YEAR               .         2019                          : 
~Parameter Information Block
#_______________________________________________________________________________
#
#PARAMETER_NAME    .UNIT     VALUE                         : DESCRIPTION
#_______________________________________________________________________________
SET                .         LQC_KAZNIPI_Petrel            : 
GSDD               .         CSAT                          : CSATкрив,0,DEPT,BOTTOM,,,,0
TLFamily_CALI      .         Caliper                       : 
TLFamily_CILD      .         Conductivity                  : 
TLFamily_COLL      .         Net Reservoir Flag            : 
TLFamily_CSAT      .         Fluid Code                    : 
TLFamily_DEPT      .         Measured Depth                : 
TLFamily_GR        .         Russian Gamma Ray             : 
TLFamily_GZ1       .         Gradient 045                  : 
TLFamily_GZ2       .         Gradient 105                  : 
TLFamily_GZ3       .         Gradient 225                  : 
TLFamily_GZ4       .         Gradient 425                  : 
TLFamily_GZ5       .         Gradient 850                  : 
TLFamily_LLS       .         Lateral Log Resistivity       : 
TLFamily_MINV      .         Micro Gradient Resistivity    : 
TLFamily_MNOR      .         Micro Resistivity             : 
TLFamily_NGLD      .         Neutron Gamma                 : 
TLFamily_OGZ       .         Gradient Inverted 225         : 
TLFamily_PHIE      .         Effective Porosity            : 
TLFamily_PHIEN     .         Effective Porosity            : 
TLFamily_PHIT      .         Porosity                      : 
TLFamily_PRMB      .         Permeability                  : 
TLFamily_PRMB_DGR  .         Permeability                  : 
TLFamily_RT        .         Formation Resistivity         : 
TLFamily_SOIL_ARCHIE .         Oil Saturation                : 
TLFamily_SOIL_DW   .         Oil Saturation                : 
TLFamily_SP        .         Spontaneous Potential         : 
TLFamily_VSH_FIN   .         Shale Volume                  : 
TLFamily_VSH_GR    .         Shale Volume                  : 
TLFamily_VSH_SP    .         Shale Volume                  : 
~Curve Information
#_______________________________________________________________________________
#
#LOGNAME           .UNIT     LOG_ID                        : DESCRIPTION
#_______________________________________________________________________________
DEPT               .M                                      : Колонка глубины 
CALI               .м                                      : Каверномер 
CILD               .мСм/м                                  : Индукционный каротаж зондом 6Ф1 
COLL               .unitless                               : Описание 
CSAT               .unitless                               : Описание 
GR                 .uR/h                                   : Гамма каротаж 
GZ1                .Ohmm                                   : Градиент-зонд  длиной 0.45м 
GZ2                .Ohmm                                   : Градиент-зонд  длиной 1.05м 
GZ3                .Ohmm                                   : Градиент-зонд  длиной 2.25м 
GZ4                .Ohmm                                   : Градиент-зонд  длиной 4.5м 
GZ5                .Ohmm                                   : Градиент-зонд  длиной 8.5м 
LLS                .Ohmm                                   : Боковой каротаж 
MINV               .Ohmm                                   : Микро-градиент зонд 
MNOR               .Ohmm                                   : Микро-потенциал зонд 
NGLD               .у.е.                                   : Показания зонда НГК-60 аппаратуры ДРСТ-3-90 
OGZ                .Ohmm                                   : Обращенный градиент-зонд 
PHIE               .v/v                                    : Описание 
PHIEN              .v/v                                    :  
PHIT               .v/v                                    : Описание 
PRMB               .mD                                     :  
PRMB_DGR           .mD                                     :  
RT                 .ohmm                                   : Удельное электрическое сопротивление 
SOIL_ARCHIE        .v/v                                    :  
SOIL_DW            .v/v                                    :  
SP                 .мВ                                     : Потенциал самополяризации 
VSH_FIN            .v/v                                    : Описание 
VSH_GR             .v/v                                    : Shale volume 
VSH_SP             .v/v                                    : Shale Volume 
~Ascii
# ...
941.6      0.234      0.254      -9999      -9999      9.133      -9999      -9999      4.061      -9999      -9999      3.177      1.292      1.239      0.955      3.577      0.2071115  0.2071115  0.38215    19.20287   5.272115   3.177      0.487741   0.6510615  87.891     0.5304196  0.3290817  0.7317575 
941.8      0.233      0.256      -9999      -9999      9.129      -9999      -9999      4.04       -9999      -9999      3.163      1.229      1.183      0.949      3.577      0.2096089  0.2096089  0.38377    21.3611    5.284095   3.163      0.4920091  0.6528226  87.74      0.5277609  0.3287768  0.7267449 
942        0.232      0.258      -9999      -9999      9.182      -9999      -9999      3.998      -9999      -9999      3.135      1.229      1.149      0.943      3.569      0.2123744  0.2123744  0.38539    24.03519   5.127561   3.135      0.4956753  0.6539515  87.431     0.5242896  0.3328387  0.7157404 
942.2000000000001 0.232      0.26       -9999      -9999      9.216      -9999      -9999      3.935      -9999      -9999      3.113      1.203      1.15       0.953      3.574      0.2117431  0.2117431  0.38269    23.39664   5.029595   3.113      0.4926922  0.6508374  87.007     0.518021   0.3354709  0.7005712 
942.4      0.232      0.261      -9999      -9999      9.204      -9999      -9999      3.859      -9999      -9999      3.088      1.213      1.166      0.958      3.577      0.2129335  0.2129335  0.38134    24.61519   5.063953   3.088      0.4932494  0.6494488  86.595     0.5103227  0.3345396  0.6861058 
942.6      0.232      0.261      -9999      -9999      9.185      -9999      -9999      3.788      -9999      -9999      3.089      1.262      1.184      0.96       3.579      0.2142603  0.2142603  0.3808     26.04827   5.118838   3.089      0.4960602  0.6500624  86.304     0.5046657  0.3330702  0.6762612 
942.8      0.232      0.26       -9999      -9999      9.214      -9999      -9999      3.736      -9999      -9999      3.118      1.331      1.238      0.964      3.577      0.2131445  0.2131445  0.37972    24.83769   5.035305   3.118      0.4959782  0.6503748  86.227     0.5047743  0.3353155  0.6742331 
943        0.233      0.258      -9999      -9999      9.223      -9999      -9999      3.704      -9999      -9999      3.199      1.388      1.322      0.963      3.577      0.2123353  0.2123353  0.37999    23.99514   5.009659   3.199      0.5003553  0.6544605  86.367     0.5080445  0.3360153  0.6800737 
943.2000000000001 0.233      0.257      -9999      -9999      9.192      -9999      -9999      3.699      -9999      -9999      3.241      1.408      1.334      0.951      3.559      0.2142796  0.2142796  0.38323    26.06975   5.098549   3.241      0.507331   0.6596928  86.626     0.5119708  0.3336108  0.6903309 
943.4      0.233      0.256      -9999      -9999      9.106      -9999      -9999      3.71       -9999      -9999      3.249      1.432      1.333      0.941      3.541      0.2160378  0.2160378  0.38593    28.09971   5.353501   3.249      0.5113905  0.662643   86.936     0.5148249  0.3270295  0.7026203 
943.6      0.234      0.257      -9999      -9999      9.084      -9999      -9999      3.731      -9999      -9999      3.241      1.43       1.337      0.94       3.523      0.2147313  0.2147313  0.3862     26.57682   5.420745   3.241      0.5082337  0.6615625  87.213     0.5196021  0.3253669  0.7138373 
943.8      0.234      0.258      -9999      -9999      8.982      -9999      -9999      3.746      -9999      -9999      3.188      1.414      1.295      0.939      3.508      0.2152956  0.2152956  0.38647    27.22418   5.743712   3.188      0.5055456  0.6592577  87.345     0.5187103  0.3177682  0.7196524 
944        0.234      0.26       -9999      -9999      8.865      -9999      -9999      3.751      -9999      -9999      3.116      1.361      1.233      0.946      3.495      0.215028   0.215028   0.38458    26.9152    6.137939   3.116      0.4996749  0.6541483  87.289     0.5137941  0.3092703  0.7183178 
944.2000000000001 0.234      0.262      -9999      -9999      8.839      -9999      -9999      3.738      -9999      -9999      3.06       1.351      1.223      0.966      3.498      0.2110924  0.2110924  0.37918    22.75627   6.229156   3.06       0.487215   0.6454235  87.083     0.5093564  0.307413   0.7112998 
944.4      0.235      0.263      -9999      -9999      8.813      -9999      -9999      3.712      -9999      -9999      3.006      1.321      1.237      0.99       3.508      0.2064115  0.2064115  0.3727     18.63803   6.321728   3.006      0.4727145  0.6352894  86.821     0.5039045  0.3055668  0.7022423 
944.6      0.235      0.264      -9999      -9999      8.734      -9999      -9999      3.675      -9999      -9999      2.99       1.302      1.238      1.013      3.513      0.2021301  0.2021301  0.36649    15.5274    6.61153    2.99       0.4616539  0.6275104  86.635     0.4980602  0.300025   0.6960953 
944.8      0.235      0.264      -9999      -9999      8.699      -9999      -9999      3.641      -9999      -9999      3.016      1.306      1.283      1.026      3.513      0.1992342  0.1992342  0.36298    13.72332   6.744137   3.016      0.4570554  0.6248255  86.579     0.4961993  0.297602   0.6947966 
945        0.235      0.263      -9999      -9999      8.626      -9999      -9999      3.61       -9999      -9999      3.034      1.322      1.305      1.031      3.51       0.1978677  0.1978677  0.36163    12.94636   7.029337   3.034      0.4553141  0.6240785  86.695     0.4962494  0.2926111  0.6998877 
945.2000000000001 0.235      0.263      -9999      -9999      8.55       -9999      -9999      3.586      -9999      -9999      3.076      1.326      1.323      1.028      3.498      0.1979307  0.1979307  0.36244    12.98121   7.339077   3.076      0.458967   0.6272077  86.931     0.498513   0.287504   0.7095219 
945.4      0.235      0.261      -9999      -9999      8.617      -9999      -9999      3.568      -9999      -9999      3.146      1.326      1.296      1.02       3.477      0.1976279  0.1976279  0.3646     12.81464   7.065326   3.146      0.4639354  0.6324881  87.185     0.5059761  0.2920016  0.7199507 
945.6      0.235      0.261      -9999      -9999      8.7        -9999      -9999      3.547      -9999      -9999      3.181      1.336      1.304      0.997      3.465      0.201473   0.201473   0.37081    15.09824   6.740313   3.181      0.4755867  0.6409711  87.39      0.5131425  0.2976709  0.7286141 
945.8      0.235      0.261      -9999      -9999      8.774      -9999      -9999      3.526      -9999      -9999      3.182      1.352      1.301      0.98       3.457      0.2042188  0.2042188  0.3754     16.97406   6.463172   3.182      0.4818096  0.645588   87.525     0.5187309  0.3028183  0.7346435 
946        0.236      0.26       -9999      -9999      8.998      -9999      -9999      3.51       -9999      -9999      3.19       1.378      1.304      0.971      3.452      0.2037826  0.2037826  0.37783    16.6612    5.691805   3.19       0.481455   0.647125   87.536     0.5274163  0.3189483  0.7358844 
946.2000000000001 0.236      0.259      -9999      -9999      9.218      -9999      -9999      3.502      -9999      -9999      3.178      1.4        1.339      0.961      3.445      0.2044341  0.2044341  0.38053    17.13064   5.023889   3.178      0.4819792  0.6484286  87.405     0.5336239  0.3356264  0.7316215 
946.4      0.236      0.26       -9999      -9999      9.237      -9999      -9999      3.502      -9999      -9999      3.142      1.436      1.372      0.948      3.434      0.2091912  0.2091912  0.38404    20.98391   4.970021   3.142      0.4895325  0.651541   87.149     0.5298449  0.3371071  0.7225826 
946.6      0.236      0.261      -9999      -9999      9.188      -9999      -9999      3.526      -9999      -9999      3.114      1.454      1.373      0.945      3.424      0.2123989  0.2123989  0.38485    24.06028   5.110137   3.114      0.494133   0.6525066  86.846     0.5225791  0.3333017  0.7118565 
