~Version
 VERS              .         2.0                           : CWLS LOG ASCII STANDARD - VERSION 2.0
 WRAP              .         NO                            : ONE LINE PER DEPTH STEP
 DLM               .         SPACE                         : DELIMITING CHARACTER(SPACE TAB OR COMMA)
~Well Information
#_______________________________________________________________________________
#
#PARAMETER_NAME    .UNIT     VALUE                         : DESCRIPTION
#_______________________________________________________________________________
STRT               .M        900                           : First reference value
STOP               .M        1234                          : Last reference value
STEP               .M        0.2                           : Step increment
NULL               .         -9999                         : Missing value
COMP               .                                       : Company
WELL               .         4621                          : Well name
FLD                .         Узень                         : Field
LOC                .                                       : Location
CNTY               .         Казахстан                     : County
STAT               .                                       : State
CTRY               .                                       : Country
SRVC               .                                       : Service Company
DATE               .                                       : Date
UWI                .                                       : Unique Well ID
Block              .         4                             : 
Category           .         Нефтяная                      : 
Condition          .         Ликвидированная               : 
Date               .         25.10.1990                    : 
EREF               .m        230.2                         : 100.8
Gorizont           .         13                            : 14
Interpretator      .         Ткачева И.Г.                  : 
Kupol              .         Основной                      : osnovnoi
Mud                .         0                             : 
Mud_density        .         0                             : 
Mud_resistivity    .         0                             : 
NGDU               .         НГДУ-1                        : 
ORIGINALWELLNAME   .         4621                          : 
Spud_date          .         1990                          : 1961
Uslovie            .         13                            : 
Viscosity          .         0                             : 
X                  .m        54257.1                       : 46154
Y                  .m        81873.23                      : 85761.93
YEAR               .         2019                          : 
~Parameter Information Block
#_______________________________________________________________________________
#
#PARAMETER_NAME    .UNIT     VALUE                         : DESCRIPTION
#_______________________________________________________________________________
SET                .         LQC_KAZNIPI_Petrel            : 
GSDD               .         CSAT                          : CSATкрив,0,DEPT,BOTTOM,,,,0
TLFamily_CALI      .         Caliper                       : 
TLFamily_CILD      .         Conductivity                  : 
TLFamily_COLL      .         Net Reservoir Flag            : 
TLFamily_CSAT      .         Fluid Code                    : 
TLFamily_DEPT      .         Measured Depth                : 
TLFamily_GR        .         Russian Gamma Ray             : 
TLFamily_GZ1       .         Gradient 045                  : 
TLFamily_GZ2       .         Gradient 105                  : 
TLFamily_GZ3       .         Gradient 225                  : 
TLFamily_GZ4       .         Gradient 425                  : 
TLFamily_GZ5       .         Gradient 850                  : 
TLFamily_LLS       .         Lateral Log Resistivity       : 
TLFamily_MINV      .         Micro Gradient Resistivity    : 
TLFamily_MNOR      .         Micro Resistivity             : 
TLFamily_NGLD      .         Neutron Gamma                 : 
TLFamily_OGZ       .         Gradient Inverted 225         : 
TLFamily_PHIE      .         Effective Porosity            : 
TLFamily_PHIEN     .         Effective Porosity            : 
TLFamily_PHIT      .         Porosity                      : 
TLFamily_PRMB      .         Permeability                  : 
TLFamily_PRMB_DGR  .         Permeability                  : 
TLFamily_RT        .         Formation Resistivity         : 
TLFamily_SOIL_ARCHIE .         Oil Saturation                : 
TLFamily_SOIL_DW   .         Oil Saturation                : 
TLFamily_SP        .         Spontaneous Potential         : 
TLFamily_VSH_FIN   .         Shale Volume                  : 
TLFamily_VSH_GR    .         Shale Volume                  : 
TLFamily_VSH_SP    .         Shale Volume                  : 
~Curve Information
#_______________________________________________________________________________
#
#LOGNAME           .UNIT     LOG_ID                        : DESCRIPTION
#_______________________________________________________________________________
DEPT               .M                                      : Колонка глубины 
CALI               .м                                      : Каверномер 
CILD               .мСм/м                                  : Индукционный каротаж зондом 6Ф1 
COLL               .unitless                               : Описание 
CSAT               .unitless                               : Описание 
GR                 .uR/h                                   : Гамма каротаж 
GZ1                .Ohmm                                   : Градиент-зонд  длиной 0.45м 
GZ2                .Ohmm                                   : Градиент-зонд  длиной 1.05м 
GZ3                .Ohmm                                   : Градиент-зонд  длиной 2.25м 
GZ4                .Ohmm                                   : Градиент-зонд  длиной 4.5м 
GZ5                .Ohmm                                   : Градиент-зонд  длиной 8.5м 
LLS                .Ohmm                                   : Боковой каротаж 
MINV               .Ohmm                                   : Микро-градиент зонд 
MNOR               .Ohmm                                   : Микро-потенциал зонд 
NGLD               .у.е.                                   : Показания зонда НГК-60 аппаратуры ДРСТ-3-90 
OGZ                .Ohmm                                   : Обращенный градиент-зонд 
PHIE               .v/v                                    : Описание 
PHIEN              .v/v                                    :  
PHIT               .v/v                                    : Описание 
PRMB               .mD                                     :  
PRMB_DGR           .mD                                     :  
RT                 .ohmm                                   : Удельное электрическое сопротивление 
SOIL_ARCHIE        .v/v                                    :  
SOIL_DW            .v/v                                    :  
SP                 .мВ                                     : Потенциал самополяризации 
VSH_FIN            .v/v                                    : Описание 
VSH_GR             .v/v                                    : Shale volume 
VSH_SP             .v/v                                    : Shale Volume 
~Ascii
# ...
1092.4     0.233      0.568      -9999      -9999      10.846     8.941      8.593      1.598      1.168      0.947      1.802      0.753      0.97       1.032      1.402      0.146988   0.146988   0.36136    1.4782     1.426868   1.802      0.09893581 0.4538065  90.352     0.649612   0.5611437  0.7380803 
1092.6     0.23       0.571      -9999      -9999      10.741     8.944001   8.598      1.567      1.169      0.952      1.796      0.73       0.927      1.023      1.445      0.1517249  0.1517249  0.36379    1.809138   1.518048   1.796      0.1221139  0.4615055  90.35      0.6426215  0.5471283  0.7381147 
1092.8     0.228      0.573      -9999      -9999      10.65      8.936      8.617      1.53       1.155      0.975      1.793      0.745      0.891      1.016      1.496      0.1555795  0.1555795  0.36568    2.132393   1.601773   1.793      0.1404136  0.4677582  90.346     0.6366683  0.5352648  0.7380716 
1093       0.225      0.574      -9999      -9999      10.455     8.936      8.649      1.496      1.134      0.978      1.769      0.751      0.763      1.001      1.552      0.1637022  0.1637022  0.36973    3.015231   1.797057   1.769      0.1724661  0.4778188  90.34      0.6243265  0.5107026  0.7379505 
1093.2     0.223      0.573      -9999      -9999      10.143     8.915      8.694      1.47       1.116      0.973      1.753      0.791      0.745      0.991      1.593      0.172517   0.172517   0.37243    4.391278   2.160227   1.753      0.2060382  0.4879981  90.335     0.6057971  0.4737256  0.7378685 
1093.4     0.223      0.569      -9999      -9999      9.884      8.888      8.724      1.449      1.081      0.973      1.742      0.836      0.758      0.994      1.616      0.1764419  0.1764419  0.37162    5.191459   2.516853   1.742      0.2191396  0.49005    90.331     0.5914489  0.4450723  0.7378255 
1093.6     0.225      0.56       -9999      -9999      9.766      8.916      8.748999   1.43       1.05       0.973      1.734      0.897      0.801      1.001      1.621      0.1766042  0.1766042  0.36973    5.227533   2.698301   1.734      0.2180777  0.4874357  90.329     0.5852296  0.432599   0.7378602 
1093.8     0.227      0.548      -9999      -9999      9.611      8.915      8.774001   1.404      1.023      0.962      1.727      0.934      0.824      1.011      1.621      0.1765017  0.1765017  0.36703    5.204723   2.956671   1.727      0.2161957  0.4839467  90.329     0.5773585  0.4167442  0.7379727 
1094       0.23       0.536      -9999      -9999      9.4        8.896      8.760999   1.381      0.987      0.978      1.733      1.047      0.838      1.028      1.623      0.1752945  0.1752945  0.36244    4.943531   3.3486     1.733      0.2127788  0.4794531  90.33      0.5671076  0.396091   0.7381243 
1094.2     0.232      0.527      -9999      -9999      9.134      8.906      8.728001   1.365      0.981      0.995      1.834      1.534      1.195      1.043      1.644      0.1752567  0.1752567  0.35839    4.935579   3.917555   1.834      0.2332849  0.4904207  90.334     0.5549493  0.3715064  0.7383922 
1094.4     0.233      0.518      -9999      -9999      8.773      8.895      8.689      1.354      0.982      1.061      1.899      1.562      1.226      1.047      1.694      0.1792444  0.1792444  0.35731    5.850573   4.847377   1.899      0.26035    0.5025953  90.337     0.5395928  0.340564   0.7386216 
1094.6     0.232      0.507      -9999      -9999      8.46       8.828001   8.653      1.344      0.977      1.102      1.926      1.591      1.23       1.04       1.76       0.1851712  0.1851712  0.3592     7.533174   5.830431   1.926      0.2857599  0.5138326  90.341     0.52736    0.3158298  0.7388903 
1094.8     0.23       0.493      -9999      -9999      8.426      8.803      8.65       1.333      0.98       1.145      1.939      1.622      1.234      1.036      1.839      0.1866834  0.1866834  0.36028    8.035042   5.94856    1.939      0.2930368  0.5178766  90.337     0.5260502  0.3132535  0.7388469 
1095       0.227      0.473      -9999      -9999      8.755      8.812999   8.676      1.352      0.969      1.214      1.964      1.587      1.278      1.047      1.941      0.1797464  0.1797464  0.35731    5.977201   4.899127   1.964      0.2737114  0.5114217  90.288     0.5380714  0.3390906  0.7370523 
1095.2     0.225      0.452      -9999      -9999      9.2        8.768      8.596      1.425      0.984      1.32       2.041      1.305      1.023      1.066      2.068      0.1689328  0.1689328  0.35218    3.768804   3.76795    2.041      0.247094   0.5048074  90.184     0.5552945  0.3774602  0.7331288 
1095.4     0.224      0.436      -9999      -9999      9.53       8.673      8.406      1.58       1.092      1.409      2.27       1.517      1.266      1.085      2.215      0.1594531  0.1594531  0.34705    2.515456   3.101387   2.27       0.2467951  0.5156723  90.055     0.5684754  0.4086913  0.7282594 
1095.6     0.225      0.428      -9999      -9999      9.574      8.535001   8.297001   1.721      1.216      1.548      2.366      1.577      1.386      1.099      2.337      0.1557221  0.1557221  0.34327    2.145405   3.021917   2.366      0.2459026  0.518075   89.931     0.568327   0.4130463  0.7236077 
1095.8     0.227      0.429      -9999      -9999      9.42       8.4        8.141      1.844      1.303      1.602      2.45       1.747      1.522      1.095      2.378      0.1599721  0.1599721  0.34435    2.571759   3.309323   2.45       0.2753431  0.5321039  89.819     0.5587208  0.3980039  0.7194377 
1096       0.229      0.432      -9999      -9999      9.147      8.291      8.009      1.918      1.339      1.591      2.471      1.784      1.526      1.077      2.33       0.1694148  0.1694148  0.34921    3.847078   3.887623   2.471      0.3134055  0.5480776  89.752     0.544834   0.3726717  0.7169963 
1096.2     0.232      0.433      -9999      -9999      9.045      8.295      8.008      1.915      1.268      1.558      2.315      1.644      1.463      1.058      2.23       0.1760693  0.1760693  0.35434    5.109622   4.128743   2.315      0.3154305  0.5440562  89.744     0.5402142  0.3636262  0.7168022 
1096.4     0.234      0.429      -9999      -9999      9.187      8.372      8.056      1.808      1.142      1.452      2.075      1.473      1.216      1.05       2.106      0.1757842  0.1757842  0.3565     5.047867   3.796958   2.075      0.2783344  0.5199125  89.798     0.5476237  0.37628    0.7189674 
1096.6     0.236      0.423      -9999      -9999      9.432      8.518      8.028      1.711      1.025      1.325      2.035      1.558      1.208      1.058      2.002      0.1692454  0.1692454  0.35434    3.819384   3.285977   2.035      0.2472661  0.5063005  89.891     0.5608928  0.3991561  0.7226294 
1096.8     0.238      0.422      -9999      -9999      9.628      8.592      7.967      1.674      0.983      1.268      2.1        1.561      1.228      1.075      1.958      0.1608264  0.1608264  0.34975    2.667185   2.927165   2.1        0.224586   0.5004928  89.99      0.5724957  0.4184544  0.726537  
1097       0.238      0.423      -9999      -9999      9.774      8.585      7.942      1.674      0.978      1.247      2.155      1.692      1.301      1.09       1.969      0.1537018  0.1537018  0.3457     1.968287   2.685596   2.155      0.2031003  0.4947909  90.082     0.5818127  0.4334335  0.7301918 
1097.2     0.237      0.425      -9999      -9999      9.839      8.545      7.941      1.687      1.009      1.227      2.19       1.774      1.352      1.088      1.979      0.1525461  0.1525461  0.34624    1.873619   2.584564   2.19       0.203886   0.4979222  90.168     0.5869513  0.4402737  0.7336288 
1097.4     0.236      0.429      -9999      -9999      9.898      8.521      7.999      1.719      0.996      1.226      2.198      1.609      1.258      1.079      1.976      0.1535977  0.1535977  0.34867    1.959571   2.496151   2.198      0.2099885  0.5023067  90.218     0.5911281  0.4465759  0.7356803 
