~Version
 VERS              .         2.0                           : CWLS LOG ASCII STANDARD - VERSION 2.0
 WRAP              .         NO                            : ONE LINE PER DEPTH STEP
 DLM               .         SPACE                         : DELIMITING CHARACTER(SPACE TAB OR COMMA)
~Well Information
#_______________________________________________________________________________
#
#PARAMETER_NAME    .UNIT     VALUE                         : DESCRIPTION
#_______________________________________________________________________________
STRT               .M        900                           : First reference value
STOP               .M        1234                          : Last reference value
STEP               .M        0.2                           : Step increment
NULL               .         -9999                         : Missing value
COMP               .                                       : Company
WELL               .         4621                          : Well name
FLD                .         Узень                         : Field
LOC                .                                       : Location
CNTY               .         Казахстан                     : County
STAT               .                                       : State
CTRY               .                                       : Country
SRVC               .                                       : Service Company
DATE               .                                       : Date
UWI                .                                       : Unique Well ID
Block              .         4                             : 
Category           .         Нефтяная                      : 
Condition          .         Ликвидированная               : 
Date               .         25.10.1990                    : 
EREF               .m        230.2                         : 100.8
Gorizont           .         13                            : 14
Interpretator      .         Ткачева И.Г.                  : 
Kupol              .         Основной                      : osnovnoi
Mud                .         0                             : 
Mud_density        .         0                             : 
Mud_resistivity    .         0                             : 
NGDU               .         НГДУ-1                        : 
ORIGINALWELLNAME   .         4621                          : 
Spud_date          .         1990                          : 1961
Uslovie            .         13                            : 
Viscosity          .         0                             : 
X                  .m        54257.1                       : 46154
Y                  .m        81873.23                      : 85761.93
YEAR               .         2019                          : 
~Parameter Information Block
#_______________________________________________________________________________
#
#PARAMETER_NAME    .UNIT     VALUE                         : DESCRIPTION
#_______________________________________________________________________________
SET                .         LQC_KAZNIPI_Petrel            : 
GSDD               .         CSAT                          : CSATкрив,0,DEPT,BOTTOM,,,,0
TLFamily_CALI      .         Caliper                       : 
TLFamily_CILD      .         Conductivity                  : 
TLFamily_COLL      .         Net Reservoir Flag            : 
TLFamily_CSAT      .         Fluid Code                    : 
TLFamily_DEPT      .         Measured Depth                : 
TLFamily_GR        .         Russian Gamma Ray             : 
TLFamily_GZ1       .         Gradient 045                  : 
TLFamily_GZ2       .         Gradient 105                  : 
TLFamily_GZ3       .         Gradient 225                  : 
TLFamily_GZ4       .         Gradient 425                  : 
TLFamily_GZ5       .         Gradient 850                  : 
TLFamily_LLS       .         Lateral Log Resistivity       : 
TLFamily_MINV      .         Micro Gradient Resistivity    : 
TLFamily_MNOR      .         Micro Resistivity             : 
TLFamily_NGLD      .         Neutron Gamma                 : 
TLFamily_OGZ       .         Gradient Inverted 225         : 
TLFamily_PHIE      .         Effective Porosity            : 
TLFamily_PHIEN     .         Effective Porosity            : 
TLFamily_PHIT      .         Porosity                      : 
TLFamily_PRMB      .         Permeability                  : 
TLFamily_PRMB_DGR  .         Permeability                  : 
TLFamily_RT        .         Formation Resistivity         : 
TLFamily_SOIL_ARCHIE .         Oil Saturation                : 
TLFamily_SOIL_DW   .         Oil Saturation                : 
TLFamily_SP        .         Spontaneous Potential         : 
TLFamily_VSH_FIN   .         Shale Volume                  : 
TLFamily_VSH_GR    .         Shale Volume                  : 
TLFamily_VSH_SP    .         Shale Volume                  : 
~Curve Information
#_______________________________________________________________________________
#
#LOGNAME           .UNIT     LOG_ID                        : DESCRIPTION
#_______________________________________________________________________________
DEPT               .M                                      : Колонка глубины 
CALI               .м                                      : Каверномер 
CILD               .мСм/м                                  : Индукционный каротаж зондом 6Ф1 
COLL               .unitless                               : Описание 
CSAT               .unitless                               : Описание 
GR                 .uR/h                                   : Гамма каротаж 
GZ1                .Ohmm                                   : Градиент-зонд  длиной 0.45м 
GZ2                .Ohmm                                   : Градиент-зонд  длиной 1.05м 
GZ3                .Ohmm                                   : Градиент-зонд  длиной 2.25м 
GZ4                .Ohmm                                   : Градиент-зонд  длиной 4.5м 
GZ5                .Ohmm                                   : Градиент-зонд  длиной 8.5м 
LLS                .Ohmm                                   : Боковой каротаж 
MINV               .Ohmm                                   : Микро-градиент зонд 
MNOR               .Ohmm                                   : Микро-потенциал зонд 
NGLD               .у.е.                                   : Показания зонда НГК-60 аппаратуры ДРСТ-3-90 
OGZ                .Ohmm                                   : Обращенный градиент-зонд 
PHIE               .v/v                                    : Описание 
PHIEN              .v/v                                    :  
PHIT               .v/v                                    : Описание 
PRMB               .mD                                     :  
PRMB_DGR           .mD                                     :  
RT                 .ohmm                                   : Удельное электрическое сопротивление 
SOIL_ARCHIE        .v/v                                    :  
SOIL_DW            .v/v                                    :  
SP                 .мВ                                     : Потенциал самополяризации 
VSH_FIN            .v/v                                    : Описание 
VSH_GR             .v/v                                    : Shale volume 
VSH_SP             .v/v                                    : Shale Volume 
~Ascii
# ...
988.4      0.231      0.221      -9999      -9999      8.776      -9999      -9999      4.006      -9999      -9999      4.034      2.121      1.978      1.207      4.447999   0.1464652  0.1464652  0.31411    1.445602   6.455843   4.034      0.3807438  0.6008142  84.905     0.5080146  0.3029586  0.7130705 
988.6      0.228      0.217      -9999      -9999      8.745      -9999      -9999      4.095      -9999      -9999      4.088      1.948      1.928      1.199      4.341      0.1482475  0.1482475  0.31627    1.559771   6.570398   4.088      0.3910447  0.6069478  85.032     0.5091592  0.3007905  0.7175279 
988.8      0.227      0.214      -9999      -9999      8.806      -9999      -9999      4.139      -9999      -9999      4.073      1.771      1.898      1.185      4.224      0.1498988  0.1498988  0.32005    1.673586   6.346885   4.073      0.3958505  0.6107572  85.267     0.5156097  0.3050716  0.7261477 
989        0.226      0.213      -9999      -9999      9.041      -9999      -9999      4.197      -9999      -9999      3.997      1.783      1.876      1.171      4.095      0.1490673  0.1490673  0.32383    1.615271   5.55462    3.997      0.3875265  0.6091145  85.558     0.5295841  0.3221417  0.7370265 
989.2000000000001 0.226      0.215      -9999      -9999      9.517      -9999      -9999      4.304      -9999      -9999      4.034      1.555      1.679      1.159      3.968      0.1443843  0.1443843  0.32707    1.322832   4.23998    4.034      0.3729777  0.6086704  85.835     0.5535932  0.3597001  0.7474862 
989.4      0.228      0.222      -9999      -9999      10.01      -9999      -9999      4.396      -9999      -9999      3.723      1.269      1.455      1.148      3.856      0.1389804  0.1389804  0.33004    1.050538   3.205413   3.723      0.3269273  0.5891967  86.041     0.5789686  0.4032226  0.7547147 
989.6      0.23       0.23       -9999      -9999      10.519     -9999      -9999      4.467      -9999      -9999      3.462      1.316      1.438      1.132      3.764      0.1344881  0.1344881  0.33436    0.8673682  2.401385   3.462      0.2833569  0.5723761  86.138     0.6056725  0.4536897  0.7576554 
989.8      0.233      0.236      -9999      -9999      11.122     -9999      -9999      4.516      -9999      -9999      3.358      1.352      1.329      1.114      3.688      0.1286348  0.1286348  0.33922    0.6757516  1.7056     3.358      0.2442984  0.5628248  86.083     0.6381369  0.5217122  0.7545616 
990        0.236      0.243      -9999      -9999      11.585     -9999      -9999      4.516      -9999      -9999      3.219      1.191      1.169      1.1        3.627      0.1241249  0.1241249  0.343      0.5575103  1.311564   3.219      0.2048204  0.5510009  85.882     0.6632578  0.5807868  0.7457289 
990.2000000000001 0.237      0.249      -9999      -9999      11.629     -9999      -9999      4.446      -9999      -9999      3.005      1.189      1.166      1.081      3.614      0.130229   0.130229   0.34813    0.7232956  1.279227   3.005      0.2123617  0.5474928  85.601     0.660306   0.5867375  0.7338744 
990.4      0.237      0.254      -9999      -9999      11.557     -9999      -9999      4.37       -9999      -9999      2.932      1.186      1.162      1.063      3.645      0.1386527  0.1386527  0.35299    1.035961   1.332567   2.932      0.2455492  0.5560514  85.315     0.6495069  0.5770314  0.7219824 
990.6      0.236      0.258      -9999      -9999      11.279     -9999      -9999      4.296      -9999      -9999      2.948      1.235      1.215      1.055      3.721      0.1484137  0.1484137  0.35515    1.57087    1.560238   2.948      0.2907669  0.5697756  85.073     0.6264736  0.5410382  0.7119091 
990.8      0.234      0.262      -9999      -9999      10.93      -9999      -9999      4.223      -9999      -9999      2.949      1.291      1.244      1.056      3.848      0.1563379  0.1563379  0.35488    2.202501   1.901899   2.949      0.3222886  0.5778502  84.893     0.6016426  0.4990138  0.7042714 
991        0.232      0.265      -9999      -9999      10.612     -9999      -9999      4.142      -9999      -9999      2.94       1.3        1.234      1.067      4.039      0.1598202  0.1598202  0.35191    2.555145   2.277958   2.94       0.3342133  0.5784637  84.818     0.5820903  0.4635711  0.7006096 
991.2000000000001 0.232      0.266      -9999      -9999      10.454     -9999      -9999      4.021      -9999      -9999      2.958      1.425      1.346      1.09       4.25       0.1561989  0.1561989  0.3457     2.189481   2.4916     2.958      0.3227325  0.5713769  84.867     0.5742456  0.4469087  0.7015826 
991.4      0.232      0.264      -9999      -9999      10.308     -9999      -9999      3.914      -9999      -9999      3.077      1.603      1.445      1.102      4.483      0.1547562  0.1547562  0.34246    2.058817   2.706788   3.077      0.3297573  0.5757927  84.996     0.5687995  0.4320447  0.7055542 
991.6      0.232      0.26       -9999      -9999      10.18      -9999      -9999      3.817      -9999      -9999      3.174      1.728      1.534      1.119      4.74       0.1516531  0.1516531  0.33787    1.803605   2.91068    3.174      0.3276922  0.5755767  85.115     0.5642937  0.4194206  0.7091668 
991.8      0.231      0.257      -9999      -9999      9.974      -9999      -9999      3.733      -9999      -9999      3.226      1.79       1.607      1.153      5.04       0.1457477  0.1457477  0.32869    1.402035   3.271559   3.226      0.3093151  0.5652793  85.13      0.5543706  0.3998735  0.7088678 
992        0.228      0.253      -9999      -9999      9.485      -9999      -9999      3.665      -9999      -9999      3.246      1.828      1.701      1.174      5.372      0.1480241  0.1480241  0.32302    1.544983   4.317665   3.246      0.3205489  0.5644189  85.011     0.5302905  0.3570432  0.7035378 
992.2000000000001 0.226      0.246      -9999      -9999      8.975      -9999      -9999      3.628      -9999      -9999      3.323      1.789      1.719      1.189      5.732999   0.1521361  0.1521361  0.31897    1.841146   5.766569   3.323      0.3438306  0.5705787  84.774     0.5055572  0.3172533  0.693861  
992.4      0.225      0.238      -9999      -9999      8.567      -9999      -9999      3.589      -9999      -9999      3.493      1.868      1.861      1.213      6.124      0.1533499  0.1533499  0.31249    1.938969   7.268627   3.493      0.3634361  0.5770907  84.305     0.4822426  0.2886386  0.6758466 
992.6      0.225      0.23       -9999      -9999      8.391      -9999      -9999      3.578      -9999      -9999      3.767      2.006      2.01       1.22       6.467      0.1579444  0.1579444  0.3106     2.35869    8.031943   3.767      0.4011949  0.5958483  83.548     0.4625928  0.2771059  0.6480798 
992.8      0.227      0.222      -9999      -9999      8.339      -9999      -9999      3.602      -9999      -9999      3.959      2.043      2.106      1.218      6.698      0.1648237  0.1648237  0.31114    3.162949   8.272445   3.959      0.4363259  0.612644   82.544     0.4433828  0.2737875  0.612978  
993        0.228      0.217      -9999      -9999      8.38       -9999      -9999      3.654      -9999      -9999      4.057      1.991      2.07       1.215      6.815      0.1717252  0.1717252  0.31195    4.245463   8.082226   4.057      0.4623134  0.6240358  81.349     0.4249237  0.2764006  0.5734468 
993.2000000000001 0.228      0.213      -9999      -9999      8.26       -9999      -9999      3.738      -9999      -9999      3.962      1.956      1.991      1.22       6.817999   0.178453   0.178453   0.3106     5.656394   8.651671   3.962      0.474198   0.6242935  80.017     0.4004456  0.2688221  0.532069  
993.4      0.226      0.208      -9999      -9999      7.889      -9999      -9999      3.835      -9999      -9999      3.732      1.77       1.854      1.237      6.705999   0.14785    0.14785    0.30601    1.533552   1.650804   3.732      0.3629562  0.5797004  78.626     0.4792728  0.5287152  0.4298303 
