~Version
 VERS              .         2.0                           : CWLS LOG ASCII STANDARD - VERSION 2.0
 WRAP              .         NO                            : ONE LINE PER DEPTH STEP
 DLM               .         SPACE                         : DELIMITING CHARACTER(SPACE TAB OR COMMA)
~Well Information
#_______________________________________________________________________________
#
#PARAMETER_NAME    .UNIT     VALUE                         : DESCRIPTION
#_______________________________________________________________________________
STRT               .M        900                           : First reference value
STOP               .M        1234                          : Last reference value
STEP               .M        0.2                           : Step increment
NULL               .         -9999                         : Missing value
COMP               .                                       : Company
WELL               .         4621                          : Well name
FLD                .         Узень                         : Field
LOC                .                                       : Location
CNTY               .         Казахстан                     : County
STAT               .                                       : State
CTRY               .                                       : Country
SRVC               .                                       : Service Company
DATE               .                                       : Date
UWI                .                                       : Unique Well ID
Block              .         4                             : 
Category           .         Нефтяная                      : 
Condition          .         Ликвидированная               : 
Date               .         25.10.1990                    : 
EREF               .m        230.2                         : 100.8
Gorizont           .         13                            : 14
Interpretator      .         Ткачева И.Г.                  : 
Kupol              .         Основной                      : osnovnoi
Mud                .         0                             : 
Mud_density        .         0                             : 
Mud_resistivity    .         0                             : 
NGDU               .         НГДУ-1                        : 
ORIGINALWELLNAME   .         4621                          : 
Spud_date          .         1990                          : 1961
Uslovie            .         13                            : 
Viscosity          .         0                             : 
X                  .m        54257.1                       : 46154
Y                  .m        81873.23                      : 85761.93
YEAR               .         2019                          : 
~Parameter Information Block
#_______________________________________________________________________________
#
#PARAMETER_NAME    .UNIT     VALUE                         : DESCRIPTION
#_______________________________________________________________________________
SET                .         LQC_KAZNIPI_Petrel            : 
GSDD               .         CSAT                          : CSATкрив,0,DEPT,BOTTOM,,,,0
TLFamily_CALI      .         Caliper                       : 
TLFamily_CILD      .         Conductivity                  : 
TLFamily_COLL      .         Net Reservoir Flag            : 
TLFamily_CSAT      .         Fluid Code                    : 
TLFamily_DEPT      .         Measured Depth                : 
TLFamily_GR        .         Russian Gamma Ray             : 
TLFamily_GZ1       .         Gradient 045                  : 
TLFamily_GZ2       .         Gradient 105                  : 
TLFamily_GZ3       .         Gradient 225                  : 
TLFamily_GZ4       .         Gradient 425                  : 
TLFamily_GZ5       .         Gradient 850                  : 
TLFamily_LLS       .         Lateral Log Resistivity       : 
TLFamily_MINV      .         Micro Gradient Resistivity    : 
TLFamily_MNOR      .         Micro Resistivity             : 
TLFamily_NGLD      .         Neutron Gamma                 : 
TLFamily_OGZ       .         Gradient Inverted 225         : 
TLFamily_PHIE      .         Effective Porosity            : 
TLFamily_PHIEN     .         Effective Porosity            : 
TLFamily_PHIT      .         Porosity                      : 
TLFamily_PRMB      .         Permeability                  : 
TLFamily_PRMB_DGR  .         Permeability                  : 
TLFamily_RT        .         Formation Resistivity         : 
TLFamily_SOIL_ARCHIE .         Oil Saturation                : 
TLFamily_SOIL_DW   .         Oil Saturation                : 
TLFamily_SP        .         Spontaneous Potential         : 
TLFamily_VSH_FIN   .         Shale Volume                  : 
TLFamily_VSH_GR    .         Shale Volume                  : 
TLFamily_VSH_SP    .         Shale Volume                  : 
~Curve Information
#_______________________________________________________________________________
#
#LOGNAME           .UNIT     LOG_ID                        : DESCRIPTION
#_______________________________________________________________________________
DEPT               .M                                      : Колонка глубины 
CALI               .м                                      : Каверномер 
CILD               .мСм/м                                  : Индукционный каротаж зондом 6Ф1 
COLL               .unitless                               : Описание 
CSAT               .unitless                               : Описание 
GR                 .uR/h                                   : Гамма каротаж 
GZ1                .Ohmm                                   : Градиент-зонд  длиной 0.45м 
GZ2                .Ohmm                                   : Градиент-зонд  длиной 1.05м 
GZ3                .Ohmm                                   : Градиент-зонд  длиной 2.25м 
GZ4                .Ohmm                                   : Градиент-зонд  длиной 4.5м 
GZ5                .Ohmm                                   : Градиент-зонд  длиной 8.5м 
LLS                .Ohmm                                   : Боковой каротаж 
MINV               .Ohmm                                   : Микро-градиент зонд 
MNOR               .Ohmm                                   : Микро-потенциал зонд 
NGLD               .у.е.                                   : Показания зонда НГК-60 аппаратуры ДРСТ-3-90 
OGZ                .Ohmm                                   : Обращенный градиент-зонд 
PHIE               .v/v                                    : Описание 
PHIEN              .v/v                                    :  
PHIT               .v/v                                    : Описание 
PRMB               .mD                                     :  
PRMB_DGR           .mD                                     :  
RT                 .ohmm                                   : Удельное электрическое сопротивление 
SOIL_ARCHIE        .v/v                                    :  
SOIL_DW            .v/v                                    :  
SP                 .мВ                                     : Потенциал самополяризации 
VSH_FIN            .v/v                                    : Описание 
VSH_GR             .v/v                                    : Shale volume 
VSH_SP             .v/v                                    : Shale Volume 
~Ascii
# ...
1180.8     0.211      0.103      1          2          8.208      5.527      36.61      26.8       12.183     3.69       9.876      1.96       2.326      1.213      20.677     0.2455004  0.2455004  0.3061     98.72344   24.26786   9.876      0.7405645  0.7893349  61.39      0.1836352  0.1764248  0.1908457 
1181       0.212      0.103      1          2          8.135      5.445      36.71      26.198     14.224     3.939      9.404      1.931      2.326      1.203      20.893     0.2490509  0.2490509  0.3091     114.8641   25.96031   9.404      0.7378325  0.7866225  61.549     0.1819671  0.1716344  0.1922999 
1181.2     0.212      0.103      1          2          8.08       5.239      36.514     25.883     16.458     4.171      9.96       1.943      2.38       1.2        20.931     0.2504543  0.2504543  0.31       121.9495   27.31297   9.96       0.7460509  0.7935018  61.597     0.1804413  0.1681112  0.1927714 
1181.4     0.212      0.103      1          2          8.082      5.012      36.126     25.87      18.681     4.405      11.296     1.977      2.445      1.198      20.74      0.2510786  0.2510786  0.3106     125.24     27.26258   11.296     0.7611349  0.8065173  61.562     0.1803679  0.1682381  0.1924978 
1181.6     0.213      0.103      1          2          8.047      4.769      35.56499   25.896     20.777     4.573      12.076     2.016      2.475      1.203      20.321     0.2500569  0.2500569  0.3091     119.8996   28.15817   12.076     0.7676798  0.8120226  61.48      0.1789187  0.1660322  0.1918051 
1181.8     0.213      0.103      1          2          7.974      4.574      34.914     25.949     22.701     4.664001   12.664     1.94       2.459      1.21       19.712     0.2488536  0.2488536  0.307      113.9018   30.12192   12.664     0.771849   0.8153381  61.371     0.1762011  0.161524   0.1908783 
1182       0.213      0.103      1          2          7.847      4.444      34.202     26.014     24.233     4.669      12.925     1.988      2.512      1.209      18.886     0.2505674  0.2505674  0.3073     122.5388   33.87029   12.925     0.7753694  0.8178435  61.251     0.1719171  0.1539707  0.1898635 
1182.2     0.214      0.103      1          2          7.703      4.356      33.797     25.883     25.216     4.637      13.03      2.028      2.55       1.203      17.997     0.2538916  0.2538916  0.3091     141.2041   38.68774   13.03      0.7787747  0.8201936  61.12      0.1672981  0.1458327  0.1887634 
1182.4     0.214      0.104      1          2          7.556      4.347      33.715     25.687     25.544     4.557001   12.622     2.013      2.538      1.198      17.095     0.2568857  0.2568857  0.3106     160.4368   44.31301   12.622     0.7777285  0.8187213  60.977     0.1627707  0.1379687  0.1875728 
1182.6     0.214      0.104      1          2          7.415      4.422      33.83      25.464     25.465     4.436      11.564     1.974      2.513      1.187      16.282     0.2615989  0.2615989  0.3139     196.1576   50.47574   11.564     0.7720456  0.8132041  60.805     0.158488   0.1308244  0.1861516 
1182.8     0.214      0.104      1          2          7.272      4.565001   34.169     25.202     25.094     4.321      10.795     2.019      2.513      1.183      15.673     0.2642097  0.2642097  0.3151     219.2621   57.60182   10.795     0.7665919  0.8078998  60.599     0.1542129  0.1239565  0.1844693 
1183       0.214      0.104      1          2          7.226      4.705999   34.744     24.927     24.549     4.292      10.074     1.901      2.408      1.193      15.292     0.2618784  0.2618784  0.3121     198.5096   60.10151   10.074     0.7570282  0.7992927  60.36      0.1521867  0.1218248  0.1825486 
1183.2     0.214      0.104      1          2          7.235      4.87       35.23      24.848     23.992     4.305      9.393      1.785      2.288      1.203      15.114     0.2591479  0.2591479  0.3091     176.6879   59.60405   9.393      0.7466126  0.7900537  60.1       0.1513699  0.122239   0.1805009 
1183.4     0.214      0.104      1          2          7.315      4.952      35.427     24.835     23.82      4.397      9.059      1.739      2.303      1.214      15.088     0.2555693  0.2555693  0.3058     151.6779   55.35921   9.059      0.7391304  0.7836207  59.833     0.1522141  0.1259829  0.1784453 
1183.6     0.214      0.104      1          2          7.454      4.913      35.561     24.691     23.621     4.577      9.55       1.727      2.274      1.226      15.152     0.2511732  0.2511732  0.3022     125.7463   48.6901    9.55       0.7416375  0.7862479  59.573     0.1546268  0.1327626  0.1764909 
1183.8     0.213      0.104      1          2          7.622      4.861      35.876     24.39      23.107     4.775      9.268      1.751      2.288      1.231      15.05      0.2485409  0.2485409  0.3007     112.3928   41.69275   9.268      0.7355626  0.7814243  59.325     0.1580579  0.1414456  0.1746702 
1184       0.213      0.104      1          2          7.738      4.858      36.24599   23.918     22.307     4.902      8.958      1.839      2.35       1.235      14.745     0.2465791  0.2465791  0.2995     103.3716   37.45726   8.958      0.7294461  0.7764128  59.087     0.1603663  0.1477702  0.1729624 
1184.2     0.213      0.104      1          2          7.784      4.929      36.586     22.635     21.221     4.998      8.648      1.98       2.487      1.245      14.314     0.2434165  0.2434165  0.2965     90.32809   35.89935   8.648      0.7218276  0.769862   58.859     0.160859   0.1503559  0.1713621 
1184.4     0.213      0.104      1          2          7.761      5.054      37.101     21.272     19.718     5.138      7.847      2.04       2.452      1.252      13.831     0.2417767  0.2417767  0.2944     84.22675   36.67003   7.847      0.707127   0.7567139  58.642     0.1594644  0.1490575  0.1698714 
1184.6     0.213      0.104      1          2          7.727      5.244999   37.686     19.963     18.283     5.328      7.529      2.03       2.465      1.251      13.298     0.2426154  0.2426154  0.2947     87.29379   37.83971   7.529      0.7022851  0.7521383  58.439     0.1578322  0.1471585  0.1685058 
1184.8     0.213      0.104      1          2          7.705      5.38       38.033     18.784     17.17      5.621      7.715      2.104      2.525      1.246      12.904     0.2445172  0.2445172  0.2962     94.66947   38.61637   7.715      0.7076699  0.7566655  58.254     0.1566145  0.1459427  0.1672862 
1185       0.214      0.104      1          2          7.732      5.448      38.21201   17.736     16.456     6.064      7.875      2.102      2.517      1.238      12.701     0.246837   0.246837   0.2986     104.5148   37.66539   7.875      0.7128435  0.7612246  58.098     0.1568576  0.1474362  0.1662789 
1185.2     0.214      0.104      1          2          7.78       5.438001   38.341     17.474     16.138     6.651999   8.004      1.929      2.389      1.225      12.574     0.2504048  0.2504048  0.3025     121.692    36.03221   8.004      0.7185643  0.766346   57.99      0.1578643  0.1501293  0.1655993 
1185.4     0.214      0.104      1          2          7.87       5.405      38.425     17.251     16.017     7.283      7.969      1.758      2.318      1.212      12.485     0.2535093  0.2535093  0.3064     138.9203   33.15847   7.969      0.7209953  0.7687663  57.93      0.1602748  0.1553119  0.1652376 
1185.6     0.214      0.104      1          2          7.943      5.392      38.485     17.081     15.887     7.935      7.783      1.783      2.339      1.213      12.409     0.2525128  0.2525128  0.3061     133.1397   30.99674   7.783      0.7169166  0.7654969  57.908     0.1623855  0.1596467  0.1651242 
1185.8     0.214      0.104      1          2          8.005      5.391      38.561     16.923     15.712     8.586      7.761      1.823      2.36       1.213      12.294     0.2518826  0.2518826  0.3061     129.6092   29.27179   7.761      0.7159228  0.7649165  57.91      0.164295   0.1634233  0.1651667 
