~Version
 VERS              .         2.0                           : CWLS LOG ASCII STANDARD - VERSION 2.0
 WRAP              .         NO                            : ONE LINE PER DEPTH STEP
 DLM               .         SPACE                         : DELIMITING CHARACTER(SPACE TAB OR COMMA)
~Well Information
#_______________________________________________________________________________
#
#PARAMETER_NAME    .UNIT     VALUE                         : DESCRIPTION
#_______________________________________________________________________________
STRT               .M        980                           : First reference value
STOP               .M        1323                          : Last reference value
STEP               .M        0.2                           : Step increment
NULL               .         -9999                         : Missing value
COMP               .                                       : Company
WELL               .         5947                          : Well name
FLD                .         УЗЕНЬ                         : Field
LOC                .                                       : Location
CNTY               .                                       : County
STAT               .                                       : State
CTRY               .                                       : Country
SRVC               .                                       : Service Company
DATE               .         27.08.1986г                   : Date
UWI                .                                       : Unique Well ID
Block              .         4                             : 
Category           .         Нефтяная                      : 
Condition          .         В работе                      : 
EREF               .m        230.8                         : 100.8
Gorizont           .         15                            : 14
Interpretator      .         Кушнир И.Е.                   : 
Kupol              .         основной                      : osnovnoi
Mud                .                                       : 
Mud_density        .                                       : 
Mud_resistivity    .                                       : 
NGDU               .         НГДУ-1                        : 
ORIGINALWELLNAME   .         5947                          : 
Spud_date          .         1986                          : 1961
Viscosity          .                                       : 
X                  .m        54525.3                       : 46154
Y                  .m        81626                         : 85761.93
YEAR               .         2018г                         : 
~Parameter Information Block
#_______________________________________________________________________________
#
#PARAMETER_NAME    .UNIT     VALUE                         : DESCRIPTION
#_______________________________________________________________________________
SET                .         LQC_KAZNIPI_Petrel            : 
TLFamily_CALI      .         Caliper                       : 
TLFamily_CILD      .         Conductivity                  : 
TLFamily_COLL      .         Net Reservoir Flag            : 
TLFamily_CSAT      .         Fluid Code                    : 
TLFamily_DEPT      .         Measured Depth                : 
TLFamily_GR        .         Russian Gamma Ray             : 
TLFamily_GZ1       .         Gradient 045                  : 
TLFamily_GZ2       .         Gradient 105                  : 
TLFamily_GZ3       .         Gradient 225                  : 
TLFamily_GZ4       .         Gradient 425                  : 
TLFamily_GZ5       .         Gradient 850                  : 
TLFamily_LLS       .         Lateral Log Resistivity       : 
TLFamily_MINV      .         Micro Gradient Resistivity    : 
TLFamily_MNOR      .         Micro Resistivity             : 
TLFamily_NGLD      .         Neutron Gamma                 : 
TLFamily_OGZ       .         Gradient Inverted 225         : 
TLFamily_PHIE      .         Effective Porosity            : 
TLFamily_PHIEN     .         Effective Porosity            : 
TLFamily_PHIT      .         Porosity                      : 
TLFamily_PRMB      .         Permeability                  : 
TLFamily_PRMB_DGR  .         Permeability                  : 
TLFamily_RT        .         Formation Resistivity         : 
TLFamily_SOIL_ARCHIE .         Oil Saturation                : 
TLFamily_SOIL_DW   .         Oil Saturation                : 
TLFamily_SP        .         Spontaneous Potential         : 
TLFamily_VSH_FIN   .         Shale Volume                  : 
TLFamily_VSH_GR    .         Shale Volume                  : 
TLFamily_VSH_SP    .         Shale Volume                  : 
~Curve Information
#_______________________________________________________________________________
#
#LOGNAME           .UNIT     LOG_ID                        : DESCRIPTION
#_______________________________________________________________________________
DEPT               .M                                      : Колонка глубины 
CALI               .м                                      : Каверномер 
CILD               .мСм/м                                  : Индукционный каротаж 
COLL               .unitless                               : Описание 
CSAT               .unitless                               : Описание 
GR                 .uR/h                                   : Гамма каротаж 
GZ1                .ohmm                                   : Градиент-зонд  длиной 0.45м 
GZ2                .ohmm                                   : Градиент-зонд  длиной 1.05м 
GZ3                .ohmm                                   : Градиент-зонд  длиной 2.25м 
GZ4                .ohmm                                   : Градиент-зонд  длиной 4.5м 
GZ5                .ohmm                                   : Градиент-зонд  длиной 8.5м 
LLS                .Ohmm                                   : Боковой каротаж 
MINV               .Ohmm                                   : Микро-градиент зонд 
MNOR               .Ohmm                                   : Микро-потенциал зонд 
NGLD               .у.е.                                   : Показания зонда НГК-60 аппаратуры ДРСТ-3-90 
OGZ                .ohmm                                   : Обращенный градиент-зонд 
PHIE               .v/v                                    : Описание 
PHIEN              .v/v                                    :  
PHIT               .v/v                                    : Описание 
PRMB               .мД                                     :  
PRMB_DGR           .мД                                     :  
RT                 .ohmm                                   : Description 
SOIL_ARCHIE        .v/v                                    :  
SOIL_DW            .v/v                                    :  
SP                 .мВ                                     : Потенциал самополяризации 
VSH_FIN            .v/v                                    : Описание 
VSH_GR             .v/v                                    : Shale volume 
VSH_SP             .v/v                                    : Shale Volume 
~Ascii
# ...
1089.2     0.251      740.027    -9999      -9999      8.998      1.128      1.506      1.348      1.587      1.116      1.493      1.193      0.706      1.036      1.81       0.248279   0.248279   0.34755    111.1443   7.311862   1.669      0.4082991  0.5263411  67.60031   0.3008212  0.2879405  0.313702  
1089.4     0.252      740.728    -9999      -9999      9.018      1.128      1.487      1.297      1.645      1.152      1.485      1.6        1.228      1.045      1.81       0.242238   0.242238   0.3463125  85.90012   7.169158   1.668      0.3952979  0.5203587  68.29732   0.3153773  0.2902672  0.3404874 
1089.6     0.253      735.423    -9999      -9999      9.248      1.128      1.487      1.247      1.677      1.263      1.489      1.462      1.67       1.053      1.848      0.2312087  0.2312087  0.3452125  53.6667    5.715154   1.678      0.3720143  0.5116519  69.05831   0.3454659  0.3184157  0.3725162 
1089.8     0.235      723.487    -9999      -9999      9.563      1.205      1.487      1.222      1.686      1.28       1.636      0.917      0.954      1.063      1.861      0.2231968  0.2231968  0.3438375  38.13337   4.189941   1.7        0.3563722  0.5066399  68.99432   0.3655777  0.361448   0.3697074 
1090       0.236      710.225    -9999      -9999      9.84       1.254      1.538      1.222      1.648      1.289      1.658      1.276      0.955      1.076      1.861      0.2216562  0.2216562  0.34205    35.70833   3.188979   1.726      0.3570734  0.5074687  67.91731   0.3648295  0.4040698  0.3255893 
1090.2     0.239      695.637    -9999      -9999      10.058     1.355      1.538      1.209      1.609      1.28       1.682      1.187      0.68       1.089      1.944      0.2214672  0.2214672  0.3402625  35.42164   2.572456   1.755      0.3616067  0.5098626  66.58631   0.3599856  0.4411187  0.2788526 
1090.4     0.243      681.711    -9999      -9999      10.148     1.385      1.538      1.209      1.583      1.28       1.677      1.292      0.896      1.102      2.001      0.2219911  0.2219911  0.338475   36.22196   2.354115   1.785      0.3679661  0.5129449  65.57231   0.3529815  0.4573877  0.2485754 
1090.6     0.257      668.449    -9999      -9999      10.135     1.265      1.607      1.247      1.588      1.237      1.717      1.407      0.815      1.105      2.001      0.2104502  0.2104502  0.3380625  22.14151   2.384468   1.814      0.342872   0.5059426  67.72732   0.3867038  0.4550012  0.3184063 
1090.8     0.271      662.703    -9999      -9999      10.001     1.328      1.64       1.272      1.571      1.202      1.834      1.44       1.036      1.104      1.969      0.1998209  0.1998209  0.3382     14.07103   2.721094   1.827      0.3148297  0.4974976  69.81831   0.4193306  0.4311157  0.4075455 
1091       0.268      657.84     -9999      -9999      9.83       1.385      1.669      1.323      1.565      1.211      1.824      1.214      0.888      1.097      1.835      0.2002911  0.2002911  0.3391625  14.35603   3.220563   1.838      0.3181541  0.5003273  70.45232   0.4208226  0.402447   0.4391982 
1091.2     0.255      645.904    -9999      -9999      9.635      1.321      1.712      1.348      1.624      1.263      1.79       1.185      0.969      1.09       1.746      0.2073412  0.2073412  0.340125   19.39192   3.902939   1.866      0.3430691  0.5117326  70.32532   0.402375   0.3720739  0.4326762 
1091.4     0.256      638.61     -9999      -9999      9.45       1.282      1.755      1.36       1.635      1.284      1.756      0.916      0.843      1.075      1.682      0.2148692  0.2148692  0.3421875  26.7336    4.683515   1.884      0.3660231  0.5227191  70.19832   0.3858129  0.3453801  0.4262458 
1091.6     0.257      638.61     -9999      -9999      9.268      1.282      1.795      1.348      1.661      1.282      1.722      0.867      0.681      1.064      1.625      0.2204063  0.2204063  0.3437     33.85462   5.603613   1.884      0.3799174  0.5288418  70.19832   0.3736172  0.3209887  0.4262458 
1091.8     0.247      637.947    -9999      -9999      9.103      1.237      1.795      1.297      1.686      1.246      1.693      0.987      0.844      1.071      1.568      0.2212534  0.2212534  0.3427375  35.10003   6.593078   1.885      0.3821394  0.5289134  70.38831   0.3681337  0.3003677  0.4358998 
1092       0.245      630.653    -9999      -9999      9.012      1.385      1.795      1.26       1.698      1.289      1.754      0.806      0.781      1.091      1.568      0.2186498  0.2186498  0.3399875  31.41112   7.211673   1.904      0.3786677  0.5267537  70.57932   0.3676899  0.2895673  0.4458125 
1092.2     0.251      621.369    -9999      -9999      9.019      1.54       1.795      1.272      1.69       1.327      1.83       1.064      0.812      1.106      1.695      0.2147911  0.2147911  0.337925   26.64466   7.162093   1.927      0.3725027  0.5244646  70.76932   0.3731331  0.2903841  0.4558821 
1092.4     0.255      617.391    -9999      -9999      9.152      1.436      1.856      1.31       1.712      1.323      1.906      0.902      0.835      1.103      1.861      0.2125693  0.2125693  0.3383375  24.23582   6.282259   1.938      0.3684835  0.5241669  70.76932   0.3811157  0.3063493  0.4558821 
1092.6     0.247      621.657    -9999      -9999      9.32       1.436      1.976      1.31       1.702      1.366      1.841      0.893      0.877      1.091      1.925      0.2128973  0.2128973  0.3399875  24.57718   5.323681   1.927      0.367644   0.5244897  70.51531   0.3851219  0.3277763  0.4424675 
1092.8     0.252      626.011    -9999      -9999      9.47       1.436      2.097      1.335      1.756      1.449      1.703      1.81       1.967      1.086      1.95       0.2128962  0.2128962  0.340675   24.57609   4.592105   1.915      0.3657849  0.5235761  70.19832   0.3872084  0.3481711  0.4262458 
1093       0.253      621.369    -9999      -9999      9.506      1.457      2.062      1.386      1.75       1.49       1.736      1.462      1.822      1.091      1.899      0.2149547  0.2149547  0.3399875  26.83125   4.432043   1.927      0.3729188  0.5263315  69.75532   0.3788872  0.3532516  0.4045229 
1093.2     0.248      608.77     -9999      -9999      9.482      1.48       2.023      1.423      1.756      1.548      1.771      1.072      1.143      1.096      1.861      0.2191856  0.2191856  0.3393     32.13708   4.538117   1.961      0.3885137  0.5335836  69.18432   0.3639832  0.3498564  0.3781099 
1093.4     0.244      602.139    -9999      -9999      9.443      1.445      1.939      1.461      1.756      1.539      1.87       1.259      1.324      1.105      1.861      0.218847   0.218847   0.3380625  31.67632   4.715937   1.979      0.3903095  0.5344083  69.18432   0.3612592  0.3444085  0.3781099 
1093.6     0.238      603.466    -9999      -9999      9.464      1.373      1.856      1.499      1.725      1.44       1.899      1.315      1.209      1.113      1.963      0.2172647  0.2172647  0.3369625  29.60925   4.61934    1.975      0.3858614  0.5316569  69.18432   0.3627206  0.3473313  0.3781099 
1093.8     0.234      590.867    -9999      -9999      9.414      1.525      1.965      1.512      1.731      1.41       1.838      1.38       1.076      1.121      2.141      0.2154035  0.2154035  0.3358625  27.34975   4.852661   2.01       0.3863218  0.5332243  69.43832   0.3650272  0.3404126  0.3896419 
1094       0.239      574.289    -9999      -9999      9.309      1.692      2.098      1.587      1.738      1.359      1.783      1.103      1.081      1.144      2.409      0.2116108  0.2116108  0.3327     23.26499   5.381707   2.059      0.3837578  0.5328609  69.81831   0.3669371  0.3263286  0.4075455 
1094.2     0.236      564.343    -9999      -9999      9.154      1.659      2.232      1.6        1.764      1.326      2.233      1.463      1.092      1.17       2.9        0.2049776  0.2049776  0.329125   17.53238   6.269888   2.09       0.3708526  0.5273047  70.57932   0.3762042  0.3065959  0.4458125 
