~Version
 VERS              .         2.0                           : CWLS LOG ASCII STANDARD - VERSION 2.0
 WRAP              .         NO                            : ONE LINE PER DEPTH STEP
 DLM               .         SPACE                         : DELIMITING CHARACTER(SPACE TAB OR COMMA)
~Well Information
#_______________________________________________________________________________
#
#PARAMETER_NAME    .UNIT     VALUE                         : DESCRIPTION
#_______________________________________________________________________________
STRT               .M        980                           : First reference value
STOP               .M        1323                          : Last reference value
STEP               .M        0.2                           : Step increment
NULL               .         -9999                         : Missing value
COMP               .                                       : Company
WELL               .         5947                          : Well name
FLD                .         УЗЕНЬ                         : Field
LOC                .                                       : Location
CNTY               .                                       : County
STAT               .                                       : State
CTRY               .                                       : Country
SRVC               .                                       : Service Company
DATE               .         27.08.1986г                   : Date
UWI                .                                       : Unique Well ID
Block              .         4                             : 
Category           .         Нефтяная                      : 
Condition          .         В работе                      : 
EREF               .m        230.8                         : 100.8
Gorizont           .         15                            : 14
Interpretator      .         Кушнир И.Е.                   : 
Kupol              .         основной                      : osnovnoi
Mud                .                                       : 
Mud_density        .                                       : 
Mud_resistivity    .                                       : 
NGDU               .         НГДУ-1                        : 
ORIGINALWELLNAME   .         5947                          : 
Spud_date          .         1986                          : 1961
Viscosity          .                                       : 
X                  .m        54525.3                       : 46154
Y                  .m        81626                         : 85761.93
YEAR               .         2018г                         : 
~Parameter Information Block
#_______________________________________________________________________________
#
#PARAMETER_NAME    .UNIT     VALUE                         : DESCRIPTION
#_______________________________________________________________________________
SET                .         LQC_KAZNIPI_Petrel            : 
TLFamily_CALI      .         Caliper                       : 
TLFamily_CILD      .         Conductivity                  : 
TLFamily_COLL      .         Net Reservoir Flag            : 
TLFamily_CSAT      .         Fluid Code                    : 
TLFamily_DEPT      .         Measured Depth                : 
TLFamily_GR        .         Russian Gamma Ray             : 
TLFamily_GZ1       .         Gradient 045                  : 
TLFamily_GZ2       .         Gradient 105                  : 
TLFamily_GZ3       .         Gradient 225                  : 
TLFamily_GZ4       .         Gradient 425                  : 
TLFamily_GZ5       .         Gradient 850                  : 
TLFamily_LLS       .         Lateral Log Resistivity       : 
TLFamily_MINV      .         Micro Gradient Resistivity    : 
TLFamily_MNOR      .         Micro Resistivity             : 
TLFamily_NGLD      .         Neutron Gamma                 : 
TLFamily_OGZ       .         Gradient Inverted 225         : 
TLFamily_PHIE      .         Effective Porosity            : 
TLFamily_PHIEN     .         Effective Porosity            : 
TLFamily_PHIT      .         Porosity                      : 
TLFamily_PRMB      .         Permeability                  : 
TLFamily_PRMB_DGR  .         Permeability                  : 
TLFamily_RT        .         Formation Resistivity         : 
TLFamily_SOIL_ARCHIE .         Oil Saturation                : 
TLFamily_SOIL_DW   .         Oil Saturation                : 
TLFamily_SP        .         Spontaneous Potential         : 
TLFamily_VSH_FIN   .         Shale Volume                  : 
TLFamily_VSH_GR    .         Shale Volume                  : 
TLFamily_VSH_SP    .         Shale Volume                  : 
~Curve Information
#_______________________________________________________________________________
#
#LOGNAME           .UNIT     LOG_ID                        : DESCRIPTION
#_______________________________________________________________________________
DEPT               .M                                      : Колонка глубины 
CALI               .м                                      : Каверномер 
CILD               .мСм/м                                  : Индукционный каротаж 
COLL               .unitless                               : Описание 
CSAT               .unitless                               : Описание 
GR                 .uR/h                                   : Гамма каротаж 
GZ1                .ohmm                                   : Градиент-зонд  длиной 0.45м 
GZ2                .ohmm                                   : Градиент-зонд  длиной 1.05м 
GZ3                .ohmm                                   : Градиент-зонд  длиной 2.25м 
GZ4                .ohmm                                   : Градиент-зонд  длиной 4.5м 
GZ5                .ohmm                                   : Градиент-зонд  длиной 8.5м 
LLS                .Ohmm                                   : Боковой каротаж 
MINV               .Ohmm                                   : Микро-градиент зонд 
MNOR               .Ohmm                                   : Микро-потенциал зонд 
NGLD               .у.е.                                   : Показания зонда НГК-60 аппаратуры ДРСТ-3-90 
OGZ                .ohmm                                   : Обращенный градиент-зонд 
PHIE               .v/v                                    : Описание 
PHIEN              .v/v                                    :  
PHIT               .v/v                                    : Описание 
PRMB               .мД                                     :  
PRMB_DGR           .мД                                     :  
RT                 .ohmm                                   : Description 
SOIL_ARCHIE        .v/v                                    :  
SOIL_DW            .v/v                                    :  
SP                 .мВ                                     : Потенциал самополяризации 
VSH_FIN            .v/v                                    : Описание 
VSH_GR             .v/v                                    : Shale volume 
VSH_SP             .v/v                                    : Shale Volume 
~Ascii
# ...
1312.8     -9999      633.968    -9999      -9999      10.879     1.538      2.051      1.537      1.678      1.06       1.585      1.551      0.708      1.28       1.657      0.1300503  0.1300503  0.314      0.7178019  0.9109625  1.895      0.04840035 0.4065284  70.48439   0.5574234  0.6739869  0.4408599 
1313       -9999      631.316    -9999      -9999      10.928     1.641      2.051      1.524      1.609      1.041      1.592      1.529      0.631      1.266      1.708      0.1280232  0.1280232  0.315925   0.6583524  0.8669482  1.902      0.03695857 0.4064268  70.67852   0.5693994  0.6877547  0.451044  
1313.2     -9999      630.714    -9999      -9999      10.889     1.641      2.073      1.499      1.6        1.064      1.591      1.616      0.711      1.268      1.733      0.1261192  0.1261192  0.31565    0.6070052  0.9018023  1.903      0.02454904 0.4029504  71.06365   0.5743356  0.6767741  0.4718972 
1313.4     -9999      629.99     -9999      -9999      10.736     1.59       2.103      1.499      1.609      1.053      1.583      1.265      0.631      1.275      1.733      0.1284131  0.1284131  0.3146875  0.6693901  1.052605   1.905      0.04021554 0.4061016  71.44779   0.564468   0.6353636  0.4935724 
1313.6     -9999      626.011    -9999      -9999      10.64      1.598      2.094      1.512      1.6        1.051      1.582      1.359      0.752      1.279      1.733      0.1269374  0.1269374  0.3141375  0.6285588  1.15985    1.915      0.03288386 0.4044505  71.95992   0.5672731  0.6106844  0.5238619 
1313.8     -9999      622.032    -9999      -9999      10.609     1.607      2.085      1.549      1.609      1.09       1.582      1.445      0.794      1.276      1.733      0.1240368  0.1240368  0.31455    0.5554193  1.196763   1.926      0.01586503 0.4015489  72.40806   0.5773126  0.6029216  0.5517037 
1314       -9999      614.738    -9999      -9999      10.623     1.692      2.103      1.587      1.643      1.116      1.628      1.553      0.846      1.264      1.759      0.1230551  0.1230551  0.3162     0.5326439  1.179949   1.945      0.01358484 0.4047058  72.60219   0.5852876  0.606415   0.56416   
1314.2     -9999      611.423    -9999      -9999      10.597     1.59       2.103      1.638      1.686      1.116      1.658      1.277      0.822      1.263      1.81       0.1228495  0.1228495  0.3163375  0.5279939  1.211365   1.953      0.01404815 0.4057247  72.73332   0.5863273  0.5999432  0.5727113 
1314.4     -9999      607.444    -9999      -9999      10.483     1.59       2.103      1.663      1.721      1.176      1.66       1.677      0.687      1.272      1.861      0.1254209  0.1254209  0.3151     0.5891938  1.359289   1.964      0.03422627 0.4104399  72.80145   0.5747851  0.5723721  0.5771981 
1314.6     -9999      604.129    -9999      -9999      10.354     1.59       2.154      1.663      1.703      1.185      1.658      1.371      0.86       1.296      1.899      0.1262718  0.1262718  0.3118     0.6109675  1.548575   1.973      0.04195429 0.409356   72.86958   0.5622067  0.5426983  0.581715  
1314.8     -9999      600.813    -9999      -9999      10.248     1.59       2.154      1.625      1.686      1.238      1.634      1.445      0.796      1.311      1.899      0.1258909  0.1258909  0.3097375  0.6011215  1.723683   1.982      0.04147924 0.4075707  73.06371   0.557111   0.5194703  0.5947518 
1315       -9999      595.508    -9999      -9999      10.329     1.59       2.154      1.663      1.656      1.263      1.638      1.548      0.707      1.315      1.899      0.120951   0.120951   0.3091875  0.4869273  1.588199   1.997      0.01097733 0.4003263  73.19485   0.5704136  0.5371282  0.603699  
1315.2     -9999      591.814    -9999      -9999      10.545     1.591      2.154      1.638      1.635      1.26       1.665      1.363      0.977      1.305      1.899      0.1118317  0.1118317  0.3105625  0.3300298  1.27673    2.008      0          0.3864003  73.38998   0.6022145  0.5872059  0.617223  
1315.4     -9999      588.214    -9999      -9999      10.81      1.692      2.154      1.638      1.626      1.28       1.679      1.299      0.797      1.289      1.95       0.100573   0.100573   0.3127625  0.2041807  0.9767547  2.018      0          0.3673869  73.58411   0.6429983  0.655066   0.6309307 
1315.6     -9999      585.146    -9999      -9999      10.834     1.644      2.154      1.612      1.626      1.287      1.737      1.154      0.769      1.27       2.027      0.09903032 0.09903032 0.315375   0.1911789  0.953349   2.027      0          0.3688385  73.84281   0.6555899  0.661586   0.6495939 
1315.8     -9999      582.246    -9999      -9999      10.64      1.585      2.205      1.638      1.635      1.332      1.718      1.056      0.75       1.256      2.09       0.1070443  0.1070443  0.3173     0.2690777  1.15985    2.035      0          0.3893963  74.03281   0.6371385  0.6106844  0.6635928 
1316       -9999      574.289    -9999      -9999      10.36      1.685      2.205      1.612      1.652      1.297      1.687      0.918      0.871      1.254      2.103      0.1167482  0.1167482  0.317575   0.4070219  1.539214   2.059      0          0.4118357  74.15981   0.6085661  0.5440437  0.6730885 
1316.2     -9999      563.016    -9999      -9999      10.224     1.692      2.256      1.675      1.678      1.323      1.659      0.904      0.751      1.257      2.116      0.1196498  0.1196498  0.3171625  0.4606401  1.766003   2.094      0.02359158 0.4214695  74.28681   0.5985235  0.5143506  0.6826964 
1316.4     -9999      555.059    -9999      -9999      10.297     1.744      2.347      1.65       1.686      1.341      1.667      0.862      0.857      1.259      2.167      0.1143726  0.1143726  0.3168875  0.3678042  1.640403   2.12       0          0.4152331  74.47681   0.6136814  0.5300815  0.6972814 
1316.6     -9999      547.102    -9999      -9999      10.46      1.744      2.359      1.688      1.686      1.349      1.675      0.978      0.872      1.269      2.167      0.1052928  0.1052928  0.3155125  0.24971    1.391255   2.146      0          0.3997374  74.60281   0.6370294  0.5669651  0.7070937 
1316.8     -9999      540.471    -9999      -9999      10.576     1.744      2.41       1.688      1.72       1.391      1.692      1.066      0.883      1.288      2.205      0.09560334 0.09560334 0.3129     0.1651824  1.23735    2.168      0          0.3790667  74.79382   0.6584747  0.5947664  0.7221832 
1317       -9999      534.503    -9999      -9999      10.54      1.744      2.41       1.688      1.712      1.401      1.728      1.159      0.977      1.307      2.307      0.09277202 0.09277202 0.3102875  0.1463932  1.283198   2.189      0          0.3722198  74.91982   0.6591378  0.5859955  0.7322801 
1317.2     -9999      529.861    -9999      -9999      10.408     1.692      2.39       1.663      1.664      1.418      1.781      1.075      0.81       1.314      2.333      0.09608219 0.09608219 0.309325   0.1685906  1.466326   2.205      0          0.3806998  74.98382   0.6461903  0.5549279  0.7374527 
1317.4     -9999      529.861    -9999      -9999      10.298     1.692      2.41       1.638      1.635      1.399      1.834      1.027      0.915      1.303      2.333      0.1066675  0.1066675  0.3108375  0.2647882  1.638746   2.205      0          0.404814   74.60281   0.618697   0.5303004  0.7070937 
1317.6     -9999      529.553    -9999      -9999      10.231     1.719      2.435      1.612      1.583      1.392      1.888      0.954      0.886      1.294      2.256      0.1174688  0.1174688  0.312075   0.4197258  1.753554   2.206      0.03178718 0.4266936  74.03281   0.5897157  0.5158386  0.6635928 
1317.8     -9999      529.198    -9999      -9999      10.176     1.819      2.41       1.638      1.574      1.334      1.902      0.893      0.861      1.294      2.256      0.1224455  0.1224455  0.312075   0.5189749  1.853787   2.208      0.06654943 0.4355958  73.77982   0.5746347  0.5042622  0.6450073 
