~Version
 VERS              .         2.0                           : CWLS LOG ASCII STANDARD - VERSION 2.0
 WRAP              .         NO                            : ONE LINE PER DEPTH STEP
 DLM               .         SPACE                         : DELIMITING CHARACTER(SPACE TAB OR COMMA)
~Well Information
#_______________________________________________________________________________
#
#PARAMETER_NAME    .UNIT     VALUE                         : DESCRIPTION
#_______________________________________________________________________________
STRT               .M        980                           : First reference value
STOP               .M        1323                          : Last reference value
STEP               .M        0.2                           : Step increment
NULL               .         -9999                         : Missing value
COMP               .                                       : Company
WELL               .         5947                          : Well name
FLD                .         УЗЕНЬ                         : Field
LOC                .                                       : Location
CNTY               .                                       : County
STAT               .                                       : State
CTRY               .                                       : Country
SRVC               .                                       : Service Company
DATE               .         27.08.1986г                   : Date
UWI                .                                       : Unique Well ID
Block              .         4                             : 
Category           .         Нефтяная                      : 
Condition          .         В работе                      : 
EREF               .m        230.8                         : 100.8
Gorizont           .         15                            : 14
Interpretator      .         Кушнир И.Е.                   : 
Kupol              .         основной                      : osnovnoi
Mud                .                                       : 
Mud_density        .                                       : 
Mud_resistivity    .                                       : 
NGDU               .         НГДУ-1                        : 
ORIGINALWELLNAME   .         5947                          : 
Spud_date          .         1986                          : 1961
Viscosity          .                                       : 
X                  .m        54525.3                       : 46154
Y                  .m        81626                         : 85761.93
YEAR               .         2018г                         : 
~Parameter Information Block
#_______________________________________________________________________________
#
#PARAMETER_NAME    .UNIT     VALUE                         : DESCRIPTION
#_______________________________________________________________________________
SET                .         LQC_KAZNIPI_Petrel            : 
TLFamily_CALI      .         Caliper                       : 
TLFamily_CILD      .         Conductivity                  : 
TLFamily_COLL      .         Net Reservoir Flag            : 
TLFamily_CSAT      .         Fluid Code                    : 
TLFamily_DEPT      .         Measured Depth                : 
TLFamily_GR        .         Russian Gamma Ray             : 
TLFamily_GZ1       .         Gradient 045                  : 
TLFamily_GZ2       .         Gradient 105                  : 
TLFamily_GZ3       .         Gradient 225                  : 
TLFamily_GZ4       .         Gradient 425                  : 
TLFamily_GZ5       .         Gradient 850                  : 
TLFamily_LLS       .         Lateral Log Resistivity       : 
TLFamily_MINV      .         Micro Gradient Resistivity    : 
TLFamily_MNOR      .         Micro Resistivity             : 
TLFamily_NGLD      .         Neutron Gamma                 : 
TLFamily_OGZ       .         Gradient Inverted 225         : 
TLFamily_PHIE      .         Effective Porosity            : 
TLFamily_PHIEN     .         Effective Porosity            : 
TLFamily_PHIT      .         Porosity                      : 
TLFamily_PRMB      .         Permeability                  : 
TLFamily_PRMB_DGR  .         Permeability                  : 
TLFamily_RT        .         Formation Resistivity         : 
TLFamily_SOIL_ARCHIE .         Oil Saturation                : 
TLFamily_SOIL_DW   .         Oil Saturation                : 
TLFamily_SP        .         Spontaneous Potential         : 
TLFamily_VSH_FIN   .         Shale Volume                  : 
TLFamily_VSH_GR    .         Shale Volume                  : 
TLFamily_VSH_SP    .         Shale Volume                  : 
~Curve Information
#_______________________________________________________________________________
#
#LOGNAME           .UNIT     LOG_ID                        : DESCRIPTION
#_______________________________________________________________________________
DEPT               .M                                      : Колонка глубины 
CALI               .м                                      : Каверномер 
CILD               .мСм/м                                  : Индукционный каротаж 
COLL               .unitless                               : Описание 
CSAT               .unitless                               : Описание 
GR                 .uR/h                                   : Гамма каротаж 
GZ1                .ohmm                                   : Градиент-зонд  длиной 0.45м 
GZ2                .ohmm                                   : Градиент-зонд  длиной 1.05м 
GZ3                .ohmm                                   : Градиент-зонд  длиной 2.25м 
GZ4                .ohmm                                   : Градиент-зонд  длиной 4.5м 
GZ5                .ohmm                                   : Градиент-зонд  длиной 8.5м 
LLS                .Ohmm                                   : Боковой каротаж 
MINV               .Ohmm                                   : Микро-градиент зонд 
MNOR               .Ohmm                                   : Микро-потенциал зонд 
NGLD               .у.е.                                   : Показания зонда НГК-60 аппаратуры ДРСТ-3-90 
OGZ                .ohmm                                   : Обращенный градиент-зонд 
PHIE               .v/v                                    : Описание 
PHIEN              .v/v                                    :  
PHIT               .v/v                                    : Описание 
PRMB               .мД                                     :  
PRMB_DGR           .мД                                     :  
RT                 .ohmm                                   : Description 
SOIL_ARCHIE        .v/v                                    :  
SOIL_DW            .v/v                                    :  
SP                 .мВ                                     : Потенциал самополяризации 
VSH_FIN            .v/v                                    : Описание 
VSH_GR             .v/v                                    : Shale volume 
VSH_SP             .v/v                                    : Shale Volume 
~Ascii
# ...
1266       0.213      653.861    -9999      -9999      10.622     1.59       2.051      1.524      1.704      1.704      1.674      1.38       0.711      1.222      1.593      0.1411448  0.1411448  0.321975   1.152132   1.823549   1.674      0.04713459 0.3891723  72.96781   0.5479703  0.5076599  0.5882807 
1266.2     0.213      651.209    -9999      -9999      10.441     1.692      2.078      1.524      1.747      1.721      1.695      1.425      0.843      1.225      1.593      0.1412444  0.1412444  0.3215625  1.157037   2.170227   1.695      0.05327468 0.3926428  73.42966   0.5464184  0.4728331  0.6200038 
1266.4     0.214      649.883    -9999      -9999      10.23      1.514      2.103      1.524      1.793      1.793      1.674      1.4        0.881      1.224      1.593      0.1436549  0.1436549  0.3217     1.282318   2.658409   1.674      0.06165217 0.3928877  73.76349   0.5395305  0.4352382  0.6438229 
1266.6     0.216      647.893    -9999      -9999      10.078     1.407      2.103      1.524      1.704      1.787      1.674      1.298      0.777      1.226      1.568      0.1457965  0.1457965  0.321425   1.404955   3.076796   1.674      0.07366799 0.3959522  73.90833   0.5322077  0.4100221  0.6543933 
1266.8     0.216      648.14     -9999      -9999      9.937      1.508      2.051      1.537      1.664      1.73       1.641      1.278      0.869      1.229      1.568      0.1472599  0.1472599  0.3210125  1.49544    3.523561   1.641      0.07307083 0.39173    74.05317   0.526523   0.3879388  0.6651072 
1267       0.217      649.219    -9999      -9999      9.792      1.538      2.051      1.575      1.623      1.748      1.618      1.246      0.875      1.24       1.568      0.1490705  0.1490705  0.3195     1.615494   4.050754   1.618      0.07678918 0.3884766  74.07101   0.516453   0.3664688  0.6664373 
1267.2     0.215      651.209    -9999      -9999      9.628      1.574      2          1.575      1.582      1.712      1.577      1.15       0.803      1.249      1.581      0.154479   0.154479   0.3182625  2.034625   4.742685   1.577      0.09416053 0.3875109  73.83485   0.4963136  0.343614   0.6490131 
1267.4     0.211      653.198    -9999      -9999      9.453      1.538      2          1.575      1.542      1.721      1.587      1.14       0.789      1.259      1.632      0.1611559  0.1611559  0.3168875  2.704935   5.611856   1.587      0.1295221  0.3977588  73.47269   0.4719139  0.320796   0.6230317 
1267.6     0.213      657.177    -9999      -9999      9.369      1.59       1.949      1.575      1.539      1.652      1.579      1.13       0.775      1.284      1.632      0.1649953  0.1649953  0.31345    3.186185   6.083955   1.579      0.1451657  0.397767   72.98354   0.4498627  0.310388   0.5893375 
1267.8     0.215      659.166    -9999      -9999      9.342      1.59       1.949      1.549      1.539      1.641      1.573      1.063      0.925      1.298      1.606      0.1404565  0.1404565  0.311525   1.118804   2.283891   1.573      0.02883739 0.3641379  72.74837   0.5183893  0.463079   0.5736995 
1268       0.215      664.471    -9999      -9999      9.361      1.538      1.949      1.486      1.539      1.526      1.568      1.2        0.837      1.295      1.517      0.1400239  0.1400239  0.3119375  1.098349   2.236891   1.568      0.02476857 0.3628976  72.7662    0.5209503  0.4670276  0.5748731 
1268.2     0.212      673.091    -9999      -9999      9.391      1.543      1.944      1.474      1.539      1.445      1.573      1.341      0.859      1.278      1.453      0.1404395  0.1404395  0.314275   1.117993   2.164643   1.573      0.02873499 0.3675591  72.84705   0.5267741  0.4733308  0.5802175 
1268.4     0.211      677.733    -9999      -9999      9.418      1.59       1.897      1.461      1.539      1.394      1.558      1.426      0.966      1.258      1.377      0.139942   0.139942   0.317025   1.09452    2.101615   1.558      0.02133775 0.3670928  73.05489   0.5366151  0.4790765  0.5941536 
1268.6     0.21       680.385    -9999      -9999      9.434      1.59       1.897      1.461      1.539      1.352      1.565      1.388      0.885      1.241      1.377      0.140794   0.140794   0.3193625  1.135022   2.065136   1.565      0.02854341 0.3728283  73.13673   0.5411167  0.4825142  0.5997191 
1268.8     0.21       683.701    -9999      -9999      9.448      1.54       1.897      1.461      1.539      1.332      1.573      1.35       0.95       1.227      1.377      0.1420182  0.1420182  0.3212875  1.195856   2.033736   1.573      0.03814472 0.3787976  73.15457   0.5432404  0.4855424  0.6009386 
1269       0.21       684.364    -9999      -9999      9.476      1.483      1.897      1.461      1.555      1.332      1.573      1.346      0.939      1.221      1.389      0.141633   0.141633   0.3221125  1.17637    1.972362   1.573      0.03586676 0.3791465  73.17241   0.5469077  0.4916559  0.6021596 
1269.2     0.21       685.027    -9999      -9999      9.499      1.532      1.949      1.461      1.565      1.345      1.563      1.285      0.801      1.229      1.428      0.139493   0.139493   0.3210125  1.073761   1.923336   1.563      0.02006938 0.3722311  73.19025   0.550059   0.4967352  0.6033826 
1269.4     0.212      684.364    -9999      -9999      9.513      1.547      1.949      1.474      1.6        1.401      1.607      1.295      0.968      1.237      1.453      0.138378   0.138378   0.3199125  1.023892   1.894092   1.607      0.02596806 0.3776774  73.14606   0.5501046  0.4998527  0.6003565 
1269.6     0.213      684.364    -9999      -9999      9.538      1.538      1.949      1.499      1.643      1.392      1.626      1.429      0.955      1.243      1.479      0.1385297  0.1385297  0.3190875  1.030537   1.842971   1.626      0.03224947 0.3805855  72.97586   0.5471449  0.5054684  0.5888215 
1269.8     0.215      683.038    -9999      -9999      9.613      1.628      1.949      1.524      1.669      1.436      1.646      1.424      1.016      1.251      1.606      0.1378355  0.1378355  0.3179875  1.000474   1.697744   1.646      0.03356623 0.3818639  72.67867   0.5459151  0.5226967  0.5691336 
1270       0.215      675.081    -9999      -9999      9.674      1.626      1.985      1.549      1.695      1.427      1.658      1.556      1.248      1.246      1.746      0.1372882  0.1372882  0.318675   0.9773902  1.588106   1.658      0.03351145 0.3840081  72.57147   0.549657   0.537141   0.5621731 
1270.2     0.214      667.786    -9999      -9999      9.737      1.692      2.034      1.499      1.669      1.418      1.653      1.385      1.119      1.236      1.848      0.1359212  0.1359212  0.32005    0.9220381  1.482299   1.653      0.02366863 0.3824089  72.59128   0.557966   0.5524784  0.5634536 
1270.4     0.214      660.492    -9999      -9999      9.833      1.692      2.051      1.537      1.661      1.384      1.633      1.234      1.007      1.234      1.976      0.1359783  0.1359783  0.320325   0.9242834  1.334468   1.633      0.01843421 0.3790694  72.23109   0.5586265  0.5766955  0.5405576 
1270.6     0.215      655.851    -9999      -9999      9.825      1.59       2.051      1.562      1.609      1.375      1.637      1.35       0.988      1.243      2.129      0.141212   0.141212   0.3190875  1.155439   1.346204   1.637      0.05128604 0.3871377  71.61689   0.5390166  0.5746374  0.5033958 
1270.8     0.216      650.546    -9999      -9999      9.821      1.617      2.051      1.6        1.597      1.366      1.665      0.662      0.684      1.26       2.269      0.1470568  0.1470568  0.31675    1.48254    1.35211    1.665      0.09147172 0.3989235  70.74969   0.5142218  0.5736112  0.4548324 
1271       0.216      639.936    -9999      -9999      9.684      1.692      1.975      1.6        1.521      1.297      1.708      0.63       0.702      1.273      2.396      0.160672   0.160672   0.3149625  2.649682   1.57082    1.708      0.1689075  0.4245946  69.56551   0.4675469  0.5395468  0.3955469 
