~Version
 VERS              .         2.0                           : CWLS LOG ASCII STANDARD - VERSION 2.0
 WRAP              .         NO                            : ONE LINE PER DEPTH STEP
 DLM               .         SPACE                         : DELIMITING CHARACTER(SPACE TAB OR COMMA)
~Well Information
#_______________________________________________________________________________
#
#PARAMETER_NAME    .UNIT     VALUE                         : DESCRIPTION
#_______________________________________________________________________________
STRT               .M        980                           : First reference value
STOP               .M        1323                          : Last reference value
STEP               .M        0.2                           : Step increment
NULL               .         -9999                         : Missing value
COMP               .                                       : Company
WELL               .         5947                          : Well name
FLD                .         УЗЕНЬ                         : Field
LOC                .                                       : Location
CNTY               .                                       : County
STAT               .                                       : State
CTRY               .                                       : Country
SRVC               .                                       : Service Company
DATE               .         27.08.1986г                   : Date
UWI                .                                       : Unique Well ID
Block              .         4                             : 
Category           .         Нефтяная                      : 
Condition          .         В работе                      : 
EREF               .m        230.8                         : 100.8
Gorizont           .         15                            : 14
Interpretator      .         Кушнир И.Е.                   : 
Kupol              .         основной                      : osnovnoi
Mud                .                                       : 
Mud_density        .                                       : 
Mud_resistivity    .                                       : 
NGDU               .         НГДУ-1                        : 
ORIGINALWELLNAME   .         5947                          : 
Spud_date          .         1986                          : 1961
Viscosity          .                                       : 
X                  .m        54525.3                       : 46154
Y                  .m        81626                         : 85761.93
YEAR               .         2018г                         : 
~Parameter Information Block
#_______________________________________________________________________________
#
#PARAMETER_NAME    .UNIT     VALUE                         : DESCRIPTION
#_______________________________________________________________________________
SET                .         LQC_KAZNIPI_Petrel            : 
TLFamily_CALI      .         Caliper                       : 
TLFamily_CILD      .         Conductivity                  : 
TLFamily_COLL      .         Net Reservoir Flag            : 
TLFamily_CSAT      .         Fluid Code                    : 
TLFamily_DEPT      .         Measured Depth                : 
TLFamily_GR        .         Russian Gamma Ray             : 
TLFamily_GZ1       .         Gradient 045                  : 
TLFamily_GZ2       .         Gradient 105                  : 
TLFamily_GZ3       .         Gradient 225                  : 
TLFamily_GZ4       .         Gradient 425                  : 
TLFamily_GZ5       .         Gradient 850                  : 
TLFamily_LLS       .         Lateral Log Resistivity       : 
TLFamily_MINV      .         Micro Gradient Resistivity    : 
TLFamily_MNOR      .         Micro Resistivity             : 
TLFamily_NGLD      .         Neutron Gamma                 : 
TLFamily_OGZ       .         Gradient Inverted 225         : 
TLFamily_PHIE      .         Effective Porosity            : 
TLFamily_PHIEN     .         Effective Porosity            : 
TLFamily_PHIT      .         Porosity                      : 
TLFamily_PRMB      .         Permeability                  : 
TLFamily_PRMB_DGR  .         Permeability                  : 
TLFamily_RT        .         Formation Resistivity         : 
TLFamily_SOIL_ARCHIE .         Oil Saturation                : 
TLFamily_SOIL_DW   .         Oil Saturation                : 
TLFamily_SP        .         Spontaneous Potential         : 
TLFamily_VSH_FIN   .         Shale Volume                  : 
TLFamily_VSH_GR    .         Shale Volume                  : 
TLFamily_VSH_SP    .         Shale Volume                  : 
~Curve Information
#_______________________________________________________________________________
#
#LOGNAME           .UNIT     LOG_ID                        : DESCRIPTION
#_______________________________________________________________________________
DEPT               .M                                      : Колонка глубины 
CALI               .м                                      : Каверномер 
CILD               .мСм/м                                  : Индукционный каротаж 
COLL               .unitless                               : Описание 
CSAT               .unitless                               : Описание 
GR                 .uR/h                                   : Гамма каротаж 
GZ1                .ohmm                                   : Градиент-зонд  длиной 0.45м 
GZ2                .ohmm                                   : Градиент-зонд  длиной 1.05м 
GZ3                .ohmm                                   : Градиент-зонд  длиной 2.25м 
GZ4                .ohmm                                   : Градиент-зонд  длиной 4.5м 
GZ5                .ohmm                                   : Градиент-зонд  длиной 8.5м 
LLS                .Ohmm                                   : Боковой каротаж 
MINV               .Ohmm                                   : Микро-градиент зонд 
MNOR               .Ohmm                                   : Микро-потенциал зонд 
NGLD               .у.е.                                   : Показания зонда НГК-60 аппаратуры ДРСТ-3-90 
OGZ                .ohmm                                   : Обращенный градиент-зонд 
PHIE               .v/v                                    : Описание 
PHIEN              .v/v                                    :  
PHIT               .v/v                                    : Описание 
PRMB               .мД                                     :  
PRMB_DGR           .мД                                     :  
RT                 .ohmm                                   : Description 
SOIL_ARCHIE        .v/v                                    :  
SOIL_DW            .v/v                                    :  
SP                 .мВ                                     : Потенциал самополяризации 
VSH_FIN            .v/v                                    : Описание 
VSH_GR             .v/v                                    : Shale volume 
VSH_SP             .v/v                                    : Shale Volume 
~Ascii
# ...
1115.2     0.24       428.407    -9999      -9999      7.82       2.062      3.333      1.726      2.742      2.103      1.985      2.365      1.992      1.333      3.301      0.1703662  0.1703662  0.3067125  4.006394   6.640635   2.652      0.3390399  0.5287172  72.00907   0.4131706  0.2994874  0.5268538 
1115.4     0.234      421.776    -9999      -9999      7.383      2.539      3.436      1.801      2.885      2.176      2.428      1.627      1.719      1.356      3.207      0.178229   0.178229   0.30355    5.602622   11.18607   2.689      0.3686279  0.5373651  71.85412   0.3797607  0.2420495  0.5174718 
1115.6     0.219      425.091    -9999      -9999      7.042      2.258      3.443      1.927      2.765      2.231      2.266      1.811      1.219      1.381      3.119      0.1824288  0.1824288  0.3001125  6.701652   16.80331   2.67       0.3792443  0.5368639  71.69917   0.3566173  0.2049956  0.5082389 
1115.8     0.212      411.829    -9999      -9999      6.955      1.977      3.543      2.078      2.672      2.188      2.182      1.645      1.661      1.397      3.072      0.1837346  0.1837346  0.2979125  7.085454   18.64151   2.746      0.3911602  0.5426133  71.48122   0.3459938  0.1964873  0.4955003 
1116       0.217      394.589    -9999      -9999      7.104      2.202      3.746      2.217      2.707      2.162      2.748      1.394      1.29       1.4        3.065      0.1811468  0.1811468  0.2975     6.345072   15.60501   2.852      0.394451   0.5482562  71.45327   0.3525854  0.211283   0.4938879 
1116.2     0.225      380.664    -9999      -9999      7.281      2.067      4.101      2.293      2.854      2.145      3.314      1.626      1.029      1.401      3.059      0.1781346  0.1781346  0.2973625  5.580108   12.63389   2.945      0.3947254  0.5523281  71.42532   0.3612967  0.2303137  0.4922797 
1116.4     0.231      369.391    -9999      -9999      7.23       2.199      4.466      2.293      2.837      2.11       3.595      1.549      1.062      1.414      3.148      0.1775443  0.1775443  0.295575   5.441378   13.42663   3.025      0.40056    0.5560973  71.39737   0.3576688  0.224661   0.4906767 
1116.6     0.221      373.37     -9999      -9999      6.926      2.829      4.519      2.419      2.751      2.094      3.623      1.535      1.062      1.436      3.25       0.181659   0.181659   0.29255    6.485188   19.29787   2.996      0.4097407  0.5553041  71.17942   0.3360335  0.1937304  0.4783366 
1116.8     0.207      385.968    -9999      -9999      6.602      2.309      4.47       2.658      2.707      1.998      2.81       1.52       1.062      1.448      3.263      0.1866666  0.1866666  0.2909     8.029263   28.40645   2.909      0.4155292  0.5521234  70.96147   0.3158589  0.1654381  0.4662797 
1117       0.207      395.915    -9999      -9999      6.519      2.501      4.41       2.897      2.73       1.958      2.648      1.481      0.828      1.45       3.034      0.18829    0.18829    0.290625   8.604886   31.36391   2.844      0.4137365  0.5483676  70.87052   0.3101061  0.1588809  0.4613313 
1117.2     0.205      393.263    -9999      -9999      6.701      2.21       4.448      3.023      2.751      2.049      3.002      1.695      1.342      1.428      2.804      0.1902566  0.1902566  0.29365    9.35777    25.2413    2.861      0.4206407  0.5543565  70.71557   0.3133132  0.1736142  0.4530123 
1117.4     0.214      392.599    -9999      -9999      6.973      2.247      4.564      2.973      2.764      2.05       3.203      1.705      1.179      1.396      2.536      0.1930356  0.1930356  0.29805    10.53528   18.24537   2.865      0.4282867  0.5611757  70.43362   0.3182253  0.1982182  0.4382325 
1117.6     0.229      398.567    -9999      -9999      7.192      2.473      4.428      3.011      2.776      2.051      4.103      1.662      2.235      1.356      2.422      0.1997779  0.1997779  0.30355    14.04528   14.04946   2.827      0.441641   0.5690598  69.83567   0.3144608  0.2205395  0.4083821 
1117.8     0.227      413.156    -9999      -9999      7.401      2.327      4.02       3.174      2.742      2.05       3.24       1.796      1.121      1.331      2.345      0.2015231  0.2015231  0.3069875  15.13057   10.94836   2.738      0.4374737  0.5665634  69.55373   0.319589   0.2441818  0.3949963 
1118       0.231      431.059    -9999      -9999      7.691      2.101      3.846      3.288      2.627      2.067      2.881      2.206      1.201      1.316      2.358      0.1991292  0.1991292  0.30905    13.66198   7.745718   2.638      0.4215768  0.5580377  69.33577   0.3330934  0.2812423  0.3849445 
1118.2     0.227      437.69     -9999      -9999      7.986      2.09       3.822      3.25       2.318      1.954      2.776      2.093      1.304      1.308      2.345      0.1942019  0.1942019  0.31015    11.07255   5.447324   2.603      0.4050986  0.5514972  69.18182   0.351358   0.3247178  0.3779983 
1118.4     0.229      437.69     -9999      -9999      8.175      2.141      3.846      3.137      2.13       1.758      3.141      1.624      1.275      1.308      2.333      0.1897081  0.1897081  0.31015    9.141409   4.347475   2.603      0.392844   0.5472539  69.08987   0.3649753  0.3560415  0.3739091 
1118.6     0.237      445.648    -9999      -9999      8.224      2.117      3.744      3.011      1.951      1.622      2.537      1.9        2.164      1.306      2.269      0.1896839  0.1896839  0.310425   9.131968   4.100566   2.562      0.3882356  0.5438644  68.93492   0.3658821  0.3646444  0.3671197 
1118.8     0.231      460.236    -9999      -9999      8.263      2.067      3.672      3.011      1.868      1.486      2.677      2.16       1.691      1.3        2.307      0.1917678  0.1917678  0.31125    9.980731   3.914109   2.491      0.385985   0.5401655  68.59097   0.3620674  0.3716399  0.3524949 
1119       0.24       479.466    -9999      -9999      8.363      2.151      3.436      2.985      1.773      1.35       2.323      1.935      1.431      1.285      2.371      0.1930884  0.1930884  0.3133125  10.559     3.473839   2.404      0.3793765  0.5350484  68.24603   0.3643156  0.3901967  0.3384346 
1119.2     0.244      492.065    -9999      -9999      8.522      1.849      3.266      3.111      1.779      1.271      2.65       1.73       1.193      1.271      2.46       0.1912422  0.1912422  0.3152375  9.759508   2.873495   2.35       0.3674539  0.5296485  68.02808   0.3757433  0.4216284  0.3298581 
1119.4     0.236      507.979    -9999      -9999      8.74       1.667      2.794      3.099      1.868      1.268      2.48       1.709      1.018      1.256      2.409      0.1848765  0.1848765  0.3173     7.439088   2.215318   2.286      0.3400301  0.518515   68.12612   0.4012833  0.4688794  0.3336871 
1119.6     0.237      533.84     -9999      -9999      9.023      1.486      2.503      2.935      2.016      1.289      2.146      1.718      1.178      1.232      2.218      0.1739689  0.1739689  0.3206     4.671789   1.580434   2.191      0.2901337  0.4993938  68.54218   0.4443368  0.5382044  0.3504693 
1119.8     0.244      559.038    -9999      -9999      9.349      1.475      2.359      2.67       2.429      1.349      1.907      2.209      1.526      1.18       1.976      0.1642726  0.1642726  0.32775    3.089479   1.071105   2.107      0.239961   0.485023   68.76722   0.4953861  0.6308595  0.3599126 
1120       0.24       577.605    -9999      -9999      9.607      1.534      2.251      2.33       3.106      1.422      1.85       1.98       1.478      1.125      1.733      0.1562828  0.1562828  0.3353125  2.197328   0.7872779  2.049      0.1957629  0.4752211  68.99328   0.5425142  0.7153664  0.369662  
1120.2     0.233      590.867    -9999      -9999      9.714      1.445      2.202      2.104      2.99       1.542      1.829      1.7        0.974      1.094      1.606      0.1516348  0.1516348  0.339575   1.802196   0.6929112  2.01       0.1668546  0.4683126  69.34532   0.5695158  0.753652   0.3853797 
