~Version
 VERS              .         2.0                           : CWLS LOG ASCII STANDARD - VERSION 2.0
 WRAP              .         NO                            : ONE LINE PER DEPTH STEP
 DLM               .         SPACE                         : DELIMITING CHARACTER(SPACE TAB OR COMMA)
~Well Information
#_______________________________________________________________________________
#
#PARAMETER_NAME    .UNIT     VALUE                         : DESCRIPTION
#_______________________________________________________________________________
STRT               .M        980                           : First reference value
STOP               .M        1323                          : Last reference value
STEP               .M        0.2                           : Step increment
NULL               .         -9999                         : Missing value
COMP               .                                       : Company
WELL               .         5947                          : Well name
FLD                .         УЗЕНЬ                         : Field
LOC                .                                       : Location
CNTY               .                                       : County
STAT               .                                       : State
CTRY               .                                       : Country
SRVC               .                                       : Service Company
DATE               .         27.08.1986г                   : Date
UWI                .                                       : Unique Well ID
Block              .         4                             : 
Category           .         Нефтяная                      : 
Condition          .         В работе                      : 
EREF               .m        230.8                         : 100.8
Gorizont           .         15                            : 14
Interpretator      .         Кушнир И.Е.                   : 
Kupol              .         основной                      : osnovnoi
Mud                .                                       : 
Mud_density        .                                       : 
Mud_resistivity    .                                       : 
NGDU               .         НГДУ-1                        : 
ORIGINALWELLNAME   .         5947                          : 
Spud_date          .         1986                          : 1961
Viscosity          .                                       : 
X                  .m        54525.3                       : 46154
Y                  .m        81626                         : 85761.93
YEAR               .         2018г                         : 
~Parameter Information Block
#_______________________________________________________________________________
#
#PARAMETER_NAME    .UNIT     VALUE                         : DESCRIPTION
#_______________________________________________________________________________
SET                .         LQC_KAZNIPI_Petrel            : 
TLFamily_CALI      .         Caliper                       : 
TLFamily_CILD      .         Conductivity                  : 
TLFamily_COLL      .         Net Reservoir Flag            : 
TLFamily_CSAT      .         Fluid Code                    : 
TLFamily_DEPT      .         Measured Depth                : 
TLFamily_GR        .         Russian Gamma Ray             : 
TLFamily_GZ1       .         Gradient 045                  : 
TLFamily_GZ2       .         Gradient 105                  : 
TLFamily_GZ3       .         Gradient 225                  : 
TLFamily_GZ4       .         Gradient 425                  : 
TLFamily_GZ5       .         Gradient 850                  : 
TLFamily_LLS       .         Lateral Log Resistivity       : 
TLFamily_MINV      .         Micro Gradient Resistivity    : 
TLFamily_MNOR      .         Micro Resistivity             : 
TLFamily_NGLD      .         Neutron Gamma                 : 
TLFamily_OGZ       .         Gradient Inverted 225         : 
TLFamily_PHIE      .         Effective Porosity            : 
TLFamily_PHIEN     .         Effective Porosity            : 
TLFamily_PHIT      .         Porosity                      : 
TLFamily_PRMB      .         Permeability                  : 
TLFamily_PRMB_DGR  .         Permeability                  : 
TLFamily_RT        .         Formation Resistivity         : 
TLFamily_SOIL_ARCHIE .         Oil Saturation                : 
TLFamily_SOIL_DW   .         Oil Saturation                : 
TLFamily_SP        .         Spontaneous Potential         : 
TLFamily_VSH_FIN   .         Shale Volume                  : 
TLFamily_VSH_GR    .         Shale Volume                  : 
TLFamily_VSH_SP    .         Shale Volume                  : 
~Curve Information
#_______________________________________________________________________________
#
#LOGNAME           .UNIT     LOG_ID                        : DESCRIPTION
#_______________________________________________________________________________
DEPT               .M                                      : Колонка глубины 
CALI               .м                                      : Каверномер 
CILD               .мСм/м                                  : Индукционный каротаж 
COLL               .unitless                               : Описание 
CSAT               .unitless                               : Описание 
GR                 .uR/h                                   : Гамма каротаж 
GZ1                .ohmm                                   : Градиент-зонд  длиной 0.45м 
GZ2                .ohmm                                   : Градиент-зонд  длиной 1.05м 
GZ3                .ohmm                                   : Градиент-зонд  длиной 2.25м 
GZ4                .ohmm                                   : Градиент-зонд  длиной 4.5м 
GZ5                .ohmm                                   : Градиент-зонд  длиной 8.5м 
LLS                .Ohmm                                   : Боковой каротаж 
MINV               .Ohmm                                   : Микро-градиент зонд 
MNOR               .Ohmm                                   : Микро-потенциал зонд 
NGLD               .у.е.                                   : Показания зонда НГК-60 аппаратуры ДРСТ-3-90 
OGZ                .ohmm                                   : Обращенный градиент-зонд 
PHIE               .v/v                                    : Описание 
PHIEN              .v/v                                    :  
PHIT               .v/v                                    : Описание 
PRMB               .мД                                     :  
PRMB_DGR           .мД                                     :  
RT                 .ohmm                                   : Description 
SOIL_ARCHIE        .v/v                                    :  
SOIL_DW            .v/v                                    :  
SP                 .мВ                                     : Потенциал самополяризации 
VSH_FIN            .v/v                                    : Описание 
VSH_GR             .v/v                                    : Shale volume 
VSH_SP             .v/v                                    : Shale Volume 
~Ascii
# ...
1224.4     0.212      494.717    0          0          9.963      3.738      5.256      2.582      1.744      2.441      4.286      1.946      1.36       1.455      6.029      0.1680233  0.1680233  0.2899375  3.625409   3.436561   4.286      0.4733794  0.6195793  68.4568    0.369437   0.3919195  0.3469545 
1224.6     0.214      507.316    0          0          9.78       4.872      5.225      2.633      2.454      3.178      7.862      1.789      1.476      1.517      7.125      0.1628951  0.1628951  0.2814125  2.913201   4.097768   7.862      0.5930133  0.7104759  68.61607   0.3591437  0.3647461  0.3535413 
1224.8     0.217      505.498    0          0          9.666      3.708      4.657      2.444      3.74       3.816      11.438     1.874      1.29       1.532      5.94       0.1649744  0.1649744  0.27935    3.183347   4.572514   11.438     0.6624186  0.7601245  68.39433   0.3465928  0.3487794  0.3444061 
1225       0.217      503.337    0          0          9.733      2.544      4.088      2.356      4.638      4.02       2.322      1.439      1.259      1.488      5.022      0.1729771  0.1729771  0.2854     4.478305   4.287212   2.322      0.3154262  0.4843056  67.85658   0.3406754  0.3580766  0.3232743 
1225.2     0.215      465.541    0          0          9.959      2.087      4.178      2.784      3.67       3.269      2.368      1.52       1.53       1.42       4.321      0.1785961  0.1785961  0.29475    5.691043   3.449806   2.368      0.3403242  0.5054846  67.57185   0.3519814  0.3913043  0.3126585 
1225.4     0.211      405.861    0          0          10.157     2.213      4.599      3.804      2.335      2.174      2.806      1.541      1.375      1.392      3.98       0.1785402  0.1785402  0.2986     5.677481   2.851723   2.806      0.3906574  0.5491673  67.35112   0.3638176  0.4229399  0.3046953 
1225.6     0.211      418.46     0          0          10.226     2.557      4.93       4.824      1.953      1.546      3.244      1.565      1.202      1.365      3.62       0.1816181  0.1816181  0.3023125  6.473889   2.668652   3.244      0.4391637  0.5866434  67.12938   0.3657407  0.4345551  0.2969263 
1225.8     0.213      431.059    0          0          10.14      2.905      4.529      5.706      1.922      1.452      3.463      0.961      1.358      1.322      3.148      0.1932025  0.1932025  0.308225   10.61053   2.898722   3.463      0.4846124  0.6142797  66.52765   0.348553   0.4201263  0.2769797 
1226       0.214      412.492    8          2          9.938      2.705      4.127      4.636      1.891      1.358      3.205      1.034      1.472      1.296      3.454      0.2080016  0.2080016  0.3118     19.94586   3.520178   3.205      0.4988183  0.6136011  65.2929    0.3145405  0.3880911  0.24099   
1226.2     0.214      391.273    8          2          9.658      2.504      4.016      3.237      1.809      1.291      2.698      0.914      1.158      1.292      3.671      0.2201493  0.2201493  0.31235    33.4855    4.607824   2.698      0.4828457  0.58903    64.05717   0.2793961  0.3476855  0.2111067 
1226.4     0.211      381.99     8          2          9.368      2.49       4.136      2.57       1.686      1.23       2.758      0.835      1.356      1.301      3.633      0.2275575  0.2275575  0.3111125  45.9277    6.089809   2.758      0.5026998  0.5981496  63.32943   0.253197   0.3102661  0.196128  
1226.6     0.208      402.878    8          2          9.153      2.41       4.256      2.015      1.563      1.17       2.962      1.02       1.535      1.312      3.862      0.231265   0.231265   0.3096     53.79561   7.488424   2.962      0.5257986  0.6137499  62.9817    0.2373788  0.2851487  0.1896089 
1226.8     0.207      425.091    8          2          9.049      2.561      4.036      1.801      1.484      1.129      2.875      0.981      1.586      1.32       4.589      0.2330611  0.2330611  0.3085     58.07851   8.276033   2.875      0.5223475  0.6084089  62.63296   0.2286027  0.273739   0.1834663 
1227       0.206      429.733    8          2          9.038      2.441      3.815      1.783      1.492      1.122      2.714      1.203      1.681      1.332      5.608      0.2315147  0.2315147  0.30685    54.3716    8.364034   2.714      0.5064002  0.594574   62.66522   0.2282888  0.2725593  0.1840182 
1227.2     0.207      443.989    8          2          9.069      2.316      3.594      1.789      1.459      1.118      2.417      1.374      1.953      1.351      6.441      0.2284382  0.2284382  0.3042375  47.68574   8.118389   2.417      0.472704   0.5658198  62.63448   0.2296947  0.2758972  0.1834923 
1227.4     0.208      462.225    8          2          9.153      2.191      3.373      1.801      1.344      1.19       2.356      1.253      1.459      1.358      7.035      0.2254942  0.2254942  0.303275   42.05889   7.488424   2.356      0.4602776  0.5570254  62.79375   0.2356994  0.2851487  0.18625   
1227.6     0.209      468.856    8          2          9.316      2.065      3.152      2.078      1.325      1.324      2.6        0.97       1.332      1.35       7.867      0.2232059  0.2232059  0.304375   38.14816   6.402056   2.6        0.48007    0.5774143  62.88901   0.2459668  0.3039954  0.1879383 
1227.8     0.208      450.62     8          2          9.508      2.23       3.128      2.607      1.471      1.459      2.844      1.134      1.314      1.335      8.275      0.2223346  0.2223346  0.3064375  36.7565    5.322772   2.844      0.4998001  0.5968797  62.54128   0.2548573  0.3277992  0.1819153 
1228       0.208      436.364    8          2          9.616      2.431      3.128      3.124      1.604      1.746      2.866      1.225      1.593      1.331      8.722      0.2209719  0.2209719  0.3069875  34.68114   4.797728   2.866      0.4989297  0.5978221  62.38353   0.2606534  0.3419988  0.179308  
1228.2     0.207      428.407    8          2          9.597      2.334      3.162      3.174      2.216      2.293      2.961      1.277      1.489      1.328      9.435      0.2228681  0.2228681  0.3074     37.60246   4.886189   2.961      0.5101977  0.6060401  61.9718    0.2561572  0.3394569  0.1728576 
1228.4     0.207      399.894    1          2          9.481      2.28       3.294      2.91       3.757      3.296      3.574      1.337      1.37       1.324      9.958      0.2266     0.2266     0.30795    44.08995   5.462778   3.574      0.5580296  0.6442589  61.68706   0.2465152  0.3243423  0.168688  
1228.6     0.206      360.771    1          2          9.305      2.445      4.035      2.57       4.423      4.066      4.502      1.209      1.461      1.314      11.726     0.2330095  0.2330095  0.309325   57.95079   6.47013    4.502      0.6129219  0.6875247  61.02233   0.2312591  0.3026853  0.1598329 
1228.8     0.204      318.001    1          2          9.027      3.094      6.092      2.368      5.406      4.649      6.925      0.953      1.167      1.304      13.447     0.24082    0.24082    0.3107     80.85914   8.452971   6.925      0.6926958  0.7521572  60.35759   0.2117575  0.2713847  0.1521304 
1229       0.203      254.343    1          2          8.66       3.742      7.281      2.419      6.39       5.233      9.122      1.287      1.607      1.307      15.168     0.2476106  0.2476106  0.3102875  108.0207   12.03022   9.122      0.7364315  0.7864112  59.62885   0.18993    0.2349646  0.1448954 
1229.2     0.203      215.552    1          2          8.254      4.391      6.705      2.784      7.211      5.659      10.955     1.647      1.722      1.336      16.506     0.2499246  0.2499246  0.3063     119.2252   17.77561   10.955     0.7600846  0.8044116  59.21811   0.1708346  0.2003407  0.1413284 
1229.4     0.204      206.931    1          2          7.921      5.039      9.151      3.225      7.525      5.926      12.714     2.006      1.461      1.378      15.805     0.2487349  0.2487349  0.300525   113.3266   24.48439   12.714     0.7753451  0.816074   58.80638   0.1569397  0.175786   0.1380934 
