~Version
 VERS              .         2.0                           : CWLS LOG ASCII STANDARD - VERSION 2.0
 WRAP              .         NO                            : ONE LINE PER DEPTH STEP
 DLM               .         SPACE                         : DELIMITING CHARACTER(SPACE TAB OR COMMA)
~Well Information
#_______________________________________________________________________________
#
#PARAMETER_NAME    .UNIT     VALUE                         : DESCRIPTION
#_______________________________________________________________________________
STRT               .M        980                           : First reference value
STOP               .M        1323                          : Last reference value
STEP               .M        0.2                           : Step increment
NULL               .         -9999                         : Missing value
COMP               .                                       : Company
WELL               .         5947                          : Well name
FLD                .         УЗЕНЬ                         : Field
LOC                .                                       : Location
CNTY               .                                       : County
STAT               .                                       : State
CTRY               .                                       : Country
SRVC               .                                       : Service Company
DATE               .         27.08.1986г                   : Date
UWI                .                                       : Unique Well ID
Block              .         4                             : 
Category           .         Нефтяная                      : 
Condition          .         В работе                      : 
EREF               .m        230.8                         : 100.8
Gorizont           .         15                            : 14
Interpretator      .         Кушнир И.Е.                   : 
Kupol              .         основной                      : osnovnoi
Mud                .                                       : 
Mud_density        .                                       : 
Mud_resistivity    .                                       : 
NGDU               .         НГДУ-1                        : 
ORIGINALWELLNAME   .         5947                          : 
Spud_date          .         1986                          : 1961
Viscosity          .                                       : 
X                  .m        54525.3                       : 46154
Y                  .m        81626                         : 85761.93
YEAR               .         2018г                         : 
~Parameter Information Block
#_______________________________________________________________________________
#
#PARAMETER_NAME    .UNIT     VALUE                         : DESCRIPTION
#_______________________________________________________________________________
SET                .         LQC_KAZNIPI_Petrel            : 
TLFamily_CALI      .         Caliper                       : 
TLFamily_CILD      .         Conductivity                  : 
TLFamily_COLL      .         Net Reservoir Flag            : 
TLFamily_CSAT      .         Fluid Code                    : 
TLFamily_DEPT      .         Measured Depth                : 
TLFamily_GR        .         Russian Gamma Ray             : 
TLFamily_GZ1       .         Gradient 045                  : 
TLFamily_GZ2       .         Gradient 105                  : 
TLFamily_GZ3       .         Gradient 225                  : 
TLFamily_GZ4       .         Gradient 425                  : 
TLFamily_GZ5       .         Gradient 850                  : 
TLFamily_LLS       .         Lateral Log Resistivity       : 
TLFamily_MINV      .         Micro Gradient Resistivity    : 
TLFamily_MNOR      .         Micro Resistivity             : 
TLFamily_NGLD      .         Neutron Gamma                 : 
TLFamily_OGZ       .         Gradient Inverted 225         : 
TLFamily_PHIE      .         Effective Porosity            : 
TLFamily_PHIEN     .         Effective Porosity            : 
TLFamily_PHIT      .         Porosity                      : 
TLFamily_PRMB      .         Permeability                  : 
TLFamily_PRMB_DGR  .         Permeability                  : 
TLFamily_RT        .         Formation Resistivity         : 
TLFamily_SOIL_ARCHIE .         Oil Saturation                : 
TLFamily_SOIL_DW   .         Oil Saturation                : 
TLFamily_SP        .         Spontaneous Potential         : 
TLFamily_VSH_FIN   .         Shale Volume                  : 
TLFamily_VSH_GR    .         Shale Volume                  : 
TLFamily_VSH_SP    .         Shale Volume                  : 
~Curve Information
#_______________________________________________________________________________
#
#LOGNAME           .UNIT     LOG_ID                        : DESCRIPTION
#_______________________________________________________________________________
DEPT               .M                                      : Колонка глубины 
CALI               .м                                      : Каверномер 
CILD               .мСм/м                                  : Индукционный каротаж 
COLL               .unitless                               : Описание 
CSAT               .unitless                               : Описание 
GR                 .uR/h                                   : Гамма каротаж 
GZ1                .ohmm                                   : Градиент-зонд  длиной 0.45м 
GZ2                .ohmm                                   : Градиент-зонд  длиной 1.05м 
GZ3                .ohmm                                   : Градиент-зонд  длиной 2.25м 
GZ4                .ohmm                                   : Градиент-зонд  длиной 4.5м 
GZ5                .ohmm                                   : Градиент-зонд  длиной 8.5м 
LLS                .Ohmm                                   : Боковой каротаж 
MINV               .Ohmm                                   : Микро-градиент зонд 
MNOR               .Ohmm                                   : Микро-потенциал зонд 
NGLD               .у.е.                                   : Показания зонда НГК-60 аппаратуры ДРСТ-3-90 
OGZ                .ohmm                                   : Обращенный градиент-зонд 
PHIE               .v/v                                    : Описание 
PHIEN              .v/v                                    :  
PHIT               .v/v                                    : Описание 
PRMB               .мД                                     :  
PRMB_DGR           .мД                                     :  
RT                 .ohmm                                   : Description 
SOIL_ARCHIE        .v/v                                    :  
SOIL_DW            .v/v                                    :  
SP                 .мВ                                     : Потенциал самополяризации 
VSH_FIN            .v/v                                    : Описание 
VSH_GR             .v/v                                    : Shale volume 
VSH_SP             .v/v                                    : Shale Volume 
~Ascii
# ...
1000.8     0.204      552.407    1          3          2.731      2.43       2.994      1.612      2.052      2.197      2.228      0.921      1.128      1.716      2.027      0.2278947  0.2278947  0.25405    46.59294   2461.527   2.128      0.4311572  0.4785746  57.84946   0.0792586  0.02675298 0.1317642 
1001       0.204      540.471    1          3          2.708      2.495      3.128      1.625      2.092      2.205      2.5        0.804      1.091      1.742      2.065      0.2244477  0.2244477  0.250475   40.22303   2539.549   2.168      0.4285717  0.4757941  57.77348   0.07887048 0.02641426 0.1313267 
1001.2     0.205      535.455    1          3          2.687      2.241      3.195      1.6        2.045      2.188      2.715      0.851      1.078      1.761      2.09       0.2220139  0.2220139  0.2478625  36.25724   2612.944   2.185      0.4252302  0.4722393  57.6345    0.07832897 0.02610875 0.1305492 
1001.4     0.204      530.524    1          3          2.635      2.27       3.179      1.587      1.998      2.105      2.489      0.718      0.997      1.768      2.065      0.2213527  0.2213527  0.2469     35.24895   2803.944   2.203      0.4259493  0.4725559  57.43152   0.07741622 0.02536735 0.1294651 
1001.6     0.205      527.209    1          3          2.534      2.421      3.231      1.587      1.951      2.07       2.254      0.908      1.3        1.761      2.039      0.2227121  0.2227121  0.2478625  37.35313   3215.733   2.215      0.4304562  0.4765297  57.22854   0.07621325 0.02398694 0.1284396 
1001.8     0.205      519.915    1          3          2.449      2.154      3.231      1.524      1.904      2.032      2.38       1.049      1.359      1.739      2.014      0.2261271  0.2261271  0.2508875  43.20956   3608.804   2.241      0.4410242  0.4865295  56.96255   0.07503168 0.02288359 0.1271798 
1002       0.206      517.926    1          3          2.419      2.147      3.057      1.537      1.857      1.972      2.167      0.908      1.455      1.712      2.014      0.2299584  0.2299584  0.2546     50.87982   3758.717   2.249      0.4500646  0.4953745  56.88657   0.07467152 0.02250641 0.1268366 
1002.2     0.206      515.936    1          3          2.468      2.051      2.93       1.612      1.814      1.907      2.257      1.093      1.157      1.684      2.027      0.2337616  0.2337616  0.25845    59.83989   3516.966   2.256      0.4586555  0.5039602  56.81059   0.07481319 0.02312573 0.1265007 
1002.4     0.206      516.599    1          3          2.523      2.103      2.943      1.675      1.796      1.885      2.314      0.875      1.443      1.66       2.039      0.2369979  0.2369979  0.26175    68.69635   3264.084   2.254      0.4648767  0.5102198  56.73461   0.07500646 0.02384121 0.1261717 
1002.6     0.207      521.573    1          3          2.572      2.103      2.955      1.764      1.778      1.843      1.97       1.112      1.098      1.648      2.039      0.2385928  0.2385928  0.2634     73.53174   3054.146   2.235      0.465876   0.511312   56.65863   0.07517345 0.02449726 0.1258496 
1002.8     0.207      533.177    1          3          2.592      2.103      2.968      1.789      1.751      1.727      2.005      0.959      1.253      1.647      1.963      0.2388212  0.2388212  0.2635375  74.25153   2972.388   2.193      0.4615488  0.507004   56.45665   0.07489803 0.02477019 0.1250259 
1003       0.207      540.471    1          3          2.634      2.056      2.896      1.826      1.724      1.644      2.135      0.881      1.266      1.648      1.899      0.2387166  0.2387166  0.2634     73.9211    2807.75    2.168      0.4584374  0.5039287  56.25366   0.07479822 0.0253533  0.1242431 
1003.2     0.207      541.797    1          3          2.663      2          2.729      1.852      1.71       1.588      2.121      0.961      1.278      1.638      1.874      0.2400703  0.2400703  0.264775   78.3147    2699.425   2.164      0.4606309  0.5061439  56.17768   0.07486258 0.02576391 0.1239613 
1003.4     0.207      543.786    1          3          2.686      1.958      2.718      1.889      1.701      1.533      2.039      0.949      1.098      1.626      1.848      0.2416737  0.2416737  0.266425   83.85731   2616.491   2.157      0.4629329  0.5085002  56.1647    0.07500399 0.02609429 0.1239137 
1003.6     0.208      549.754    1          3          2.686      2          2.718      1.902      1.693      1.476      2.014      1.018      1.212      1.614      1.848      0.2432136  0.2432136  0.268075   89.54954   2616.491   2.137      0.4635558  0.5092824  56.34271   0.07533771 0.02609429 0.1245811 
1003.8     0.208      561.69     1          3          2.69       2.103      2.718      1.889      1.685      1.427      1.973      0.859      1.222      1.61       1.874      0.243596   0.243596   0.268625   91.02208   2602.331   2.098      0.4596391  0.5056549  56.58373   0.07584548 0.02615217 0.1255388 
1004       0.208      566.995    1          3          2.694      2.033      2.642      1.877      1.681      1.399      1.958      0.843      1.044      1.612      1.886      0.2432329  0.2432329  0.26835    89.62344   2588.246   2.082      0.4569894  0.5031509  56.69775   0.07611241 0.02621019 0.1260146 
1004.2     0.208      571.637    1          3          2.699      1.897      2.558      1.864      1.701      1.349      2.041      0.743      1.243      1.617      1.874      0.242586   0.242586   0.2676625  87.18457   2570.749   2.067      0.4538785  0.5000497  56.62176   0.07598936 0.02628289 0.1256958 
1004.4     0.209      574.289    1          3          2.701      1.927      2.502      1.852      1.72       1.304      2.041      1.029      1.051      1.617      1.835      0.2426327  0.2426327  0.2676625  87.35834   2563.782   2.059      0.4529755  0.4991207  56.54578   0.07584786 0.02631203 0.1253837 
1004.6     0.209      576.942    1          3          2.713      1.973      2.462      1.852      1.74       1.289      1.94       0.79       1.073      1.608      1.784      0.2438075  0.2438075  0.2689     91.84676   2522.38    2.051      0.4542759  0.5005009  56.5958    0.07603798 0.02648753 0.1255884 
1004.8     0.209      580.257    1          3          2.715      1.949      2.486      1.839      1.761      1.237      1.947      0.87       1.252      1.599      1.721      0.2450052  0.2450052  0.2701375  96.66034   2515.545   2.041      0.4553523  0.5016386  56.64682   0.07615855 0.0265169  0.1258002 
1005       0.209      583.573    1          3          2.717      1.897      2.462      1.826      1.764      1.19       2.01       0.831      1.077      1.603      1.695      0.2444149  0.2444149  0.2695875  94.25723   2508.729   2.031      0.4529474  0.4993136  56.69784   0.07628065 0.02654629 0.126015  
1005.2     0.208      588.214    1          3          2.723      1.897      2.441      1.814      1.799      1.125      1.957      0.819      1.172      1.611      1.682      0.2433529  0.2433529  0.2684875  90.0833    2488.389   2.018      0.4492116  0.4955881  56.62186   0.07616545 0.02663468 0.1256962 
1005.4     0.208      593.519    1          3          2.763      1.897      2.41       1.814      1.816      1.1        1.957      0.788      1.022      1.607      1.67       0.2438978  0.2438978  0.2690375  92.2014    2356.947   2.003      0.4483556  0.4947792  56.48287   0.07618085 0.02723148 0.1251302 
1005.6     0.208      598.161    1          3          2.812      1.811      2.343      1.814      1.811      1.098      1.902      0.857      1.128      1.589      1.67       0.2464188  0.2464188  0.2715125  102.6672   2205.354   1.99       0.451601   0.4979945  56.21589   0.07604155 0.02798082 0.1241023 
1005.8     0.208      606.118    1          3          2.843      1.86       2.308      1.789      1.773      1.079      1.857      0.981      1.128      1.564      1.644      0.2498966  0.2498966  0.27495    119.0829   2114.524   1.968      0.4554206  0.501814   56.0139    0.07591938 0.02846551 0.1233733 
