~Version
 VERS              .         2.0                           : CWLS LOG ASCII STANDARD - VERSION 2.0
 WRAP              .         NO                            : ONE LINE PER DEPTH STEP
 DLM               .         SPACE                         : DELIMITING CHARACTER(SPACE TAB OR COMMA)
~Well Information
#_______________________________________________________________________________
#
#PARAMETER_NAME    .UNIT     VALUE                         : DESCRIPTION
#_______________________________________________________________________________
STRT               .M        980                           : First reference value
STOP               .M        1323                          : Last reference value
STEP               .M        0.2                           : Step increment
NULL               .         -9999                         : Missing value
COMP               .                                       : Company
WELL               .         5947                          : Well name
FLD                .         УЗЕНЬ                         : Field
LOC                .                                       : Location
CNTY               .                                       : County
STAT               .                                       : State
CTRY               .                                       : Country
SRVC               .                                       : Service Company
DATE               .         27.08.1986г                   : Date
UWI                .                                       : Unique Well ID
Block              .         4                             : 
Category           .         Нефтяная                      : 
Condition          .         В работе                      : 
EREF               .m        230.8                         : 100.8
Gorizont           .         15                            : 14
Interpretator      .         Кушнир И.Е.                   : 
Kupol              .         основной                      : osnovnoi
Mud                .                                       : 
Mud_density        .                                       : 
Mud_resistivity    .                                       : 
NGDU               .         НГДУ-1                        : 
ORIGINALWELLNAME   .         5947                          : 
Spud_date          .         1986                          : 1961
Viscosity          .                                       : 
X                  .m        54525.3                       : 46154
Y                  .m        81626                         : 85761.93
YEAR               .         2018г                         : 
~Parameter Information Block
#_______________________________________________________________________________
#
#PARAMETER_NAME    .UNIT     VALUE                         : DESCRIPTION
#_______________________________________________________________________________
SET                .         LQC_KAZNIPI_Petrel            : 
TLFamily_CALI      .         Caliper                       : 
TLFamily_CILD      .         Conductivity                  : 
TLFamily_COLL      .         Net Reservoir Flag            : 
TLFamily_CSAT      .         Fluid Code                    : 
TLFamily_DEPT      .         Measured Depth                : 
TLFamily_GR        .         Russian Gamma Ray             : 
TLFamily_GZ1       .         Gradient 045                  : 
TLFamily_GZ2       .         Gradient 105                  : 
TLFamily_GZ3       .         Gradient 225                  : 
TLFamily_GZ4       .         Gradient 425                  : 
TLFamily_GZ5       .         Gradient 850                  : 
TLFamily_LLS       .         Lateral Log Resistivity       : 
TLFamily_MINV      .         Micro Gradient Resistivity    : 
TLFamily_MNOR      .         Micro Resistivity             : 
TLFamily_NGLD      .         Neutron Gamma                 : 
TLFamily_OGZ       .         Gradient Inverted 225         : 
TLFamily_PHIE      .         Effective Porosity            : 
TLFamily_PHIEN     .         Effective Porosity            : 
TLFamily_PHIT      .         Porosity                      : 
TLFamily_PRMB      .         Permeability                  : 
TLFamily_PRMB_DGR  .         Permeability                  : 
TLFamily_RT        .         Formation Resistivity         : 
TLFamily_SOIL_ARCHIE .         Oil Saturation                : 
TLFamily_SOIL_DW   .         Oil Saturation                : 
TLFamily_SP        .         Spontaneous Potential         : 
TLFamily_VSH_FIN   .         Shale Volume                  : 
TLFamily_VSH_GR    .         Shale Volume                  : 
TLFamily_VSH_SP    .         Shale Volume                  : 
~Curve Information
#_______________________________________________________________________________
#
#LOGNAME           .UNIT     LOG_ID                        : DESCRIPTION
#_______________________________________________________________________________
DEPT               .M                                      : Колонка глубины 
CALI               .м                                      : Каверномер 
CILD               .мСм/м                                  : Индукционный каротаж 
COLL               .unitless                               : Описание 
CSAT               .unitless                               : Описание 
GR                 .uR/h                                   : Гамма каротаж 
GZ1                .ohmm                                   : Градиент-зонд  длиной 0.45м 
GZ2                .ohmm                                   : Градиент-зонд  длиной 1.05м 
GZ3                .ohmm                                   : Градиент-зонд  длиной 2.25м 
GZ4                .ohmm                                   : Градиент-зонд  длиной 4.5м 
GZ5                .ohmm                                   : Градиент-зонд  длиной 8.5м 
LLS                .Ohmm                                   : Боковой каротаж 
MINV               .Ohmm                                   : Микро-градиент зонд 
MNOR               .Ohmm                                   : Микро-потенциал зонд 
NGLD               .у.е.                                   : Показания зонда НГК-60 аппаратуры ДРСТ-3-90 
OGZ                .ohmm                                   : Обращенный градиент-зонд 
PHIE               .v/v                                    : Описание 
PHIEN              .v/v                                    :  
PHIT               .v/v                                    : Описание 
PRMB               .мД                                     :  
PRMB_DGR           .мД                                     :  
RT                 .ohmm                                   : Description 
SOIL_ARCHIE        .v/v                                    :  
SOIL_DW            .v/v                                    :  
SP                 .мВ                                     : Потенциал самополяризации 
VSH_FIN            .v/v                                    : Описание 
VSH_GR             .v/v                                    : Shale volume 
VSH_SP             .v/v                                    : Shale Volume 
~Ascii
# ...
1203.6     0.209      574.952    -9999      -9999      10.354     1.854      2.319      1.587      1.11       1          2.22       1.4        1.463      1.424      1.466      0.1652047  0.1652047  0.2942     3.214768   2.359594   2.22       0.272279   0.4724926  67.89761   0.3908949  0.4569537  0.3248361 
1203.8     0.209      572.3      -9999      -9999      10.215     1.553      2.279      1.247      1.448      1.192      2.231      1.395      1.168      1.443      1.581      0.1684577  0.1684577  0.2915875  3.6932     2.697028   2.231      0.286191   0.4750563  67.59642   0.3731207  0.4326823  0.3135591 
1204       0.208      525.883    -9999      -9999      10.099     1.539      2.698      1.537      1.955      1.657      2.106      1.449      1.181      1.449      1.721      0.1619215  0.1619215  0.2907625  2.794709   3.015288   2.106      0.2408957  0.4501881  68.94225   0.3904274  0.4134169  0.3674378 
1204.2     0.208      485.434    -9999      -9999      9.971      2.068      3.701      1.889      2.527      2.124      1.98       1.406      1.322      1.456      2.052      0.1589777  0.1589777  0.2898     2.464965   3.410226   1.98       0.2060111  0.4276851  69.65406   0.3964312  0.3931524  0.3997101 
1204.4     0.209      466.204    -9999      -9999      9.92       2.846      4.293      2.23       2.987      2.344      2.157      1.475      0.772      1.465      2.804      0.1668106  0.1668106  0.2885625  3.442661   3.581636   2.157      0.2685696  0.460661   68.59188   0.3689453  0.3853579  0.3525327 
1204.6     0.21       476.813    -9999      -9999      9.923      2.977      3.866      2.267      2.709      2.216      2.848      1.018      0.743      1.469      3.76       0.1756087  0.1756087  0.2880125  5.010221   3.571318   2.848      0.3861024  0.5396936  67.08571   0.3406176  0.3858121  0.2954232 
1204.8     0.211      505.99     -9999      -9999      10.026     2.465      3.44       2.167      2.294      1.941      3.539      0.826      0.701      1.458      4.372      0.1816038  0.1816038  0.289525   6.469953   3.234555   3.539      0.4615718  0.5939113  65.70653   0.327034   0.4017352  0.2523327 
1205       0.213      521.904    -9999      -9999      10.049     2.548      3.013      2.141      2.03       1.584      4.231      1.094      0.834      1.447      3.735      0.1880779  0.1880779  0.2910375  8.527408   3.163803   4.231      0.519735   0.6349894  64.39134   0.3119988  0.4053796  0.2186179 
1205.2     0.215      519.252    -9999      -9999      10.025     2.186      2.787      2.796      1.963      1.265      2.688      1.44       1.501      1.435      3.034      0.1946659  0.1946659  0.2926875  11.29388   3.237667   2.688      0.4233536  0.5499687  63.13817   0.2970351  0.4015774  0.1924928 
1205.4     0.216      519.915    -9999      -9999      9.864      1.825      3.013      3.817      1.923      1.056      2.194      1.942      1.517      1.407      2.511      0.2063326  0.2063326  0.2965375  18.57543   3.77979    2.194      0.3970529  0.5173991  61.75898   0.2733481  0.376977   0.1697193 
1205.6     0.213      535.829    -9999      -9999      9.713      2.016      3.12       4.761      1.929      0.846      2.012      1.5        0.99       1.385      2.154      0.2156858  0.2156858  0.2995625  27.68109   4.37046    2.012      0.3958309  0.508157   60.4438    0.2541717  0.3552758  0.1530677 
1205.8     0.211      554.396    -9999      -9999      9.545      1.763      2.894      4.61       1.894      0.771      2.152      1.408      1.017      1.368      1.708      0.2237398  0.2237398  0.3019     39.02669   5.136724   2.152      0.4330009  0.5337574  59.19062   0.2368491  0.3325962  0.141102  
1206       0.212      571.637    -9999      -9999      9.413      1.714      2.718      3.855      1.891      0.716      2.226      1.078      0.69       1.354      1.733      0.2294279  0.2294279  0.303825   49.74154   5.831913   2.226      0.4539955  0.5480387  58.38243   0.2254458  0.315797   0.1350946 
1206.2     0.21       576.942    -9999      -9999      9.338      1.815      2.667      3.124      1.712      0.727      2.087      1.126      0.811      1.334      1.784      0.2338121  0.2338121  0.306575   59.96887   6.268042   2.087      0.4464244  0.5393385  58.27026   0.2204936  0.3066328  0.1343544 
1206.4     0.21       576.942    -9999      -9999      9.394      1.915      2.667      2.381      1.652      0.763      2.102      0.966      0.951      1.308      1.81       0.234636   0.234636   0.31015    62.11353   5.939443   2.102      0.4499693  0.5447356  59.55308   0.2288303  0.3134498  0.1442108 
1206.6     0.211      585.562    -9999      -9999      9.557      1.972      2.564      1.776      1.676      0.831      2.192      1.021      0.8        1.277      1.861      0.2305831  0.2305831  0.3144125  52.25374   5.07779    2.192      0.4524381  0.5544695  62.0399    0.2540284  0.334167   0.1738897 
1206.8     0.212      593.519    -9999      -9999      9.702      1.788      2.448      1.625      1.894      0.921      2.192      1.076      0.719      1.25       1.874      0.2243672  0.2243672  0.318125   40.08505   4.416937   2.192      0.4392492  0.5524557  64.20972   0.2841146  0.3537445  0.2144848 
1207       0.212      589.54     -9999      -9999      9.757      1.604      2.564      1.499      1.877      0.96       2.121      0.761      0.842      1.232      1.925      0.2163477  0.2163477  0.3206     28.47355   4.189404   2.121      0.4121757  0.5402327  66.31654   0.3159162  0.3614669  0.2703653 
1207.2     0.212      576.942    -9999      -9999      9.812      1.471      2.684      1.398      1.724      0.868      1.923      0.603      1.048      1.222      2.09       0.2040157  0.2040157  0.321975   16.82766   3.973594   1.923      0.3522321  0.5066596  68.42236   0.3574524  0.369358   0.3455468 
1207.4     0.213      563.68     -9999      -9999      10.007     1.84       2.859      1.335      1.512      0.776      1.845      0.834      1.072      1.209      2.345      0.1848424  0.1848424  0.3237625  7.428283   3.294194   1.845      0.2802381  0.4776517  70.52918   0.4209699  0.3987493  0.4431905 
1207.6     0.213      557.712    -9999      -9999      10.312     1.739      2.658      1.36       1.3        0.684      1.937      1.265      1.43       1.182      2.881      0.1658152  0.1658152  0.327475   3.299574   2.456841   1.937      0.2266769  0.4716064  72.06499   0.4898781  0.4494798  0.5302765 
1207.8     0.214      564.343    -9999      -9999      10.609     1.639      2.457      1.537      1.185      0.573      2.143      1.235      1.807      1.153      3.085      0.1572117  0.1572117  0.3314625  2.286128   1.846486   2.143      0.2274667  0.4910156  72.39682   0.5280327  0.5050753  0.55099   
1208       0.211      565.006    -9999      -9999      10.751     1.538      2.256      1.814      1.266      0.588      2.03       0.966      1.495      1.139      2.842      0.1612611  0.1612611  0.3333875  2.717091   1.610813   2.03       0.2249355  0.4839631  71.71465   0.5215952  0.5340362  0.5091543 
1208.2     0.208      559.038    -9999      -9999      10.703     1.564      2.056      2.154      1.48       0.536      1.917      0.781      0.949      1.157      2.536      0.1674335  0.1674335  0.3309125  3.535348   1.686905   1.917      0.2294469  0.4742256  70.96946   0.495391   0.5240654  0.4667166 
1208.4     0.21       551.744    -9999      -9999      10.513     1.589      2.098      2.482      1.695      0.589      1.855      0.542      0.476      1.177      2.269      0.1741326  0.1741326  0.3281625  4.704525   2.025057   1.855      0.2437528  0.4709517  70.60428   0.4667573  0.4863911  0.4471236 
1208.6     0.211      551.744    -9999      -9999      10.284     1.378      2.199      2.633      1.909      0.664      1.907      0.508      0.583      1.195      2.243      0.1709394  0.1709394  0.3256875  4.105534   2.523889   1.907      0.2413698  0.4719903  71.4431    0.4689337  0.4445652  0.4933023 
