~Version
 VERS              .         2.0                           : CWLS LOG ASCII STANDARD - VERSION 2.0
 WRAP              .         NO                            : ONE LINE PER DEPTH STEP
 DLM               .         SPACE                         : DELIMITING CHARACTER(SPACE TAB OR COMMA)
~Well Information
#_______________________________________________________________________________
#
#PARAMETER_NAME    .UNIT     VALUE                         : DESCRIPTION
#_______________________________________________________________________________
STRT               .M        980                           : First reference value
STOP               .M        1323                          : Last reference value
STEP               .M        0.2                           : Step increment
NULL               .         -9999                         : Missing value
COMP               .                                       : Company
WELL               .         5947                          : Well name
FLD                .         УЗЕНЬ                         : Field
LOC                .                                       : Location
CNTY               .                                       : County
STAT               .                                       : State
CTRY               .                                       : Country
SRVC               .                                       : Service Company
DATE               .         27.08.1986г                   : Date
UWI                .                                       : Unique Well ID
Block              .         4                             : 
Category           .         Нефтяная                      : 
Condition          .         В работе                      : 
EREF               .m        230.8                         : 100.8
Gorizont           .         15                            : 14
Interpretator      .         Кушнир И.Е.                   : 
Kupol              .         основной                      : osnovnoi
Mud                .                                       : 
Mud_density        .                                       : 
Mud_resistivity    .                                       : 
NGDU               .         НГДУ-1                        : 
ORIGINALWELLNAME   .         5947                          : 
Spud_date          .         1986                          : 1961
Viscosity          .                                       : 
X                  .m        54525.3                       : 46154
Y                  .m        81626                         : 85761.93
YEAR               .         2018г                         : 
~Parameter Information Block
#_______________________________________________________________________________
#
#PARAMETER_NAME    .UNIT     VALUE                         : DESCRIPTION
#_______________________________________________________________________________
SET                .         LQC_KAZNIPI_Petrel            : 
TLFamily_CALI      .         Caliper                       : 
TLFamily_CILD      .         Conductivity                  : 
TLFamily_COLL      .         Net Reservoir Flag            : 
TLFamily_CSAT      .         Fluid Code                    : 
TLFamily_DEPT      .         Measured Depth                : 
TLFamily_GR        .         Russian Gamma Ray             : 
TLFamily_GZ1       .         Gradient 045                  : 
TLFamily_GZ2       .         Gradient 105                  : 
TLFamily_GZ3       .         Gradient 225                  : 
TLFamily_GZ4       .         Gradient 425                  : 
TLFamily_GZ5       .         Gradient 850                  : 
TLFamily_LLS       .         Lateral Log Resistivity       : 
TLFamily_MINV      .         Micro Gradient Resistivity    : 
TLFamily_MNOR      .         Micro Resistivity             : 
TLFamily_NGLD      .         Neutron Gamma                 : 
TLFamily_OGZ       .         Gradient Inverted 225         : 
TLFamily_PHIE      .         Effective Porosity            : 
TLFamily_PHIEN     .         Effective Porosity            : 
TLFamily_PHIT      .         Porosity                      : 
TLFamily_PRMB      .         Permeability                  : 
TLFamily_PRMB_DGR  .         Permeability                  : 
TLFamily_RT        .         Formation Resistivity         : 
TLFamily_SOIL_ARCHIE .         Oil Saturation                : 
TLFamily_SOIL_DW   .         Oil Saturation                : 
TLFamily_SP        .         Spontaneous Potential         : 
TLFamily_VSH_FIN   .         Shale Volume                  : 
TLFamily_VSH_GR    .         Shale Volume                  : 
TLFamily_VSH_SP    .         Shale Volume                  : 
~Curve Information
#_______________________________________________________________________________
#
#LOGNAME           .UNIT     LOG_ID                        : DESCRIPTION
#_______________________________________________________________________________
DEPT               .M                                      : Колонка глубины 
CALI               .м                                      : Каверномер 
CILD               .мСм/м                                  : Индукционный каротаж 
COLL               .unitless                               : Описание 
CSAT               .unitless                               : Описание 
GR                 .uR/h                                   : Гамма каротаж 
GZ1                .ohmm                                   : Градиент-зонд  длиной 0.45м 
GZ2                .ohmm                                   : Градиент-зонд  длиной 1.05м 
GZ3                .ohmm                                   : Градиент-зонд  длиной 2.25м 
GZ4                .ohmm                                   : Градиент-зонд  длиной 4.5м 
GZ5                .ohmm                                   : Градиент-зонд  длиной 8.5м 
LLS                .Ohmm                                   : Боковой каротаж 
MINV               .Ohmm                                   : Микро-градиент зонд 
MNOR               .Ohmm                                   : Микро-потенциал зонд 
NGLD               .у.е.                                   : Показания зонда НГК-60 аппаратуры ДРСТ-3-90 
OGZ                .ohmm                                   : Обращенный градиент-зонд 
PHIE               .v/v                                    : Описание 
PHIEN              .v/v                                    :  
PHIT               .v/v                                    : Описание 
PRMB               .мД                                     :  
PRMB_DGR           .мД                                     :  
RT                 .ohmm                                   : Description 
SOIL_ARCHIE        .v/v                                    :  
SOIL_DW            .v/v                                    :  
SP                 .мВ                                     : Потенциал самополяризации 
VSH_FIN            .v/v                                    : Описание 
VSH_GR             .v/v                                    : Shale volume 
VSH_SP             .v/v                                    : Shale Volume 
~Ascii
980.0      0.276      378.674    -9999      -9999      9.019      2.441      4.142      2.922      3.779      2.028      3.192      2.504      1.079      1.164      4.346      0.07749339 0.07749339 0.32995    0.07629985 0.4855378  2.959      0          0.4386314  74.89198   0.76502    0.8        0.73004   
980.2000000000001 0.265      372.043    -9999      -9999      9.019      2.107      3.941      3.237      3.719      2.015      3.115      1.241      1.261      1.164      4.385      0.07749339 0.07749339 0.32995    0.07629985 0.4855378  3.006      0          0.4430373  74.89198   0.76502    0.8        0.73004   
980.4      0.247      353.477    -9999      -9999      8.937      2.293      3.74       3.439      3.81       2.015      3.503      1.582      1.878      1.165      4.257      0.0773559  0.0773559  0.3298125  0.07585374 0.5426733  3.147      0          0.4552051  74.89198   0.76502    0.8        0.73004   
980.6      0.255      337.562    -9999      -9999      8.894      2.336      4.11       3.451      3.887      2.076      3.565      1.847      2.357      1.174      4.117      0.07271096 0.07271096 0.328575   0.06222164 0.5752741  3.28       0          0.45489    75.14598   0.7753456  0.8        0.7506911 
980.8      0.265      340.214    -9999      -9999      8.982      2.342      5.039      3.513      3.679      2.136      4.826      2.603      2.562      1.187      4.249      0.0700663  0.0700663  0.3267875  0.05558479 0.5105329  3.257      0          0.444813   75.20898   0.777943   0.8        0.755886  
981        0.27       362.76     -9999      -9999      9.138      2.86       5.133      3.59       3.865      2.218      3.855      3.15       2.157      1.19       4.41       0.06965379 0.06965379 0.326375   0.05461542 0.4131491  3.075      0          0.427117   75.20898   0.777943   0.8        0.755886  
981.2000000000001 0.254      352.813    -9999      -9999      9.282      2.41       4.501      3.955      4.121      2.249      3.193      3.274      0.804      1.192      4.512      0.06851696 0.06851696 0.3261     0.05203055 0.3398286  3.152      0          0.4310899  75.27198   0.7805547  0.8        0.7611093 
981.4      0.235      342.867    -9999      -9999      9.42       3.146      5.76       3.93       3.846      2.223      3.804      2.74       0.785      1.179      3.926      0.0711663  0.0711663  0.3278875  0.05825464 0.2818047  3.234      0          0.4467061  75.20898   0.777943   0.8        0.755886  
981.6      0.235      356.129    -9999      -9999      9.601      2.765      5.283      3.401      3.572      2.283      3.64       2.137      0.765      1.159      3.378      0.07305446 0.07305446 0.3306375  0.06313991 0.220445   3.126      0          0.4448522  75.27198   0.7805547  0.8        0.7611093 
981.8      0.234      377.348    -9999      -9999      9.903      2.238      4.807      3.577      3.537      2.289      2.995      0.692      1.358      1.148      3.633      0.07542881 0.07542881 0.33215    0.06986868 0.1463381  2.968      0          0.4374942  75.20898   0.777943   0.8        0.755886  
982        0.251      389.284    -9999      -9999      10.282     2.157      4.33       3.93       3.571      2.336      2.665      0.934      1.57       1.145      3.977      0.07669847 0.07669847 0.3325625  0.0737564  0.08750752 2.887      0          0.4330142  75.14598   0.7753456  0.8        0.7506911 
982.2000000000001 0.264      393.263    -9999      -9999      10.621     1.856      4.015      3.853      3.371      2.387      2.732      0.879      1.204      1.146      3.896      0.07656096 0.07656096 0.332425   0.07332511 0.05524605 2.861      0          0.4299701  75.14598   0.7753456  0.8        0.7506911 
982.4      0.24       397.241    -9999      -9999      10.786     2.075      4.066      3.766      3.286      2.318      2.757      0.842      0.954      1.153      3.811      0.07387947 0.07387947 0.3314625  0.06540109 0.04416522 2.835      0          0.4200194  75.27198   0.7805547  0.8        0.7611093 
982.6      0.241      401.212    -9999      -9999      10.733     2.092      4.116      3.401      3.304      2.344      2.673      0.773      0.932      1.17       3.492      0.07154197 0.07154197 0.329125   0.05919553 0.04745801 2.81       0          0.4089224  75.27198   0.7805547  0.8        0.7611093 
982.8      0.242      405.198    -9999      -9999      10.541     2.011      4.112      3.212      3.295      2.428      2.588      0.889      1.33       1.194      3.633      0.06824196 0.06824196 0.325825   0.05142387 0.06157979 2.786      0          0.3938021  75.27198   0.7805547  0.8        0.7611093 
983        0.256      413.819    -9999      -9999      10.288     1.969      3.854      3.325      3.217      2.478      2.638      1.164      1.008      1.216      3.773      0.06521697 0.06521697 0.3228     0.0451996  0.08679801 2.734      0          0.3758725  75.27198   0.7805547  0.8        0.7611093 
983.2000000000001 0.267      417.134    -9999      -9999      10.035     2.012      3.596      3.489      3.19       2.51       2.661      1.005      1.077      1.226      4.066      0.06384197 0.06384197 0.321425   0.04262518 0.1223435  2.715      0          0.3679452  75.27198   0.7805547  0.8        0.7611093 
983.4      0.268      405.862    -9999      -9999      9.772      2.041      3.605      3.54       3.144      2.582      2.625      0.846      1.145      1.236      4.372      0.06246697 0.06246697 0.32005    0.04019739 0.1748012  2.782      0          0.3698045  75.27198   0.7805547  0.8        0.7611093 
983.6      0.269      397.241    -9999      -9999      9.479      2.213      3.706      3.527      3.093      2.603      2.813      1.111      1.046      1.252      4.512      0.06198597 0.06198597 0.31785    0.03938116 0.2601264  2.835      0          0.3712544  75.14598   0.7753456  0.8        0.7506911 
983.8      0.267      393.263    -9999      -9999      9.133      2.183      3.776      3.514      3.043      2.569      3.001      0.866      1.104      1.267      4.64       0.06163681 0.06163681 0.3157875  0.03879906 0.415961   2.861      0          0.3701831  75.01898   0.7701536  0.8        0.7403072 
984        0.264      392.599    -9999      -9999      8.731      1.982      3.6        3.577      2.932      2.541      2.966      0.917      1.22       1.285      4.844      0.06959437 0.06959437 0.3133125  0.05447718 0.7176569  2.865      0          0.3890162  74.94299   0.7385398  0.7429303  0.7341493 
984.2000000000001 0.256      394.275    -9999      -9999      8.294      1.818      3.473      3.502      2.849      2.603      2.786      0.937      1.142      1.319      5.468      0.09228605 0.09228605 0.3086375  0.1433902  1.298386   2.854      0          0.4342119  74.867     0.6556104  0.5831866  0.7280343 
984.4      0.243      395.915    -9999      -9999      7.93       2.169      4.042      3.225      2.891      2.672      2.815      0.965      1.03       1.368      6.08       0.1041237  0.1041237  0.3019     0.2375646  2.127541   2.844      0.01786907 0.4480579  74.79102   0.5993221  0.4766841  0.7219601 
984.6      0.231      383.316    -9999      -9999      7.766      2.521      4.611      3.187      3.01       2.802      3.485      0.864      1.585      1.415      6.386      0.1054874  0.1054874  0.2954375  0.2517915  2.65772    2.927      0.04195697 0.45074    74.71504   0.5756063  0.4352842  0.7159284 
984.8      0.229      360.771    -9999      -9999      7.841      2.872      5.179      3.162      3.417      3.576      4.562      1.689      1.342      1.448      6.36       0.1005287  0.1005287  0.2909     0.2037949  2.400589   3.09       0.02601385 0.4508398  74.51205   0.5768828  0.4537511  0.7000145 
985        0.228      340.214    -9999      -9999      7.968      2.39       4.803      3.049      3.907      4.456      4.452      1.851      1.477      1.48       6.559      0.09403937 0.09403937 0.2865     0.1545238  2.020634   3.257      0          0.4471379  74.24608   0.583214   0.4868255  0.6796025 
