~Version
 VERS              .         2.0                           : CWLS LOG ASCII STANDARD - VERSION 2.0
 WRAP              .         NO                            : ONE LINE PER DEPTH STEP
 DLM               .         SPACE                         : DELIMITING CHARACTER(SPACE TAB OR COMMA)
~Well Information
#_______________________________________________________________________________
#
#PARAMETER_NAME    .UNIT     VALUE                         : DESCRIPTION
#_______________________________________________________________________________
STRT               .M        980                           : First reference value
STOP               .M        1323                          : Last reference value
STEP               .M        0.2                           : Step increment
NULL               .         -9999                         : Missing value
COMP               .                                       : Company
WELL               .         5947                          : Well name
FLD                .         УЗЕНЬ                         : Field
LOC                .                                       : Location
CNTY               .                                       : County
STAT               .                                       : State
CTRY               .                                       : Country
SRVC               .                                       : Service Company
DATE               .         27.08.1986г                   : Date
UWI                .                                       : Unique Well ID
Block              .         4                             : 
Category           .         Нефтяная                      : 
Condition          .         В работе                      : 
EREF               .m        230.8                         : 100.8
Gorizont           .         15                            : 14
Interpretator      .         Кушнир И.Е.                   : 
Kupol              .         основной                      : osnovnoi
Mud                .                                       : 
Mud_density        .                                       : 
Mud_resistivity    .                                       : 
NGDU               .         НГДУ-1                        : 
ORIGINALWELLNAME   .         5947                          : 
Spud_date          .         1986                          : 1961
Viscosity          .                                       : 
X                  .m        54525.3                       : 46154
Y                  .m        81626                         : 85761.93
YEAR               .         2018г                         : 
~Parameter Information Block
#_______________________________________________________________________________
#
#PARAMETER_NAME    .UNIT     VALUE                         : DESCRIPTION
#_______________________________________________________________________________
SET                .         LQC_KAZNIPI_Petrel            : 
TLFamily_CALI      .         Caliper                       : 
TLFamily_CILD      .         Conductivity                  : 
TLFamily_COLL      .         Net Reservoir Flag            : 
TLFamily_CSAT      .         Fluid Code                    : 
TLFamily_DEPT      .         Measured Depth                : 
TLFamily_GR        .         Russian Gamma Ray             : 
TLFamily_GZ1       .         Gradient 045                  : 
TLFamily_GZ2       .         Gradient 105                  : 
TLFamily_GZ3       .         Gradient 225                  : 
TLFamily_GZ4       .         Gradient 425                  : 
TLFamily_GZ5       .         Gradient 850                  : 
TLFamily_LLS       .         Lateral Log Resistivity       : 
TLFamily_MINV      .         Micro Gradient Resistivity    : 
TLFamily_MNOR      .         Micro Resistivity             : 
TLFamily_NGLD      .         Neutron Gamma                 : 
TLFamily_OGZ       .         Gradient Inverted 225         : 
TLFamily_PHIE      .         Effective Porosity            : 
TLFamily_PHIEN     .         Effective Porosity            : 
TLFamily_PHIT      .         Porosity                      : 
TLFamily_PRMB      .         Permeability                  : 
TLFamily_PRMB_DGR  .         Permeability                  : 
TLFamily_RT        .         Formation Resistivity         : 
TLFamily_SOIL_ARCHIE .         Oil Saturation                : 
TLFamily_SOIL_DW   .         Oil Saturation                : 
TLFamily_SP        .         Spontaneous Potential         : 
TLFamily_VSH_FIN   .         Shale Volume                  : 
TLFamily_VSH_GR    .         Shale Volume                  : 
TLFamily_VSH_SP    .         Shale Volume                  : 
~Curve Information
#_______________________________________________________________________________
#
#LOGNAME           .UNIT     LOG_ID                        : DESCRIPTION
#_______________________________________________________________________________
DEPT               .M                                      : Колонка глубины 
CALI               .м                                      : Каверномер 
CILD               .мСм/м                                  : Индукционный каротаж 
COLL               .unitless                               : Описание 
CSAT               .unitless                               : Описание 
GR                 .uR/h                                   : Гамма каротаж 
GZ1                .ohmm                                   : Градиент-зонд  длиной 0.45м 
GZ2                .ohmm                                   : Градиент-зонд  длиной 1.05м 
GZ3                .ohmm                                   : Градиент-зонд  длиной 2.25м 
GZ4                .ohmm                                   : Градиент-зонд  длиной 4.5м 
GZ5                .ohmm                                   : Градиент-зонд  длиной 8.5м 
LLS                .Ohmm                                   : Боковой каротаж 
MINV               .Ohmm                                   : Микро-градиент зонд 
MNOR               .Ohmm                                   : Микро-потенциал зонд 
NGLD               .у.е.                                   : Показания зонда НГК-60 аппаратуры ДРСТ-3-90 
OGZ                .ohmm                                   : Обращенный градиент-зонд 
PHIE               .v/v                                    : Описание 
PHIEN              .v/v                                    :  
PHIT               .v/v                                    : Описание 
PRMB               .мД                                     :  
PRMB_DGR           .мД                                     :  
RT                 .ohmm                                   : Description 
SOIL_ARCHIE        .v/v                                    :  
SOIL_DW            .v/v                                    :  
SP                 .мВ                                     : Потенциал самополяризации 
VSH_FIN            .v/v                                    : Описание 
VSH_GR             .v/v                                    : Shale volume 
VSH_SP             .v/v                                    : Shale Volume 
~Ascii
# ...
1026.8     0.262      519.252    -9999      -9999      7.64       1.832      2.667      3.237      3.151      0.225      2.099      1.616      1.052      1.091      2.18       0.1704858  0.1704858  0.3399875  4.026887   3.153189   2.244      0.2855775  0.5190384  73.44876   0.5136414  0.4059362  0.6213466 
1027       0.269      509.305    -9999      -9999      7.669      1.659      2.647      2.985      2.98       0.234      2.48       1.677      1.68       1.11       2.065      0.1654578  0.1654578  0.337375   3.249654   3.031535   2.281      0.2723113  0.5151452  73.56278   0.5209613  0.4125107  0.6294121 
1027.2     0.27       517.262    -9999      -9999      7.713      1.548      2.667      2.771      2.897      0.278      2.862      1.321      1.554      1.16       1.976      0.1525088  0.1525088  0.3305     1.870641   2.855864   2.251      0.2139162  0.490111   73.93079   0.5393674  0.4226894  0.6560453 
1027.4     0.274      527.209    -9999      -9999      7.835      1.582      2.769      2.582      2.769      0.336      2.708      1.055      1.406      1.214      1.963      0.136461   0.136461   0.323075   0.9435109  2.420211   2.215      0.1274114  0.4565357  74.23481   0.565497   0.4522453  0.6787487 
1027.6     0.277      531.851    -9999      -9999      7.971      1.615      2.769      2.368      2.676      0.372      2.332      1.039      1.193      1.252      1.963      0.1190687  0.1190687  0.31785    0.4493654  2.012426   2.198      0.01383504 0.4207902  74.72984   0.6023675  0.4876353  0.7170997 
1027.8     0.278      531.188    -9999      -9999      8.106      1.641      2.695      2.33       2.621      0.47       1.995      0.954      0.813      1.251      2.039      0.1097731  0.1097731  0.3179875  0.3022883  1.675622   2.2        0          0.4043913  74.97085   0.6309528  0.5255035  0.7364022 
1028       0.266      530.193    -9999      -9999      8.186      1.662      2.543      2.217      2.595      0.623      1.982      1.259      1.122      1.221      2.141      0.1092992  0.1092992  0.3221125  0.2962402  1.503276   2.204      0          0.4090295  75.02087   0.6448889  0.5493172  0.7404605 
1028.2     0.253      535.166    -9999      -9999      8.238      1.692      2.532      2.154      2.595      0.845      1.995      1.248      1.138      1.18       2.171      0.11075    0.11075    0.32775    0.3151501  1.400876   2.186      0          0.415967   75.13489   0.6575757  0.5653719  0.7497795 
1028.4     0.25       540.471    -9999      -9999      8.259      1.676      2.513      2.129      2.581      1.238      2.058      1.232      1.139      1.148      2.266      0.1150849  0.1150849  0.33215    0.3791485  1.361527   2.168      0          0.4263307  75.0589    0.6577731  0.5719877  0.7435584 
1028.6     0.248      542.46     -9999      -9999      8.268      1.59       2.498      2.104      2.56       1.49       2.097      1.217      1.139      1.131      2.313      0.1179701  0.1179701  0.3344875  0.4287961  1.345003   2.161      0          0.4329468  74.98292   0.6561133  0.5748467  0.7373798 
1028.8     0.254      541.797    -9999      -9999      8.226      1.692      2.513      2.179      2.525      1.742      2.06       1.103      0.935      1.129      2.396      0.1214392  0.1214392  0.3347625  0.4971713  1.42387    2.164      0.02350423 0.4393896  74.90694   0.6464344  0.5616258  0.7312429 
1029       0.257      537.156    -9999      -9999      8.158      1.702      2.574      2.179      2.499      2          2.048      1.292      1.04       1.136      2.32       0.1240617  0.1240617  0.3338     0.5560079  1.561482   2.18       0.04481459 0.4446363  74.89496   0.6355707  0.5408621  0.7302792 
1029.2     0.264      533.84     -9999      -9999      8.123      1.795      2.564      2.179      2.486      2.347      2.087      1.245      1.263      1.137      2.192      0.1266425  0.1266425  0.3336625  0.6207048  1.637416   2.191      0.06400431 0.4499435  74.81898   0.6273332  0.530476   0.7241904 
1029.4     0.273      532.514    -9999      -9999      8.246      1.766      2.564      2.179      2.476      2.694      2.206      1.353      1.152      1.126      2.065      0.1229807  0.1229807  0.335175   0.5309557  1.385753   2.196      0.04080335 0.4464092  74.743     0.6430131  0.5678833  0.7181429 
1029.6     0.278      532.514    -9999      -9999      8.498      1.738      2.564      2.179      2.43       3.041      2.262      1.284      1.356      1.115      2.001      0.1122754  0.1122754  0.3366875  0.336334   0.9844732  2.196      0          0.4301704  74.60301   0.6800367  0.6529641  0.7071093 
1029.8     0.274      535.166    -9999      -9999      8.751      1.689      2.564      2.167      2.384      3.177      2.264      1.305      1.252      1.108      1.976      0.09881254 0.09881254 0.33765    0.1894113  0.6984452  2.186      0          0.4048397  74.46403   0.7237499  0.7512078  0.6962919 
1030       0.27       541.134    -9999      -9999      8.846      1.642      2.512      2.091      2.326      3.266      2.123      1.406      1.121      1.113      1.963      0.09130713 0.09130713 0.3369625  0.1375269  0.6139844  2.166      0          0.3856628  74.47342   0.7444102  0.7918019  0.6970186 
1030.2     0.269      544.181    -9999      -9999      8.738      1.59       2.411      2.028      2.3        3.269      2.135      1.196      1.177      1.119      1.963      0.09794975 0.09794975 0.3361375  0.1825682  0.7108736  2.156      0          0.3971658  74.4828    0.7217811  0.7458169  0.6977453 
1030.4     0.272      547.102    -9999      -9999      8.539      1.59       2.41       1.99       2.292      3.252      2.047      0.986      0.983      1.128      2.014      0.1078036  0.1078036  0.3349     0.2779343  0.9312072  2.146      0          0.4134374  74.61919   0.6881709  0.6679648  0.708377  
1030.6     0.274      552.407    -9999      -9999      8.365      1.59       2.359      1.99       2.335      3.187      1.977      0.775      0.763      1.13       2.039      0.1199752  0.1199752  0.334625   0.4670789  1.179151   2.128      0.005335229 0.4320922  74.43857   0.6504539  0.6065825  0.6943251 
1030.8     0.271      552.407    -9999      -9999      8.292      1.546      2.403      1.99       2.404      3.146      1.951      0.564      0.708      1.133      2.078      0.1258103  0.1258103  0.3342125  0.5990583  1.301914   2.128      0.04563652 0.4411344  74.25795   0.6315219  0.5825409  0.680503  
1031       0.27       550.418    -9999      -9999      8.288      1.58       2.462      1.99       2.378      3.036      1.925      0.789      0.661      1.133      2.09       0.1274878  0.1274878  0.3342125  0.6434892  1.308998   2.135      0.05803601 0.4446901  74.14034   0.6264385  0.5812515  0.6716254 
1031.2     0.265      545.776    -9999      -9999      8.32       1.641      2.462      1.99       2.312      2.961      1.953      1.097      0.611      1.135      2.09       0.1253812  0.1253812  0.3339375  0.5881949  1.253384   2.15       0.04740135 0.4430276  74.14973   0.6319889  0.5916476  0.6723303 
1031.4     0.269      541.797    -9999      -9999      8.346      1.553      2.359      2.015      2.235      2.854      2.003      1.286      0.901      1.139      2.09       0.1217133  0.1217133  0.3333875  0.5030174  1.209942   2.164      0.0254198  0.4383446  74.28611   0.6414371  0.6002312  0.682643  
1031.6     0.271      543.786    -9999      -9999      8.369      1.624      2.394      2.078      2.205      2.723      2.136      1.267      1.081      1.151      2.078      0.1170829  0.1170829  0.3317375  0.4128735  1.172769   2.157      0          0.4278578  74.42149   0.6504685  0.6079284  0.6930087 
1031.8     0.27       545.113    -9999      -9999      8.38       1.641      2.41       2.104      2.169      2.672      2.184      1.247      1.278      1.174      2.052      0.1115627  0.1115627  0.328575   0.3262642  1.155397   2.152      0          0.4138237  74.55788   0.6576131  0.6116443  0.7035819 
