~Version
 VERS              .         2.0                           : CWLS LOG ASCII STANDARD - VERSION 2.0
 WRAP              .         NO                            : ONE LINE PER DEPTH STEP
 DLM               .         SPACE                         : DELIMITING CHARACTER(SPACE TAB OR COMMA)
~Well Information
#_______________________________________________________________________________
#
#PARAMETER_NAME    .UNIT     VALUE                         : DESCRIPTION
#_______________________________________________________________________________
STRT               .M        980                           : First reference value
STOP               .M        1323                          : Last reference value
STEP               .M        0.2                           : Step increment
NULL               .         -9999                         : Missing value
COMP               .                                       : Company
WELL               .         5947                          : Well name
FLD                .         УЗЕНЬ                         : Field
LOC                .                                       : Location
CNTY               .                                       : County
STAT               .                                       : State
CTRY               .                                       : Country
SRVC               .                                       : Service Company
DATE               .         27.08.1986г                   : Date
UWI                .                                       : Unique Well ID
Block              .         4                             : 
Category           .         Нефтяная                      : 
Condition          .         В работе                      : 
EREF               .m        230.8                         : 100.8
Gorizont           .         15                            : 14
Interpretator      .         Кушнир И.Е.                   : 
Kupol              .         основной                      : osnovnoi
Mud                .                                       : 
Mud_density        .                                       : 
Mud_resistivity    .                                       : 
NGDU               .         НГДУ-1                        : 
ORIGINALWELLNAME   .         5947                          : 
Spud_date          .         1986                          : 1961
Viscosity          .                                       : 
X                  .m        54525.3                       : 46154
Y                  .m        81626                         : 85761.93
YEAR               .         2018г                         : 
~Parameter Information Block
#_______________________________________________________________________________
#
#PARAMETER_NAME    .UNIT     VALUE                         : DESCRIPTION
#_______________________________________________________________________________
SET                .         LQC_KAZNIPI_Petrel            : 
TLFamily_CALI      .         Caliper                       : 
TLFamily_CILD      .         Conductivity                  : 
TLFamily_COLL      .         Net Reservoir Flag            : 
TLFamily_CSAT      .         Fluid Code                    : 
TLFamily_DEPT      .         Measured Depth                : 
TLFamily_GR        .         Russian Gamma Ray             : 
TLFamily_GZ1       .         Gradient 045                  : 
TLFamily_GZ2       .         Gradient 105                  : 
TLFamily_GZ3       .         Gradient 225                  : 
TLFamily_GZ4       .         Gradient 425                  : 
TLFamily_GZ5       .         Gradient 850                  : 
TLFamily_LLS       .         Lateral Log Resistivity       : 
TLFamily_MINV      .         Micro Gradient Resistivity    : 
TLFamily_MNOR      .         Micro Resistivity             : 
TLFamily_NGLD      .         Neutron Gamma                 : 
TLFamily_OGZ       .         Gradient Inverted 225         : 
TLFamily_PHIE      .         Effective Porosity            : 
TLFamily_PHIEN     .         Effective Porosity            : 
TLFamily_PHIT      .         Porosity                      : 
TLFamily_PRMB      .         Permeability                  : 
TLFamily_PRMB_DGR  .         Permeability                  : 
TLFamily_RT        .         Formation Resistivity         : 
TLFamily_SOIL_ARCHIE .         Oil Saturation                : 
TLFamily_SOIL_DW   .         Oil Saturation                : 
TLFamily_SP        .         Spontaneous Potential         : 
TLFamily_VSH_FIN   .         Shale Volume                  : 
TLFamily_VSH_GR    .         Shale Volume                  : 
TLFamily_VSH_SP    .         Shale Volume                  : 
~Curve Information
#_______________________________________________________________________________
#
#LOGNAME           .UNIT     LOG_ID                        : DESCRIPTION
#_______________________________________________________________________________
DEPT               .M                                      : Колонка глубины 
CALI               .м                                      : Каверномер 
CILD               .мСм/м                                  : Индукционный каротаж 
COLL               .unitless                               : Описание 
CSAT               .unitless                               : Описание 
GR                 .uR/h                                   : Гамма каротаж 
GZ1                .ohmm                                   : Градиент-зонд  длиной 0.45м 
GZ2                .ohmm                                   : Градиент-зонд  длиной 1.05м 
GZ3                .ohmm                                   : Градиент-зонд  длиной 2.25м 
GZ4                .ohmm                                   : Градиент-зонд  длиной 4.5м 
GZ5                .ohmm                                   : Градиент-зонд  длиной 8.5м 
LLS                .Ohmm                                   : Боковой каротаж 
MINV               .Ohmm                                   : Микро-градиент зонд 
MNOR               .Ohmm                                   : Микро-потенциал зонд 
NGLD               .у.е.                                   : Показания зонда НГК-60 аппаратуры ДРСТ-3-90 
OGZ                .ohmm                                   : Обращенный градиент-зонд 
PHIE               .v/v                                    : Описание 
PHIEN              .v/v                                    :  
PHIT               .v/v                                    : Описание 
PRMB               .мД                                     :  
PRMB_DGR           .мД                                     :  
RT                 .ohmm                                   : Description 
SOIL_ARCHIE        .v/v                                    :  
SOIL_DW            .v/v                                    :  
SP                 .мВ                                     : Потенциал самополяризации 
VSH_FIN            .v/v                                    : Описание 
VSH_GR             .v/v                                    : Shale volume 
VSH_SP             .v/v                                    : Shale Volume 
~Ascii
# ...
1047.6     0.227      390.61     -9999      -9999      5.209      2.17       4.154      1.648      2.234      1.47       2.701      1.766      2.152      1.623      3.722      0.1803937  0.1803937  0.2668375  6.144502   85.3357    2.878      0.3948323  0.5194241  70.03935   0.2619509  0.1055769  0.4183249 
1047.8     0.225      385.968    -9999      -9999      5.151      2.256      4.154      1.638      2.406      1.504      2.65       1.337      1.634      1.598      3.722      0.187837   0.187837   0.270275   8.440229   92.322     2.909      0.4187023  0.5333878  69.60474   0.2498122  0.1022385  0.397386  
1048       0.224      383.316    -9999      -9999      5.055      2.359      4.166      1.713      2.579      1.548      2.725      1.621      1.411      1.582      3.798      0.1982548  0.1982548  0.272475   13.1619    105.1647   2.927      0.4470016  0.5472335  68.60012   0.2249096  0.09694318 0.3528759 
1048.2     0.221      385.305    -9999      -9999      4.925      2.359      4.041      1.814      2.751      1.635      2.865      1.607      1.878      1.593      4.041      0.2039574  0.2039574  0.2709625  16.78586   125.4491   2.913      0.4592772  0.5500017  67.6595    0.2030458  0.09020692 0.3158847 
1048.4     0.222      389.284    -9999      -9999      4.748      2.359      3.941      1.927      2.853      1.652      3.005      1.459      1.716      1.625      4.206      0.2063555  0.2063555  0.2665625  18.59358   159.4993   2.887      0.4624977  0.5458726  66.7179    0.1824454  0.08178136 0.2831094 
1048.6     0.223      387.958    -9999      -9999      4.562      2.416      4.211      2.041      2.927      1.712      3.001      1.27       1.953      1.662      4.206      0.2054941  0.2054941  0.261475   17.92289   205.2829   2.895      0.461236   0.5405912  66.15728   0.169639   0.07377401 0.265504  
1048.8     0.222      376.685    -9999      -9999      4.398      2.516      4.516      2.154      2.975      1.773      2.89       1.961      1.721      1.684      4.066      0.2065004  0.2065004  0.25845    18.70878   256.439    2.973      0.4701747  0.5445249  65.53266   0.1574232  0.06736676 0.2474796 
1049       0.221      369.391    -9999      -9999      4.273      2.719      4.616      2.217      3.027      1.784      2.941      1.184      1.94       1.685      3.9        0.2087456  0.2087456  0.2583125  20.58889   303.8336   3.025      0.4793948  0.55037    65.16205   0.1502027  0.06285954 0.2375459 
1049.2     0.221      374.696    -9999      -9999      4.223      2.872      4.718      2.318      3.105      1.791      3.43       1.64       1.982      1.68       3.658      0.2107487  0.2107487  0.259      22.42518   325.1595   2.987      0.4806353  0.55003    64.91743   0.146216   0.06114225 0.2312897 
1049.4     0.221      384.642    -9999      -9999      4.285      2.67       4.67       2.507      3.171      1.782      3.637      2.095      2.417      1.679      3.441      0.2120246  0.2120246  0.2591375  23.67929   298.9271   2.918      0.4776611  0.5460389  64.54683   0.1427663  0.06327882 0.2222537 
1049.6     0.224      396.578    -9999      -9999      4.522      2.513      4.61       2.683      3.243      1.768      3.336      2.05       2.742      1.672      3.276      0.2124593  0.2124593  0.2601     24.12235   216.7312   2.839      0.471833   0.5411477  64.30221   0.1443658  0.07215718 0.2165743 
1049.8     0.226      407.851    -9999      -9999      4.839      2.469      4.418      2.885      3.304      1.773      2.903      2.071      2.275      1.639      3.238      0.2121662  0.2121662  0.2646375  23.82267   140.9743   2.77       0.4650566  0.5398237  64.94559   0.159004   0.08600993 0.231998  
1050       0.228      417.797    -9999      -9999      5.153      2.308      4.266      3.048      3.347      1.773      2.719      2.243      2.352      1.581      3.225      0.2146332  0.2146332  0.2726125  26.46585   92.07185   2.711      0.4650383  0.5449962  65.58897   0.1756948  0.1023518  0.2490378 
1050.2     0.228      432.386    -9999      -9999      5.385      2.217      4.063      3.275      3.191      1.735      2.666      1.639      2.015      1.508      3.161      0.2189432  0.2189432  0.28265    31.80659   67.20923   2.631      0.4667794  0.5514823  66.29536   0.1930509  0.1163896  0.2697123 
1050.4     0.229      458.246    -9999      -9999      5.608      2.117      3.86       3.439      3.024      1.704      2.663      1.817      1.432      1.432      3.021      0.2234496  0.2234496  0.2931     38.54667   49.66316   2.5        0.4634511  0.5533203  66.93875   0.2110618  0.1316942  0.2904294 
1050.6     0.231      482.781    -9999      -9999      5.851      2.068      3.452      3.552      3.001      1.713      2.577      1.423      1.659      1.364      2.881      0.2235831  0.2235831  0.30245    38.76677   35.71536   2.389      0.4521785  0.5514687  67.96214   0.2389906  0.1506717  0.3273095 
1050.8     0.237      513.284    -9999      -9999      6.118      1.814      3.198      3.628      3.01       1.704      2.394      1.98       1.657      1.309      2.83       0.2211585  0.2211585  0.3100125  34.95822   24.86191   2.266      0.4330616  0.5440165  68.85852   0.2692547  0.1746911  0.3638182 
1051       0.239      551.081    -9999      -9999      6.377      1.662      2.995      3.59       3.01       1.708      2.171      1.423      1.342      1.274      2.638      0.2167775  0.2167775  0.314825   29.00036   17.49557   2.133      0.4064859  0.530404   69.50191   0.2971136  0.2016439  0.3925833 
1051.2     0.225      578.931    -9999      -9999      6.631      1.459      2.639      3.464      2.984      1.747      1.888      1.097      0.942      1.252      2.269      0.2106994  0.2106994  0.31785    22.37808   12.3956    2.045      0.3794535  0.5175313  70.01829   0.3246987  0.2321114  0.4172859 
1051.4     0.242      598.161    -9999      -9999      6.884      1.333      2.487      3.313      2.975      1.764      1.606      0.591      0.733      1.22       2.014      0.2087463  0.2087463  0.32225    20.58947   8.794202   1.99       0.3663444  0.5130424  70.09068   0.3439507  0.2670344  0.4208671 
1051.6     0.254      611.423    -9999      -9999      7.092      1.357      2.284      3.225      2.909      1.813      1.546      0.691      0.688      1.17       1.784      0.2111976  0.2111976  0.329125   22.85858   6.631925   1.953      0.3672061  0.5168746  69.97307   0.3573559  0.2996479  0.4150639 
1051.8     0.249      629.99     -9999      -9999      7.232      1.282      2.081      3.275      2.819      1.854      1.568      0.683      0.447      1.117      1.67       0.2149301  0.2149301  0.3364125  26.80305   5.484658   1.905      0.3694678  0.5205727  69.91945   0.3681286  0.3238133  0.4124439 
1052       0.245      641.262    -9999      -9999      7.289      1.282      1.929      3.351      2.634      1.895      1.591      0.565      0.656      1.066      1.632      0.2191237  0.2191237  0.343425   32.05241   5.0765     1.877      0.3756678  0.5266221  70.05583   0.3766706  0.3342017  0.4191394 
1052.2     0.248      655.188    -9999      -9999      7.329      1.265      1.88       3.351      2.525      1.906      1.613      0.628      0.54       1.033      1.632      0.2175393  0.2175393  0.3479625  29.95807   4.808348   1.844      0.3664578  0.5247373  70.63522   0.3952218  0.3416902  0.4487534 
1052.4     0.251      655.188    -9999      -9999      7.358      1.282      1.795      3.25       2.442      1.885      1.635      0.508      0.679      1.029      1.555      0.210181   0.210181   0.3485125  21.88868   4.622838   1.844      0.3471831  0.5185791  71.40561   0.4191864  0.347224   0.4911489 
1052.6     0.247      638.61     -9999      -9999      7.344      1.49       1.833      3.074      2.275      1.911      1.658      0.553      0.562      1.038      1.568      0.2037369  0.2037369  0.347275   16.62879   4.711483   1.884      0.3359569  0.5167297  71.98499   0.4349638  0.3445414  0.5253862 
