~Version
 VERS              .         2.0                           : CWLS LOG ASCII STANDARD - VERSION 2.0
 WRAP              .         NO                            : ONE LINE PER DEPTH STEP
 DLM               .         SPACE                         : DELIMITING CHARACTER(SPACE TAB OR COMMA)
~Well Information
#_______________________________________________________________________________
#
#PARAMETER_NAME    .UNIT     VALUE                         : DESCRIPTION
#_______________________________________________________________________________
STRT               .M        980                           : First reference value
STOP               .M        1323                          : Last reference value
STEP               .M        0.2                           : Step increment
NULL               .         -9999                         : Missing value
COMP               .                                       : Company
WELL               .         5947                          : Well name
FLD                .         УЗЕНЬ                         : Field
LOC                .                                       : Location
CNTY               .                                       : County
STAT               .                                       : State
CTRY               .                                       : Country
SRVC               .                                       : Service Company
DATE               .         27.08.1986г                   : Date
UWI                .                                       : Unique Well ID
Block              .         4                             : 
Category           .         Нефтяная                      : 
Condition          .         В работе                      : 
EREF               .m        230.8                         : 100.8
Gorizont           .         15                            : 14
Interpretator      .         Кушнир И.Е.                   : 
Kupol              .         основной                      : osnovnoi
Mud                .                                       : 
Mud_density        .                                       : 
Mud_resistivity    .                                       : 
NGDU               .         НГДУ-1                        : 
ORIGINALWELLNAME   .         5947                          : 
Spud_date          .         1986                          : 1961
Viscosity          .                                       : 
X                  .m        54525.3                       : 46154
Y                  .m        81626                         : 85761.93
YEAR               .         2018г                         : 
~Parameter Information Block
#_______________________________________________________________________________
#
#PARAMETER_NAME    .UNIT     VALUE                         : DESCRIPTION
#_______________________________________________________________________________
SET                .         LQC_KAZNIPI_Petrel            : 
TLFamily_CALI      .         Caliper                       : 
TLFamily_CILD      .         Conductivity                  : 
TLFamily_COLL      .         Net Reservoir Flag            : 
TLFamily_CSAT      .         Fluid Code                    : 
TLFamily_DEPT      .         Measured Depth                : 
TLFamily_GR        .         Russian Gamma Ray             : 
TLFamily_GZ1       .         Gradient 045                  : 
TLFamily_GZ2       .         Gradient 105                  : 
TLFamily_GZ3       .         Gradient 225                  : 
TLFamily_GZ4       .         Gradient 425                  : 
TLFamily_GZ5       .         Gradient 850                  : 
TLFamily_LLS       .         Lateral Log Resistivity       : 
TLFamily_MINV      .         Micro Gradient Resistivity    : 
TLFamily_MNOR      .         Micro Resistivity             : 
TLFamily_NGLD      .         Neutron Gamma                 : 
TLFamily_OGZ       .         Gradient Inverted 225         : 
TLFamily_PHIE      .         Effective Porosity            : 
TLFamily_PHIEN     .         Effective Porosity            : 
TLFamily_PHIT      .         Porosity                      : 
TLFamily_PRMB      .         Permeability                  : 
TLFamily_PRMB_DGR  .         Permeability                  : 
TLFamily_RT        .         Formation Resistivity         : 
TLFamily_SOIL_ARCHIE .         Oil Saturation                : 
TLFamily_SOIL_DW   .         Oil Saturation                : 
TLFamily_SP        .         Spontaneous Potential         : 
TLFamily_VSH_FIN   .         Shale Volume                  : 
TLFamily_VSH_GR    .         Shale Volume                  : 
TLFamily_VSH_SP    .         Shale Volume                  : 
~Curve Information
#_______________________________________________________________________________
#
#LOGNAME           .UNIT     LOG_ID                        : DESCRIPTION
#_______________________________________________________________________________
DEPT               .M                                      : Колонка глубины 
CALI               .м                                      : Каверномер 
CILD               .мСм/м                                  : Индукционный каротаж 
COLL               .unitless                               : Описание 
CSAT               .unitless                               : Описание 
GR                 .uR/h                                   : Гамма каротаж 
GZ1                .ohmm                                   : Градиент-зонд  длиной 0.45м 
GZ2                .ohmm                                   : Градиент-зонд  длиной 1.05м 
GZ3                .ohmm                                   : Градиент-зонд  длиной 2.25м 
GZ4                .ohmm                                   : Градиент-зонд  длиной 4.5м 
GZ5                .ohmm                                   : Градиент-зонд  длиной 8.5м 
LLS                .Ohmm                                   : Боковой каротаж 
MINV               .Ohmm                                   : Микро-градиент зонд 
MNOR               .Ohmm                                   : Микро-потенциал зонд 
NGLD               .у.е.                                   : Показания зонда НГК-60 аппаратуры ДРСТ-3-90 
OGZ                .ohmm                                   : Обращенный градиент-зонд 
PHIE               .v/v                                    : Описание 
PHIEN              .v/v                                    :  
PHIT               .v/v                                    : Описание 
PRMB               .мД                                     :  
PRMB_DGR           .мД                                     :  
RT                 .ohmm                                   : Description 
SOIL_ARCHIE        .v/v                                    :  
SOIL_DW            .v/v                                    :  
SP                 .мВ                                     : Потенциал самополяризации 
VSH_FIN            .v/v                                    : Описание 
VSH_GR             .v/v                                    : Shale volume 
VSH_SP             .v/v                                    : Shale Volume 
~Ascii
# ...
1156.8     0.217      657.84     -9999      -9999      11.506     1.563      2.41       2.041      1.867      2.227      1.849      1.149      0.894      1.276      1.083      0.1382726  0.1382726  0.31455    1.019298   0.9729691  1.849      0.06107971 0.3980279  69.91531   0.5341741  0.6561056  0.4122425 
1157       0.217      637.284    -9999      -9999      11.601     1.413      1.95       1.889      1.545      1.93       2.178      0.963      1.115      1.235      1.211      0.1317219  0.1317219  0.3201875  0.7708462  0.8899499  2.178      0.0929899  0.4416131  70.87872   0.5711078  0.6804399  0.4617756 
1157.2     0.217      619.38     -9999      -9999      11.629     1.367      1.747      1.751      1.429      1.674      2.387      0.981      1.29       1.198      1.44       0.128389   0.128389   0.325275   0.6687052  0.8668615  2.387      0.1115524  0.4669888  71.65214   0.5966241  0.6877829  0.5054654 
1157.4     0.218      610.76     -9999      -9999      11.587     1.439      1.686      1.625      1.419      1.623      2.167      0.998      1.461      1.178      1.848      0.1322069  0.1322069  0.328025   0.7869568  0.9017242  2.167      0.09373776 0.4494663  71.72855   0.5933881  0.676798   0.5099783 
1157.6     0.222      610.76     -9999      -9999      11.568     1.511      1.692      1.575      1.559      1.632      2.014      1.263      1.529      1.172      2.486      0.1361669  0.1361669  0.32885    0.9317482  0.9179525  2.014      0.08585938 0.4359629  71.48796   0.5838883  0.6718864  0.4958902 
1157.8     0.224      604.792    -9999      -9999      11.591     1.582      2.143      1.814      1.702      1.737      1.974      0.881      1.152      1.176      3.161      0.1426026  0.1426026  0.3283     1.226038   0.8983446  1.974      0.1135922  0.4393131  70.61338   0.5627195  0.6778365  0.4476025 
1158       0.221      595.508    -9999      -9999      11.602     1.44       2.346      2.267      1.846      1.928      2.055      0.941      1.193      1.182      3.939      0.1439067  0.1439067  0.327475   1.296161   0.8891146  2.055      0.1370321  0.4514655  70.30879   0.5562676  0.680701   0.4318343 
1158.2     0.217      590.867    -9999      -9999      11.388     1.273      2.323      2.985      1.782      2.097      1.974      0.944      1.393      1.212      3.747      0.1382944  0.1382944  0.32335    1.020249   1.08695    1.974      0.08958993 0.4274535  71.46321   0.5607745  0.6270881  0.4944609 
1158.4     0.215      600.15     -9999      -9999      11.017     1.105      2.171      3.388      1.469      1.904      1.84       1.013      1.456      1.228      2.791      0.1478646  0.1478646  0.32115    1.534511   1.539829   1.84       0.1123255  0.4191252  71.66563   0.5251071  0.5439548  0.5062594 
1158.6     0.215      612.749    -9999      -9999      10.732     1.315      2.154      3.061      1.181      1.554      1.682      1.056      1.459      1.257      2.141      0.1618424  0.1618424  0.3171625  2.785304   2.012203   1.682      0.1441742  0.4084837  70.72803   0.4706669  0.4876573  0.4536764 
1158.8     0.215      626.011    -9999      -9999      10.753     1.602      2.389      2.519      1.012      1.205      2.138      1.027      1.584      1.283      1.682      0.1707598  0.1707598  0.3135875  4.074214   1.972922   2.138      0.2701907  0.4826034  69.09245   0.4328112  0.4915989  0.3740235 
1159       0.215      610.76     -9999      -9999      11.002     1.888      2.537      2.003      0.843      0.98       2.763      1.04       1.49       1.297      1.466      0.1737242  0.1737242  0.3116625  4.623291   1.561667   2.763      0.3625648  0.5462411  67.07786   0.4179949  0.5408359  0.2951539 
1159.2     0.218      580.92     -9999      -9999      11.159     1.957      2.334      1.537      0.85       0.895      3.171      1.021      1.42       1.317      1.389      0.1725517  0.1725517  0.3089125  4.397794   1.347648   3.171      0.3989255  0.5730186  65.69627   0.4132144  0.5743858  0.252043  
1159.4     0.218      569.647    -9999      -9999      11.081     1.38       1.949      1.209      0.883      0.81       1.771      0.945      1.471      1.314      1.377      0.1787872  0.1787872  0.309325   5.73761    1.450035   1.771      0.2340264  0.4370725  65.0117    0.395569   0.5574654  0.2336727 
1159.6     0.215      594.182    -9999      -9999      10.821     0.972      1.774      1.046      0.887      0.787      1.617      1.038      1.497      1.313      1.44       0.1886427  0.1886427  0.3094625  8.73533    1.85091    1.617      0.237118   0.4235056  64.7711    0.3661205  0.5045821  0.2276589 
1159.8     0.214      628.663    -9999      -9999      10.538     1.206      1.641      1.033      0.852      0.776      1.463      1.102      1.595      1.295      1.721      0.1991067  0.1991067  0.3119375  13.64891   2.414177   1.463      0.2371591  0.4097756  64.91052   0.3419114  0.4527065  0.2311164 
1160       0.214      665.134    -9999      -9999      10.386     1.231      1.641      1.008      1.038      0.765      1.573      1.033      1.692      1.287      2.116      0.2033099  0.2033099  0.3130375  16.32864   2.784469   1.573      0.2759679  0.4367662  65.17693   0.332508   0.4270817  0.2379343 
1160.2     0.214      691.658    -9999      -9999      10.36      1.156      1.655      1.02       1.223      0.755      1.757      1.045      1.595      1.279      2.549      0.2042184  0.2042184  0.3141375  16.9738    2.853271   1.757      0.3152589  0.4691448  65.38035   0.333088   0.4228461  0.2433299 
1160.4     0.214      687.679    -9999      -9999      10.41      1.128      1.578      1.247      1.387      0.744      1.783      0.951      1.517      1.281      2.842      0.203372   0.203372   0.3138625  16.37196   2.722432   1.783      0.3174983  0.4718656  65.20277   0.3348197  0.4310291  0.2386103 
1160.6     0.214      700.941    -9999      -9999      10.287     1.128      1.375      1.663      1.406      0.818      1.517      0.957      1.499      1.294      2.587      0.2083983  0.2083983  0.312075   20.28616   3.05567    1.517      0.2792324  0.4311684  64.32817   0.3141719  0.4111772  0.2171665 
1160.8     0.214      741.059    -9999      -9999      9.958      1.03       1.333      2.104      1.426      0.896      1.553      0.993      1.617      1.308      2.231      0.2175834  0.2175834  0.31015    30.0144    4.161457   1.553      0.3134043  0.4456316  63.45359   0.280505   0.3624563  0.1985537 
1161       0.212      738.075    -9999      -9999      9.489      0.881      1.333      2.444      1.446      0.973      1.653      1.093      1.501      1.339      1.784      0.2247058  0.2247058  0.3058875  40.66822   6.463456   1.653      0.3516643  0.4654467  62.959     0.246005   0.3028129  0.1891972 
1161.2     0.217      718.182    -9999      -9999      9.098      1.057      1.33       2.204      1.493      1.064      1.644      1.001      1.664      1.344      1.644      0.2311235  0.2311235  0.3052     53.472     9.33002    1.644      0.3657493  0.4695327  62.90842   0.2244742  0.2606626  0.1882857 
1161.4     0.223      712.214    -9999      -9999      8.945      1.23       1.282      1.789      1.556      1.178      1.635      1.151      1.641      1.35       1.823      0.2302958  0.2302958  0.304375   51.61732   10.77118   1.635      0.3621233  0.4664369  63.68184   0.2244824  0.245814   0.2031507 
1161.6     0.232      674.417    -9999      -9999      9.044      1.129      1.282      1.373      1.618      1.291      1.633      1.146      1.686      1.325      2.014      0.2293676  0.2293676  0.3078125  49.61386   9.815205   1.633      0.3595079  0.4687041  64.45525   0.2377117  0.2553222  0.2201012 
1161.8     0.23       614.738    -9999      -9999      9.302      1.029      1.179      1.234      1.823      1.411      1.697      1.087      1.661      1.307      2.154      0.2276569  0.2276569  0.3102875  46.12294   7.703855   1.697      0.3668439  0.4796371  64.40466   0.2503956  0.2818654  0.2189259 
