~Version
 VERS              .         2.0                           : CWLS LOG ASCII STANDARD - VERSION 2.0
 WRAP              .         NO                            : ONE LINE PER DEPTH STEP
 DLM               .         SPACE                         : DELIMITING CHARACTER(SPACE TAB OR COMMA)
~Well Information
#_______________________________________________________________________________
#
#PARAMETER_NAME    .UNIT     VALUE                         : DESCRIPTION
#_______________________________________________________________________________
STRT               .M        980                           : First reference value
STOP               .M        1323                          : Last reference value
STEP               .M        0.2                           : Step increment
NULL               .         -9999                         : Missing value
COMP               .                                       : Company
WELL               .         5947                          : Well name
FLD                .         УЗЕНЬ                         : Field
LOC                .                                       : Location
CNTY               .                                       : County
STAT               .                                       : State
CTRY               .                                       : Country
SRVC               .                                       : Service Company
DATE               .         27.08.1986г                   : Date
UWI                .                                       : Unique Well ID
Block              .         4                             : 
Category           .         Нефтяная                      : 
Condition          .         В работе                      : 
EREF               .m        230.8                         : 100.8
Gorizont           .         15                            : 14
Interpretator      .         Кушнир И.Е.                   : 
Kupol              .         основной                      : osnovnoi
Mud                .                                       : 
Mud_density        .                                       : 
Mud_resistivity    .                                       : 
NGDU               .         НГДУ-1                        : 
ORIGINALWELLNAME   .         5947                          : 
Spud_date          .         1986                          : 1961
Viscosity          .                                       : 
X                  .m        54525.3                       : 46154
Y                  .m        81626                         : 85761.93
YEAR               .         2018г                         : 
~Parameter Information Block
#_______________________________________________________________________________
#
#PARAMETER_NAME    .UNIT     VALUE                         : DESCRIPTION
#_______________________________________________________________________________
SET                .         LQC_KAZNIPI_Petrel            : 
TLFamily_CALI      .         Caliper                       : 
TLFamily_CILD      .         Conductivity                  : 
TLFamily_COLL      .         Net Reservoir Flag            : 
TLFamily_CSAT      .         Fluid Code                    : 
TLFamily_DEPT      .         Measured Depth                : 
TLFamily_GR        .         Russian Gamma Ray             : 
TLFamily_GZ1       .         Gradient 045                  : 
TLFamily_GZ2       .         Gradient 105                  : 
TLFamily_GZ3       .         Gradient 225                  : 
TLFamily_GZ4       .         Gradient 425                  : 
TLFamily_GZ5       .         Gradient 850                  : 
TLFamily_LLS       .         Lateral Log Resistivity       : 
TLFamily_MINV      .         Micro Gradient Resistivity    : 
TLFamily_MNOR      .         Micro Resistivity             : 
TLFamily_NGLD      .         Neutron Gamma                 : 
TLFamily_OGZ       .         Gradient Inverted 225         : 
TLFamily_PHIE      .         Effective Porosity            : 
TLFamily_PHIEN     .         Effective Porosity            : 
TLFamily_PHIT      .         Porosity                      : 
TLFamily_PRMB      .         Permeability                  : 
TLFamily_PRMB_DGR  .         Permeability                  : 
TLFamily_RT        .         Formation Resistivity         : 
TLFamily_SOIL_ARCHIE .         Oil Saturation                : 
TLFamily_SOIL_DW   .         Oil Saturation                : 
TLFamily_SP        .         Spontaneous Potential         : 
TLFamily_VSH_FIN   .         Shale Volume                  : 
TLFamily_VSH_GR    .         Shale Volume                  : 
TLFamily_VSH_SP    .         Shale Volume                  : 
~Curve Information
#_______________________________________________________________________________
#
#LOGNAME           .UNIT     LOG_ID                        : DESCRIPTION
#_______________________________________________________________________________
DEPT               .M                                      : Колонка глубины 
CALI               .м                                      : Каверномер 
CILD               .мСм/м                                  : Индукционный каротаж 
COLL               .unitless                               : Описание 
CSAT               .unitless                               : Описание 
GR                 .uR/h                                   : Гамма каротаж 
GZ1                .ohmm                                   : Градиент-зонд  длиной 0.45м 
GZ2                .ohmm                                   : Градиент-зонд  длиной 1.05м 
GZ3                .ohmm                                   : Градиент-зонд  длиной 2.25м 
GZ4                .ohmm                                   : Градиент-зонд  длиной 4.5м 
GZ5                .ohmm                                   : Градиент-зонд  длиной 8.5м 
LLS                .Ohmm                                   : Боковой каротаж 
MINV               .Ohmm                                   : Микро-градиент зонд 
MNOR               .Ohmm                                   : Микро-потенциал зонд 
NGLD               .у.е.                                   : Показания зонда НГК-60 аппаратуры ДРСТ-3-90 
OGZ                .ohmm                                   : Обращенный градиент-зонд 
PHIE               .v/v                                    : Описание 
PHIEN              .v/v                                    :  
PHIT               .v/v                                    : Описание 
PRMB               .мД                                     :  
PRMB_DGR           .мД                                     :  
RT                 .ohmm                                   : Description 
SOIL_ARCHIE        .v/v                                    :  
SOIL_DW            .v/v                                    :  
SP                 .мВ                                     : Потенциал самополяризации 
VSH_FIN            .v/v                                    : Описание 
VSH_GR             .v/v                                    : Shale volume 
VSH_SP             .v/v                                    : Shale Volume 
~Ascii
# ...
1136       0.243      583.573    -9999      -9999      9.188      1.568      2.103      1.902      1.903      1.363      1.885      1.781      1.445      1.158      2.192      0.1740329  0.1740329  0.330775   4.684574   1.297979   2.031      0.2646548  0.4899357  68.92503   0.474976   0.5832613  0.3666907 
1136.2     0.244      586.225    -9999      -9999      9.211      1.511      2.024      1.826      1.831      1.271      1.911      1.49       1.044      1.172      2.307      0.1672841  0.1672841  0.32885    3.512902   1.262839   2.024      0.237649   0.4793078  69.43203   0.4895935  0.5898347  0.3893523 
1136.4     0.246      589.54     -9999      -9999      9.223      1.385      2          1.776      1.799      1.245      1.978      1.411      0.955      1.175      2.46       0.161824   0.161824   0.3284375  2.78311    1.244887   2.014      0.2134679  0.4709058  70.00203   0.5048895  0.5932934  0.4164857 
1136.6     0.244      592.856    -9999      -9999      9.188      1.561      2.051      1.764      1.747      1.209      1.986      1.358      1.096      1.169      2.677      0.1606103  0.1606103  0.3292625  2.642718   1.297979   2.005      0.2066284  0.4690133  70.44603   0.5110672  0.5832613  0.4388732 
1136.8     0.241      588.877    -9999      -9999      9.161      1.59       2.123      1.776      1.695      1.181      1.876      1.288      0.996      1.166      2.868      0.1600928  0.1600928  0.329675   2.585027   1.340478   2.016      0.2064352  0.4702208  70.69903   0.5138854  0.5756384  0.4521326 
1137       0.236      578.268    -9999      -9999      9.134      1.659      2.205      1.751      1.68       1.176      2.072      1.293      1.063      1.181      3.034      0.1603689  0.1603689  0.3276125  2.615644   1.384371   2.047      0.213279   0.4725523  70.57303   0.5067989  0.5681148  0.4454829 
1137.2     0.231      564.343    -9999      -9999      9.107      1.692      2.205      1.801      1.669      1.185      2.267      1.271      0.929      1.213      3.212      0.1577455  0.1577455  0.3232125  2.338766   1.429698   2.09       0.2096439  0.4702987  70.50903   0.5014153  0.5606899  0.4421407 
1137.4     0.231      560.364    -9999      -9999      9.061      1.525      2.205      1.789      1.71       1.202      2.355      1.222      1.199      1.246      3.25       0.156873   0.156873   0.318675   2.25334    1.51037    2.102      0.2079477  0.4660502  70.31903   0.4903091  0.5482624  0.4323557 
1137.6     0.231      560.364    -9999      -9999      9.028      1.447      2.217      1.751      1.755      1.284      2.201      1.332      1.099      1.263      3.263      0.1570387  0.1570387  0.3163375  2.269325   1.571032   2.102      0.2086758  0.4638377  70.19203   0.4827235  0.5395172  0.4259298 
1137.8     0.228      561.027    -9999      -9999      9.031      1.58       2.205      1.738      1.985      1.436      2.107      1.324      1.277      1.256      3.301      0.157871   0.157871   0.3173     2.351322   1.565418   2.1        0.2119584  0.4656708  70.19203   0.4831181  0.5403065  0.4259298 
1138       0.227      555.059    -9999      -9999      9.044      1.436      2.205      1.688      2.21       1.633      2.114      1.352      1.154      1.241      3.403      0.1583067  0.1583067  0.3193625  2.395428   1.541322   2.12       0.217337   0.4708763  70.31903   0.4880477  0.5437397  0.4323557 
1138.2     0.233      540.471    -9999      -9999      9.033      1.431      2.164      1.638      2.383      1.759      2.069      1.423      1.074      1.239      3.594      0.1585213  0.1585213  0.3196375  2.417446   1.561686   2.168      0.2264298  0.4773157  70.38303   0.488231   0.5408332  0.4356288 
1138.4     0.238      519.252    -9999      -9999      8.961      1.797      2.778      1.587      2.556      2.006      2.064      1.319      1.107      1.263      3.837      0.1572232  0.1572232  0.3163375  2.287244   1.701791   2.244      0.233366   0.4813127  70.50903   0.4821647  0.5221887  0.4421407 
1138.6     0.241      498.696    -9999      -9999      8.794      2.205      3.85       1.549      2.698      2.113      2.069      1.341      0.975      1.311      4.308      0.1551448  0.1551448  0.3097375  2.093223   2.077071   2.323      0.2369195  0.4808991  70.76303   0.4684628  0.4813801  0.4555456 
1138.8     0.236      469.519    -9999      -9999      8.524      2.824      4.669      1.537      2.69       2.119      2.074      1.272      0.955      1.37       4.939      0.1902505  0.1902505  0.301625   9.355331   15.99234   2.074      0.3262163  0.4848655  70.95303   0.3374984  0.2091783  0.4658186 
1139       0.237      442.995    -9999      -9999      8.18       3.469      5.489      1.524      2.665      2.126      2.193      1.133      1.075      1.434      4.946      0.1834031  0.1834031  0.292825   6.985986   22.08853   2.193      0.3223347  0.482513   71.20603   0.3315817  0.1833353  0.479828  
1139.2     0.238      413.819    -9999      -9999      7.835      3.629      5.576      1.575      2.688      2.273      2.459      1.991      1.969      1.5        4.474      0.1762886  0.1762886  0.28375    5.157646   30.53723   2.459      0.3352652  0.4940289  71.39703   0.3256404  0.1606234  0.4906575 
1139.4     0.234      386.632    -9999      -9999      7.538      3.211      5.616      1.688      3.324      2.481      2.86       3.028      3.392      1.566      3.951      0.1682522  0.1682522  0.274675   3.660972   40.35726   2.86       0.3550739  0.5125729  71.58703   0.3224934  0.1433385  0.5016484 
1139.6     0.226      361.434    -9999      -9999      7.352      2.743      5.384      1.839      4.218      2.769      4.178      3.491      3.37       1.622      3.352      0.1609474  0.1609474  0.266975   2.680983   48.05703   4.178      0.4388781  0.5824258  71.71403   0.3212958  0.133474   0.5091177 
1139.8     0.218      348.835    -9999      -9999      7.321      2.275      4.715      2.053      5.112      3.471      4.738      1.034      2.234      1.654      2.855      0.1555687  0.1555687  0.262575   2.13141    49.47618   4.738      0.4551465  0.5985317  71.84003   0.3242616  0.1318972  0.5166261 
1140       0.217      352.15     -9999      -9999      7.465      2.615      4.473      2.305      5.266      3.851      5.012      1.111      1.467      1.649      2.6        0.1543855  0.1543855  0.2632625  2.026526   43.22002   5.012      0.4657925  0.6090865  71.90403   0.3299302  0.1393829  0.5204776 
1140.2     0.215      358.118    -9999      -9999      7.718      3.519      4.359      2.519      3.814      3.54       5.025      1.057      1.429      1.617      2.524      0.1558136  0.1558136  0.2676625  2.153793   34.08258   5.025      0.4707032  0.6148837  71.96703   0.3389361  0.1535784  0.5242938 
1140.4     0.214      358.781    -9999      -9999      7.986      4.422      4.359      2.733      2.794      3.065      3.461      1.126      1.494      1.571      2.702      0.1581151  0.1581151  0.2739875  2.375929   26.50111   3.461      0.3774949  0.5451015  72.09403   0.3511285  0.1701954  0.5320615 
1140.6     0.214      354.803    -9999      -9999      8.18       3.695      7.119      2.822      2.248      2.583      3.6        1.121      1.262      1.53       3.021      0.1583124  0.1583124  0.279625   2.396003   22.08853   3.6        0.3895551  0.5596423  72.41103   0.367614   0.1833353  0.5518928 
1140.8     0.215      350.824    -9999      -9999      8.293      2.782      6.909      2.696      1.703      1.8        3.373      1.094      1.293      1.51       3.849      0.1563455  0.1563455  0.282375   2.203207   19.86529   3.373      0.3637189  0.5455215  72.72803   0.3819077  0.1914515  0.5723639 
1141       0.217      352.813    -9999      -9999      8.404      2.632      5.546      2.847      1.472      1.165      4.876      1.142      1.43       1.516      4.308      0.1534632  0.1534632  0.28155    1.948358   17.89939   4.876      0.4560201  0.6185536  72.79103   0.3881418  0.1997738  0.5765098 
