~Version
 VERS              .         2.0                           : CWLS LOG ASCII STANDARD - VERSION 2.0
 WRAP              .         NO                            : ONE LINE PER DEPTH STEP
 DLM               .         SPACE                         : DELIMITING CHARACTER(SPACE TAB OR COMMA)
~Well Information
#_______________________________________________________________________________
#
#PARAMETER_NAME    .UNIT     VALUE                         : DESCRIPTION
#_______________________________________________________________________________
STRT               .M        980                           : First reference value
STOP               .M        1323                          : Last reference value
STEP               .M        0.2                           : Step increment
NULL               .         -9999                         : Missing value
COMP               .                                       : Company
WELL               .         5947                          : Well name
FLD                .         УЗЕНЬ                         : Field
LOC                .                                       : Location
CNTY               .                                       : County
STAT               .                                       : State
CTRY               .                                       : Country
SRVC               .                                       : Service Company
DATE               .         27.08.1986г                   : Date
UWI                .                                       : Unique Well ID
Block              .         4                             : 
Category           .         Нефтяная                      : 
Condition          .         В работе                      : 
EREF               .m        230.8                         : 100.8
Gorizont           .         15                            : 14
Interpretator      .         Кушнир И.Е.                   : 
Kupol              .         основной                      : osnovnoi
Mud                .                                       : 
Mud_density        .                                       : 
Mud_resistivity    .                                       : 
NGDU               .         НГДУ-1                        : 
ORIGINALWELLNAME   .         5947                          : 
Spud_date          .         1986                          : 1961
Viscosity          .                                       : 
X                  .m        54525.3                       : 46154
Y                  .m        81626                         : 85761.93
YEAR               .         2018г                         : 
~Parameter Information Block
#_______________________________________________________________________________
#
#PARAMETER_NAME    .UNIT     VALUE                         : DESCRIPTION
#_______________________________________________________________________________
SET                .         LQC_KAZNIPI_Petrel            : 
TLFamily_CALI      .         Caliper                       : 
TLFamily_CILD      .         Conductivity                  : 
TLFamily_COLL      .         Net Reservoir Flag            : 
TLFamily_CSAT      .         Fluid Code                    : 
TLFamily_DEPT      .         Measured Depth                : 
TLFamily_GR        .         Russian Gamma Ray             : 
TLFamily_GZ1       .         Gradient 045                  : 
TLFamily_GZ2       .         Gradient 105                  : 
TLFamily_GZ3       .         Gradient 225                  : 
TLFamily_GZ4       .         Gradient 425                  : 
TLFamily_GZ5       .         Gradient 850                  : 
TLFamily_LLS       .         Lateral Log Resistivity       : 
TLFamily_MINV      .         Micro Gradient Resistivity    : 
TLFamily_MNOR      .         Micro Resistivity             : 
TLFamily_NGLD      .         Neutron Gamma                 : 
TLFamily_OGZ       .         Gradient Inverted 225         : 
TLFamily_PHIE      .         Effective Porosity            : 
TLFamily_PHIEN     .         Effective Porosity            : 
TLFamily_PHIT      .         Porosity                      : 
TLFamily_PRMB      .         Permeability                  : 
TLFamily_PRMB_DGR  .         Permeability                  : 
TLFamily_RT        .         Formation Resistivity         : 
TLFamily_SOIL_ARCHIE .         Oil Saturation                : 
TLFamily_SOIL_DW   .         Oil Saturation                : 
TLFamily_SP        .         Spontaneous Potential         : 
TLFamily_VSH_FIN   .         Shale Volume                  : 
TLFamily_VSH_GR    .         Shale Volume                  : 
TLFamily_VSH_SP    .         Shale Volume                  : 
~Curve Information
#_______________________________________________________________________________
#
#LOGNAME           .UNIT     LOG_ID                        : DESCRIPTION
#_______________________________________________________________________________
DEPT               .M                                      : Колонка глубины 
CALI               .м                                      : Каверномер 
CILD               .мСм/м                                  : Индукционный каротаж 
COLL               .unitless                               : Описание 
CSAT               .unitless                               : Описание 
GR                 .uR/h                                   : Гамма каротаж 
GZ1                .ohmm                                   : Градиент-зонд  длиной 0.45м 
GZ2                .ohmm                                   : Градиент-зонд  длиной 1.05м 
GZ3                .ohmm                                   : Градиент-зонд  длиной 2.25м 
GZ4                .ohmm                                   : Градиент-зонд  длиной 4.5м 
GZ5                .ohmm                                   : Градиент-зонд  длиной 8.5м 
LLS                .Ohmm                                   : Боковой каротаж 
MINV               .Ohmm                                   : Микро-градиент зонд 
MNOR               .Ohmm                                   : Микро-потенциал зонд 
NGLD               .у.е.                                   : Показания зонда НГК-60 аппаратуры ДРСТ-3-90 
OGZ                .ohmm                                   : Обращенный градиент-зонд 
PHIE               .v/v                                    : Описание 
PHIEN              .v/v                                    :  
PHIT               .v/v                                    : Описание 
PRMB               .мД                                     :  
PRMB_DGR           .мД                                     :  
RT                 .ohmm                                   : Description 
SOIL_ARCHIE        .v/v                                    :  
SOIL_DW            .v/v                                    :  
SP                 .мВ                                     : Потенциал самополяризации 
VSH_FIN            .v/v                                    : Описание 
VSH_GR             .v/v                                    : Shale volume 
VSH_SP             .v/v                                    : Shale Volume 
~Ascii
# ...
1292       0.199      320.985    8          2          8.496      4.612      13.372     5.605      5.308      5.567      5.511      0.79       1.513      1.47       3.174      0.2024856  0.2024856  0.287875   15.7646    5.764605   5.511      0.607875   0.6922678  63.53706   0.2587557  0.3172974  0.2002139 
1292.2     0.199      352.15     8          2          8.581      4.318      13.084     6.33       5.257      5.366      4.701      0.93       1.274      1.467      2.944      0.1967167  0.1967167  0.2882875  12.32617   5.252546   4.701      0.5667329  0.6630628  64.67805   0.2774874  0.3295817  0.2253931 
1292.4     0.199      386.632    8          2          8.712      3.998      12.771     7.199      5.211      5.184      3.972      1.069      1.19       1.467      2.868      0.1859692  0.1859692  0.2882875  7.793978   4.551004   3.972      0.5075659  0.6248464  66.32606   0.3100554  0.3494515  0.2706592 
1292.6     0.207      417.134    8          2          8.863      3.329      9.804      7.927      5.074      4.8        4.058      0.718      1.085      1.451      2.817      0.177466   0.177466   0.2904875  5.423243   3.857791   4.058      0.4922083  0.6233733  67.53006   0.3424894  0.3738458  0.311133  
1292.8     0.209      447.637    8          2          8.973      2.66       6.995      10.266     4.393      3.462      2.628      0.759      1.127      1.42       2.562      0.1721172  0.1721172  0.29475    4.31705    3.420243   2.628      0.3605524  0.5302462  68.54405   0.3716144  0.3926818  0.3505469 
1293       0.207      476.813    -9999      -9999      9.115      2.363      5.724      11.463     3.741      2.394      2.326      0.795      0.931      1.374      2.231      0.1663424  0.1663424  0.301075   3.374605   2.927966   2.326      0.3024233  0.5001999  69.62106   0.4082806  0.4184077  0.3981535 
1293.2     0.199      502.674    -9999      -9999      9.29       2.213      4.709      12.093     3.189      1.843      2.183      0.87       1.043      1.336      1.976      0.1629348  0.1629348  0.3063     2.918141   2.417632   2.183      0.268268   0.4851982  70.00105   0.4344399  0.4524422  0.4164377 
1293.4     0.199      525.883    -9999      -9999      9.5        2.238      3.951      10.77      2.636      1.296      2.221      1.062      0.854      1.315      1.759      0.1589866  0.1589866  0.3091875  2.465896   1.921232   2.221      0.2584956  0.4875827  69.93806   0.4551544  0.4969573  0.4133514 
1293.6     0.206      547.102    -9999      -9999      9.579      2.116      3.449      9.069      2.315      1.173      2.179      1.133      1.126      1.322      1.682      0.1486871  0.1486871  0.308225   1.589295   1.762104   2.179      0.2068818  0.4679637  70.69806   0.4834481  0.514815   0.4520811 
1293.8     0.208      565.669    -9999      -9999      9.525      1.614      3.155      7.369      2.089      1.05       2.139      1.077      0.826      1.337      1.708      0.1380096  0.1380096  0.3061625  1.007932   1.86938    2.139      0.1463077  0.4451216  71.83906   0.5095541  0.5025403  0.5165679 
1294       0.208      578.268    -9999      -9999      9.461      1.547      2.987      6.538      1.952      0.927      1.95       0.879      0.67       1.359      1.746      0.1253541  0.1253541  0.3031375  0.5875176  2.005007   1.95       0.03052896 0.3936379  72.98006   0.5387375  0.4883714  0.5891036 
1294.2     0.208      576.278    -9999      -9999      9.535      1.627      2.661      5.165      1.946      0.861      1.766      0.826      0.981      1.372      1.797      0.1082691  0.1082691  0.30135    0.2835068  1.849033   1.766      0          0.3251566  74.05705   0.5850938  0.5047912  0.6653965 
1294.4     0.208      570.311    -9999      -9999      9.753      1.647      2.59       4.182      1.941      0.804      1.741      0.866      0.883      1.384      1.81       0.08582734 0.08582734 0.2997     0.1088651  1.45657    1.741      0          0.26051    75.01219   0.648099   0.5564427  0.7397553 
1294.6     0.208      559.038    -9999      -9999      9.936      1.667      2.52       3.603      2.038      0.785      1.717      0.951      1.212      1.386      1.733      0.07765969 0.07765969 0.299425   0.07684293 1.192213   1.717      0          0.229901   75.01732   0.6720161  0.6038601  0.740172  
1294.8     0.207      541.134    -9999      -9999      10.017     1.533      2.457      3.174      2.19       0.765      1.692      1.266      1.159      1.389      1.593      0.08097521 0.08097521 0.2990125  0.08851471 1.091076   1.692      0          0.2340517  74.45145   0.660719   0.6261186  0.6953194 
1295       0.207      519.252    -9999      -9999      10.005     1.553      2.395      2.834      2.356      0.746      1.757      1.059      1.11       1.393      1.44       0.08800597 0.08800597 0.2984625  0.1194654  1.1055     1.757      0          0.2680751  73.88559   0.637747   0.62277    0.6527241 
1295.2     0.208      495.38     -9999      -9999      9.955      1.654      2.332      2.633      2.521      0.727      1.859      1.443      1.501      1.395      1.389      0.09223056 0.09223056 0.2981875  0.1430513  1.167678   1.859      0          0.2993107  73.69972   0.624112   0.6090091  0.6392148 
1295.4     0.207      499.359    -9999      -9999      9.851      1.655      2.318      2.532      2.575      0.783      1.891      2.141      2.035      1.395      1.428      0.1004587  0.1004587  0.2981875  0.2031871  1.308439   1.891      0          0.3256478  73.38685   0.5991783  0.5813529  0.6170037 
1295.6     0.207      517.926    -9999      -9999      9.741      1.595      2.335      2.494      2.63       0.84       1.862      2.949      3.332      1.389      1.581      0.1297905  0.1297905  0.2990125  0.7098941  2.877324   2.249      0.1203568  0.437921   73.20198   0.5127938  0.4213992  0.6041884 
1295.8     0.207      534.503    -9999      -9999      9.635      1.557      2.351      2.431      2.866      0.988      1.863      3.488      2.58       1.381      1.848      0.134532   0.134532   0.3001125  0.8689948  3.202684   2.189      0.136533   0.4392507  73.14311   0.5017591  0.4033629  0.6001552 
1296       0.208      542.46     -9999      -9999      9.575      1.511      2.644      2.179      3.185      1.152      2.119      1.442      2.167      1.391      2.154      0.1325758  0.1325758  0.2987375  0.7994339  3.402901   2.161      0.1201473  0.4308595  73.33725   0.5035204  0.3934979  0.6135431 
1296.2     0.208      546.626    -9999      -9999      9.521      1.461      3.162      2.078      3.996      1.316      2.375      1.411      0.833      1.415      2.447      0.1384029  0.1384029  0.2954375  1.024979   3.593774   2.147      0.1499112  0.434453   72.64438   0.4758625  0.3848259  0.5668992 
1296.4     0.209      551.081    -9999      -9999      9.487      2.156      3.681      2.091      4.386      1.408      2.631      0.904      0.782      1.445      2.766      0.1397719  0.1397719  0.2913125  1.086607   3.719408   2.133      0.1545762  0.4298477  72.20552   0.4592139  0.3794641  0.5389637 
1296.6     0.21       572.3      -9999      -9999      9.522      2.236      3.818      2.356      4.846      1.516      2.767      0.735      0.662      1.44       3.021      0.1361957  0.1361957  0.292      0.9328936  3.590143   2.065      0.1220267  0.415563   72.52664   0.4721344  0.3849848  0.5592839 
1296.8     0.211      594.182    -9999      -9999      9.615      2.307      3.939      2.759      6.205      1.748      2.882      0.699      0.689      1.415      2.881      0.1329827  0.1329827  0.2954375  0.8134297  3.268079   2.001      0.09023814 0.4051529  72.91177   0.4922873  0.4000473  0.5845273 
1297       0.211      603.466    -9999      -9999      9.77       2.943      3.6        3.2        5.991      1.942      2.986      0.812      0.791      1.384      2.473      0.1321314  0.1321314  0.2997     0.7844277  2.794216   1.975      0.07950348 0.4050918  72.97992   0.5077835  0.4264728  0.5890943 
