~Version
 VERS              .         2.0                           : CWLS LOG ASCII STANDARD - VERSION 2.0
 WRAP              .         NO                            : ONE LINE PER DEPTH STEP
 DLM               .         SPACE                         : DELIMITING CHARACTER(SPACE TAB OR COMMA)
~Well Information
#_______________________________________________________________________________
#
#PARAMETER_NAME    .UNIT     VALUE                         : DESCRIPTION
#_______________________________________________________________________________
STRT               .M        980                           : First reference value
STOP               .M        1323                          : Last reference value
STEP               .M        0.2                           : Step increment
NULL               .         -9999                         : Missing value
COMP               .                                       : Company
WELL               .         5947                          : Well name
FLD                .         УЗЕНЬ                         : Field
LOC                .                                       : Location
CNTY               .                                       : County
STAT               .                                       : State
CTRY               .                                       : Country
SRVC               .                                       : Service Company
DATE               .         27.08.1986г                   : Date
UWI                .                                       : Unique Well ID
Block              .         4                             : 
Category           .         Нефтяная                      : 
Condition          .         В работе                      : 
EREF               .m        230.8                         : 100.8
Gorizont           .         15                            : 14
Interpretator      .         Кушнир И.Е.                   : 
Kupol              .         основной                      : osnovnoi
Mud                .                                       : 
Mud_density        .                                       : 
Mud_resistivity    .                                       : 
NGDU               .         НГДУ-1                        : 
ORIGINALWELLNAME   .         5947                          : 
Spud_date          .         1986                          : 1961
Viscosity          .                                       : 
X                  .m        54525.3                       : 46154
Y                  .m        81626                         : 85761.93
YEAR               .         2018г                         : 
~Parameter Information Block
#_______________________________________________________________________________
#
#PARAMETER_NAME    .UNIT     VALUE                         : DESCRIPTION
#_______________________________________________________________________________
SET                .         LQC_KAZNIPI_Petrel            : 
TLFamily_CALI      .         Caliper                       : 
TLFamily_CILD      .         Conductivity                  : 
TLFamily_COLL      .         Net Reservoir Flag            : 
TLFamily_CSAT      .         Fluid Code                    : 
TLFamily_DEPT      .         Measured Depth                : 
TLFamily_GR        .         Russian Gamma Ray             : 
TLFamily_GZ1       .         Gradient 045                  : 
TLFamily_GZ2       .         Gradient 105                  : 
TLFamily_GZ3       .         Gradient 225                  : 
TLFamily_GZ4       .         Gradient 425                  : 
TLFamily_GZ5       .         Gradient 850                  : 
TLFamily_LLS       .         Lateral Log Resistivity       : 
TLFamily_MINV      .         Micro Gradient Resistivity    : 
TLFamily_MNOR      .         Micro Resistivity             : 
TLFamily_NGLD      .         Neutron Gamma                 : 
TLFamily_OGZ       .         Gradient Inverted 225         : 
TLFamily_PHIE      .         Effective Porosity            : 
TLFamily_PHIEN     .         Effective Porosity            : 
TLFamily_PHIT      .         Porosity                      : 
TLFamily_PRMB      .         Permeability                  : 
TLFamily_PRMB_DGR  .         Permeability                  : 
TLFamily_RT        .         Formation Resistivity         : 
TLFamily_SOIL_ARCHIE .         Oil Saturation                : 
TLFamily_SOIL_DW   .         Oil Saturation                : 
TLFamily_SP        .         Spontaneous Potential         : 
TLFamily_VSH_FIN   .         Shale Volume                  : 
TLFamily_VSH_GR    .         Shale Volume                  : 
TLFamily_VSH_SP    .         Shale Volume                  : 
~Curve Information
#_______________________________________________________________________________
#
#LOGNAME           .UNIT     LOG_ID                        : DESCRIPTION
#_______________________________________________________________________________
DEPT               .M                                      : Колонка глубины 
CALI               .м                                      : Каверномер 
CILD               .мСм/м                                  : Индукционный каротаж 
COLL               .unitless                               : Описание 
CSAT               .unitless                               : Описание 
GR                 .uR/h                                   : Гамма каротаж 
GZ1                .ohmm                                   : Градиент-зонд  длиной 0.45м 
GZ2                .ohmm                                   : Градиент-зонд  длиной 1.05м 
GZ3                .ohmm                                   : Градиент-зонд  длиной 2.25м 
GZ4                .ohmm                                   : Градиент-зонд  длиной 4.5м 
GZ5                .ohmm                                   : Градиент-зонд  длиной 8.5м 
LLS                .Ohmm                                   : Боковой каротаж 
MINV               .Ohmm                                   : Микро-градиент зонд 
MNOR               .Ohmm                                   : Микро-потенциал зонд 
NGLD               .у.е.                                   : Показания зонда НГК-60 аппаратуры ДРСТ-3-90 
OGZ                .ohmm                                   : Обращенный градиент-зонд 
PHIE               .v/v                                    : Описание 
PHIEN              .v/v                                    :  
PHIT               .v/v                                    : Описание 
PRMB               .мД                                     :  
PRMB_DGR           .мД                                     :  
RT                 .ohmm                                   : Description 
SOIL_ARCHIE        .v/v                                    :  
SOIL_DW            .v/v                                    :  
SP                 .мВ                                     : Потенциал самополяризации 
VSH_FIN            .v/v                                    : Описание 
VSH_GR             .v/v                                    : Shale volume 
VSH_SP             .v/v                                    : Shale Volume 
~Ascii
# ...
1177.6     0.217      676.407    -9999      -9999      10.531     1.231      2.272      2.973      1.583      1.28       1.516      0.684      0.489      1.319      1.389      0.1430401  0.1430401  0.3086375  1.249128   2.430095   1.516      0          0.3357598  72.41473   0.5018104  0.4514933  0.5521276 
1177.8     0.217      681.711    -9999      -9999      10.678     1.231      2.097      2.696      1.663      1.28       1.567      0.791      0.579      1.317      1.402      0.1279034  0.1279034  0.3089125  0.6549971  2.116843   1.567      0          0.3192696  73.42046   0.5485124  0.4776663  0.6193584 
1178       0.217      687.679    -9999      -9999      10.828     1.287      1.921      2.28       1.699      1.28       1.618      0.922      0.689      1.315      1.53       0.1183754  0.1183754  0.3091875  0.4362731  1.838786   1.618      0          0.3113889  73.85519   0.5782183  0.5059379  0.6504987 
1178.2     0.217      692.984    -9999      -9999      10.906     1.362      1.745      1.826      1.735      1.255      1.668      1.039      0.92       1.313      1.632      0.1140873  0.1140873  0.3094625  0.3633548  1.708949   1.668      0          0.3131875  74.02212   0.5920462  0.5212944  0.662798  
1178.4     0.217      699.615    -9999      -9999      10.884     1.329      1.657      1.537      1.717      1.228      1.719      1.123      1.085      1.309      1.759      0.1140677  0.1140677  0.3100125  0.3630521  1.744613   1.719      0          0.3241858  74.12704   0.5937721  0.5169165  0.6706277 
1178.6     0.217      704.257    -9999      -9999      10.835     1.248      1.607      1.386      1.672      1.216      1.718      1.026      1.354      1.306      1.835      0.1155601  0.1155601  0.310425   0.386911   1.826741   1.718      0          0.3276821  74.16797   0.5904998  0.5072974  0.6737022 
1178.8     0.218      709.562    -9999      -9999      10.784     1.168      1.557      1.461      1.622      1.202      1.637      0.988      1.462      1.303      1.861      0.1155041  0.1155041  0.3108375  0.3859879  1.916332   1.637      0          0.3117195  74.33489   0.5919195  0.4974758  0.6863632 
1179       0.224      692.984    -9999      -9999      10.732     1.088      1.507      1.549      1.528      1.185      1.556      1.038      1.433      1.292      1.772      0.1140482  0.1140482  0.31235    0.36275    2.012203   1.556      0          0.2930626  74.69282   0.6009145  0.4876573  0.7141718 
1179.2     0.232      655.851    -9999      -9999      10.632     1.007      1.457      1.776      1.433      1.207      1.517      1.058      1.452      1.277      1.67       0.1194242  0.1194242  0.3144125  0.4562309  2.210263   1.517      0          0.2986601  74.67074   0.5908735  0.469317   0.7124301 
1179.4     0.235      621.369    -9999      -9999      10.517     1.171      1.647      1.927      1.599      1.484      1.64       1.088      1.478      1.272      1.925      0.131732   0.131732   0.3151     0.7711765  2.462245   1.64       0          0.3499693  74.01466   0.5556607  0.4490767  0.6622447 
1179.6     0.235      588.214    -9999      -9999      10.335     1.482      2.007      2.028      2.045      1.94       1.887      1.048      1.397      1.264      2.562      0.1520092  0.1520092  0.3162     1.831204   2.92103    1.887      0.1436384  0.4268774  72.78759   0.4975479  0.4188131  0.5762827 
1179.8     0.229      550.418    -9999      -9999      10.11      1.381      2.367      1.927      2.476      2.423      2.44       1.014      1.328      1.263      3.161      0.1704177  0.1704177  0.3163375  4.015193   3.60805    2.44       0.3128671  0.5178688  71.56151   0.4421813  0.3842034  0.5001593 
1180       0.217      507.979    -9999      -9999      9.811      1.731      2.726      1.764      2.901      2.897      2.993      1.203      1.389      1.273      3.875      0.1833715  0.1833715  0.3149625  6.97658    4.77727    2.993      0.4142694  0.5759536  70.75143   0.3987607  0.3425961  0.4549254 
1180.2     0.216      482.118    -9999      -9999      9.562      2.494      3.086      1.713      3.326      3.36       3.545      1.294      1.419      1.28       4.079      0.1912681  0.1912681  0.314      9.770275   6.035336   3.545      0.4784994  0.6161616  70.32036   0.371915   0.3114066  0.4324234 
1180.4     0.212      486.097    -9999      -9999      9.36       3.257      3.445      1.499      3.647      3.434      4.098      1.573      1.278      1.306      4.397      0.1973994  0.1973994  0.310425   12.69034   7.295592   4.098      0.5260013  0.6450859  69.59229   0.3425019  0.2882025  0.3968014 
1180.6     0.212      500.022    -9999      -9999      9.25       2.7        3.543      1.36       3.551      3.284      3.801      1.425      1.294      1.328      4.703      0.197482   0.197482   0.3074     12.73515   8.08927    3.801      0.5091469  0.629389   69.44321   0.3330848  0.2763023  0.3898674 
1180.8     0.211      511.958    -9999      -9999      9.168      2.098      3.328      1.36       3.139      2.871      2.837      1.163      1.142      1.317      4.448      0.1981226  0.1981226  0.3089125  13.08787   8.736595   2.837      0.4385112  0.572831   69.73813   0.335727   0.267752   0.4037019 
1181       0.21       494.054    -9999      -9999      9.141      1.791      3.218      1.474      2.123      2.088      1.977      0.738      0.638      1.268      4.041      0.2013981  0.2013981  0.31565    15.05012   8.960881   1.977      0.3442416  0.4981591  70.22205   0.3462178  0.264995   0.4274406 
1181.2     0.21       464.214    -9999      -9999      9.211      1.495      3.113      1.814      1.666      1.82       1.797      0.963      0.658      1.254      3.62       0.1968678  0.1968678  0.317575   12.40586   8.39093    1.797      0.3004729  0.4706939  70.83398   0.3657795  0.2722022  0.4593567 
1181.4     0.21       432.386    -9999      -9999      9.396      1.488      2.898      2.217      1.424      1.863      1.852      0.936      0.778      1.261      3.212      0.1881845  0.1881845  0.3166125  8.566255   7.053143   1.852      0.282663   0.4681363  71.3179    0.3891758  0.2922074  0.4861443 
1181.6     0.21       415.808    -9999      -9999      9.658      2.412      3.419      2.469      2.066      2.053      2.355      0.977      0.92       1.255      4.308      0.1841221  0.1841221  0.3174375  7.203537   5.515192   2.355      0.3468537  0.524974   71.29583   0.4039861  0.3230801  0.4848921 
1181.8     0.21       432.386    -9999      -9999      9.864      3.335      4.041      2.582      1.834      2.202      2.857      0.83       0.778      1.234      5.698      0.1834303  0.1834303  0.320325   6.994102   4.545386   2.857      0.4015139  0.5704314  71.20975   0.4148325  0.3496279  0.480037  
1182       0.21       452.942    -9999      -9999      9.877      2.942      4.24       2.293      1.495      2.188      6.64       0.847      0.672      1.214      7.049      0.1933832  0.1933832  0.323075   10.69261   4.490249   6.64       0.6152343  0.7255016  70.36368   0.3930055  0.3513746  0.4346365 
1182.2     0.21       438.353    -9999      -9999      9.668      2.29       3.558      1.915      1.484      2.082      5.903      0.713      0.562      1.203      6.348      0.2122034  0.2122034  0.3245875  23.86055   5.463658   5.903      0.6249883  0.7203466  68.6936    0.3405578  0.324321   0.3567946 
1182.4     0.211      397.241    1          2          9.27       1.638      2.875      1.6        1.644      2.023      2.107      0.776      0.801      1.19       4.678      0.2337824  0.2337824  0.326375   59.89277   7.938797   2.107      0.4410598  0.5515875  66.70653   0.2805837  0.2784289  0.2827386 
1182.6     0.212      350.824    1          2          8.805      1.667      2.615      1.348      2.105      2.258      3.009      0.848      1.365      1.191      3.289      0.2519225  0.2519225  0.3262375  129.8298   12.2841    3.009      0.556926   0.6361613  64.33945   0.225197   0.2329694  0.2174245 
