~Version
 VERS              .         2.0                           : CWLS LOG ASCII STANDARD - VERSION 2.0
 WRAP              .         NO                            : ONE LINE PER DEPTH STEP
 DLM               .         SPACE                         : DELIMITING CHARACTER(SPACE TAB OR COMMA)
~Well Information
#_______________________________________________________________________________
#
#PARAMETER_NAME    .UNIT     VALUE                         : DESCRIPTION
#_______________________________________________________________________________
STRT               .M        980                           : First reference value
STOP               .M        1323                          : Last reference value
STEP               .M        0.2                           : Step increment
NULL               .         -9999                         : Missing value
COMP               .                                       : Company
WELL               .         5947                          : Well name
FLD                .         УЗЕНЬ                         : Field
LOC                .                                       : Location
CNTY               .                                       : County
STAT               .                                       : State
CTRY               .                                       : Country
SRVC               .                                       : Service Company
DATE               .         27.08.1986г                   : Date
UWI                .                                       : Unique Well ID
Block              .         4                             : 
Category           .         Нефтяная                      : 
Condition          .         В работе                      : 
EREF               .m        230.8                         : 100.8
Gorizont           .         15                            : 14
Interpretator      .         Кушнир И.Е.                   : 
Kupol              .         основной                      : osnovnoi
Mud                .                                       : 
Mud_density        .                                       : 
Mud_resistivity    .                                       : 
NGDU               .         НГДУ-1                        : 
ORIGINALWELLNAME   .         5947                          : 
Spud_date          .         1986                          : 1961
Viscosity          .                                       : 
X                  .m        54525.3                       : 46154
Y                  .m        81626                         : 85761.93
YEAR               .         2018г                         : 
~Parameter Information Block
#_______________________________________________________________________________
#
#PARAMETER_NAME    .UNIT     VALUE                         : DESCRIPTION
#_______________________________________________________________________________
SET                .         LQC_KAZNIPI_Petrel            : 
TLFamily_CALI      .         Caliper                       : 
TLFamily_CILD      .         Conductivity                  : 
TLFamily_COLL      .         Net Reservoir Flag            : 
TLFamily_CSAT      .         Fluid Code                    : 
TLFamily_DEPT      .         Measured Depth                : 
TLFamily_GR        .         Russian Gamma Ray             : 
TLFamily_GZ1       .         Gradient 045                  : 
TLFamily_GZ2       .         Gradient 105                  : 
TLFamily_GZ3       .         Gradient 225                  : 
TLFamily_GZ4       .         Gradient 425                  : 
TLFamily_GZ5       .         Gradient 850                  : 
TLFamily_LLS       .         Lateral Log Resistivity       : 
TLFamily_MINV      .         Micro Gradient Resistivity    : 
TLFamily_MNOR      .         Micro Resistivity             : 
TLFamily_NGLD      .         Neutron Gamma                 : 
TLFamily_OGZ       .         Gradient Inverted 225         : 
TLFamily_PHIE      .         Effective Porosity            : 
TLFamily_PHIEN     .         Effective Porosity            : 
TLFamily_PHIT      .         Porosity                      : 
TLFamily_PRMB      .         Permeability                  : 
TLFamily_PRMB_DGR  .         Permeability                  : 
TLFamily_RT        .         Formation Resistivity         : 
TLFamily_SOIL_ARCHIE .         Oil Saturation                : 
TLFamily_SOIL_DW   .         Oil Saturation                : 
TLFamily_SP        .         Spontaneous Potential         : 
TLFamily_VSH_FIN   .         Shale Volume                  : 
TLFamily_VSH_GR    .         Shale Volume                  : 
TLFamily_VSH_SP    .         Shale Volume                  : 
~Curve Information
#_______________________________________________________________________________
#
#LOGNAME           .UNIT     LOG_ID                        : DESCRIPTION
#_______________________________________________________________________________
DEPT               .M                                      : Колонка глубины 
CALI               .м                                      : Каверномер 
CILD               .мСм/м                                  : Индукционный каротаж 
COLL               .unitless                               : Описание 
CSAT               .unitless                               : Описание 
GR                 .uR/h                                   : Гамма каротаж 
GZ1                .ohmm                                   : Градиент-зонд  длиной 0.45м 
GZ2                .ohmm                                   : Градиент-зонд  длиной 1.05м 
GZ3                .ohmm                                   : Градиент-зонд  длиной 2.25м 
GZ4                .ohmm                                   : Градиент-зонд  длиной 4.5м 
GZ5                .ohmm                                   : Градиент-зонд  длиной 8.5м 
LLS                .Ohmm                                   : Боковой каротаж 
MINV               .Ohmm                                   : Микро-градиент зонд 
MNOR               .Ohmm                                   : Микро-потенциал зонд 
NGLD               .у.е.                                   : Показания зонда НГК-60 аппаратуры ДРСТ-3-90 
OGZ                .ohmm                                   : Обращенный градиент-зонд 
PHIE               .v/v                                    : Описание 
PHIEN              .v/v                                    :  
PHIT               .v/v                                    : Описание 
PRMB               .мД                                     :  
PRMB_DGR           .мД                                     :  
RT                 .ohmm                                   : Description 
SOIL_ARCHIE        .v/v                                    :  
SOIL_DW            .v/v                                    :  
SP                 .мВ                                     : Потенциал самополяризации 
VSH_FIN            .v/v                                    : Описание 
VSH_GR             .v/v                                    : Shale volume 
VSH_SP             .v/v                                    : Shale Volume 
~Ascii
# ...
1068.4     0.254      723.487    -9999      -9999      8.576      1.385      1.641      1.889      1.6        1.734      1.545      0.654      0.754      0.984      1.479      0.1523995  0.1523995  0.3547     1.861941   0.8856153  1.7        0.1026628  0.4385192  72.29031   0.6130319  0.681798   0.5442657 
1068.6     0.257      719.508    -9999      -9999      8.551      1.357      1.734      1.751      1.583      1.716      1.564      0.797      0.682      1.006      1.479      0.1482668  0.1482668  0.351675   1.561058   0.916169   1.708      0.0829403  0.4310532  72.54331   0.6163884  0.6724201  0.5603567 
1068.8     0.253      722.161    -9999      -9999      8.469      1.29       1.795      1.625      1.541      1.699      1.583      0.652      0.579      1.025      1.402      0.1505817  0.1505817  0.3490625  1.723042   1.023979   1.703      0.09398548 0.4308027  72.54331   0.6014571  0.6425574  0.5603567 
1069       0.247      728.792    -9999      -9999      8.457      1.223      1.758      1.499      1.514      1.681      1.614      0.61       0.47       1.04       1.415      0.1492217  0.1492217  0.347      1.625944   1.040787   1.69       0.08350825 0.4245509  72.54331   0.5993283  0.6382998  0.5603567 
1069.2     0.247      734.097    -9999      -9999      8.495      1.215      1.734      1.373      1.488      1.663      1.682      0.626      0.586      1.053      1.364      0.1451935  0.1451935  0.3452125  1.369285   0.9884887  1.68       0.05878444 0.4150756  72.54331   0.6061182  0.6518796  0.5603567 
1069.4     0.246      730.781    -9999      -9999      8.598      1.206      1.709      1.323      1.41       1.619      1.654      0.672      0.389      1.057      1.313      0.1383275  0.1383275  0.3446625  1.02169    0.8595728  1.686      0.01986435 0.405072   72.54331   0.6252576  0.6901583  0.5603567 
1069.6     0.245      724.813    -9999      -9999      8.679      1.281      1.608      1.297      1.375      1.571      1.623      0.624      0.62       1.053      1.313      0.1336511  0.1336511  0.3452125  0.8369525  0.7701158  1.698      0          0.4003642  72.54331   0.6410952  0.7218336  0.5603567 
1069.8     0.244      718.845    -9999      -9999      8.715      1.333      1.62       1.222      1.349      1.523      1.657      0.697      0.697      1.042      1.338      0.1341055  0.1341055  0.346725   0.8533323  0.7334055  1.709      0          0.404695   72.41631   0.6443014  0.7363743  0.5522285 
1070       0.244      715.53     -9999      -9999      8.641      1.305      1.59       1.26       1.323      1.475      1.724      0.773      0.609      1.03       1.44       0.1419497  0.1419497  0.348375   1.192371   0.8108609  1.715      0.04932246 0.4196196  72.29031   0.6255311  0.7067965  0.5442657 
1070.2     0.244      708.899    -9999      -9999      8.486      1.282      1.667      1.297      1.319      1.451      1.713      0.694      0.523      1.022      1.491      0.1519911  0.1519911  0.349475   1.829791   1.000632   1.729      0.1076743  0.4374662  72.35332   0.5984362  0.6486375  0.5482348 
1070.4     0.244      698.952    -9999      -9999      8.296      1.282      1.641      1.323      1.315      1.427      1.652      0.712      0.676      1.022      1.555      0.1652886  0.1652886  0.349475   3.226294   1.294868   1.749      0.1749976  0.4580294  72.10031   0.5581406  0.5838331  0.5324481 
1070.6     0.245      696.963    -9999      -9999      8.092      1.282      1.744      1.348      1.311      1.378      1.592      0.717      0.499      1.027      1.619      0.1768178  0.1768178  0.3487875  5.275378   1.707753   1.753      0.2228848  0.4717888  71.90932   0.5211202  0.5214435  0.5207969 
1070.8     0.244      700.278    -9999      -9999      7.899      1.263      1.763      1.398      1.297      1.33       1.572      0.771      0.609      1.031      1.632      0.1880912  0.1880912  0.3482375  8.532259   2.218929   1.746      0.2622278  0.4827843  71.59332   0.4852917  0.4685676  0.5020158 
1071       0.245      704.92     -9999      -9999      7.625      1.231      1.795      1.411      1.347      1.282      1.587      0.733      0.545      1.029      1.632      0.2004717  0.2004717  0.3485125  14.46706   3.218016   1.737      0.3003777  0.4945409  71.46632   0.4486085  0.402577   0.49464   
1071.2     0.245      714.203    -9999      -9999      7.288      1.318      1.795      1.423      1.343      1.237      1.533      0.721      0.565      1.029      1.632      0.212985   0.212985   0.3485125  24.66933   5.083391   1.718      0.3328821  0.5038791  71.33932   0.4106893  0.3340167  0.487362  
1071.4     0.243      724.15     -9999      -9999      6.845      1.167      1.795      1.423      1.34       1.203      1.519      0.775      0.615      1.032      1.632      0.2245664  0.2245664  0.3481     40.42702   9.272051   1.699      0.3596154  0.5113094  71.33932   0.3743444  0.2613268  0.487362  
1071.6     0.24       727.466    -9999      -9999      6.389      1.128      1.733      1.423      1.336      1.168      1.505      0.691      0.356      1.037      1.581      0.2335046  0.2335046  0.3474125  59.18749   17.21305   1.693      0.3799902  0.5175945  71.33932   0.3451754  0.2029889  0.487362  
1071.8     0.241      730.118    -9999      -9999      5.985      1.231      1.684      1.423      1.332      1.133      1.502      0.699      0.583      1.031      1.542      0.242231   0.242231   0.3482375  85.87453   29.77831   1.688      0.3986555  0.5247564  71.21232   0.3212317  0.1622825  0.480181  
1072       0.247      739.401    -9999      -9999      5.7        1.179      1.538      1.411      1.306      1.099      1.461      0.648      0.492      1.017      1.517      0.2480669  0.2480669  0.3501625  110.1434   43.83557   1.67       0.4080249  0.5283946  71.21232   0.3093807  0.1385803  0.480181  
1072.2     0.251      750.011    -9999      -9999      5.584      1.179      1.542      1.411      1.306      1.064      1.42       0.571      0.539      1.005      1.491      0.2511401  0.2511401  0.3518125  125.5688   51.30684   1.651      0.411186   0.5293938  71.21232   0.3050679  0.1299549  0.480181  
1072.4     0.25       757.968    -9999      -9999      5.563      1.179      1.59       1.373      1.297      1.03       1.475      0.54       0.407      1.002      1.491      0.2518006  0.2518006  0.352225   129.1564   52.78963   1.637      0.4101791  0.5282227  71.21232   0.3043164  0.1284518  0.480181  
1072.6     0.248      759.957    -9999      -9999      5.583      1.129      1.59       1.348      1.306      0.995      1.56       0.612      0.485      1.009      1.491      0.250602   0.250602   0.3512625  122.7198   51.37648   1.634      0.4072128  0.5260978  71.21232   0.305032   0.1298829  0.480181  
1072.8     0.244      745.369    -9999      -9999      5.585      1.077      1.538      1.323      1.333      0.995      1.679      0.639      0.44       1.011      1.581      0.2503032  0.2503032  0.3509875  121.166    51.23729   1.66       0.4109763  0.5293757  71.21232   0.3051039  0.1300269  0.480181  
1073       0.242      720.834    -9999      -9999      5.596      1.077      1.538      1.31       1.363      0.995      1.798      0.697      0.713      1.012      1.593      0.2476488  0.2476488  0.35085    108.197    50.47828   1.705      0.412897   0.5334737  71.46632   0.3127308  0.1308217  0.49464   
1073.2     0.239      700.278    -9999      -9999      5.634      1.077      1.538      1.31       1.421      0.995      1.917      0.876      0.617      1.013      1.593      0.2433622  0.2433622  0.3507125  90.11886   47.94184   1.746      0.4105103  0.5355519  71.84631   0.3253041  0.1336049  0.5170032 
1073.4     0.235      687.679    -9999      -9999      5.664      1.128      1.487      1.31       1.47       0.995      1.727      0.822      0.977      1.023      1.568      0.2384269  0.2384269  0.3493375  73.01336   46.02971   1.772      0.4040451  0.5340017  72.16331   0.3360928  0.1358439  0.5363416 
