~Version
 VERS              .         2.0                           : CWLS LOG ASCII STANDARD - VERSION 2.0
 WRAP              .         NO                            : ONE LINE PER DEPTH STEP
 DLM               .         SPACE                         : DELIMITING CHARACTER(SPACE TAB OR COMMA)
~Well Information
#_______________________________________________________________________________
#
#PARAMETER_NAME    .UNIT     VALUE                         : DESCRIPTION
#_______________________________________________________________________________
STRT               .M        980                           : First reference value
STOP               .M        1323                          : Last reference value
STEP               .M        0.2                           : Step increment
NULL               .         -9999                         : Missing value
COMP               .                                       : Company
WELL               .         5947                          : Well name
FLD                .         УЗЕНЬ                         : Field
LOC                .                                       : Location
CNTY               .                                       : County
STAT               .                                       : State
CTRY               .                                       : Country
SRVC               .                                       : Service Company
DATE               .         27.08.1986г                   : Date
UWI                .                                       : Unique Well ID
Block              .         4                             : 
Category           .         Нефтяная                      : 
Condition          .         В работе                      : 
EREF               .m        230.8                         : 100.8
Gorizont           .         15                            : 14
Interpretator      .         Кушнир И.Е.                   : 
Kupol              .         основной                      : osnovnoi
Mud                .                                       : 
Mud_density        .                                       : 
Mud_resistivity    .                                       : 
NGDU               .         НГДУ-1                        : 
ORIGINALWELLNAME   .         5947                          : 
Spud_date          .         1986                          : 1961
Viscosity          .                                       : 
X                  .m        54525.3                       : 46154
Y                  .m        81626                         : 85761.93
YEAR               .         2018г                         : 
~Parameter Information Block
#_______________________________________________________________________________
#
#PARAMETER_NAME    .UNIT     VALUE                         : DESCRIPTION
#_______________________________________________________________________________
SET                .         LQC_KAZNIPI_Petrel            : 
TLFamily_CALI      .         Caliper                       : 
TLFamily_CILD      .         Conductivity                  : 
TLFamily_COLL      .         Net Reservoir Flag            : 
TLFamily_CSAT      .         Fluid Code                    : 
TLFamily_DEPT      .         Measured Depth                : 
TLFamily_GR        .         Russian Gamma Ray             : 
TLFamily_GZ1       .         Gradient 045                  : 
TLFamily_GZ2       .         Gradient 105                  : 
TLFamily_GZ3       .         Gradient 225                  : 
TLFamily_GZ4       .         Gradient 425                  : 
TLFamily_GZ5       .         Gradient 850                  : 
TLFamily_LLS       .         Lateral Log Resistivity       : 
TLFamily_MINV      .         Micro Gradient Resistivity    : 
TLFamily_MNOR      .         Micro Resistivity             : 
TLFamily_NGLD      .         Neutron Gamma                 : 
TLFamily_OGZ       .         Gradient Inverted 225         : 
TLFamily_PHIE      .         Effective Porosity            : 
TLFamily_PHIEN     .         Effective Porosity            : 
TLFamily_PHIT      .         Porosity                      : 
TLFamily_PRMB      .         Permeability                  : 
TLFamily_PRMB_DGR  .         Permeability                  : 
TLFamily_RT        .         Formation Resistivity         : 
TLFamily_SOIL_ARCHIE .         Oil Saturation                : 
TLFamily_SOIL_DW   .         Oil Saturation                : 
TLFamily_SP        .         Spontaneous Potential         : 
TLFamily_VSH_FIN   .         Shale Volume                  : 
TLFamily_VSH_GR    .         Shale Volume                  : 
TLFamily_VSH_SP    .         Shale Volume                  : 
~Curve Information
#_______________________________________________________________________________
#
#LOGNAME           .UNIT     LOG_ID                        : DESCRIPTION
#_______________________________________________________________________________
DEPT               .M                                      : Колонка глубины 
CALI               .м                                      : Каверномер 
CILD               .мСм/м                                  : Индукционный каротаж 
COLL               .unitless                               : Описание 
CSAT               .unitless                               : Описание 
GR                 .uR/h                                   : Гамма каротаж 
GZ1                .ohmm                                   : Градиент-зонд  длиной 0.45м 
GZ2                .ohmm                                   : Градиент-зонд  длиной 1.05м 
GZ3                .ohmm                                   : Градиент-зонд  длиной 2.25м 
GZ4                .ohmm                                   : Градиент-зонд  длиной 4.5м 
GZ5                .ohmm                                   : Градиент-зонд  длиной 8.5м 
LLS                .Ohmm                                   : Боковой каротаж 
MINV               .Ohmm                                   : Микро-градиент зонд 
MNOR               .Ohmm                                   : Микро-потенциал зонд 
NGLD               .у.е.                                   : Показания зонда НГК-60 аппаратуры ДРСТ-3-90 
OGZ                .ohmm                                   : Обращенный градиент-зонд 
PHIE               .v/v                                    : Описание 
PHIEN              .v/v                                    :  
PHIT               .v/v                                    : Описание 
PRMB               .мД                                     :  
PRMB_DGR           .мД                                     :  
RT                 .ohmm                                   : Description 
SOIL_ARCHIE        .v/v                                    :  
SOIL_DW            .v/v                                    :  
SP                 .мВ                                     : Потенциал самополяризации 
VSH_FIN            .v/v                                    : Описание 
VSH_GR             .v/v                                    : Shale volume 
VSH_SP             .v/v                                    : Shale Volume 
~Ascii
# ...
1245.2     0.214      524.557    -9999      -9999      10.045     2          3.308      3.137      1.805      1.333      2.121      0.883      0.924      1.319      2.167      0.1632847  0.1632847  0.3086375  2.962013   3.175995   2.121      0.2489241  0.4733222  71.14085   0.440463   0.4047435  0.4761826 
1245.4     0.213      537.819    -9999      -9999      9.915      2          2.956      2.595      1.689      1.366      2.076      0.935      0.952      1.308      2.129      0.1650032  0.1650032  0.31015    3.187263   3.598897   2.076      0.2482142  0.4713998  71.47386   0.4398388  0.384602   0.4950755 
1245.6     0.213      554.396    -9999      -9999      9.818      1.888      2.707      2.255      1.693      1.384      1.908      0.892      0.975      1.292      2.192      0.1660114  0.1660114  0.31235    3.327301   3.950737   1.908      0.221985   0.4522926  71.84078   0.4434502  0.3702292  0.5166714 
1245.8     0.211      565.669    -9999      -9999      9.848      1.773      2.573      1.978      1.71       1.384      1.803      0.797      0.87       1.272      2.32       0.1562009  0.1562009  0.3151     2.189667   3.838395   1.803      0.1575111  0.4261163  72.96972   0.4815124  0.374616   0.5884088 
1246       0.211      571.637    -9999      -9999      10.01      1.658      2.439      1.852      1.719      1.436      1.819      0.907      0.864      1.25       2.473      0.1403873  0.1403873  0.318125   1.115505   3.284703   1.819      0.07925945 0.4084119  74.22464   0.5385991  0.3992193  0.6779788 
1246.2     0.211      574.289    -9999      -9999      10.218     1.63       2.305      1.927      1.713      1.453      1.895      0.793      0.706      1.239      2.604      0.1332528  0.1332528  0.3196375  0.8228558  2.689259   1.895      0.05479998 0.4107507  74.46558   0.5648021  0.4331924  0.6964117 
1246.4     0.211      574.289    -9999      -9999      10.334     1.73       2.171      2.104      1.633      1.479      1.874      0.892      1.235      1.23       2.74       0.1313134  0.1313134  0.320875   0.7575302  2.405415   1.874      0.03763324 0.4056855  74.45351   0.5744292  0.4533792  0.6954792 
1246.6     0.21       578.931    -9999      -9999      10.363     1.482      2.038      2.28       1.534      1.418      1.823      0.843      1.311      1.23       3.136      0.1376944  0.1376944  0.320875   0.994473   2.339263   1.823      0.0645607  0.4079506  73.87044   0.5550926  0.4585713  0.651614  
1246.8     0.211      567.658    -9999      -9999      10.248     1.181      1.982      2.343      1.442      1.384      1.801      0.8        1.366      1.229      3.403      0.1508825  0.1508825  0.3210125  1.745294   2.612789   1.801      0.1312526  0.4247258  73.03437   0.5155454  0.4383253  0.5927655 
1247       0.21       539.808    -9999      -9999      10.075     1.15       2.083      2.192      1.46       1.528      1.826      0.869      1.437      1.233      3.492      0.1614029  0.1614029  0.3204625  2.73358    3.085685   1.826      0.1860662  0.4427238  72.45131   0.4819987  0.4095393  0.554458  
1247.2     0.211      503.337    -9999      -9999      9.752      1.712      2.924      2.154      1.64       1.569      1.909      0.862      1.569      1.24       3.492      0.1889282  0.1889282  0.3195     8.842347   4.209596   1.909      0.3050247  0.4868884  70.28423   0.395672   0.360758   0.4305859 
1247.4     0.211      488.371    1          2          9.331      2.274      3.947      2.066      1.821      1.714      2.241      0.809      1.322      1.251      3.658      0.2190498  0.2190498  0.3179875  31.9516    6.310376   2.241      0.4333217  0.5528483  67.03917   0.2998111  0.3057912  0.293831  
1247.6     0.211      472.835    1          2          8.798      2.836      4.971      1.877      2.035      1.79       2.712      0.84       1.417      1.272      3.913      0.2419424  0.2419424  0.3151     84.82388   10.5352    2.712      0.5248169  0.6079386  63.28809   0.2216897  0.2480476  0.1953319 
1247.8     0.211      442.995    1          2          8.336      3.398      5.995      1.738      2.253      1.839      4.199      0.85       1.315      1.296      4.321      0.2537028  0.2537028  0.3118     140.0713   16.42782   4.199      0.6286228  0.6892852  59.66302   0.1760522  0.2068961  0.1452082 
1248       0.211      413.819    1          2          8.071      3.897      7.018      1.663      2.47       1.854      5.073      0.883      1.418      1.318      4.793      0.2575648  0.2575648  0.308775   165.1516   21.19567   5.073      0.6645983  0.7175456  56.16496   0.1551825  0.1864503  0.1239147 
1248.2     0.211      387.295    1          2          8.059      4.076      7.208      1.776      2.629      1.824      5.055      0.913      1.368      1.339      5.57       0.2551798  0.2551798  0.3058875  149.1789   21.44168   5.055      0.6613052  0.7143833  55.51889   0.1536597  0.1855739  0.1217455 
1248.4     0.211      374.696    1          2          8.168      3.931      7.028      1.978      2.653      1.799      4.633      0.958      1.402      1.365      6.348      0.2505138  0.2505138  0.3023125  122.259    19.30807   4.633      0.6414459  0.6972691  54.99882   0.1569659  0.1936886  0.1202431 
1248.6     0.21       362.097    1          2          8.258      3.786      6.876      2.179      2.664      1.816      4.212      0.838      1.433      1.386      6.454      0.246538   0.246538   0.299425   103.1906   17.70736   4.212      0.6197922  0.6785647  54.85975   0.1602636  0.2006557  0.1198716 
1248.8     0.21       349.498    1          2          8.288      3.641      6.91       2.381      2.64       1.842      3.929      0.895      1.295      1.39       6.552      0.2455735  0.2455735  0.298875   99.03179   17.20384   3.929      0.6058346  0.6662823  54.91068   0.1615198  0.2030332  0.1200063 
1249       0.211      340.878    1          2          8.347      3.496      6.943      2.444      2.698      1.894      3.951      0.868      1.383      1.381      6.131      0.2460033  0.2460033  0.3001125  100.8642   16.25497   3.951      0.6074644  0.6682493  54.96161   0.1639671  0.2077917  0.1201426 
1249.2     0.211      333.583    1          2          8.449      3.459      6.977      2.406      2.782      2.035      3.829      0.863      1.347      1.373      5.621      0.2456796  0.2456796  0.3012125  99.48105   14.73634   3.829      0.6011871  0.6635263  55.01254   0.1682815  0.2162827  0.1202804 
1249.4     0.211      324.963    1          2          8.608      3.499      7.01       2.494      2.944      2.188      3.686      0.914      1.278      1.37       5.455      0.2435888  0.2435888  0.301625   90.99432   12.64706   3.686      0.5909665  0.6560877  55.44447   0.1758672  0.2302158  0.1215185 
1249.6     0.21       317.669    1          2          8.771      3.534      6.855      2.721      3.001      2.214      3.874      0.843      1.451      1.363      5.685      0.2417413  0.2417413  0.3025875  84.09956   10.81231   3.874      0.5977458  0.6640709  56.00241   0.1843823  0.2454318  0.123333  
1249.8     0.209      314.354    1          2          8.943      3.371      6.537      3.099      3.095      2.23       4.023      0.841      1.404      1.346      5.94       0.2409013  0.2409013  0.304925   81.13984   9.164083   4.023      0.6036071  0.6713286  56.56033   0.1940113  0.2625796  0.125443  
1250       0.209      313.027    1          2          9.043      3.208      6.219      3.514      3.153      2.228      3.901      0.759      1.338      1.325      6.156      0.2417936  0.2417936  0.3078125  84.28732   8.323915   3.901      0.5991302  0.6685594  56.92727   0.2000572  0.273095   0.1270195 
1250.2     0.21       313.027    1          2          9.04       3.045      6.099      3.943      3.131      2.257      3.815      0.735      1.227      1.31       6.297      0.2434593  0.2434593  0.309875   90.49305   8.347964   3.815      0.5973296  0.6671015  57.4852    0.2012597  0.2727734  0.129746  
