~Version
 VERS              .         2.0                           : CWLS LOG ASCII STANDARD - VERSION 2.0
 WRAP              .         NO                            : ONE LINE PER DEPTH STEP
 DLM               .         SPACE                         : DELIMITING CHARACTER(SPACE TAB OR COMMA)
~Well Information
#_______________________________________________________________________________
#
#PARAMETER_NAME    .UNIT     VALUE                         : DESCRIPTION
#_______________________________________________________________________________
STRT               .M        964.4                         : First reference value
STOP               .M        1316                          : Last reference value
STEP               .M        0.2                           : Step increment
NULL               .         -9999                         : Missing value
COMP               .                                       : Company
WELL               .         5975                          : Well name
FLD                .         Узень                         : Field
LOC                .                                       : Location
CNTY               .         KAZAKHSTAN                    : County
STAT               .                                       : State
CTRY               .                                       : Country
SRVC               .         GIS COMPANY                   : Service Company
DATE               .         01.05.1986                    : Date
UWI                .         UZEN_5975                     : Unique Well ID
Block              .         4                             : 
Cartographic_reference_system .         GCS_WGS_1984                  : ESRI,PE_10_3_1- <?xml version="1.0" encoding="utf-16"?><ILateBoundCoordinateReferenceSystem name="GCS_WGS_1984"><AuthorityCode>EPSG,4326</AuthorityCode></ILateBoundCoordinateReferenceSystem>
Category           .         Нефтяная                      : 
Condition          .         В работе                      : 
EREF               .m        230.9                         : 100.8
Gorizont           .         15                            : 14
HZCS               .GCS_WGS_1984 WGS_1984_EASE-Grid_2.0_Global : ESRI,PE_10_3_1- <?xml version="1.0" encoding="utf-16"?><ILateBoundCoordinateReferenceSystem name="WGS_1984_EASE-Grid_2.0_Global"><AuthorityCode>EPSG,6933</AuthorityCode></ILateBoundCoordinateReferenceSystem>
Interpretator      .         Сагынбаева А.Н.               : 
Kupol              .         основной                      : osnovnoi
LATI               .dega     0.6383165337                  : GCS_WGS_1984
LONG               .dega     0.5634935854                  : GCS_WGS_1984
Mud                .         глинистый                     : 
Mud_density        .         1.18                          : 
Mud_resistivity    .         0                             : 
NGDU               .         НГДУ-1                        : 
ORIGINALWELLNAME   .         5975                          : 
Spud_date          .         1986                          : 1961
Viscosity          .         40                            : 
X                  .m        54369.4                       : 46154
Y                  .m        81430.5                       : 85761.93
YEAR               .         2018                          : 
~Parameter Information Block
#_______________________________________________________________________________
#
#PARAMETER_NAME    .UNIT     VALUE                         : DESCRIPTION
#_______________________________________________________________________________
SET                .         LQC_KAZNIPI_Petrel            : 
AVST               .DEGC     9999                          : Average Surface Temperature
BS                 .MM       9999                          : Диаметр долота
CABL               .         9999                          : Cable Tipe
CBD                .m        9999                          : 
CLEN               .KM       9999                          : Cable Length
DFD                .G/C3     9999                          : Drilling Fluid Density
DFV                .s        9999                          : Вязкость промывочной жидкости
DIRE               .         9999                          : Move Direction
EGL                .m        9999                          : Альтитуда поверхности земли
EKB                .m        9999                          : Альтитуда стола ротора
GSDD               .         CSAT                          : CSATкрив,0,DEPT,BOTTOM,,,,0
MT                 .         clay                          : Mud type
RMF                .OHMM     9999                          : Сопротивление фильтрата промывочной жидкости
SPEE               .M        9999                          : Speed
TDL                .m        9999                          : Полная глубина по каротажу
TLFamily_CALI      .         Caliper                       : 
TLFamily_CILD      .         Conductivity                  : 
TLFamily_COLL      .         Net Reservoir Flag            : 
TLFamily_CSAT      .         Fluid Code                    : 
TLFamily_DEPT      .         Measured Depth                : 
TLFamily_GR        .         Russian Gamma Ray             : 
TLFamily_GZ3       .         Gradient 225                  : 
TLFamily_LLS       .         Lateral Log Resistivity       : 
TLFamily_MINV      .         Micro Gradient Resistivity    : 
TLFamily_MNOR      .         Micro Resistivity             : 
TLFamily_NGLD      .         Neutron Gamma                 : 
TLFamily_OGZ       .         Gradient Inverted 225         : 
TLFamily_PHIE      .         Effective Porosity            : 
TLFamily_PHIEN     .         Effective Porosity            : 
TLFamily_PHIT      .         Porosity                      : 
TLFamily_PRMB      .         Permeability                  : 
TLFamily_PRMB_DGR  .         Permeability                  : 
TLFamily_RT        .         Formation Resistivity         : 
TLFamily_SOIL_ARCHIE .         Oil Saturation                : 
TLFamily_SOIL_DW   .         Oil Saturation                : 
TLFamily_SP        .         Spontaneous Potential         : 
TLFamily_VSH_FIN   .         Shale Volume                  : 
TLFamily_VSH_GR    .         Shale Volume                  : 
TLFamily_VSH_SP    .         Shale Volume                  : 
TOOL               .         9999                          : Tool Type
~Curve Information
#_______________________________________________________________________________
#
#LOGNAME           .UNIT     LOG_ID                        : DESCRIPTION
#_______________________________________________________________________________
DEPT               .M                                      : Колонка глубины 
CALI               .м                                      : Каверномер 
CILD               .мСм/м                                  : Индукционный каротаж 
COLL               .unitless                               : Описание 
CSAT               .unitless                               :  
GR                 .uR/h                                   : Гамма каротаж 
GZ3                .Ohmm                                   : Градиент-зонд  длиной 2.25м 
LLS                .Ohmm                                   : Боковой каротаж 
MINV               .Ohmm                                   : Микро-градиент зонд 
MNOR               .Ohmm                                   : Микро-потенциал зонд 
NGLD               .у.е.                                   : Показания зонда НГК-60 аппаратуры ДРСТ-3-90 
OGZ                .Ohmm                                   : Обращенный градиент-зонд 
PHIE               .v/v                                    : Описание 
PHIEN              .v/v                                    :  
PHIT               .v/v                                    : Описание 
PRMB               .mD                                     :  
PRMB_DGR           .mD                                     :  
RT                 .ohmm                                   : УЭС пласта 
SOIL_ARCHIE        .v/v                                    :  
SOIL_DW            .v/v                                    :  
SP                 .мВ                                     : Потенциал самополяризации 
VSH_FIN            .v/v                                    : Описание 
VSH_GR             .v/v                                    : Shale volume 
VSH_SP             .v/v                                    : Shale Volume 
~Ascii
# ...
1305.4     0.238      411.429    -9999      -9999      11.97884   1.572      1.931      1.762      0.886      1.593329   1.826      0.09999458 0.09999458 0.3327869  0.1992051  0.8147094  1.931      0          0.3778391  68.561     0.7054312  0.7054312  0.5035639 
1305.6     0.238      410.01     -9999      -9999      11.95351   1.623      1.974      1.461      0.937      1.593919   1.852      0.1019312  0.1019312  0.3325777  0.2163569  0.8333969  1.974      0          0.3884219  69.076     0.6989288  0.6989288  0.5219725 
1305.8     0.237      408.729    -9999      -9999      11.9693    1.7        2.017      1.796      0.987      1.597652   1.88       0.09927125 0.09927125 0.331253   0.1931535  0.821699   2.017      0          0.3878781  69.592     0.7029749  0.7029749  0.5410119 
1306       0.237      407.447    -9999      -9999      12.02308   1.752      2.011      1.28       0.955      1.608127   1.906      0.09094894 0.09094894 0.3275365  0.1354419  0.7830743  2.011      0          0.3638983  69.966     0.716932   0.716932   0.5551894 
1306.2     0.237      405        -9999      -9999      12.0847    1.829      1.982      1.616      0.831      1.621333   1.941      0.08087374 0.08087374 0.3228512  0.08813245 0.7410447  1.982      0          0.327743   70.234     0.733265   0.733265   0.5655462 
1306.4     0.237      403.714    -9999      -9999      12.14388   1.875      1.949      1.927      0.908      1.630315   -99999     0.07239446 0.07239446 0.3196644  0.06138738 0.702802   1.949      0          0.2932482  70.75      0.7493028  0.7493028  0.5859573 
1306.6     0.237      402.315    -9999      -9999      12.2146    1.85       1.942      1.53       0.875      1.630524   -99999     0.06584421 0.06584421 0.31959    0.04642506 0.6596853  1.942      0          0.2712119  71.254     0.7689267  0.7689267  0.6064992 
1306.8     0.238      401.033    -9999      -9999      12.29091   1.798      1.953      0.923      0.672      1.619972   -99999     0.06240898 0.06240898 0.3233338  0.04009809 0.6161178  1.953      0          0.2677994  71.499     0.7906812  0.7906812  0.6167038 
1307       0.239      398.466    -9999      -9999      12.3348    1.773      2.037      1.288      0.759      1.599366   -99999     0.06664496 0.06664496 0.330645   0.04803794 0.5923792  2.037      0          0.3077228  71.777     0.8        0.8        0.6284581 
1307.2     0.239      395.898    -9999      -9999      12.31001   1.723      2.144      0.939      0.739      1.574052   -99999     0.07687339 0.07687339 0.3396265  0.07430872 0.6056718  2.144      0          0.3656541  72.283     0.7962215  0.7962215  0.6503353 
1307.4     0.239      393.232    -9999      -9999      12.22387   1.696      2.24       1.378      0.852      1.553255   -99999     0.09239729 0.09239729 0.3470053  0.1440721  0.6542278  2.24       0          0.4231817  72.586     0.7715393  0.7715393  0.6637374 
1307.6     0.24       389.477    -9999      -9999      12.1332    1.67       2.31       1.726      0.857      1.543429   -99999     0.1041852  0.1041852  0.3504914  0.2381883  0.7095556  2.31       0          0.4579123  -9999      0.7463824  0.7463824  -9999     
1307.8     0.24       386.909    -9999      -9999      12.11662   1.648      2.254      1.571      0.824      1.544263   -99999     0.1053771  0.1053771  0.3501955  0.2506097  0.7201619  2.254      0          0.4530353  -9999      0.741874   0.741874   -9999     
1308       0.238      383.056    -9999      -9999      12.22538   1.669      2.173      1.507      1.052      1.551901   -99999     0.09273721 0.09273721 0.3474856  0.1461761  0.6533456  2.173      0          0.4156045  -9999      0.7719647  0.7719647  -9999     
1308.2     0.238      380.488    -9999      -9999      12.41719   -99999     2.195      1.721      0.937      1.56439    -99999     0.07905445 0.07905445 0.3430544  0.08155266 0.5502566  2.195      0          0.382769   -9999      0.8        0.8        -9999     
1308.4     0.237      377.921    -9999      -9999      12.54949   -99999     2.211      1.361      0.86       1.582682   -99999     0.07256429 0.07256429 0.3365643  0.06183363 0.4887908  2.211      0          0.3602137  -9999      0.8        0.8        -9999     
1308.6     0.236      374.067    -9999      -9999      12.49969   -99999     2.198      1.303      0.933      1.606208   -99999     0.06421737 0.06421737 0.3282174  0.04331312 0.5110753  2.198      0          0.3227556  -9999      0.8        0.8        -9999     
1308.8     0.235      371.5      -9999      -9999      12.28113   -99999     2.169      1.642      0.995      1.629058   -99999     0.06011665 0.06011665 0.3201103  0.03636338 0.6215357  2.169      0          0.2926601  -9999      0.7878596  0.7878596  -9999     
1309       0.235      368.864    -9999      -9999      12.00801   -99999     2.125      1.427      0.949      1.643931   -99999     0.07954596 0.07954596 0.3148334  0.08328029 0.7937129  2.125      0          0.3360561  -9999      0.7129924  0.7129924  -9999     
1309.2     0.235      365.079    -9999      -9999      11.76938   -99999     2.143      1.227      0.859      1.649842   -99999     0.09710415 0.09710415 0.3127362  0.1761013  0.9827526  2.143      0          0.3785743  -9999      0.6534305  0.6534305  -9999     
1309.4     0.235      362.511    -9999      -9999      11.58242   -99999     2.27       1.411      0.888      1.652215   -99999     0.110508   0.110508   0.3118941  0.3119136  1.161821   2.27       0          0.4220115  -9999      0.610261   0.610261   -9999     
1309.6     0.235      358.658    -9999      -9999      11.43163   -99999     2.345      1.605      1.018      1.653761   -99999     0.1207607  0.1207607  0.3113456  0.4829904  1.32975    2.345      0.08153225 0.4487184  -9999      0.5775302  0.5775302  -9999     
1309.8     0.235      356.09     -9999      -9999      11.2684    -99999     2.285      1.638      1.055      1.652206   -99999     0.1323526  0.1323526  0.3118973  0.7918608  1.538996   2.285      0.1416265  0.4608228  -9999      0.544075   0.544075   -9999     
1310       0.235      353.522    -9999      -9999      -9999      -99999     2.219      1.677      1.126      1.647424   -99999     -9999      -9999      0.3135939  -9999      -9999      2.219      -9999      -9999      -9999      -9999      -9999      -9999     
1310.2     0.24       349.669    -9999      -9999      -9999      -99999     2.214      1.381      1.021      1.643836   -99999     -9999      -9999      0.314867   -9999      -9999      2.214      -9999      -9999      -9999      -9999      -9999      -9999     
1310.4     0.246      347.143    -9999      -9999      -9999      -99999     2.214      1.313      0.778      1.64398    -99999     -9999      -9999      0.314816   -9999      -9999      2.214      -9999      -9999      -9999      -9999      -9999      -9999     
1310.6     0.25       345.857    -9999      -9999      -9999      -99999     2.198      1.275      1.209      1.645504   -99999     -9999      -9999      0.3142751  -9999      -9999      2.198      -9999      -9999      -9999      -9999      -9999      -9999     
1310.8     0.255      345.857    -9999      -9999      -9999      -99999     2.197      0.873      0.847      1.645577   -99999     -9999      -9999      0.3142492  -9999      -9999      2.197      -9999      -9999      -9999      -9999      -9999      -9999     
1311       0.256      345.857    -9999      -9999      -9999      -99999     2.26       1.008      0.765      1.643803   -99999     -9999      -9999      0.3148786  -9999      -9999      2.26       -9999      -9999      -9999      -9999      -9999      -9999     
1311.2     0.256      347.143    -9999      -9999      -9999      -99999     2.343      0.751      0.844      1.640814   -99999     -9999      -9999      0.3159392  -9999      -9999      2.343      -9999      -9999      -9999      -9999      -9999      -9999     
1311.4     0.256      345.834    -9999      -9999      -9999      -99999     2.448      0.9        0.889      1.63679    -99999     -9999      -9999      0.3173668  -9999      -9999      2.448      -9999      -9999      -9999      -9999      -9999      -9999     
