~Version
 VERS              .         2.0                           : CWLS LOG ASCII STANDARD - VERSION 2.0
 WRAP              .         NO                            : ONE LINE PER DEPTH STEP
 DLM               .         SPACE                         : DELIMITING CHARACTER(SPACE TAB OR COMMA)
~Well Information
#_______________________________________________________________________________
#
#PARAMETER_NAME    .UNIT     VALUE                         : DESCRIPTION
#_______________________________________________________________________________
STRT               .M        964.4                         : First reference value
STOP               .M        1316                          : Last reference value
STEP               .M        0.2                           : Step increment
NULL               .         -9999                         : Missing value
COMP               .                                       : Company
WELL               .         5975                          : Well name
FLD                .         Узень                         : Field
LOC                .                                       : Location
CNTY               .         KAZAKHSTAN                    : County
STAT               .                                       : State
CTRY               .                                       : Country
SRVC               .         GIS COMPANY                   : Service Company
DATE               .         01.05.1986                    : Date
UWI                .         UZEN_5975                     : Unique Well ID
Block              .         4                             : 
Cartographic_reference_system .         GCS_WGS_1984                  : ESRI,PE_10_3_1- <?xml version="1.0" encoding="utf-16"?><ILateBoundCoordinateReferenceSystem name="GCS_WGS_1984"><AuthorityCode>EPSG,4326</AuthorityCode></ILateBoundCoordinateReferenceSystem>
Category           .         Нефтяная                      : 
Condition          .         В работе                      : 
EREF               .m        230.9                         : 100.8
Gorizont           .         15                            : 14
HZCS               .GCS_WGS_1984 WGS_1984_EASE-Grid_2.0_Global : ESRI,PE_10_3_1- <?xml version="1.0" encoding="utf-16"?><ILateBoundCoordinateReferenceSystem name="WGS_1984_EASE-Grid_2.0_Global"><AuthorityCode>EPSG,6933</AuthorityCode></ILateBoundCoordinateReferenceSystem>
Interpretator      .         Сагынбаева А.Н.               : 
Kupol              .         основной                      : osnovnoi
LATI               .dega     0.6383165337                  : GCS_WGS_1984
LONG               .dega     0.5634935854                  : GCS_WGS_1984
Mud                .         глинистый                     : 
Mud_density        .         1.18                          : 
Mud_resistivity    .         0                             : 
NGDU               .         НГДУ-1                        : 
ORIGINALWELLNAME   .         5975                          : 
Spud_date          .         1986                          : 1961
Viscosity          .         40                            : 
X                  .m        54369.4                       : 46154
Y                  .m        81430.5                       : 85761.93
YEAR               .         2018                          : 
~Parameter Information Block
#_______________________________________________________________________________
#
#PARAMETER_NAME    .UNIT     VALUE                         : DESCRIPTION
#_______________________________________________________________________________
SET                .         LQC_KAZNIPI_Petrel            : 
AVST               .DEGC     9999                          : Average Surface Temperature
BS                 .MM       9999                          : Диаметр долота
CABL               .         9999                          : Cable Tipe
CBD                .m        9999                          : 
CLEN               .KM       9999                          : Cable Length
DFD                .G/C3     9999                          : Drilling Fluid Density
DFV                .s        9999                          : Вязкость промывочной жидкости
DIRE               .         9999                          : Move Direction
EGL                .m        9999                          : Альтитуда поверхности земли
EKB                .m        9999                          : Альтитуда стола ротора
GSDD               .         CSAT                          : CSATкрив,0,DEPT,BOTTOM,,,,0
MT                 .         clay                          : Mud type
RMF                .OHMM     9999                          : Сопротивление фильтрата промывочной жидкости
SPEE               .M        9999                          : Speed
TDL                .m        9999                          : Полная глубина по каротажу
TLFamily_CALI      .         Caliper                       : 
TLFamily_CILD      .         Conductivity                  : 
TLFamily_COLL      .         Net Reservoir Flag            : 
TLFamily_CSAT      .         Fluid Code                    : 
TLFamily_DEPT      .         Measured Depth                : 
TLFamily_GR        .         Russian Gamma Ray             : 
TLFamily_GZ3       .         Gradient 225                  : 
TLFamily_LLS       .         Lateral Log Resistivity       : 
TLFamily_MINV      .         Micro Gradient Resistivity    : 
TLFamily_MNOR      .         Micro Resistivity             : 
TLFamily_NGLD      .         Neutron Gamma                 : 
TLFamily_OGZ       .         Gradient Inverted 225         : 
TLFamily_PHIE      .         Effective Porosity            : 
TLFamily_PHIEN     .         Effective Porosity            : 
TLFamily_PHIT      .         Porosity                      : 
TLFamily_PRMB      .         Permeability                  : 
TLFamily_PRMB_DGR  .         Permeability                  : 
TLFamily_RT        .         Formation Resistivity         : 
TLFamily_SOIL_ARCHIE .         Oil Saturation                : 
TLFamily_SOIL_DW   .         Oil Saturation                : 
TLFamily_SP        .         Spontaneous Potential         : 
TLFamily_VSH_FIN   .         Shale Volume                  : 
TLFamily_VSH_GR    .         Shale Volume                  : 
TLFamily_VSH_SP    .         Shale Volume                  : 
TOOL               .         9999                          : Tool Type
~Curve Information
#_______________________________________________________________________________
#
#LOGNAME           .UNIT     LOG_ID                        : DESCRIPTION
#_______________________________________________________________________________
DEPT               .M                                      : Колонка глубины 
CALI               .м                                      : Каверномер 
CILD               .мСм/м                                  : Индукционный каротаж 
COLL               .unitless                               : Описание 
CSAT               .unitless                               :  
GR                 .uR/h                                   : Гамма каротаж 
GZ3                .Ohmm                                   : Градиент-зонд  длиной 2.25м 
LLS                .Ohmm                                   : Боковой каротаж 
MINV               .Ohmm                                   : Микро-градиент зонд 
MNOR               .Ohmm                                   : Микро-потенциал зонд 
NGLD               .у.е.                                   : Показания зонда НГК-60 аппаратуры ДРСТ-3-90 
OGZ                .Ohmm                                   : Обращенный градиент-зонд 
PHIE               .v/v                                    : Описание 
PHIEN              .v/v                                    :  
PHIT               .v/v                                    : Описание 
PRMB               .mD                                     :  
PRMB_DGR           .mD                                     :  
RT                 .ohmm                                   : УЭС пласта 
SOIL_ARCHIE        .v/v                                    :  
SOIL_DW            .v/v                                    :  
SP                 .мВ                                     : Потенциал самополяризации 
VSH_FIN            .v/v                                    : Описание 
VSH_GR             .v/v                                    : Shale volume 
VSH_SP             .v/v                                    : Shale Volume 
~Ascii
# ...
970.6      -9999      -9999      -9999      -9999      9.469493   -9999      3.776      1.078      1.511      1.60725    -9999      -9999      -9999      -9999      -9999      -9999      3.776      -9999      -9999      -9999      -9999      0.8        -9999     
970.8      -9999      -9999      -9999      -9999      9.153955   -9999      3.553      1.197      0.562      1.599162   -9999      -9999      -9999      -9999      -9999      -9999      3.553      -9999      -9999      -9999      -9999      0.4114329  -9999     
971        -9999      -9999      -9999      -9999      8.876429   -9999      2.816      0.356      0.64       1.572243   -9999      -9999      -9999      -9999      -9999      -9999      2.816      -9999      -9999      -9999      -9999      0.3049616  -9999     
971.2000000000001 -9999      -9999      -9999      -9999      8.797684   -9999      3.041      0.771      1.082      1.532878   -9999      -9999      -9999      -9999      -9999      -9999      3.041      -9999      -9999      -9999      -9999      0.3049616  -9999     
971.4      -9999      -9999      -9999      -9999      8.998395   -9999      3.019      0.826      1.064      1.488196   -9999      -9999      -9999      -9999      -9999      -9999      3.019      -9999      -9999      -9999      -9999      0.2918001  -9999     
971.6      -9999      -9999      -9999      -9999      9.43688    -9999      2.721      0.57       0.843      1.446027   -9999      -9999      -9999      -9999      -9999      -9999      2.721      -9999      -9999      -9999      -9999      0.5038017  -9999     
971.8      -9999      -9999      -9999      -9999      9.94403    -9999      2.784      0.319      0.626      1.415787   -9999      -9999      -9999      -9999      -9999      -9999      2.784      -9999      -9999      -9999      -9999      0.8        -9999     
972        0.226      -9999      -9999      -9999      10.30575   4.244      2.953      0.322      0.35       1.405034   4.141      -9999      -9999      -9999      -9999      -9999      2.953      -9999      -9999      80.44      -9999      0.8        0.8       
972.2000000000001 0.224      -9999      -9999      -9999      10.41364   4.219      2.734      0.298      0.44       1.413699   4.27       -9999      -9999      -9999      -9999      -9999      2.734      -9999      -9999      80.699     -9999      0.8        0.8       
972.4      0.231      -9999      -9999      -9999      10.34924   4.27       2.729      0.285      0.468      1.431506   4.065      -9999      -9999      -9999      -9999      -9999      2.729      -9999      -9999      80.958     -9999      0.8        0.8       
972.6      0.238      243        -9999      -9999      10.28076   4.321      2.723      0.296      0.429      1.44354    3.834      -9999      -9999      -9999      -9999      -9999      2.723      -9999      -9999      81.088     -9999      0.7758764  0.8       
972.8      0.237      245.568    -9999      -9999      10.29279   4.041      2.892      0.309      0.489      1.442991   4.113      -9999      -9999      -9999      -9999      -9999      2.892      -9999      -9999      81.088     -9999      0.8        0.8       
973        0.237      248.135    -9999      -9999      10.34168   3.758      3.246      0.309      0.501      1.437292   4.423      -9999      -9999      -9999      -9999      -9999      3.246      -9999      -9999      81.088     -9999      0.8        0.8       
973.2000000000001 0.243      250.703    -9999      -9999      10.33871   3.806      3.4        1.079      1.165      1.438704   4.297      -9999      -9999      -9999      -9999      -9999      3.4        -9999      -9999      80.961     -9999      0.8        0.8       
973.4      0.237      252        -9999      -9999      10.2257    3.96       3.146      0.876      0.974      1.453156   4.545      -9999      -9999      -9999      -9999      -9999      3.146      -9999      -9999      80.702     -9999      0.8        0.8       
973.6      0.234      252        -9999      -9999      9.992441   3.758      2.895      0.642      0.755      1.481484   5.264      -9999      -9999      -9999      -9999      -9999      2.895      -9999      -9999      80.444     -9999      0.8        0.8       
973.8      0.235      250.737    -9999      -9999      9.671538   3.805      3.163      1.471      1.042      1.525364   5.957      -9999      -9999      -9999      -9999      -9999      3.163      -9999      -9999      80.57      -9999      0.6447327  0.8       
974        0.235      249.455    -9999      -9999      9.309823   3.859      4.239      1.657      1.268      1.582755   6.477      -9999      -9999      -9999      -9999      -9999      4.239      -9999      -9999      80.574     -9999      0.5219697  0.8       
974.2000000000001 0.235      248.173    -9999      -9999      8.941699   3.682      4.74       1.757      0.925      1.643393   6.381      -9999      -9999      -9999      -9999      -9999      4.74       -9999      -9999      80.44      -9999      0.4994426  0.8       
974.4      0.233      245.606    -9999      -9999      8.60971    3.651      5.308      1.07       1.937      1.700814   7.345      -9999      -9999      -9999      -9999      -9999      5.308      -9999      -9999      80.186     -9999      0.3105156  0.8       
974.6      0.226      240.504    -9999      -9999      8.372052   3.711      5.297      1.952      1.789      1.76925    7.937      -9999      -9999      -9999      -9999      -9999      5.297      -9999      -9999      80.181     -9999      0.1946097  0.8       
974.8      0.223      234.125    -9999      -9999      8.228816   3.402      4.351      2.559      3.633      1.88595    8.477      -9999      -9999      -9999      -9999      -9999      4.351      -9999      -9999      79.928     -9999      0.2580302  0.8       
975        0.22       227.708    -9999      -9999      8.06586    3.069      3.374      2.405      2.875      2.089236   9.119      -9999      -9999      -9999      -9999      -9999      3.374      -9999      -9999      79.669     -9999      0.3542192  0.8       
975.2000000000001 0.224      216.295    -9999      -9999      7.743024   3.687      4.249      2.274      2.231      2.381047   9.755      -9999      -9999      -9999      -9999      -9999      4.249      -9999      -9999      79.411     -9999      0.2648453  0.8       
975.4      0.229      208.445    -9999      -9999      7.228205   4.329      6.939      2.543      1.574      2.703185   9.282      -9999      -9999      -9999      -9999      -9999      6.939      -9999      -9999      79.023     -9999      0.1442483  0.8       
975.6      0.234      198.227    6          6          6.608351   4.231      17.102     1.989      1.066      2.963597   8.261      0.01       0          0.01       0.004289259 4.150112   17.102     0          0          78.764     0.2906061  0.3628605  0.2183516 
975.8      0.232      189.242    6          6          5.990019   3.794      28.812     0.834      2.204      3.093171   7.361      0.01       0          0.01       0.004289259 6.807722   28.812     0          0          78.505     0.2556391  0.2964638  0.2148144 
976        0.224      181.479    6          6          5.428532   3.576      32.226     3.04       3.043      3.075134   7.565      0.01       0          0.01       0.004289259 10.67047   32.226     0          0          77.754     0.2259063  0.2467587  0.2050539 
976.2000000000001 0.217      172.49     6          6          4.939722   4.107      36.359     3.871      3.196      2.9368     8.216      0.01       0          0.01       0.004289259 15.77982   36.359     0          0          76.969     0.2029694  0.2103242  0.1956145 
976.4      0.215      163.573    6          6          4.533007   5.488      14.881     3.871      3.833      2.733957   8.002      0.01       0          0.01       0.004289259 21.85155   14.881     0          0          76.193     0.1855805  0.1841445  0.1870165 
976.6      0.214      155.798    6          6          4.215312   7.847      7.454      3.859      3.814      2.526938   7.138      0.01       0          0.01       0.004289259 28.17852   7.454      0          0          75.288     0.1719242  0.1659832  0.1778653 
