~Version
 VERS              .         2.0                           : CWLS LOG ASCII STANDARD - VERSION 2.0
 WRAP              .         NO                            : ONE LINE PER DEPTH STEP
 DLM               .         SPACE                         : DELIMITING CHARACTER(SPACE TAB OR COMMA)
~Well Information
#_______________________________________________________________________________
#
#PARAMETER_NAME    .UNIT     VALUE                         : DESCRIPTION
#_______________________________________________________________________________
STRT               .M        964.4                         : First reference value
STOP               .M        1316                          : Last reference value
STEP               .M        0.2                           : Step increment
NULL               .         -9999                         : Missing value
COMP               .                                       : Company
WELL               .         5975                          : Well name
FLD                .         Узень                         : Field
LOC                .                                       : Location
CNTY               .         KAZAKHSTAN                    : County
STAT               .                                       : State
CTRY               .                                       : Country
SRVC               .         GIS COMPANY                   : Service Company
DATE               .         01.05.1986                    : Date
UWI                .         UZEN_5975                     : Unique Well ID
Block              .         4                             : 
Cartographic_reference_system .         GCS_WGS_1984                  : ESRI,PE_10_3_1- <?xml version="1.0" encoding="utf-16"?><ILateBoundCoordinateReferenceSystem name="GCS_WGS_1984"><AuthorityCode>EPSG,4326</AuthorityCode></ILateBoundCoordinateReferenceSystem>
Category           .         Нефтяная                      : 
Condition          .         В работе                      : 
EREF               .m        230.9                         : 100.8
Gorizont           .         15                            : 14
HZCS               .GCS_WGS_1984 WGS_1984_EASE-Grid_2.0_Global : ESRI,PE_10_3_1- <?xml version="1.0" encoding="utf-16"?><ILateBoundCoordinateReferenceSystem name="WGS_1984_EASE-Grid_2.0_Global"><AuthorityCode>EPSG,6933</AuthorityCode></ILateBoundCoordinateReferenceSystem>
Interpretator      .         Сагынбаева А.Н.               : 
Kupol              .         основной                      : osnovnoi
LATI               .dega     0.6383165337                  : GCS_WGS_1984
LONG               .dega     0.5634935854                  : GCS_WGS_1984
Mud                .         глинистый                     : 
Mud_density        .         1.18                          : 
Mud_resistivity    .         0                             : 
NGDU               .         НГДУ-1                        : 
ORIGINALWELLNAME   .         5975                          : 
Spud_date          .         1986                          : 1961
Viscosity          .         40                            : 
X                  .m        54369.4                       : 46154
Y                  .m        81430.5                       : 85761.93
YEAR               .         2018                          : 
~Parameter Information Block
#_______________________________________________________________________________
#
#PARAMETER_NAME    .UNIT     VALUE                         : DESCRIPTION
#_______________________________________________________________________________
SET                .         LQC_KAZNIPI_Petrel            : 
AVST               .DEGC     9999                          : Average Surface Temperature
BS                 .MM       9999                          : Диаметр долота
CABL               .         9999                          : Cable Tipe
CBD                .m        9999                          : 
CLEN               .KM       9999                          : Cable Length
DFD                .G/C3     9999                          : Drilling Fluid Density
DFV                .s        9999                          : Вязкость промывочной жидкости
DIRE               .         9999                          : Move Direction
EGL                .m        9999                          : Альтитуда поверхности земли
EKB                .m        9999                          : Альтитуда стола ротора
GSDD               .         CSAT                          : CSATкрив,0,DEPT,BOTTOM,,,,0
MT                 .         clay                          : Mud type
RMF                .OHMM     9999                          : Сопротивление фильтрата промывочной жидкости
SPEE               .M        9999                          : Speed
TDL                .m        9999                          : Полная глубина по каротажу
TLFamily_CALI      .         Caliper                       : 
TLFamily_CILD      .         Conductivity                  : 
TLFamily_COLL      .         Net Reservoir Flag            : 
TLFamily_CSAT      .         Fluid Code                    : 
TLFamily_DEPT      .         Measured Depth                : 
TLFamily_GR        .         Russian Gamma Ray             : 
TLFamily_GZ3       .         Gradient 225                  : 
TLFamily_LLS       .         Lateral Log Resistivity       : 
TLFamily_MINV      .         Micro Gradient Resistivity    : 
TLFamily_MNOR      .         Micro Resistivity             : 
TLFamily_NGLD      .         Neutron Gamma                 : 
TLFamily_OGZ       .         Gradient Inverted 225         : 
TLFamily_PHIE      .         Effective Porosity            : 
TLFamily_PHIEN     .         Effective Porosity            : 
TLFamily_PHIT      .         Porosity                      : 
TLFamily_PRMB      .         Permeability                  : 
TLFamily_PRMB_DGR  .         Permeability                  : 
TLFamily_RT        .         Formation Resistivity         : 
TLFamily_SOIL_ARCHIE .         Oil Saturation                : 
TLFamily_SOIL_DW   .         Oil Saturation                : 
TLFamily_SP        .         Spontaneous Potential         : 
TLFamily_VSH_FIN   .         Shale Volume                  : 
TLFamily_VSH_GR    .         Shale Volume                  : 
TLFamily_VSH_SP    .         Shale Volume                  : 
TOOL               .         9999                          : Tool Type
~Curve Information
#_______________________________________________________________________________
#
#LOGNAME           .UNIT     LOG_ID                        : DESCRIPTION
#_______________________________________________________________________________
DEPT               .M                                      : Колонка глубины 
CALI               .м                                      : Каверномер 
CILD               .мСм/м                                  : Индукционный каротаж 
COLL               .unitless                               : Описание 
CSAT               .unitless                               :  
GR                 .uR/h                                   : Гамма каротаж 
GZ3                .Ohmm                                   : Градиент-зонд  длиной 2.25м 
LLS                .Ohmm                                   : Боковой каротаж 
MINV               .Ohmm                                   : Микро-градиент зонд 
MNOR               .Ohmm                                   : Микро-потенциал зонд 
NGLD               .у.е.                                   : Показания зонда НГК-60 аппаратуры ДРСТ-3-90 
OGZ                .Ohmm                                   : Обращенный градиент-зонд 
PHIE               .v/v                                    : Описание 
PHIEN              .v/v                                    :  
PHIT               .v/v                                    : Описание 
PRMB               .mD                                     :  
PRMB_DGR           .mD                                     :  
RT                 .ohmm                                   : УЭС пласта 
SOIL_ARCHIE        .v/v                                    :  
SOIL_DW            .v/v                                    :  
SP                 .мВ                                     : Потенциал самополяризации 
VSH_FIN            .v/v                                    : Описание 
VSH_GR             .v/v                                    : Shale volume 
VSH_SP             .v/v                                    : Shale Volume 
~Ascii
# ...
1193.8     0.218      330.761    8          2          10.47954   2.315      3.074      1.343      1.265      1.541659   2.808      0.2103663  0.2103663  0.3511195  22.06236   1.959435   3.074      0.4939139  0.6339923  78.815     0.360072   0.4929778  0.3600719 
1194       0.217      323.058    8          2          10.32416   2.364      3.469      1.21       1.434      1.569713   2.83       0.2068519  0.2068519  0.3411659  18.99137   2.270198   3.469      0.5147558  0.647105   78.509     0.349807   0.4642175  0.3498072 
1194.2     0.218      317.261    8          2          10.23444   2.416      3.37       1.107      1.377      1.583977   2.855      0.1996142  0.1996142  0.336105   13.94756   2.471624   3.37       0.4926205  0.6335315  79.352     0.378837   0.4483801  0.3788369 
1194.4     0.218      314.694    8          2          10.19217   2.444      3.07       1.153      1.258      1.593632   2.683      0.1875293  0.1875293  0.3326794  8.330197   2.57262    3.07       0.4402986  0.6039121  80.902     0.438591   0.4411072  0.4385906 
1194.6     0.217      317.193    -9999      -9999      10.22317   2.349      3.359      1.149      1.166      1.600844   2.48       0.176341   0.176341   0.3301207  5.169171   2.498155   3.359      0.4339044  0.6101984  81.986     0.485569   0.4464295  0.4855686 
1194.8     0.216      324.598    -9999      -9999      10.35537   2.171      3.435      1.007      1.154      1.601718   2.274      0.169227   0.169227   0.3298104  3.816397   2.204062   3.435      0.4193617  0.6080486  82.372     0.503377   0.4698556  0.5033765 
1195       0.226      331.313    -9999      -9999      10.55934   2.038      3.203      1.347      1.294      1.592607   2.069      0.1630595  0.1630595  0.3330429  2.933705   1.816744   3.203      0.3802736  0.5906714  82.758     0.521767   0.5084355  0.521767  
1195.2     0.235      337.731    -9999      -9999      10.74836   1.935      2.734      1.708      1.449      1.574146   2.024      0.1590441  0.1590441  0.339593   2.47196    1.518864   2.734      0.3178232  0.5580324  83.273     0.547227   0.5470084  0.5472273 
1195.4     0.234      345.434    -9999      -9999      10.83481   2.001      2.412      1.058      0.893      1.551551   2.201      0.1596124  0.1596124  0.3476098  2.532599   1.399412   2.412      0.27875    0.5368352  83.788     0.5696892  0.5656134  0.5737649 
1195.6     0.234      351.851    -9999      -9999      10.80117   2.078      1.949      1.174      0.957      1.532526   2.358      0.1597202  0.1597202  0.3543597  2.544272   1.444729   1.949      0.2033493  0.4909978  84.662     0.5898165  0.5583005  0.6213326 
1195.8     0.227      359.274    -9999      -9999      10.70594   2.251      1.925      1.316      1.267      1.523581   2.534      0.1644584  0.1644584  0.3575334  3.114057   1.581149   1.925      0.2188484  0.4962748  84.851     0.5850757  0.5381048  0.6320465 
1196       0.222      364.409    -9999      -9999      10.62697   2.408      2.027      1.225      1.039      1.526976   2.669      0.1647136  0.1647136  0.3563289  3.148141   1.703984   2.027      0.2385762  0.5083743  84.979     0.5806522  0.5219142  0.6393902 
1196.2     0.219      369.545    -9999      -9999      10.59641   2.492      2.164      1.546      1.283      1.539878   2.675      0.1667367  0.1667367  0.3517514  3.431839   1.754043   2.164      0.2693992  0.5225993  84.378     0.5606504  0.5157799  0.605521  
1196.4     0.217      374.68     -9999      -9999      10.59764   2.351      2.166      1.154      1.31       1.555858   2.557      0.1667684  0.1667684  0.3460815  3.436481   1.752008   2.166      0.2698367  0.5180494  83.73      0.543373   0.5160244  0.5707217 
1196.6     0.216      378.265    -9999      -9999      10.60619   2.056      2.121      1.304      1.028      1.570938   2.403      0.1656686  0.1656686  0.3407314  3.279005   1.73787    2.121      0.2583458  0.5070181  83.194     0.5304933  0.5177345  0.5432522 
1196.8     0.215      380.571    -9999      -9999      10.60326   1.933      2.044      0.941      0.83       1.587577   2.293      0.1650932  0.1650932  0.3348277  3.199514   1.742701   2.044      0.2430733  0.4917145  82.545     0.514347   0.517148   0.5115461 
1197       0.215      380.571    -9999      -9999      10.57384   1.907      1.957      1.362      1.141      1.606921   2.315      0.1641533  0.1641533  0.3279645  3.073802   1.791955   1.957      0.2236141  0.4727372  81.896     0.4963976  0.5112958  0.4814994 
1197.2     0.215      380.571    -9999      -9999      10.53905   1.977      1.985      1.482      1.479      1.622226   2.363      0.1636239  0.1636239  0.3225342  3.005178   1.852016   1.985      0.2265998  0.4704293  81.377     0.4815463  0.504459   0.4586337 
1197.4     0.214      379.036    -9999      -9999      10.55388   2.076      2.166      1.349      1.294      1.625931   2.414      0.1603821  0.1603821  0.3212197  2.617116   1.826175   2.166      0.244578   0.4878088  81.579     0.487387   0.5073617  0.4674122 
1197.6     0.215      376.223    -9999      -9999      10.6274    2.066      2.507      1.13       1.01       1.62106    2.349      0.1587712  0.1587712  0.322948   2.443348   1.70329    2.507      0.2884397  0.5236244  81.706     0.4975055  0.522001   0.47301   
1197.8     0.215      372.373    -9999      -9999      10.66652   2.01       2.599      1.315      1.371      1.619044   2.293      0.1579018  0.1579018  0.3236632  2.354416   1.641309   2.599      0.297019   0.5317773  81.743     0.5023071  0.5299619  0.4746522 
1198       0.216      365.714    -9999      -9999      10.56336   1.959      2.487      1.651      1.835      1.627951   2.347      0.1634078  0.1634078  0.3205029  2.977602   1.809847   2.487      0.3034437  0.524811   81.005     0.4760459  0.5092258  0.4428659 
1198.2     0.217      358.011    -9999      -9999      10.34109   1.977      2.296      1.67       1.433      1.64809    2.651      0.1691864  0.1691864  0.3133577  3.809784   2.234091   2.296      0.2983888  0.5053847  80.097     0.4368829  0.4672666  0.4064993 
1198.4     0.217      350.308    -9999      -9999      10.15761   2.024      2.246      1.285      0.905      1.675433   2.933      0.1695272  0.1695272  0.3036564  3.865564   2.65825    2.246      0.2923435  0.490714   79.319     0.4064523  0.4352487  0.3776558 
1198.6     0.217      342.605    -9999      -9999      10.13563   2.397      2.216      2.07       2.149      1.705954   3.177      0.1637268  0.1637268  0.2928276  3.018393   2.714192   2.216      0.2659402  0.4686338  78.541     0.3912146  0.431563   0.3508662 
1198.8     0.217      334.902    8          2          10.22206   2.829      2.429      1.2        1.462      1.735589   3.284      0.1554236  0.1554236  0.2823129  2.118268   2.500782   2.429      0.2642784  0.4703252  77.656     0.3845128  0.446238   0.3227877 
1199       0.216      327.638    8          2          10.23736   3.069      2.826      1.563      1.547      1.757724   3.259      0.1509745  0.1509745  0.2744595  1.752152   2.464788   2.826      0.2971741  0.4947199  76.856     0.3741972  0.4488875  0.2995069 
1199.2     0.216      325.07     8          2          10.07267   3.152      3.52       1.752      1.725      1.765591   2.981      0.1561852  0.1561852  0.2716685  2.188203   2.881014   3.52       0.3844559  0.5505641  76.079     0.3499492  0.4211788  0.2787196 
1199.4     0.216      322.926    8          2          9.804532   2.904      3.712      1.244      1.377      1.75807    2.698      0.1688517  0.1688517  0.2743367  3.755792   3.714318   3.712      0.4390292  0.5783142  75.301     0.3196514  0.3796763  0.2596265 
1199.6     0.216      324.208    8          2          9.610189   2.647      2.741      1.421      1.821      1.742165   2.42       0.1823639  0.1823639  0.2799798  6.683121   4.465254   2.741      0.3951846  0.5301098  74.394     0.2958059  0.3521765  0.2394354 
1199.8     0.216      328.674    8          2          9.587139   2.369      2.539      1.303      1.206      1.725316   2.159      0.19042    0.19042    0.285958   9.423189   4.563843   2.539      0.3962278  0.5262898  73.932     0.289509   0.3490498  0.2299682 
