~Version
 VERS              .         2.0                           : CWLS LOG ASCII STANDARD - VERSION 2.0
 WRAP              .         NO                            : ONE LINE PER DEPTH STEP
 DLM               .         SPACE                         : DELIMITING CHARACTER(SPACE TAB OR COMMA)
~Well Information
#_______________________________________________________________________________
#
#PARAMETER_NAME    .UNIT     VALUE                         : DESCRIPTION
#_______________________________________________________________________________
STRT               .M        964.4                         : First reference value
STOP               .M        1316                          : Last reference value
STEP               .M        0.2                           : Step increment
NULL               .         -9999                         : Missing value
COMP               .                                       : Company
WELL               .         5975                          : Well name
FLD                .         Узень                         : Field
LOC                .                                       : Location
CNTY               .         KAZAKHSTAN                    : County
STAT               .                                       : State
CTRY               .                                       : Country
SRVC               .         GIS COMPANY                   : Service Company
DATE               .         01.05.1986                    : Date
UWI                .         UZEN_5975                     : Unique Well ID
Block              .         4                             : 
Cartographic_reference_system .         GCS_WGS_1984                  : ESRI,PE_10_3_1- <?xml version="1.0" encoding="utf-16"?><ILateBoundCoordinateReferenceSystem name="GCS_WGS_1984"><AuthorityCode>EPSG,4326</AuthorityCode></ILateBoundCoordinateReferenceSystem>
Category           .         Нефтяная                      : 
Condition          .         В работе                      : 
EREF               .m        230.9                         : 100.8
Gorizont           .         15                            : 14
HZCS               .GCS_WGS_1984 WGS_1984_EASE-Grid_2.0_Global : ESRI,PE_10_3_1- <?xml version="1.0" encoding="utf-16"?><ILateBoundCoordinateReferenceSystem name="WGS_1984_EASE-Grid_2.0_Global"><AuthorityCode>EPSG,6933</AuthorityCode></ILateBoundCoordinateReferenceSystem>
Interpretator      .         Сагынбаева А.Н.               : 
Kupol              .         основной                      : osnovnoi
LATI               .dega     0.6383165337                  : GCS_WGS_1984
LONG               .dega     0.5634935854                  : GCS_WGS_1984
Mud                .         глинистый                     : 
Mud_density        .         1.18                          : 
Mud_resistivity    .         0                             : 
NGDU               .         НГДУ-1                        : 
ORIGINALWELLNAME   .         5975                          : 
Spud_date          .         1986                          : 1961
Viscosity          .         40                            : 
X                  .m        54369.4                       : 46154
Y                  .m        81430.5                       : 85761.93
YEAR               .         2018                          : 
~Parameter Information Block
#_______________________________________________________________________________
#
#PARAMETER_NAME    .UNIT     VALUE                         : DESCRIPTION
#_______________________________________________________________________________
SET                .         LQC_KAZNIPI_Petrel            : 
AVST               .DEGC     9999                          : Average Surface Temperature
BS                 .MM       9999                          : Диаметр долота
CABL               .         9999                          : Cable Tipe
CBD                .m        9999                          : 
CLEN               .KM       9999                          : Cable Length
DFD                .G/C3     9999                          : Drilling Fluid Density
DFV                .s        9999                          : Вязкость промывочной жидкости
DIRE               .         9999                          : Move Direction
EGL                .m        9999                          : Альтитуда поверхности земли
EKB                .m        9999                          : Альтитуда стола ротора
GSDD               .         CSAT                          : CSATкрив,0,DEPT,BOTTOM,,,,0
MT                 .         clay                          : Mud type
RMF                .OHMM     9999                          : Сопротивление фильтрата промывочной жидкости
SPEE               .M        9999                          : Speed
TDL                .m        9999                          : Полная глубина по каротажу
TLFamily_CALI      .         Caliper                       : 
TLFamily_CILD      .         Conductivity                  : 
TLFamily_COLL      .         Net Reservoir Flag            : 
TLFamily_CSAT      .         Fluid Code                    : 
TLFamily_DEPT      .         Measured Depth                : 
TLFamily_GR        .         Russian Gamma Ray             : 
TLFamily_GZ3       .         Gradient 225                  : 
TLFamily_LLS       .         Lateral Log Resistivity       : 
TLFamily_MINV      .         Micro Gradient Resistivity    : 
TLFamily_MNOR      .         Micro Resistivity             : 
TLFamily_NGLD      .         Neutron Gamma                 : 
TLFamily_OGZ       .         Gradient Inverted 225         : 
TLFamily_PHIE      .         Effective Porosity            : 
TLFamily_PHIEN     .         Effective Porosity            : 
TLFamily_PHIT      .         Porosity                      : 
TLFamily_PRMB      .         Permeability                  : 
TLFamily_PRMB_DGR  .         Permeability                  : 
TLFamily_RT        .         Formation Resistivity         : 
TLFamily_SOIL_ARCHIE .         Oil Saturation                : 
TLFamily_SOIL_DW   .         Oil Saturation                : 
TLFamily_SP        .         Spontaneous Potential         : 
TLFamily_VSH_FIN   .         Shale Volume                  : 
TLFamily_VSH_GR    .         Shale Volume                  : 
TLFamily_VSH_SP    .         Shale Volume                  : 
TOOL               .         9999                          : Tool Type
~Curve Information
#_______________________________________________________________________________
#
#LOGNAME           .UNIT     LOG_ID                        : DESCRIPTION
#_______________________________________________________________________________
DEPT               .M                                      : Колонка глубины 
CALI               .м                                      : Каверномер 
CILD               .мСм/м                                  : Индукционный каротаж 
COLL               .unitless                               : Описание 
CSAT               .unitless                               :  
GR                 .uR/h                                   : Гамма каротаж 
GZ3                .Ohmm                                   : Градиент-зонд  длиной 2.25м 
LLS                .Ohmm                                   : Боковой каротаж 
MINV               .Ohmm                                   : Микро-градиент зонд 
MNOR               .Ohmm                                   : Микро-потенциал зонд 
NGLD               .у.е.                                   : Показания зонда НГК-60 аппаратуры ДРСТ-3-90 
OGZ                .Ohmm                                   : Обращенный градиент-зонд 
PHIE               .v/v                                    : Описание 
PHIEN              .v/v                                    :  
PHIT               .v/v                                    : Описание 
PRMB               .mD                                     :  
PRMB_DGR           .mD                                     :  
RT                 .ohmm                                   : УЭС пласта 
SOIL_ARCHIE        .v/v                                    :  
SOIL_DW            .v/v                                    :  
SP                 .мВ                                     : Потенциал самополяризации 
VSH_FIN            .v/v                                    : Описание 
VSH_GR             .v/v                                    : Shale volume 
VSH_SP             .v/v                                    : Shale Volume 
~Ascii
# ...
1150.4     0.215      324        -9999      -9999      10.94137   2.295      3.105      2.445      2.547      1.706144   4.133      0.1623024  0.1623024  0.2927603  2.840479   1.028566   3.105      0.359709   0.5433462  90.082     0.3953269  0.6413859  0.3953269 
1150.6     0.215      325.286    -9999      -9999      10.70678   2.475      2.548      1.406      1.592      1.709334   3.979      0.1744524  0.1744524  0.2916284  4.769132   1.291245   2.548      0.3402746  0.5089735  88.947     0.3550788  0.5845014  0.3550788 
1150.8     0.217      327.702    -9999      -9999      10.45556   2.521      2.382      0.965      0.831      1.703077   3.85       0.1864102  0.1864102  0.2938482  7.941952   1.647359   2.382      0.3572892  0.5077413  88.027     0.3255697  0.5291663  0.3255697 
1151       0.218      323.032    -9999      -9999      10.32802   2.436      2.223      0.874      0.79       1.690716   3.818      0.2017454  0.2017454  0.2982341  15.27468   1.8642     2.223      0.380286   0.5108794  86.877     0.2923901  0.5031101  0.2923901 
1151.2     0.216      317.897    8          2          10.3707    2.284      2.195      1.064      1.076      1.681383   4.026      0.2106487  0.2106487  0.3015454  22.32969   1.788637   2.195      0.3996013  0.5195518  86.23      0.2754444  0.5116828  0.2754444 
1151.4     0.214      306.499    8          2          10.49627   2.158      2.408      1.568      1.499      1.679733   4.283      0.2163353  0.2163353  0.3021307  28.45859   1.583605   2.408      0.4383196  0.5468199  85.596     0.2599859  0.537764   0.2599859 
1151.6     0.213      296.395    8          2          10.56158   2.137      2.724      1.267      1.191      1.680219   4.565      0.219099   0.219099   0.3019584  32.0187    1.486439   2.724      0.4757259  0.5760055  85.209     0.2510892  0.5518496  0.2510892 
1151.8     0.213      283.553    8          2          10.49134   2.163      3.245      0.922      1.035      1.675163   4.822      0.2246179  0.2246179  0.303752   40.51591   1.591198   3.245      0.5274136  0.6168491  84.691     0.2398005  0.5367146  0.2398005 
1152       0.213      273.282    8          2          10.33708   2.298      3.813      1.096      1.087      1.665772   5.079      0.2305846  0.2305846  0.3070841  52.25692   1.847903   3.813      0.5717556  0.6525918  84.304     0.2318168  0.5049171  0.2318168 
1152.2     0.213      261.726    8          2          10.19399   2.51       4.449      1.14       1.095      1.66062    5.336      0.2321192  0.2321192  0.308912   55.7916    2.122898   4.449      0.6039554  0.6803766  84.348     0.2327054  0.4771095  0.2327054 
1152.4     0.213      251.456    8          2          10.10998   2.791      4.598      0.938      1.071      1.664872   5.618      0.226111   0.226111   0.3074034  43.17999   2.303039   4.598      0.6010209  0.6812403  84.995     0.2463407  0.4615029  0.2463407 
1152.6     0.213      242.281    8          2          10.09391   3.101      4.181      0.988      1.113      1.675289   5.994      0.2185531  0.2185531  0.3037076  31.28185   2.33919    4.181      0.5702808  0.65857    85.513     0.2580439  0.4585771  0.2580439 
1152.8     0.213      235.671    8          2          10.13565   3.443      4.755      0.995      1.129      1.683364   6.524      0.2115134  0.2115134  0.3008426  23.16858   2.246418   4.755      0.583753   0.6736735  86.04      0.2706946  0.4662178  0.2706946 
1153       0.213      230.339    8          2          10.20028   3.921      5.67       1.001      1.145      1.680036   6.804      0.2048423  0.2048423  0.3020232  17.43145   2.109982   5.67       0.6059002  0.6979021  86.954     0.2944877  0.4782999  0.2944877 
1153.2     0.213      226.486    8          2          10.24381   4.236      6.612      0.916      1.096      1.659128   6.756      0.2023866  0.2023866  0.3094414  15.69817   2.022778   6.612      0.6294516  0.7228792  87.989     0.3244086  0.4866148  0.3244086 
1153.4     0.213      227.163    -9999      -9999      10.27559   4.613      6.012      0.925      1.254      1.621095   6.727      0.2049036  0.2049036  0.3229356  17.47711   1.961406   6.012      0.616684   0.7180794  89.024     0.3576729  0.4927755  0.3576729 
1153.6     0.214      231.013    -9999      -9999      10.3513    4.072      4.506      1.025      1.114      1.573584   8.038      0.2096304  0.2096304  0.3397924  21.3807    1.822586   4.506      0.5697755  0.6869904  90.058     0.3944303  0.5077694  0.3944303 
1153.8     0.216      240.867    -9999      -9999      10.49542   3.509      2.707      1.425      0.895      1.526485   9.427      0.2129728  0.2129728  0.356503   24.6565    1.584917   2.707      0.4610343  0.6100928  91.093     0.43494    0.5375821  0.43494   
1154       0.217      251.138    -9999      -9999      10.6636    2.968      2.056      0.986      0.717      1.488719   10.847     0.2119374  0.2119374  0.3699026  23.59132   1.346458   2.056      0.3841638  0.5615858  92.113     0.4786825  0.5745931  0.4786825 
1154.2     0.217      260.342    -9999      -9999      10.77146   2.429      1.927      1.102      0.795      1.469608   12.266     0.2150576  0.2150576  0.3766831  26.94924   1.212763   1.927      0.3731801  0.5546753  92.358     0.4897744  0.5996606  0.4897744 
1154.4     0.216      264.411    -9999      -9999      10.74472   2.031      1.922      1.209      0.774      1.478026   14.623     0.2128541  0.2128541  0.3736964  24.532     1.244617   1.922      0.3667608  0.5501167  92.306     0.4874008  0.5933458  0.4874008 
1154.6     0.214      268.487    -9999      -9999      10.5359    2.006      1.916      0.832      0.917      1.517165   21.066     0.2274252  0.2274252  0.3598097  45.66932   1.523919   1.916      0.4013687  0.551094   90.237     0.4011652  0.5462666  0.4011652 
1154.8     0.214      266.373    -9999      -9999      10.13775   2.006      2.052      1.322      1.098      1.57885    36.307     0.2290515  0.2290515  0.3379242  48.94939   2.241861   2.052      0.4239121  0.5510684  88.168     0.3299173  0.4666045  0.3299173 
1155       0.214      261.703    1          2          9.605889   2.006      2.837      2.004      1.37       1.646222   46.481     0.2231406  0.2231406  0.3140205  38.042     3.754534   2.837      0.4937546  0.597029   86.228     0.2753937  0.3780105  0.2753937 
1155.2     0.213      244.429    1          2          9.04856    2.089      4.564      1.545      1.61       1.702987   56.136     0.2174537  0.2174537  0.2938801  29.84887   6.445069   4.564      0.5857814  0.6661583  84.293     0.2315953  0.3031653  0.2315953 
1155.4     0.213      223.079    1          2          8.585715   2.397      5.342      1.159      0.974      1.741535   66.388     0.2145081  0.2145081  0.2802034  26.32503   10.09521   5.342      0.6106768  0.6809182  82.481     0.1990765  0.2524064  0.1990765 
1155.6     0.213      198.927    1          2          8.280611   2.68       5.236      1.302      1.083      1.762333   76.039     0.2120689  0.2120689  0.2728242  23.72401   13.57013   5.236      0.6030638  0.6710929  81.469     0.1841072  0.2236878  0.1841072 
1155.8     0.213      173.496    1          2          8.108542   2.987      8.248      1.309      1.13       1.767278   85.668     0.2109029  0.2109029  0.2710699  22.57313   16.03378   8.248      0.6777467  0.7363489  81.338     0.1823242  0.2089574  0.1823242 
1156       0.213      147.819    1          2          7.996554   3.216      18.277     1.093      1.225      1.758842   89.344     0.2150344  0.2150344  0.2740628  26.92264   17.8727    18.277     0.7818765  0.825438   81.077     0.1788737  0.1998955  0.1788737 
1156.2     0.212      122.143    1          2          7.88863    3.271      25.455     1.165      1.393      1.743599   86.134     0.2209936  0.2209936  0.2794712  34.71327   19.84418   25.455     0.8176731  0.8554202  80.947     0.1772048  0.1915346  0.1772048 
1156.4     0.212      96.466     1          2          7.771826   3.761      31.797     1.268      1.293      1.731045   82.936     0.2265127  0.2265127  0.2839251  43.92617   22.22365   31.797     0.839238   0.8731421  80.688     0.1739768  0.1828793  0.1739768 
