~Version
 VERS              .         2.0                           : CWLS LOG ASCII STANDARD - VERSION 2.0
 WRAP              .         NO                            : ONE LINE PER DEPTH STEP
 DLM               .         SPACE                         : DELIMITING CHARACTER(SPACE TAB OR COMMA)
~Well Information
#_______________________________________________________________________________
#
#PARAMETER_NAME    .UNIT     VALUE                         : DESCRIPTION
#_______________________________________________________________________________
STRT               .M        964.4                         : First reference value
STOP               .M        1316                          : Last reference value
STEP               .M        0.2                           : Step increment
NULL               .         -9999                         : Missing value
COMP               .                                       : Company
WELL               .         5975                          : Well name
FLD                .         Узень                         : Field
LOC                .                                       : Location
CNTY               .         KAZAKHSTAN                    : County
STAT               .                                       : State
CTRY               .                                       : Country
SRVC               .         GIS COMPANY                   : Service Company
DATE               .         01.05.1986                    : Date
UWI                .         UZEN_5975                     : Unique Well ID
Block              .         4                             : 
Cartographic_reference_system .         GCS_WGS_1984                  : ESRI,PE_10_3_1- <?xml version="1.0" encoding="utf-16"?><ILateBoundCoordinateReferenceSystem name="GCS_WGS_1984"><AuthorityCode>EPSG,4326</AuthorityCode></ILateBoundCoordinateReferenceSystem>
Category           .         Нефтяная                      : 
Condition          .         В работе                      : 
EREF               .m        230.9                         : 100.8
Gorizont           .         15                            : 14
HZCS               .GCS_WGS_1984 WGS_1984_EASE-Grid_2.0_Global : ESRI,PE_10_3_1- <?xml version="1.0" encoding="utf-16"?><ILateBoundCoordinateReferenceSystem name="WGS_1984_EASE-Grid_2.0_Global"><AuthorityCode>EPSG,6933</AuthorityCode></ILateBoundCoordinateReferenceSystem>
Interpretator      .         Сагынбаева А.Н.               : 
Kupol              .         основной                      : osnovnoi
LATI               .dega     0.6383165337                  : GCS_WGS_1984
LONG               .dega     0.5634935854                  : GCS_WGS_1984
Mud                .         глинистый                     : 
Mud_density        .         1.18                          : 
Mud_resistivity    .         0                             : 
NGDU               .         НГДУ-1                        : 
ORIGINALWELLNAME   .         5975                          : 
Spud_date          .         1986                          : 1961
Viscosity          .         40                            : 
X                  .m        54369.4                       : 46154
Y                  .m        81430.5                       : 85761.93
YEAR               .         2018                          : 
~Parameter Information Block
#_______________________________________________________________________________
#
#PARAMETER_NAME    .UNIT     VALUE                         : DESCRIPTION
#_______________________________________________________________________________
SET                .         LQC_KAZNIPI_Petrel            : 
AVST               .DEGC     9999                          : Average Surface Temperature
BS                 .MM       9999                          : Диаметр долота
CABL               .         9999                          : Cable Tipe
CBD                .m        9999                          : 
CLEN               .KM       9999                          : Cable Length
DFD                .G/C3     9999                          : Drilling Fluid Density
DFV                .s        9999                          : Вязкость промывочной жидкости
DIRE               .         9999                          : Move Direction
EGL                .m        9999                          : Альтитуда поверхности земли
EKB                .m        9999                          : Альтитуда стола ротора
GSDD               .         CSAT                          : CSATкрив,0,DEPT,BOTTOM,,,,0
MT                 .         clay                          : Mud type
RMF                .OHMM     9999                          : Сопротивление фильтрата промывочной жидкости
SPEE               .M        9999                          : Speed
TDL                .m        9999                          : Полная глубина по каротажу
TLFamily_CALI      .         Caliper                       : 
TLFamily_CILD      .         Conductivity                  : 
TLFamily_COLL      .         Net Reservoir Flag            : 
TLFamily_CSAT      .         Fluid Code                    : 
TLFamily_DEPT      .         Measured Depth                : 
TLFamily_GR        .         Russian Gamma Ray             : 
TLFamily_GZ3       .         Gradient 225                  : 
TLFamily_LLS       .         Lateral Log Resistivity       : 
TLFamily_MINV      .         Micro Gradient Resistivity    : 
TLFamily_MNOR      .         Micro Resistivity             : 
TLFamily_NGLD      .         Neutron Gamma                 : 
TLFamily_OGZ       .         Gradient Inverted 225         : 
TLFamily_PHIE      .         Effective Porosity            : 
TLFamily_PHIEN     .         Effective Porosity            : 
TLFamily_PHIT      .         Porosity                      : 
TLFamily_PRMB      .         Permeability                  : 
TLFamily_PRMB_DGR  .         Permeability                  : 
TLFamily_RT        .         Formation Resistivity         : 
TLFamily_SOIL_ARCHIE .         Oil Saturation                : 
TLFamily_SOIL_DW   .         Oil Saturation                : 
TLFamily_SP        .         Spontaneous Potential         : 
TLFamily_VSH_FIN   .         Shale Volume                  : 
TLFamily_VSH_GR    .         Shale Volume                  : 
TLFamily_VSH_SP    .         Shale Volume                  : 
TOOL               .         9999                          : Tool Type
~Curve Information
#_______________________________________________________________________________
#
#LOGNAME           .UNIT     LOG_ID                        : DESCRIPTION
#_______________________________________________________________________________
DEPT               .M                                      : Колонка глубины 
CALI               .м                                      : Каверномер 
CILD               .мСм/м                                  : Индукционный каротаж 
COLL               .unitless                               : Описание 
CSAT               .unitless                               :  
GR                 .uR/h                                   : Гамма каротаж 
GZ3                .Ohmm                                   : Градиент-зонд  длиной 2.25м 
LLS                .Ohmm                                   : Боковой каротаж 
MINV               .Ohmm                                   : Микро-градиент зонд 
MNOR               .Ohmm                                   : Микро-потенциал зонд 
NGLD               .у.е.                                   : Показания зонда НГК-60 аппаратуры ДРСТ-3-90 
OGZ                .Ohmm                                   : Обращенный градиент-зонд 
PHIE               .v/v                                    : Описание 
PHIEN              .v/v                                    :  
PHIT               .v/v                                    : Описание 
PRMB               .mD                                     :  
PRMB_DGR           .mD                                     :  
RT                 .ohmm                                   : УЭС пласта 
SOIL_ARCHIE        .v/v                                    :  
SOIL_DW            .v/v                                    :  
SP                 .мВ                                     : Потенциал самополяризации 
VSH_FIN            .v/v                                    : Описание 
VSH_GR             .v/v                                    : Shale volume 
VSH_SP             .v/v                                    : Shale Volume 
~Ascii
# ...
995.4      0.212      502.714    1          3          2.709226   1.444      1.743      0.796      0.786      1.901886   1.595      0.1821688  0.1821688  0.2233109  6.627746   94.07143   1.743      0.2407683  0.317538   71.373     0.1246732  0.1014578  0.1478885 
995.6      0.212      502.714    1          3          2.714767   1.469      1.795      0.797      0.793      1.89478    1.595      0.1846451  0.1846451  0.2258321  7.366013   93.65517   1.795      0.2599243  0.3356421  71.388     0.1248093  0.1016417  0.1479769 
995.8      0.212      502.714    1          3          2.70912    1.495      1.819      0.797      0.799      1.896798   1.595      0.1838471  0.1838471  0.2251161  7.119543   94.07944   1.819      0.261743   0.3376172  71.503     0.1250575  0.1014543  0.1486607 
996        0.213      502.714    1          3          2.677507   1.521      1.817      0.81       0.812      1.899951   1.595      0.1828866  0.1828866  0.2239974  6.833794   96.49036   1.817      0.2579845  0.3338709  71.517     0.1245781  0.1004114  0.1487447 
996.2000000000001 0.213      502.714    1          3          2.629689   1.543      1.807      0.81       0.836      1.896903   1.595      0.18411    0.18411    0.2250787  7.199834   100.2551   1.807      0.2603677  0.3357588  71.632     0.1241475  0.09885433 0.1494408 
996.4      0.213      502.714    1          3          2.572176   1.541      1.835      0.81       0.836      1.889384   1.595      0.1870674  0.1870674  0.2277464  8.167693   104.9781   1.835      0.2758064  0.3497088  71.646     0.1232699  0.0970135  0.1495263 
996.6      0.213      502.714    1          3          2.500981   1.518      1.874      0.823      0.823      1.884209   1.595      0.1891537  0.1891537  0.2295825  8.927792   111.1341   1.874      0.2898119  0.3624829  71.762     0.1225114  0.09478213 0.1502407 
996.8      0.214      502.529    1          3          2.436458   1.515      1.869      0.805      0.823      1.883881   1.595      0.1894632  0.1894632  0.2296989  9.046419   117.0244   1.869      0.2899328  0.3622585  71.891     0.1219264  0.09280428 0.1510486 
997        0.214      501.429    1          3          2.417397   1.492      1.83       0.769      0.81       1.885481   1.623      0.1889905  0.1889905  0.2291312  8.865873   118.8235   1.83       0.2813095  0.3538954  71.891     0.1216383  0.09222792 0.1510486 
997.2000000000001 0.215      500.143    1          3          2.448869   1.492      1.796      0.79       0.81       1.887048   1.674      0.1881409  0.1881409  0.2285755  8.550345   115.8676   1.796      0.2721057  0.3456484  72.021     0.1225292  0.09318148 0.151877  
997.4      0.215      498.683    1          3          2.497866   1.466      1.85       0.841      0.808      1.889786   1.728      0.1869212  0.1869212  0.227604   8.116924   111.4115   1.85       0.2780764  0.3519025  72.021     0.1232813  0.09468568 0.151877  
997.6      0.216      496.115    1          3          2.540125   1.466      1.893      0.877      0.8        1.894356   1.775      0.1849442  0.1849442  0.2259824  7.460606   107.7061   1.893      0.2791743  0.3537579  72.15      0.1243579  0.09600254 0.1527133 
997.8      0.217      493.548    1          3          2.573301   1.441      1.812      0.872      0.813      1.898407   1.775      0.1833225  0.1833225  0.2245452  6.962025   104.8836   1.812      0.2585632  0.3345623  72.161     0.1249173  0.09704918 0.1527853 
998        0.217      491.143    1          3          2.581048   1.438      1.753      0.843      0.839      1.898184   1.777      0.1832316  0.1832316  0.2246245  6.935083   104.2353   1.753      0.2466305  0.3234531  72.28      0.125433   0.09729521 0.1535707 
998.2000000000001 0.218      489.539    1          3          2.53972    1.415      1.756      0.839      0.852      1.891981   1.801      0.1856367  0.1856367  0.2268251  7.684211   107.7409   1.756      0.255736   0.3315192  72.29      0.1248136  0.09598985 0.1536373 
998.4      0.219      485.69     1          3          2.458984   1.389      1.771      0.865      0.862      1.881875   1.801      0.1895031  0.1895031  0.2304109  9.061811   114.9333   1.771      0.2718912  0.3460785  72.409     0.1239631  0.09349004 0.1544361 
998.6      0.219      481.84     1          3          2.383398   1.389      1.859      0.885      0.862      1.87201    1.801      0.193233   0.193233   0.2339108  10.62434   122.1015   1.859      0.3002537  0.3724662  72.539     0.123266   0.09120872 0.1553232 
998.8      0.22       476.705    1          3          2.347707   1.363      2.021      0.829      0.79       1.865058   1.801      0.1958742  0.1958742  0.2363775  11.89116   125.6399   2.021      0.3350679  0.4052003  72.539     0.1227371  0.09015095 0.1553232 
999        0.22       471.57     1          3          2.355696   1.365      2.195      0.753      0.792      1.861324   1.826      0.1970123  0.1970123  0.2377021  12.48257   124.8391   2.195      0.3635646  0.432492   72.668     0.1233025  0.09038666 0.1562183 
999.2000000000001 0.218      467.86     1          3          2.399456   1.391      2.125      0.782      0.904      1.861765   1.826      0.1966411  0.1966411  0.2375458  12.28653   120.5422   2.125      0.3527489  0.4225411  72.668     0.1239535  0.09168867 0.1562183 
999.4      0.215      463.871    1          3          2.474646   1.415      2.034      0.838      0.855      1.869335   1.828      0.193579   0.193579   0.2348601  10.78231   113.5015   2.034      0.3302249  0.4019223  72.668     0.1250941  0.09396984 0.1562183 
999.6      0.213      458.735    1          3          2.571297   1.441      1.953      1.028      0.984      1.885347   1.853      0.1874003  0.1874003  0.229179   8.284503   105.052    1.953      0.2977675  0.3724104  72.668     0.126602   0.09698565 0.1562183 
999.8      0.213      453.729    1          3          2.664703   1.441      2.024      0.929      0.801      1.906134   1.905      0.1795289  0.1795289  0.2218036  5.922004   97.48434   2.024      0.2831398  0.3602696  72.668     0.1281052  0.09999211 0.1562183 
1000       0.213      449.75     1          3          2.723392   1.441      2.174      0.882      0.839      1.926204   1.955      0.1719371  0.1719371  0.2146827  4.284007   93.0108    2.174      0.2802072  0.3594116  72.798     0.1295321  0.1019287  0.1571356 
1000.2     0.213      446.022    1          3          2.738383   1.441      2.159      1.001      0.952      1.943728   1.982      0.1656372  0.1656372  0.2084654  3.274619   91.90147   2.159      0.2540011  0.3358039  72.798     0.1297825  0.1024293  0.1571356 
1000.4     0.213      442.051    1          3          2.730378   1.441      2.085      1.021      0.914      1.959475   2.033      0.1600941  0.1600941  0.2028781  2.585169   92.49219   2.085      0.2188744  0.3034985  72.798     0.1296486  0.1021617  0.1571356 
1000.6     0.212      435.63     1          3          2.725527   1.467      2.09       0.931      0.791      1.971041   2.059      0.1560174  0.1560174  0.1987748  2.172596   92.85205   2.09       0.2020249  0.2883716  72.798     0.1295677  0.1019998  0.1571356 
1000.8     0.212      431.89     1          3          2.732334   1.493      2.174      0.926      0.902      1.973093   2.084      0.1552519  0.1552519  0.1980467  2.102808   92.34754   2.174      0.2132818  0.299323   72.798     0.1296813  0.102227   0.1571356 
1001       0.212      428.037    1          3          2.739578   1.543      2.084      1.021      1.018      1.965232   2.084      0.158001   0.158001   0.2008358  2.36439    91.81362   2.084      0.2096916  0.2953472  72.798     0.1298025  0.1024693  0.1571356 
1001.2     0.212      424.184    1          3          2.732976   1.57       2.067      1.137      1.113      1.955811   2.084      0.1613798  0.1613798  0.2041782  2.730885   92.30006   2.067      0.2211348  0.3053966  72.798     0.129692   0.1022484  0.1571356 
1001.4     0.212      420.33     1          3          2.704365   1.595      2.129      1.174      1.158      1.955541   2.109      0.1616291  0.1616291  0.204274   2.760076   94.43818   2.129      0.232894   0.316215   72.801     0.1292269  0.1012967  0.157157  
