~Version
 VERS              .         2.0                           : CWLS LOG ASCII STANDARD - VERSION 2.0
 WRAP              .         NO                            : ONE LINE PER DEPTH STEP
 DLM               .         SPACE                         : DELIMITING CHARACTER(SPACE TAB OR COMMA)
~Well Information
#_______________________________________________________________________________
#
#PARAMETER_NAME    .UNIT     VALUE                         : DESCRIPTION
#_______________________________________________________________________________
STRT               .M        964.4                         : First reference value
STOP               .M        1316                          : Last reference value
STEP               .M        0.2                           : Step increment
NULL               .         -9999                         : Missing value
COMP               .                                       : Company
WELL               .         5975                          : Well name
FLD                .         Узень                         : Field
LOC                .                                       : Location
CNTY               .         KAZAKHSTAN                    : County
STAT               .                                       : State
CTRY               .                                       : Country
SRVC               .         GIS COMPANY                   : Service Company
DATE               .         01.05.1986                    : Date
UWI                .         UZEN_5975                     : Unique Well ID
Block              .         4                             : 
Cartographic_reference_system .         GCS_WGS_1984                  : ESRI,PE_10_3_1- <?xml version="1.0" encoding="utf-16"?><ILateBoundCoordinateReferenceSystem name="GCS_WGS_1984"><AuthorityCode>EPSG,4326</AuthorityCode></ILateBoundCoordinateReferenceSystem>
Category           .         Нефтяная                      : 
Condition          .         В работе                      : 
EREF               .m        230.9                         : 100.8
Gorizont           .         15                            : 14
HZCS               .GCS_WGS_1984 WGS_1984_EASE-Grid_2.0_Global : ESRI,PE_10_3_1- <?xml version="1.0" encoding="utf-16"?><ILateBoundCoordinateReferenceSystem name="WGS_1984_EASE-Grid_2.0_Global"><AuthorityCode>EPSG,6933</AuthorityCode></ILateBoundCoordinateReferenceSystem>
Interpretator      .         Сагынбаева А.Н.               : 
Kupol              .         основной                      : osnovnoi
LATI               .dega     0.6383165337                  : GCS_WGS_1984
LONG               .dega     0.5634935854                  : GCS_WGS_1984
Mud                .         глинистый                     : 
Mud_density        .         1.18                          : 
Mud_resistivity    .         0                             : 
NGDU               .         НГДУ-1                        : 
ORIGINALWELLNAME   .         5975                          : 
Spud_date          .         1986                          : 1961
Viscosity          .         40                            : 
X                  .m        54369.4                       : 46154
Y                  .m        81430.5                       : 85761.93
YEAR               .         2018                          : 
~Parameter Information Block
#_______________________________________________________________________________
#
#PARAMETER_NAME    .UNIT     VALUE                         : DESCRIPTION
#_______________________________________________________________________________
SET                .         LQC_KAZNIPI_Petrel            : 
AVST               .DEGC     9999                          : Average Surface Temperature
BS                 .MM       9999                          : Диаметр долота
CABL               .         9999                          : Cable Tipe
CBD                .m        9999                          : 
CLEN               .KM       9999                          : Cable Length
DFD                .G/C3     9999                          : Drilling Fluid Density
DFV                .s        9999                          : Вязкость промывочной жидкости
DIRE               .         9999                          : Move Direction
EGL                .m        9999                          : Альтитуда поверхности земли
EKB                .m        9999                          : Альтитуда стола ротора
GSDD               .         CSAT                          : CSATкрив,0,DEPT,BOTTOM,,,,0
MT                 .         clay                          : Mud type
RMF                .OHMM     9999                          : Сопротивление фильтрата промывочной жидкости
SPEE               .M        9999                          : Speed
TDL                .m        9999                          : Полная глубина по каротажу
TLFamily_CALI      .         Caliper                       : 
TLFamily_CILD      .         Conductivity                  : 
TLFamily_COLL      .         Net Reservoir Flag            : 
TLFamily_CSAT      .         Fluid Code                    : 
TLFamily_DEPT      .         Measured Depth                : 
TLFamily_GR        .         Russian Gamma Ray             : 
TLFamily_GZ3       .         Gradient 225                  : 
TLFamily_LLS       .         Lateral Log Resistivity       : 
TLFamily_MINV      .         Micro Gradient Resistivity    : 
TLFamily_MNOR      .         Micro Resistivity             : 
TLFamily_NGLD      .         Neutron Gamma                 : 
TLFamily_OGZ       .         Gradient Inverted 225         : 
TLFamily_PHIE      .         Effective Porosity            : 
TLFamily_PHIEN     .         Effective Porosity            : 
TLFamily_PHIT      .         Porosity                      : 
TLFamily_PRMB      .         Permeability                  : 
TLFamily_PRMB_DGR  .         Permeability                  : 
TLFamily_RT        .         Formation Resistivity         : 
TLFamily_SOIL_ARCHIE .         Oil Saturation                : 
TLFamily_SOIL_DW   .         Oil Saturation                : 
TLFamily_SP        .         Spontaneous Potential         : 
TLFamily_VSH_FIN   .         Shale Volume                  : 
TLFamily_VSH_GR    .         Shale Volume                  : 
TLFamily_VSH_SP    .         Shale Volume                  : 
TOOL               .         9999                          : Tool Type
~Curve Information
#_______________________________________________________________________________
#
#LOGNAME           .UNIT     LOG_ID                        : DESCRIPTION
#_______________________________________________________________________________
DEPT               .M                                      : Колонка глубины 
CALI               .м                                      : Каверномер 
CILD               .мСм/м                                  : Индукционный каротаж 
COLL               .unitless                               : Описание 
CSAT               .unitless                               :  
GR                 .uR/h                                   : Гамма каротаж 
GZ3                .Ohmm                                   : Градиент-зонд  длиной 2.25м 
LLS                .Ohmm                                   : Боковой каротаж 
MINV               .Ohmm                                   : Микро-градиент зонд 
MNOR               .Ohmm                                   : Микро-потенциал зонд 
NGLD               .у.е.                                   : Показания зонда НГК-60 аппаратуры ДРСТ-3-90 
OGZ                .Ohmm                                   : Обращенный градиент-зонд 
PHIE               .v/v                                    : Описание 
PHIEN              .v/v                                    :  
PHIT               .v/v                                    : Описание 
PRMB               .mD                                     :  
PRMB_DGR           .mD                                     :  
RT                 .ohmm                                   : УЭС пласта 
SOIL_ARCHIE        .v/v                                    :  
SOIL_DW            .v/v                                    :  
SP                 .мВ                                     : Потенциал самополяризации 
VSH_FIN            .v/v                                    : Описание 
VSH_GR             .v/v                                    : Shale volume 
VSH_SP             .v/v                                    : Shale Volume 
~Ascii
# ...
1125.6     0.219      252.964    -9999      -9999      7.804358   2.934      5.907      2.485      1.349      2.113859   4.474      0.01       0          0.1481028  0.004289259 21.53362   5.907      0          0          93.914     0.5657306  0.1852499  0.5657306 
1125.8     0.219      244.619    -9999      -9999      7.634431   3.191      5.947      2.65       2.775      2.087135   4.165      0.01       0          0.1575845  0.004289259 25.39028   5.947      0          0          94.304     0.5863082  0.1731975  0.5863082 
1126       0.219      238.515    -9999      -9999      7.738335   3.448      5.997      2.303      2.135      2.013385   3.831      0.01       0          0.1837509  0.004289259 22.95712   5.997      0          0.02894773 94.69      0.6073022  0.1804705  0.6073022 
1126.2     0.221      233.69     -9999      -9999      8.073109   3.705      3.813      0.648      2.221      1.909165   3.523      0.01314389 0.01314389 0.2207283  0.004904727 16.59418   3.813      0          0          95.078     0.6290438  0.2060466  0.6290438 
1126.4     0.221      232.714    -9999      -9999      8.58951    3.884      3.785      0.883      1.331      1.797244   3.189      0.04544463 0.04544463 0.2604377  0.01944925 10.05813   3.785      0          0.3152432  95.467     0.6514942  0.2527859  0.6514942 
1126.6     0.22       234        -9999      -9999      9.223237   4.013      3.991      0.432      1.01       1.700769   2.881      0.07206616 0.07206616 0.2946671  0.06053383 5.440982   3.991      0          0.4654417  95.855     0.6745481  0.3248722  0.6745481 
1126.8     0.221      235.883    -9999      -9999      9.843978   4.013      3.724      0.386      0.735      1.635563   2.547      0.09002052 0.09002052 0.3178023  0.1301837  2.98061    3.724      0.01762051 0.5103178  96.113     0.6902479  0.4153742  0.6902479 
1127       0.221      242.894    -9999      -9999      10.29833   3.936      3.263      0.386      0.875      1.604735   2.392      0.09298053 0.09298053 0.3287401  0.1477009  1.918642   3.263      0          0.4940291  96.501     0.7144231  0.4972312  0.7144231 
1127.2     0.22       252.752    -9999      -9999      10.53655   3.68       2.796      0.375      0.733      1.599799   2.367      0.09198715 0.09198715 0.3304914  0.1415739  1.52295    2.796      0          0.4534531  96.632     0.7227401  0.5464085  0.7227401 
1127.4     0.22       269.577    -9999      -9999      10.65275   3.474      2.499      0.353      0.619      1.606486   2.341      0.08415481 0.08415481 0.3281188  0.10137    1.360689   2.499      0          0.402272   96.889     0.7392849  0.5721316  0.7392849 
1127.6     0.22       280.418    -9999      -9999      10.78075   3.294      2.344      0.347      0.67       1.612112   2.315      0.07655411 0.07655411 0.3261225  0.07330371 1.201888   2.344      0          0.3617676  97.148     0.7562679  0.6018704  0.7562679 
1127.8     0.219      295.548    -9999      -9999      10.95799   3.216      2.295      0.31       0.666      1.610607   2.34       0.1008243  0.1008243  0.3266565  0.2063809  1.012121   2.295      0          0.4101568  96.637     0.6843399  0.6456208  0.7230589 
1128       0.219      305.818    -9999      -9999      11.11764   3.19       2.282      0.296      0.729      1.603928   2.417      0.1028588  0.1028588  0.3290263  0.225088   0.8669848  2.282      0          0.4152562  95.994     0.6853563  0.6877428  0.6829697 
1128.2     0.219      317.647    -9999      -9999      11.18108   3.19       2.297      0.333      0.699      1.598215   2.52       0.1083757  0.1083757  0.3310532  0.2847989  0.8152609  2.297      0          0.4297483  95.344     0.6747802  0.7052363  0.6443241 
1128.4     0.221      330.217    -9999      -9999      11.15329   3.165      2.297      0.486      0.608      1.598268   2.597      0.1144937  0.1144937  0.3310344  0.3697081  0.8375289  2.297      0.0004805418 0.4404457  94.826     0.656184   0.6975188  0.6148492 
1128.6     0.22       340.487    -9999      -9999      11.11663   3.012      2.278      0.662      0.73       1.604255   2.876      0.1186929  0.1186929  0.3289102  0.4422198  0.8678334  2.278      0.02756724 0.4428454  94.309     0.6370221  0.6874682  0.586576  
1128.8     0.22       348.95     -9999      -9999      11.13508   2.884      2.245      0.598      0.659      1.61246    3.134      0.1215734  0.1215734  0.3259993  0.5000263  0.8524442  2.245      0.04112186 0.4403151  93.537     0.6194723  0.6925092  0.5464353 
1129       0.221      354.086    -9999      -9999      11.18421   2.704      2.198      0.538      0.543      1.618834   3.416      0.1193138  0.1193138  0.3237377  0.4540861  0.8127928  2.198      0.0155992  0.4280159  93.264     0.6194666  0.7061099  0.5328233 
1129.2     0.221      357.429    -9999      -9999      11.17334   2.576      2.201      0.862      0.689      1.621591   3.698      0.1188358  0.1188358  0.3227594  0.4449234  0.8214056  2.201      0.01278381 0.4264722  93.264     0.6179503  0.7030773  0.5328233 
1129.4     0.22       357.429    -9999      -9999      11.03394   2.447      2.25       0.843      0.733      1.620667   4.03       0.1294253  0.1294253  0.3230873  0.6989214  0.9402756  2.25       0.09293772 0.4502409  92.758     0.5868546  0.6653267  0.5083826 
1129.6     0.219      356.691    -9999      -9999      10.78848   2.343      2.271      0.758      0.832      1.617663   4.34       0.1446061  0.1446061  0.3241533  1.335405   1.192907   2.271      0.1800406  0.4758075  92.241     0.5440825  0.6037165  0.4844486 
1129.8     0.219      348.746    -9999      -9999      10.53798   2.241      2.158      1.022      0.9        1.617026   4.674      0.1580236  0.1580236  0.324379   2.366677   1.52085    2.158      0.2226238  0.4802203  91.723     0.5041072  0.5467165  0.461498  
1130       0.219      338.476    -9999      -9999      10.39067   2.136      2.08       1.293      1.142      1.625732   4.789      0.163659   0.163659   0.3212901  3.009677   1.754338   2.08       0.2328508  0.4745528  91.206     0.4776701  0.5157444  0.4395958 
1130.2     0.218      324.93     -9999      -9999      10.36562   2.059      2.041      1.359      1.454      1.649466   4.661      0.1603219  0.1603219  0.3128696  2.610405   1.797461   2.041      0.2119933  0.4565319  90.567     0.4622659  0.5106557  0.4138762 
1130.4     0.217      306.726    -9999      -9999      10.34907   2.055      2.224      1.074      0.905      1.690694   5.105      0.1502907  0.1502907  0.2982416  1.701794   1.826531   2.224      0.1993004  0.4502995  89.921     0.4483361  0.5073214  0.3893509 
1130.6     0.218      286.865    -9999      -9999      10.17595   2.231      2.456      1.642      1.487      1.748923   5.593      0.1382955  0.1382955  0.2775822  1.020297   2.160338   2.456      0.1783067  0.4355071  89.395     0.4220809  0.4737156  0.3704462 
1130.8     0.214      272.519    6          6          9.79695    2.705      3.771      2.223      1.822      1.816869   6.079      0.1279951  0.1279951  0.2534749  0.6575651  3.119657   3.771      0.2812192  0.5036888  88.878     0.3802416  0.4077123  0.3527709 
1131       0.214      257.96     6          6          9.358462   3.199      5.962      2.803      2.778      1.875969   6.567      0.1205193  0.1205193  0.2325061  0.4780444  4.77242    5.962      0.3890477  0.5740132  88.361     0.339354   0.3427382  0.3359698 
1131.2     0.214      241.707    6          6          9.079593   3.687      8.135      3.393      2.856      1.902892   7.031      0.1195148  0.1195148  0.2229538  0.4579966  6.254044   8.135      0.4680893  0.6246298  87.843     0.3134513  0.3069129  0.3199898 
1131.4     0.215      226.724    6          6          9.067837   4.198      10.355     2.185      3.074      1.886048   6.629      0.1282212  0.1282212  0.2289301  0.6639361  6.325734   10.355     0.5532483  0.6815052  87.326     0.3051783  0.3054878  0.3048687 
1131.6     0.214      214.544    8          2          9.254505   4.686      11.347     1.146      1.211      1.836042   6.117      0.1422895  0.1422895  0.2466723  1.209774   5.278511   11.347     0.6091198  0.7208995  87.285     0.3163117  0.3289188  0.3037045 
