~Version
 VERS              .         2.0                           : CWLS LOG ASCII STANDARD - VERSION 2.0
 WRAP              .         NO                            : ONE LINE PER DEPTH STEP
 DLM               .         SPACE                         : DELIMITING CHARACTER(SPACE TAB OR COMMA)
~Well Information
#_______________________________________________________________________________
#
#PARAMETER_NAME    .UNIT     VALUE                         : DESCRIPTION
#_______________________________________________________________________________
STRT               .M        964.4                         : First reference value
STOP               .M        1316                          : Last reference value
STEP               .M        0.2                           : Step increment
NULL               .         -9999                         : Missing value
COMP               .                                       : Company
WELL               .         5975                          : Well name
FLD                .         Узень                         : Field
LOC                .                                       : Location
CNTY               .         KAZAKHSTAN                    : County
STAT               .                                       : State
CTRY               .                                       : Country
SRVC               .         GIS COMPANY                   : Service Company
DATE               .         01.05.1986                    : Date
UWI                .         UZEN_5975                     : Unique Well ID
Block              .         4                             : 
Cartographic_reference_system .         GCS_WGS_1984                  : ESRI,PE_10_3_1- <?xml version="1.0" encoding="utf-16"?><ILateBoundCoordinateReferenceSystem name="GCS_WGS_1984"><AuthorityCode>EPSG,4326</AuthorityCode></ILateBoundCoordinateReferenceSystem>
Category           .         Нефтяная                      : 
Condition          .         В работе                      : 
EREF               .m        230.9                         : 100.8
Gorizont           .         15                            : 14
HZCS               .GCS_WGS_1984 WGS_1984_EASE-Grid_2.0_Global : ESRI,PE_10_3_1- <?xml version="1.0" encoding="utf-16"?><ILateBoundCoordinateReferenceSystem name="WGS_1984_EASE-Grid_2.0_Global"><AuthorityCode>EPSG,6933</AuthorityCode></ILateBoundCoordinateReferenceSystem>
Interpretator      .         Сагынбаева А.Н.               : 
Kupol              .         основной                      : osnovnoi
LATI               .dega     0.6383165337                  : GCS_WGS_1984
LONG               .dega     0.5634935854                  : GCS_WGS_1984
Mud                .         глинистый                     : 
Mud_density        .         1.18                          : 
Mud_resistivity    .         0                             : 
NGDU               .         НГДУ-1                        : 
ORIGINALWELLNAME   .         5975                          : 
Spud_date          .         1986                          : 1961
Viscosity          .         40                            : 
X                  .m        54369.4                       : 46154
Y                  .m        81430.5                       : 85761.93
YEAR               .         2018                          : 
~Parameter Information Block
#_______________________________________________________________________________
#
#PARAMETER_NAME    .UNIT     VALUE                         : DESCRIPTION
#_______________________________________________________________________________
SET                .         LQC_KAZNIPI_Petrel            : 
AVST               .DEGC     9999                          : Average Surface Temperature
BS                 .MM       9999                          : Диаметр долота
CABL               .         9999                          : Cable Tipe
CBD                .m        9999                          : 
CLEN               .KM       9999                          : Cable Length
DFD                .G/C3     9999                          : Drilling Fluid Density
DFV                .s        9999                          : Вязкость промывочной жидкости
DIRE               .         9999                          : Move Direction
EGL                .m        9999                          : Альтитуда поверхности земли
EKB                .m        9999                          : Альтитуда стола ротора
GSDD               .         CSAT                          : CSATкрив,0,DEPT,BOTTOM,,,,0
MT                 .         clay                          : Mud type
RMF                .OHMM     9999                          : Сопротивление фильтрата промывочной жидкости
SPEE               .M        9999                          : Speed
TDL                .m        9999                          : Полная глубина по каротажу
TLFamily_CALI      .         Caliper                       : 
TLFamily_CILD      .         Conductivity                  : 
TLFamily_COLL      .         Net Reservoir Flag            : 
TLFamily_CSAT      .         Fluid Code                    : 
TLFamily_DEPT      .         Measured Depth                : 
TLFamily_GR        .         Russian Gamma Ray             : 
TLFamily_GZ3       .         Gradient 225                  : 
TLFamily_LLS       .         Lateral Log Resistivity       : 
TLFamily_MINV      .         Micro Gradient Resistivity    : 
TLFamily_MNOR      .         Micro Resistivity             : 
TLFamily_NGLD      .         Neutron Gamma                 : 
TLFamily_OGZ       .         Gradient Inverted 225         : 
TLFamily_PHIE      .         Effective Porosity            : 
TLFamily_PHIEN     .         Effective Porosity            : 
TLFamily_PHIT      .         Porosity                      : 
TLFamily_PRMB      .         Permeability                  : 
TLFamily_PRMB_DGR  .         Permeability                  : 
TLFamily_RT        .         Formation Resistivity         : 
TLFamily_SOIL_ARCHIE .         Oil Saturation                : 
TLFamily_SOIL_DW   .         Oil Saturation                : 
TLFamily_SP        .         Spontaneous Potential         : 
TLFamily_VSH_FIN   .         Shale Volume                  : 
TLFamily_VSH_GR    .         Shale Volume                  : 
TLFamily_VSH_SP    .         Shale Volume                  : 
TOOL               .         9999                          : Tool Type
~Curve Information
#_______________________________________________________________________________
#
#LOGNAME           .UNIT     LOG_ID                        : DESCRIPTION
#_______________________________________________________________________________
DEPT               .M                                      : Колонка глубины 
CALI               .м                                      : Каверномер 
CILD               .мСм/м                                  : Индукционный каротаж 
COLL               .unitless                               : Описание 
CSAT               .unitless                               :  
GR                 .uR/h                                   : Гамма каротаж 
GZ3                .Ohmm                                   : Градиент-зонд  длиной 2.25м 
LLS                .Ohmm                                   : Боковой каротаж 
MINV               .Ohmm                                   : Микро-градиент зонд 
MNOR               .Ohmm                                   : Микро-потенциал зонд 
NGLD               .у.е.                                   : Показания зонда НГК-60 аппаратуры ДРСТ-3-90 
OGZ                .Ohmm                                   : Обращенный градиент-зонд 
PHIE               .v/v                                    : Описание 
PHIEN              .v/v                                    :  
PHIT               .v/v                                    : Описание 
PRMB               .mD                                     :  
PRMB_DGR           .mD                                     :  
RT                 .ohmm                                   : УЭС пласта 
SOIL_ARCHIE        .v/v                                    :  
SOIL_DW            .v/v                                    :  
SP                 .мВ                                     : Потенциал самополяризации 
VSH_FIN            .v/v                                    : Описание 
VSH_GR             .v/v                                    : Shale volume 
VSH_SP             .v/v                                    : Shale Volume 
~Ascii
# ...
1038.8     0.223      312.531    -9999      -9999      5.771903   3.526      2.466      0.592      1.021      1.523931   2.135      0.2059523  0.2059523  0.34217    18.27659   5.474659   2.466      0.4202472  0.5756487  90.772     0.4127806  0.3240547  0.5015066 
1039       0.226      322.835    -9999      -9999      5.913282   3.449      2.14       0.615      0.953      1.484768   2.161      0.2134745  0.2134745  0.3564566  25.18974   4.967054   2.14       0.3994198  0.5618486  91.548     0.4332792  0.3371893  0.529369  
1039.2     0.233      334.392    -9999      -9999      6.102524   3.349      1.916      0.611      0.604      1.435785   2.112      0.2258601  0.2258601  0.3743256  42.72044   4.36048    1.916      0.3977574  0.5603669  91.946     0.4498954  0.3556075  0.5441833 
1039.4     0.24       345.948    -9999      -9999      6.384688   3.173      1.707      0.249      0.512      1.381319   2.084      0.2384468  0.2384468  0.3941948  73.07556   3.590837   1.707      0.3935459  0.5581514  92.334     0.4719635  0.3849544  0.5589727 
1039.6     0.247      357.504    -9999      -9999      6.735035   2.968      1.566      0.237      0.548      1.329889   2.035      0.2504837  0.2504837  0.4129566  122.1024   2.82148    1.566      0.3950213  0.5601319  92.358     0.4923421  0.4247852  0.5598989 
1039.8     0.246      369.06     -9999      -9999      7.068892   2.762      1.52       0.254      0.393      1.292201   2.006      0.2557588  0.2557588  0.4267052  152.9084   2.242267   1.52       0.3975331  0.565847   92.604     0.5180194  0.46657    0.5694688 
1040       0.249      380.617    -9999      -9999      7.297032   2.534      1.572      0.257      0.251      1.277863   2.027      0.2558078  0.2558078  0.4319357  153.2281   1.916445   1.572      0.4070674  0.5762339  92.617     0.5337211  0.4974638  0.5699785 
1040.2     0.26       392.173    -9999      -9999      7.380036   2.326      1.544      0.268      0.232      1.290303   2.227      0.2500869  0.2500869  0.4273976  120.0533   1.810033   1.544      0.3901498  0.565789   92.5       0.5373052  0.5092044  0.5654059 
1040.4     0.271      403.729    -9999      -9999      7.320071   2.12       1.487      0.254      0.232      1.324275   2.456      0.2391815  0.2391815  0.4150046  75.40137   1.886297   1.487      0.3547116  0.5415807  92.487     0.5327975  0.5006952  0.5648998 
1040.6     0.273      415.286    -9999      -9999      7.137096   1.915      2.402      0.232      0.232      1.370488   2.349      0.2256257  0.2256257  0.398146   42.2955    2.139446   2.402      0.4578829  0.6215199  92.617     0.5227888  0.4755992  0.5699785 
1040.8     0.246      417.853    -9999      -9999      6.873224   1.775      3.135      0.258      0.294      1.421224   2.221      0.2127261  0.2127261  0.3796376  24.39838   2.565501   3.135      0.4964015  0.6510079  92.617     0.5057924  0.4416065  0.5699785 
1041       0.224      416.587    -9999      -9999      6.604005   1.82       3.136      0.392      0.423      1.471323   2.093      0.1997593  0.1997593  0.3613613  14.03413   3.087749   3.136      0.4681265  0.6314548  92.617     0.489703   0.4094275  0.5699785 
1041.2     0.225      411.451    -9999      -9999      6.4151     1.949      2.789      0.38       0.565      1.515203   2.3        0.1872449  0.1872449  0.345354   8.229771   3.51646    2.789      0.4054643  0.587965   92.617     0.4791185  0.3882585  0.5699785 
1041.4     0.224      398.647    -9999      -9999      6.378571   2.074      2.496      0.709      0.707      1.544702   2.557      0.1764042  0.1764042  0.3345928  5.183135   3.605987   2.496      0.3402843  0.5455081  92.73      0.4793592  0.3842931  0.5744253 
1041.6     0.224      385.809    -9999      -9999      6.524822   2.203      2.239      0.656      0.828      1.551561   2.788      0.1711374  0.1711374  0.3320906  4.140351   3.260693   2.239      0.2872012  0.5122197  92.746     0.4877372  0.4004171  0.5750573 
1041.8     0.229      371.685    -9999      -9999      6.810363   2.331      2.029      0.31       0.72       1.533674   2.977      0.1721422  0.1721422  0.3386158  4.321645   2.678931   2.029      0.257282   0.494824   92.746     0.5044654  0.4338736  0.5750573 
1042       0.236      363.884    -9999      -9999      7.12501    2.437      1.939      0.283      0.591      1.498258   2.792      0.1784433  0.1784433  0.3515356  5.654077   2.157315   1.939      0.2646871  0.5019383  92.746     0.5245219  0.4739866  0.5750573 
1042.2     0.238      361.316    -9999      -9999      7.349485   2.403      1.894      0.27       0.462      1.457806   2.586      0.1881075  0.1881075  0.3662924  8.538194   1.848495   1.894      0.2899192  0.5185246  92.746     0.5399542  0.5048512  0.5750573 
1042.4     0.239      361.252    -9999      -9999      7.402998   2.249      1.794      0.317      0.365      1.423849   2.381      0.1985     0.1985     0.3786798  13.30025   1.781653   1.794      0.3049406  0.5252609  92.858     0.5459995  0.5125009  0.5794981 
1042.6     0.243      363.819    -9999      -9999      7.270597   2.117      1.725      0.403      0.337      1.40434    2.267      0.207119   0.207119   0.3857967  19.20899   1.951632   1.725      0.3177591  0.529191   93.098     0.5414475  0.4937817  0.5891132 
1042.8     0.245      372.732    -9999      -9999      7.029852   1.966      1.706      0.472      0.488      1.401778   2.216      0.2124009  0.2124009  0.3867315  24.06238   2.303331   1.706      0.3290814  0.5319111  93.245     0.5282744  0.4614791  0.5950697 
1043       0.247      380.435    -9999      -9999      6.831863   1.951      1.747      0.399      0.655      1.411463   2.165      0.2121125  0.2121125  0.3831982  23.76816   2.639582   1.747      0.3357311  0.534603   93.375     0.5184415  0.4365031  0.6003799 
1043.2     0.244      388.187    -9999      -9999      6.804138   2.05       1.802      0.252      0.704      1.4252     2.135      0.2059016  0.2059016  0.3781869  18.23707   2.690433   1.802      0.3281571  0.532662   93.633     0.5220767  0.4331152  0.6110382 
1043.4     0.239      395.841    -9999      -9999      6.953852   2.153      1.893      0.268      0.514      1.439835   2.157      0.1956999  0.1956999  0.372848   11.80305   2.427016   1.893      0.3138032  0.5308522  93.892     0.5368127  0.4517271  0.6218982 
1043.6     0.233      398.515    -9999      -9999      7.177416   2.23       1.982      0.283      0.495      1.458268   2.256      0.1841494  0.1841494  0.3661238  7.211947   2.080892   1.982      0.2918976  0.5253229  93.891     0.5514375  0.481019   0.621856  
1043.8     0.232      399.857    -9999      -9999      7.369784   2.333      2.28       0.283      0.418      1.480848   2.38       0.1705939  0.1705939  0.3578867  4.045496   1.82285    2.28       0.2912847  0.5378466  94.021     0.5675537  0.5077394  0.627368  
1044       0.233      399.857    -9999      -9999      7.483289   2.319      2.287      0.272      0.327      1.500079   2.512      0.1607224  0.1607224  0.3508711  2.655386   1.68587    2.287      0.254593   0.5221874  94.041     0.5762081  0.5241967  0.6282195 
1044.2     0.231      397.354    -9999      -9999      7.505306   2.242      2.013      0.259      0.43       1.507962   2.662      0.1573101  0.1573101  0.3479956  2.295744   1.660516   2.013      0.1936599  0.4839382  94.041     0.5778348  0.5274502  0.6282195 
1044.4     0.228      394.786    -9999      -9999      7.440123   2.165      1.993      0.246      0.401      1.505914   2.637      0.1587196  0.1587196  0.3487426  2.437984   1.736707   1.993      0.1961423  0.4837812  94.171     0.5758272  0.517876   0.6337785 
1044.6     0.228      391.008    -9999      -9999      7.315079   2.088      2.107      0.423      0.35       1.502695   2.483      0.1637618  0.1637618  0.3499169  3.022898   1.892789   2.107      0.2378966  0.5048641  94.041     0.5641063  0.4999932  0.6282195 
1044.8     0.229      384.667    -9999      -9999      7.18034    2.011      2.138      0.663      0.581      1.503227   2.371      0.165716   0.165716   0.3497228  3.285638   2.076709   2.138      0.2508818  0.5105028  94.171     0.5575964  0.4814144  0.6337785 
