~Version
 VERS              .         2.0                           : CWLS LOG ASCII STANDARD - VERSION 2.0
 WRAP              .         NO                            : ONE LINE PER DEPTH STEP
 DLM               .         SPACE                         : DELIMITING CHARACTER(SPACE TAB OR COMMA)
~Well Information
#_______________________________________________________________________________
#
#PARAMETER_NAME    .UNIT     VALUE                         : DESCRIPTION
#_______________________________________________________________________________
STRT               .M        964.4                         : First reference value
STOP               .M        1316                          : Last reference value
STEP               .M        0.2                           : Step increment
NULL               .         -9999                         : Missing value
COMP               .                                       : Company
WELL               .         5975                          : Well name
FLD                .         Узень                         : Field
LOC                .                                       : Location
CNTY               .         KAZAKHSTAN                    : County
STAT               .                                       : State
CTRY               .                                       : Country
SRVC               .         GIS COMPANY                   : Service Company
DATE               .         01.05.1986                    : Date
UWI                .         UZEN_5975                     : Unique Well ID
Block              .         4                             : 
Cartographic_reference_system .         GCS_WGS_1984                  : ESRI,PE_10_3_1- <?xml version="1.0" encoding="utf-16"?><ILateBoundCoordinateReferenceSystem name="GCS_WGS_1984"><AuthorityCode>EPSG,4326</AuthorityCode></ILateBoundCoordinateReferenceSystem>
Category           .         Нефтяная                      : 
Condition          .         В работе                      : 
EREF               .m        230.9                         : 100.8
Gorizont           .         15                            : 14
HZCS               .GCS_WGS_1984 WGS_1984_EASE-Grid_2.0_Global : ESRI,PE_10_3_1- <?xml version="1.0" encoding="utf-16"?><ILateBoundCoordinateReferenceSystem name="WGS_1984_EASE-Grid_2.0_Global"><AuthorityCode>EPSG,6933</AuthorityCode></ILateBoundCoordinateReferenceSystem>
Interpretator      .         Сагынбаева А.Н.               : 
Kupol              .         основной                      : osnovnoi
LATI               .dega     0.6383165337                  : GCS_WGS_1984
LONG               .dega     0.5634935854                  : GCS_WGS_1984
Mud                .         глинистый                     : 
Mud_density        .         1.18                          : 
Mud_resistivity    .         0                             : 
NGDU               .         НГДУ-1                        : 
ORIGINALWELLNAME   .         5975                          : 
Spud_date          .         1986                          : 1961
Viscosity          .         40                            : 
X                  .m        54369.4                       : 46154
Y                  .m        81430.5                       : 85761.93
YEAR               .         2018                          : 
~Parameter Information Block
#_______________________________________________________________________________
#
#PARAMETER_NAME    .UNIT     VALUE                         : DESCRIPTION
#_______________________________________________________________________________
SET                .         LQC_KAZNIPI_Petrel            : 
AVST               .DEGC     9999                          : Average Surface Temperature
BS                 .MM       9999                          : Диаметр долота
CABL               .         9999                          : Cable Tipe
CBD                .m        9999                          : 
CLEN               .KM       9999                          : Cable Length
DFD                .G/C3     9999                          : Drilling Fluid Density
DFV                .s        9999                          : Вязкость промывочной жидкости
DIRE               .         9999                          : Move Direction
EGL                .m        9999                          : Альтитуда поверхности земли
EKB                .m        9999                          : Альтитуда стола ротора
GSDD               .         CSAT                          : CSATкрив,0,DEPT,BOTTOM,,,,0
MT                 .         clay                          : Mud type
RMF                .OHMM     9999                          : Сопротивление фильтрата промывочной жидкости
SPEE               .M        9999                          : Speed
TDL                .m        9999                          : Полная глубина по каротажу
TLFamily_CALI      .         Caliper                       : 
TLFamily_CILD      .         Conductivity                  : 
TLFamily_COLL      .         Net Reservoir Flag            : 
TLFamily_CSAT      .         Fluid Code                    : 
TLFamily_DEPT      .         Measured Depth                : 
TLFamily_GR        .         Russian Gamma Ray             : 
TLFamily_GZ3       .         Gradient 225                  : 
TLFamily_LLS       .         Lateral Log Resistivity       : 
TLFamily_MINV      .         Micro Gradient Resistivity    : 
TLFamily_MNOR      .         Micro Resistivity             : 
TLFamily_NGLD      .         Neutron Gamma                 : 
TLFamily_OGZ       .         Gradient Inverted 225         : 
TLFamily_PHIE      .         Effective Porosity            : 
TLFamily_PHIEN     .         Effective Porosity            : 
TLFamily_PHIT      .         Porosity                      : 
TLFamily_PRMB      .         Permeability                  : 
TLFamily_PRMB_DGR  .         Permeability                  : 
TLFamily_RT        .         Formation Resistivity         : 
TLFamily_SOIL_ARCHIE .         Oil Saturation                : 
TLFamily_SOIL_DW   .         Oil Saturation                : 
TLFamily_SP        .         Spontaneous Potential         : 
TLFamily_VSH_FIN   .         Shale Volume                  : 
TLFamily_VSH_GR    .         Shale Volume                  : 
TLFamily_VSH_SP    .         Shale Volume                  : 
TOOL               .         9999                          : Tool Type
~Curve Information
#_______________________________________________________________________________
#
#LOGNAME           .UNIT     LOG_ID                        : DESCRIPTION
#_______________________________________________________________________________
DEPT               .M                                      : Колонка глубины 
CALI               .м                                      : Каверномер 
CILD               .мСм/м                                  : Индукционный каротаж 
COLL               .unitless                               : Описание 
CSAT               .unitless                               :  
GR                 .uR/h                                   : Гамма каротаж 
GZ3                .Ohmm                                   : Градиент-зонд  длиной 2.25м 
LLS                .Ohmm                                   : Боковой каротаж 
MINV               .Ohmm                                   : Микро-градиент зонд 
MNOR               .Ohmm                                   : Микро-потенциал зонд 
NGLD               .у.е.                                   : Показания зонда НГК-60 аппаратуры ДРСТ-3-90 
OGZ                .Ohmm                                   : Обращенный градиент-зонд 
PHIE               .v/v                                    : Описание 
PHIEN              .v/v                                    :  
PHIT               .v/v                                    : Описание 
PRMB               .mD                                     :  
PRMB_DGR           .mD                                     :  
RT                 .ohmm                                   : УЭС пласта 
SOIL_ARCHIE        .v/v                                    :  
SOIL_DW            .v/v                                    :  
SP                 .мВ                                     : Потенциал самополяризации 
VSH_FIN            .v/v                                    : Описание 
VSH_GR             .v/v                                    : Shale volume 
VSH_SP             .v/v                                    : Shale Volume 
~Ascii
# ...
1218.6     0.213      99.832     8          2          8.950749   15.82      7.118      1.257      1.279      1.68302    4.908      0.2052753  0.2052753  0.3009645  17.75642   8.340446   7.118      0.6513642  0.7338233  77.123     0.2899673  0.2728738  0.3070608 
1218.8     0.215      112.213    8          2          9.210115   15.691     6.653      1.405      1.322      1.672524   4.037      0.2042563  0.2042563  0.3046883  17.0012    6.52329    6.653      0.6385711  0.7261032  77.121     0.3043396  0.3016757  0.3070034 
1219       0.215      126.492    8          2          9.413944   15.691     5.745      1.729      1.701      1.670511   3.73       0.2008961  0.2008961  0.3054029  14.73133   5.377694   5.745      0.6071724  0.7036495  77.119     0.316687   0.326428   0.3069461 
1219.2     0.216      141.739    8          2          9.553804   15.691     3.744      2.049      1.983      1.667066   4.013      0.1991332  0.1991332  0.3066251  13.66433   4.710283   3.744      0.5160535  0.632444   77.117     0.3257329  0.3445772  0.3068886 
1219.4     0.217      155.859    8          2          9.617686   15.049     3.711      2.08       2.153      1.66288    4.296      0.1992052  0.1992052  0.3081102  13.70634   4.43365    3.711      0.5141917  0.6319216  77.115     0.3300153  0.3531994  0.3068312 
1219.6     0.218      171.265    8          2          9.651201   13.639     3.993      1.215      1.611      1.662195   4.578      0.199303   0.199303   0.3083532  13.76362   4.295075   3.993      0.5308056  0.6453936  76.984     0.3304552  0.3578088  0.3031015 
1219.8     0.219      185.385    8          2          9.725387   10.693     3.646      1.292      1.131      1.665318   4.784      0.1970831  0.1970831  0.3072453  12.52031   4.00355    3.646      0.5055558  0.6264079  76.853     0.333825   0.368227   0.299423  
1220       0.217      199.683    8          2          9.865928   8.754      3.092      1.951      1.76       1.672137   5.294      0.1924436  0.1924436  0.3048256  10.27259   3.504421   3.092      0.4545982  0.5884398  76.594     0.3405516  0.3888026  0.2923006 
1220.2     0.215      210.494    -9999      -9999      10.03804   8.005      2.546      2.538      1.806      1.687429   6.958      0.1853919  0.1853919  0.2994002  7.604412   2.977108   2.546      0.3827884  0.5345893  75.948     0.3454799  0.4155736  0.2753862 
1220.4     0.215      215.629    -9999      -9999      10.18212   7.133      2.474      1.783      1.367      1.714004   8.606      0.1746366  0.1746366  0.2899715  4.806757   2.597223   2.474      0.3409986  0.5070164  75.3       0.3494996  0.4393961  0.2596031 
1220.6     0.215      219.479    -9999      -9999      10.22882   6.311      2.997      0.969      0.971      1.743174   10.273     0.1653853  0.1653853  0.2796219  3.239626   2.484828   2.997      0.3684746  0.5321236  74.651     0.3461715  0.4474057  0.2449373 
1220.8     0.215      219.857    -9999      -9999      10.13303   5.515      3.555      1.128      1.014      1.760422   12.068     0.1646142  0.1646142  0.2735023  3.134825   2.720874   3.555      0.4147234  0.5638689  73.873     0.3299639  0.43113    0.2287977 
1221       0.217      221.143    1          2          9.932706   4.868      3.727      1.36       1.144      1.760142   13.991     0.171666   0.171666   0.2736015  4.234763   3.289567   3.727      0.448093   0.5813052  73.351     0.3088953  0.3989782  0.2188124 
1221.2     0.215      216.401    1          2          9.704472   4.735      3.797      1.192      1.298      1.749884   15.92      0.1824012  0.1824012  0.2772412  6.693765   4.083677   3.797      0.4810447  0.5984713  72.832     0.287394   0.3652595  0.2095285 
1221.4     0.213      206.531    1          2          9.467222   4.631      5.112      1.193      1.335      1.740048   17.847     0.1922739  0.1922739  0.2807311  10.19851   5.112974   5.112      0.5688921  0.6638502  72.437     0.2680522  0.3332262  0.2028783 
1221.6     0.211      193.897    1          2          9.195759   4.681      6.498      1.446      1.32       1.733385   19.897     0.2011438  0.2011438  0.2830949  14.88773   6.612626   6.498      0.6296304  0.7087946  72.048     0.2483369  0.3000047  0.1966691 
1221.8     0.212      182.345    1          2          8.891748   5.132      7.886      1.431      1.6        1.727239   18.552     0.2094715  0.2094715  0.2852755  21.2363    8.819961   7.886      0.6735353  0.7412488  71.788     0.2297089  0.2667157  0.1927022 
1222       0.213      169.506    1          2          8.589922   5.748      9.283      1.221      1.555      1.723224   17.134     0.2160816  0.2160816  0.2867     28.15225   11.7398    9.283      0.7056622  0.7652722  71.651     0.2139953  0.2373209  0.1906697 
1222.2     0.215      155.602    1          2          8.31096    6.365      9.979      1.413      1.426      1.727454   15.599     0.2191939  0.2191939  0.2851994  32.14856   15.29138   9.979      0.7190025  0.7742747  71.396     0.2000165  0.2130419  0.186991  
1222.4     0.215      142.544    1          2          8.073439   7.007      10.515     1.216      1.208      1.73989    14.187     0.2181871  0.2181871  0.280787   30.79724   19.15052   10.515     0.7247158  0.777678   71.258     0.1896969  0.1943377  0.1850561 
1222.6     0.215      128.42     1          2          7.907658   7.623      10.48      1.212      1.298      1.752511   12.768     0.2159828  0.2159828  0.2763093  28.03384   22.40759   10.48      0.7218356  0.7742622  71.134     0.1828076  0.1822648  0.1833504 
1222.8     0.215      114.296    1          2          7.83456    8.461      9.986      1.238      1.344      1.76114    10.991     0.2140516  0.2140516  0.2732477  25.8174    24.01447   9.986      0.7132264  0.766368   71.003     0.1793822  0.1771826  0.1815819 
1223       0.214      100.172    1          2          7.83042    9.608      9.487      1.248      1.232      1.770309   8.067      0.2108669  0.2108669  0.2699942  22.53849   24.10885   9.487      0.7023841  0.7571057  70.993     0.1791736  0.176899   0.1814483 
1223.2     0.215      96.429     1          2          7.831966   10.643     8.948      1.134      1.277      1.783206   7.55       0.2062761  0.2062761  0.2654187  18.53073   24.07358   8.948      0.688181   0.7450576  70.992     0.1792199  0.1770048  0.1814349 
1223.4     0.215      94.099     1          2          7.788321   11.798     8.439      1.018      1.163      1.796113   7.139      0.2019212  0.2019212  0.2608392  15.38967   25.08994   8.439      0.6734803  0.73243    71.111     0.1785392  0.1740411  0.1830374 
1223.6     0.217      94.897     1          2          7.707243   12.945     7.907      1.238      1.156      1.807398   6.754      0.1982169  0.1982169  0.2568351  13.14061   27.09325   7.907      0.657876   0.7189055  71.368     0.1776309  0.1686666  0.1865952 
1223.8     0.218      97.465     1          2          7.652866   13.982     8.268      1.131      1.177      1.821252   6.343      0.1935612  0.1935612  0.2519197  10.7741    28.52567   8.268      0.6579612  0.7192227  71.504     0.176844   0.1651554  0.1885325 
1224       0.217      100.032    1          2          7.702202   15.256     8.148      0.889      0.905      1.838149   6.077      0.1867344  0.1867344  0.2459247  8.052525   27.22295   8.148      0.6446662  0.7088255  71.632     0.1793645  0.168338   0.1903909 
1224.2     0.216      102.6      1          2          7.887234   16.54      7.256      1.228      1.846      1.84766    5.972      0.1809888  0.1809888  0.2425501  6.302455   22.84544   7.256      0.6144446  0.6848598  71.759     0.1865494  0.1808302  0.1922686 
1224.4     0.215      108.242    1          2          8.180899   17.942     6.361      1.837      1.406      1.835814   5.573      0.1818948  0.1818948  0.2467531  6.55074    17.29672   6.361      0.5916554  0.667462   71.639     0.1965404  0.2025874  0.1904935 
1224.6     0.215      119.534    1          2          8.530906   18.767     5.688      1.126      1.117      1.799271   5.162      0.1903296  0.1903296  0.2597186  9.38692    12.41493   5.688      0.5863135  0.665073   71.507     0.2102698  0.2319638  0.1885758 
