~Version
 VERS              .         2.0                           : CWLS LOG ASCII STANDARD - VERSION 2.0
 WRAP              .         NO                            : ONE LINE PER DEPTH STEP
 DLM               .         SPACE                         : DELIMITING CHARACTER(SPACE TAB OR COMMA)
~Well Information
#_______________________________________________________________________________
#
#PARAMETER_NAME    .UNIT     VALUE                         : DESCRIPTION
#_______________________________________________________________________________
STRT               .M        964.4                         : First reference value
STOP               .M        1316                          : Last reference value
STEP               .M        0.2                           : Step increment
NULL               .         -9999                         : Missing value
COMP               .                                       : Company
WELL               .         5975                          : Well name
FLD                .         Узень                         : Field
LOC                .                                       : Location
CNTY               .         KAZAKHSTAN                    : County
STAT               .                                       : State
CTRY               .                                       : Country
SRVC               .         GIS COMPANY                   : Service Company
DATE               .         01.05.1986                    : Date
UWI                .         UZEN_5975                     : Unique Well ID
Block              .         4                             : 
Cartographic_reference_system .         GCS_WGS_1984                  : ESRI,PE_10_3_1- <?xml version="1.0" encoding="utf-16"?><ILateBoundCoordinateReferenceSystem name="GCS_WGS_1984"><AuthorityCode>EPSG,4326</AuthorityCode></ILateBoundCoordinateReferenceSystem>
Category           .         Нефтяная                      : 
Condition          .         В работе                      : 
EREF               .m        230.9                         : 100.8
Gorizont           .         15                            : 14
HZCS               .GCS_WGS_1984 WGS_1984_EASE-Grid_2.0_Global : ESRI,PE_10_3_1- <?xml version="1.0" encoding="utf-16"?><ILateBoundCoordinateReferenceSystem name="WGS_1984_EASE-Grid_2.0_Global"><AuthorityCode>EPSG,6933</AuthorityCode></ILateBoundCoordinateReferenceSystem>
Interpretator      .         Сагынбаева А.Н.               : 
Kupol              .         основной                      : osnovnoi
LATI               .dega     0.6383165337                  : GCS_WGS_1984
LONG               .dega     0.5634935854                  : GCS_WGS_1984
Mud                .         глинистый                     : 
Mud_density        .         1.18                          : 
Mud_resistivity    .         0                             : 
NGDU               .         НГДУ-1                        : 
ORIGINALWELLNAME   .         5975                          : 
Spud_date          .         1986                          : 1961
Viscosity          .         40                            : 
X                  .m        54369.4                       : 46154
Y                  .m        81430.5                       : 85761.93
YEAR               .         2018                          : 
~Parameter Information Block
#_______________________________________________________________________________
#
#PARAMETER_NAME    .UNIT     VALUE                         : DESCRIPTION
#_______________________________________________________________________________
SET                .         LQC_KAZNIPI_Petrel            : 
AVST               .DEGC     9999                          : Average Surface Temperature
BS                 .MM       9999                          : Диаметр долота
CABL               .         9999                          : Cable Tipe
CBD                .m        9999                          : 
CLEN               .KM       9999                          : Cable Length
DFD                .G/C3     9999                          : Drilling Fluid Density
DFV                .s        9999                          : Вязкость промывочной жидкости
DIRE               .         9999                          : Move Direction
EGL                .m        9999                          : Альтитуда поверхности земли
EKB                .m        9999                          : Альтитуда стола ротора
GSDD               .         CSAT                          : CSATкрив,0,DEPT,BOTTOM,,,,0
MT                 .         clay                          : Mud type
RMF                .OHMM     9999                          : Сопротивление фильтрата промывочной жидкости
SPEE               .M        9999                          : Speed
TDL                .m        9999                          : Полная глубина по каротажу
TLFamily_CALI      .         Caliper                       : 
TLFamily_CILD      .         Conductivity                  : 
TLFamily_COLL      .         Net Reservoir Flag            : 
TLFamily_CSAT      .         Fluid Code                    : 
TLFamily_DEPT      .         Measured Depth                : 
TLFamily_GR        .         Russian Gamma Ray             : 
TLFamily_GZ3       .         Gradient 225                  : 
TLFamily_LLS       .         Lateral Log Resistivity       : 
TLFamily_MINV      .         Micro Gradient Resistivity    : 
TLFamily_MNOR      .         Micro Resistivity             : 
TLFamily_NGLD      .         Neutron Gamma                 : 
TLFamily_OGZ       .         Gradient Inverted 225         : 
TLFamily_PHIE      .         Effective Porosity            : 
TLFamily_PHIEN     .         Effective Porosity            : 
TLFamily_PHIT      .         Porosity                      : 
TLFamily_PRMB      .         Permeability                  : 
TLFamily_PRMB_DGR  .         Permeability                  : 
TLFamily_RT        .         Formation Resistivity         : 
TLFamily_SOIL_ARCHIE .         Oil Saturation                : 
TLFamily_SOIL_DW   .         Oil Saturation                : 
TLFamily_SP        .         Spontaneous Potential         : 
TLFamily_VSH_FIN   .         Shale Volume                  : 
TLFamily_VSH_GR    .         Shale Volume                  : 
TLFamily_VSH_SP    .         Shale Volume                  : 
TOOL               .         9999                          : Tool Type
~Curve Information
#_______________________________________________________________________________
#
#LOGNAME           .UNIT     LOG_ID                        : DESCRIPTION
#_______________________________________________________________________________
DEPT               .M                                      : Колонка глубины 
CALI               .м                                      : Каверномер 
CILD               .мСм/м                                  : Индукционный каротаж 
COLL               .unitless                               : Описание 
CSAT               .unitless                               :  
GR                 .uR/h                                   : Гамма каротаж 
GZ3                .Ohmm                                   : Градиент-зонд  длиной 2.25м 
LLS                .Ohmm                                   : Боковой каротаж 
MINV               .Ohmm                                   : Микро-градиент зонд 
MNOR               .Ohmm                                   : Микро-потенциал зонд 
NGLD               .у.е.                                   : Показания зонда НГК-60 аппаратуры ДРСТ-3-90 
OGZ                .Ohmm                                   : Обращенный градиент-зонд 
PHIE               .v/v                                    : Описание 
PHIEN              .v/v                                    :  
PHIT               .v/v                                    : Описание 
PRMB               .mD                                     :  
PRMB_DGR           .mD                                     :  
RT                 .ohmm                                   : УЭС пласта 
SOIL_ARCHIE        .v/v                                    :  
SOIL_DW            .v/v                                    :  
SP                 .мВ                                     : Потенциал самополяризации 
VSH_FIN            .v/v                                    : Описание 
VSH_GR             .v/v                                    : Shale volume 
VSH_SP             .v/v                                    : Shale Volume 
~Ascii
# ...
1169       0.214      46.286     1          2          7.535011   22.621     19.712     1.269      1.447      1.797089   19.493     0.2112277  0.2112277  0.2604929  22.88798   27.95953   19.712     0.7861769  0.8255878  78.238     0.1492885  0.1665129  0.1492885 
1169.2     0.213      46.286     1          2          7.528172   23.929     16.771     1.246      1.404      1.737971   18.594     0.2325515  0.2325515  0.2814679  56.8299    28.14553   16.771     0.7878684  0.8263825  78.106     0.1482314  0.1660626  0.1482314 
1169.4     0.213      46.286     1          2          7.525728   25.342     13.858     1.271      1.45       1.713344   17.824     0.2412946  0.2412946  0.2902057  82.51247   28.21231   13.858     0.7753389  0.8152513  78.104     0.1482155  0.165902   0.1482155 
1169.6     0.213      47.704     1          2          7.499412   26.626     12.762     1.26       1.501      1.718431   17.053     0.2394947  0.2394947  0.2884006  76.41525   28.94137   12.762     0.764955   0.8061742  78.102     0.1481997  0.1641826  0.1481997 
1169.8     0.214      50.271     1          2          7.457592   28.039     12.808     1.26       1.543      1.735648   16.977     0.2333913  0.2333913  0.2822919  58.90208   30.13898   12.808     0.760016   0.801967   78.1       0.1481839  0.1614867  0.1481839 
1170       0.214      52.839     1          2          7.434166   28.527     11.645     1.262      1.482      1.751169   17.209     0.2278873  0.2278873  0.2767854  46.57832   30.8313    11.645     0.7437822  0.787808   78.099     0.148176   0.159996   0.148176  
1170.2     0.214      56.813     1          2          7.452657   28.145     10.45      1.236      1.489      1.761773   17.159     0.2241302  0.2241302  0.2730231  39.68196   30.28351   10.45      0.726496   0.772635   78.097     0.1481602  0.1611715  0.1481602 
1170.4     0.214      60.663     1          2          7.509559   26.989     10.926     1.258      1.519      1.769962   16.415     0.2212297  0.2212297  0.2701173  35.06456   28.65807   10.926     0.7290976  0.7750298  78.095     0.1481444  0.1648434  0.1481444 
1170.6     0.213      64.399     1          2          7.588462   26.265     12.473     1.264      1.407      1.77582    15.773     0.2194198  0.2194198  0.268039   32.45975   26.54748   12.473     0.7435912  0.7877662  77.991     0.1473309  0.170074   0.1473309 
1170.8     0.214      66.857     1          2          7.668721   26.238     13.942     1.187      1.279      1.775049   15.003     0.2200241  0.2200241  0.2683125  33.30724   24.56006   13.942     0.7572263  0.7996095  77.86      0.1463283  0.1755647  0.1463283 
1171       0.214      68.143     1          2          7.734113   26.567     14.081     1.097      1.232      1.76423    14.361     0.2236845  0.2236845  0.2721511  38.93473   23.05128   14.081     0.7618015  0.8036041  77.931     0.1468687  0.1801691  0.1468687 
1171.2     0.214      69.429     1          2          7.779106   26.652     13.174     1.204      1.309      1.745993   13.591     0.2297548  0.2297548  0.2786216  50.43996   22.06733   13.174     0.7599067  0.8019459  78.087     0.1480813  0.1834071  0.1480813 
1171.4     0.214      69.527     1          2          7.813473   26.425     11.703     1.321      1.361      1.728436   12.949     0.2357242  0.2357242  0.284851   65.06428   21.34418   11.703     0.7517966  0.7947699  78.186     0.148869   0.1859196  0.148869  
1171.6     0.213      70.809     1          2          7.851427   25.485     10.658     1.449      1.354      1.718851   12.278     0.2393146  0.2393146  0.2882518  75.83056   20.57302   10.658     0.7440518  0.787773   78.114     0.1482947  0.1887342  0.1482947 
1171.8     0.213      72.091     1          2          7.878113   24.003     10.013     1.154      1.226      1.718695   11.892     0.2394533  0.2394533  0.2883071  76.28051   20.04757   10.013     0.736576   0.7811221  78.082     0.1480419  0.1907388  0.1480419 
1172       0.213      73.373     1          2          7.853028   22.402     10.188     1.588      1.597      1.725394   11.606     0.2367395  0.2367395  0.28593    67.9436    20.54111   10.188     0.7361023  0.7809172  78.21      0.1490621  0.1888539  0.1490621 
1172.2     0.214      75.857     1          2          7.767087   21.02      10.536     1.294      1.483      1.735343   11.349     0.2332153  0.2332153  0.2824004  58.46157   22.32598   10.536     0.7368134  0.7816352  78.208     0.149046   0.1825365  0.149046  
1172.4     0.214      77.222     1          2          7.663543   19.998     10.171     1.032      1.315      1.743765   11.092     0.2302322  0.2302322  0.2794121  51.4775    24.68365   10.171     0.7294058  0.7751622  78.206     0.1490299  0.1752052  0.1490299 
1172.6     0.214      79.79      1          2          7.595808   19.259     9.161      1.168      1.135      1.745044   10.707     0.2295211  0.2295211  0.2789585  49.93973   26.3591    9.161      0.7150276  0.7625594  78.302     0.1498103  0.1705693  0.1498103 
1172.8     0.214      82.358     1          2          7.583173   18.939     8.501      1.07       1.221      1.736914   10.45      0.2323269  0.2323269  0.2818429  56.28793   26.68396   8.501      0.7079579  0.7562291  78.331     0.1500487  0.1697183  0.1500487 
1173       0.214      84.993     1          2          7.611074   18.618     9.42       1.028      1.184      1.722329   10.129     0.2375069  0.2375069  0.2870175  70.20389   25.97182   9.42       0.7269863  0.7729709  78.329     0.1500322  0.1716033  0.1500322 
1173.2     0.214      88.843     1          2          7.655796   18.361     9.104      1.144      1.157      1.705111   9.743      0.243264   0.243264   0.2931267  89.74227   24.86976   9.104      0.7283067  0.7741537  78.457     0.1510992  0.1746686  0.1510992 
1173.4     0.214      92.632     1          2          7.698514   18.073     8.895      1.402      1.312      1.688261   9.487      0.249245   0.249245   0.299105   115.8193   23.86077   8.895      0.7310791  0.776471   78.456     0.1510907  0.1776477  0.1510907 
1173.6     0.214      95.256     1          2          7.724735   17.528     8.458      1.247      1.363      1.67705    9.23       0.2532282  0.2532282  0.3030826  137.2646   23.26183   8.458      0.7284222  0.7740307  78.454     0.1510739  0.1795014  0.1510739 
1173.8     0.214      99.053     1          2          7.716209   16.887     8.003      0.964      1.312      1.678143   9.003      0.2524833  0.2524833  0.3026949  132.9726   23.4549    8.003      0.7205669  0.7672343  78.581     0.1521563  0.1788966  0.1521563 
1174       0.214      101.621    1          2          7.666297   16.116     8.511      1.056      1.3        1.692928   8.845      0.2472432  0.2472432  0.2974491  106.3413   24.61782   8.511      0.7235171  0.7699673  78.579     0.1521391  0.1753963  0.1521391 
1174.2     0.214      104.188    1          2          7.607114   15.346     8.424      1.209      1.426      1.715283   8.717      0.2392317  0.2392317  0.2895175  75.56313   26.07171   8.424      0.7140949  0.7618529  78.607     0.152381   0.1713345  0.152381  
1174.4     0.214      105.429    1          2          7.585239   14.704     7.841      1.102      1.284      1.736376   8.489      0.2314657  0.2314657  0.282034   54.25814   26.63057   7.841      0.695687   0.7458776  78.705     0.153237   0.1698571  0.153237  
1174.6     0.214      106.714    1          2          7.615227   13.891     7.12       0.891      1.145      1.75038    8.331      0.2264182  0.2264182  0.2770651  43.74946   25.86745   7.12       0.6754226  0.7280481  78.732     0.1534755  0.1718857  0.1534755 
1174.8     0.214      106.748    1          2          7.676299   13.577     6.92       1.045      1.158      1.75477    8.203      0.2245689  0.2245689  0.2755075  40.43142   24.38026   6.92       0.6686957  0.7222862  78.831     0.1543595  0.1760922  0.1543595 
1175       0.213      108.03     1          2          7.744272   12.935     6.971      1.053      1.158      1.749794   7.983      0.2263372  0.2263372  0.2772729  43.59863   22.82536   6.971      0.6720832  0.7252346  78.83      0.1543505  0.1808952  0.1543505 
