~Version
 VERS              .         2.0                           : CWLS LOG ASCII STANDARD - VERSION 2.0
 WRAP              .         NO                            : ONE LINE PER DEPTH STEP
 DLM               .         SPACE                         : DELIMITING CHARACTER(SPACE TAB OR COMMA)
~Well Information
#_______________________________________________________________________________
#
#PARAMETER_NAME    .UNIT     VALUE                         : DESCRIPTION
#_______________________________________________________________________________
STRT               .M        964.4                         : First reference value
STOP               .M        1316                          : Last reference value
STEP               .M        0.2                           : Step increment
NULL               .         -9999                         : Missing value
COMP               .                                       : Company
WELL               .         5975                          : Well name
FLD                .         Узень                         : Field
LOC                .                                       : Location
CNTY               .         KAZAKHSTAN                    : County
STAT               .                                       : State
CTRY               .                                       : Country
SRVC               .         GIS COMPANY                   : Service Company
DATE               .         01.05.1986                    : Date
UWI                .         UZEN_5975                     : Unique Well ID
Block              .         4                             : 
Cartographic_reference_system .         GCS_WGS_1984                  : ESRI,PE_10_3_1- <?xml version="1.0" encoding="utf-16"?><ILateBoundCoordinateReferenceSystem name="GCS_WGS_1984"><AuthorityCode>EPSG,4326</AuthorityCode></ILateBoundCoordinateReferenceSystem>
Category           .         Нефтяная                      : 
Condition          .         В работе                      : 
EREF               .m        230.9                         : 100.8
Gorizont           .         15                            : 14
HZCS               .GCS_WGS_1984 WGS_1984_EASE-Grid_2.0_Global : ESRI,PE_10_3_1- <?xml version="1.0" encoding="utf-16"?><ILateBoundCoordinateReferenceSystem name="WGS_1984_EASE-Grid_2.0_Global"><AuthorityCode>EPSG,6933</AuthorityCode></ILateBoundCoordinateReferenceSystem>
Interpretator      .         Сагынбаева А.Н.               : 
Kupol              .         основной                      : osnovnoi
LATI               .dega     0.6383165337                  : GCS_WGS_1984
LONG               .dega     0.5634935854                  : GCS_WGS_1984
Mud                .         глинистый                     : 
Mud_density        .         1.18                          : 
Mud_resistivity    .         0                             : 
NGDU               .         НГДУ-1                        : 
ORIGINALWELLNAME   .         5975                          : 
Spud_date          .         1986                          : 1961
Viscosity          .         40                            : 
X                  .m        54369.4                       : 46154
Y                  .m        81430.5                       : 85761.93
YEAR               .         2018                          : 
~Parameter Information Block
#_______________________________________________________________________________
#
#PARAMETER_NAME    .UNIT     VALUE                         : DESCRIPTION
#_______________________________________________________________________________
SET                .         LQC_KAZNIPI_Petrel            : 
AVST               .DEGC     9999                          : Average Surface Temperature
BS                 .MM       9999                          : Диаметр долота
CABL               .         9999                          : Cable Tipe
CBD                .m        9999                          : 
CLEN               .KM       9999                          : Cable Length
DFD                .G/C3     9999                          : Drilling Fluid Density
DFV                .s        9999                          : Вязкость промывочной жидкости
DIRE               .         9999                          : Move Direction
EGL                .m        9999                          : Альтитуда поверхности земли
EKB                .m        9999                          : Альтитуда стола ротора
GSDD               .         CSAT                          : CSATкрив,0,DEPT,BOTTOM,,,,0
MT                 .         clay                          : Mud type
RMF                .OHMM     9999                          : Сопротивление фильтрата промывочной жидкости
SPEE               .M        9999                          : Speed
TDL                .m        9999                          : Полная глубина по каротажу
TLFamily_CALI      .         Caliper                       : 
TLFamily_CILD      .         Conductivity                  : 
TLFamily_COLL      .         Net Reservoir Flag            : 
TLFamily_CSAT      .         Fluid Code                    : 
TLFamily_DEPT      .         Measured Depth                : 
TLFamily_GR        .         Russian Gamma Ray             : 
TLFamily_GZ3       .         Gradient 225                  : 
TLFamily_LLS       .         Lateral Log Resistivity       : 
TLFamily_MINV      .         Micro Gradient Resistivity    : 
TLFamily_MNOR      .         Micro Resistivity             : 
TLFamily_NGLD      .         Neutron Gamma                 : 
TLFamily_OGZ       .         Gradient Inverted 225         : 
TLFamily_PHIE      .         Effective Porosity            : 
TLFamily_PHIEN     .         Effective Porosity            : 
TLFamily_PHIT      .         Porosity                      : 
TLFamily_PRMB      .         Permeability                  : 
TLFamily_PRMB_DGR  .         Permeability                  : 
TLFamily_RT        .         Formation Resistivity         : 
TLFamily_SOIL_ARCHIE .         Oil Saturation                : 
TLFamily_SOIL_DW   .         Oil Saturation                : 
TLFamily_SP        .         Spontaneous Potential         : 
TLFamily_VSH_FIN   .         Shale Volume                  : 
TLFamily_VSH_GR    .         Shale Volume                  : 
TLFamily_VSH_SP    .         Shale Volume                  : 
TOOL               .         9999                          : Tool Type
~Curve Information
#_______________________________________________________________________________
#
#LOGNAME           .UNIT     LOG_ID                        : DESCRIPTION
#_______________________________________________________________________________
DEPT               .M                                      : Колонка глубины 
CALI               .м                                      : Каверномер 
CILD               .мСм/м                                  : Индукционный каротаж 
COLL               .unitless                               : Описание 
CSAT               .unitless                               :  
GR                 .uR/h                                   : Гамма каротаж 
GZ3                .Ohmm                                   : Градиент-зонд  длиной 2.25м 
LLS                .Ohmm                                   : Боковой каротаж 
MINV               .Ohmm                                   : Микро-градиент зонд 
MNOR               .Ohmm                                   : Микро-потенциал зонд 
NGLD               .у.е.                                   : Показания зонда НГК-60 аппаратуры ДРСТ-3-90 
OGZ                .Ohmm                                   : Обращенный градиент-зонд 
PHIE               .v/v                                    : Описание 
PHIEN              .v/v                                    :  
PHIT               .v/v                                    : Описание 
PRMB               .mD                                     :  
PRMB_DGR           .mD                                     :  
RT                 .ohmm                                   : УЭС пласта 
SOIL_ARCHIE        .v/v                                    :  
SOIL_DW            .v/v                                    :  
SP                 .мВ                                     : Потенциал самополяризации 
VSH_FIN            .v/v                                    : Описание 
VSH_GR             .v/v                                    : Shale volume 
VSH_SP             .v/v                                    : Shale Volume 
~Ascii
# ...
1057.4     0.225      293.824    -9999      -9999      6.788407   3.778      2.009      2.444      1.599      1.670412   1.894      0.1226028  0.1226028  0.2887338  0.5224665  2.719721   2.009      0          0.3627263  92.761     0.5034274  0.4312046  0.5756503 
1057.6     0.229      320.464    -9999      -9999      7.578566   3.756      1.559      0.972      0.8        1.560662   1.772      0.1440969  0.1440969  0.3287705  1.30672    1.578868   1.559      0.01872557 0.3720908  92.891     0.559617   0.5384221  0.580812  
1057.8     0.225      353.208    -9999      -9999      8.211888   3.73       1.462      0.437      0.325      1.482887   1.695      0.1534531  0.1534531  0.357143   1.94752    1.021048   1.462      0.04261412 0.3986871  93.149     0.617242   0.6433101  0.591174  
1058       0.225      379.853    -9999      -9999      8.645762   3.701      1.442      0.631      0.394      1.43354    1.641      0.1568253  0.1568253  0.3751446  2.24876    0.7574623  1.442      0.05447716 0.4177195  93.278     0.6615735  0.7267332  0.5964138 
1058.2     0.231      405.839    -9999      -9999      8.875183   3.562      1.459      0.317      0.436      1.404376   1.566      0.1586954  0.1586954  0.3857836  2.43547    0.6468259  1.459      0.06932184 0.4337487  93.394     0.6881459  0.7751325  0.6011593 
1058.4     0.223      432.185    -9999      -9999      8.917263   3.334      1.497      0.451      0.401      1.387993   1.518      0.1621781  0.1621781  0.3917603  2.82547    0.6283616  1.497      0.09770559 0.4507866  93.537     0.6957036  0.7843536  0.6070538 
1058.6     0.232      448.639    -9999      -9999      8.824848   3.128      1.678      0.28       0.373      1.37972    1.543      0.1677189  0.1677189  0.3947781  3.578655   0.6696262  1.678      0.1694232  0.4901047  93.653     0.688058   0.7642449  0.6118709 
1058.8     0.234      459.208    -9999      -9999      8.678677   2.923      1.744      0.392      0.447      1.375486   1.543      0.1743386  0.1743386  0.3963227  4.746053   0.7404966  1.744      0.2113661  0.5081857  93.653     0.6726788  0.7334867  0.6118709 
1059       0.227      470.76     -9999      -9999      8.529753   2.717      1.674      0.547      0.537      1.371681   1.546      0.1806873  0.1806873  0.3977107  6.221934   0.8204204  1.674      0.2207178  0.5057632  93.653     0.6576465  0.703422   0.6118709 
1059.2     0.225      482.313    -9999      -9999      8.383658   2.512      1.605      0.433      0.46       1.368483   1.569      0.1865229  0.1865229  0.3988775  7.980227   0.9072019  1.605      0.2268746  0.5021726  93.653     0.6434986  0.6751263  0.6118709 
1059.4     0.23       490.432    -9999      -9999      8.24807    2.306      1.533      0.248      0.261      1.369305   1.595      0.1903121  0.1903121  0.3985774  9.379919   0.995936   1.533      0.2237587  0.4942502  93.664     0.6311071  0.6498847  0.6123295 
1059.6     0.234      495.284    -9999      -9999      8.146487   2.103      1.496      0.281      0.357      1.37444    1.623      0.1906424  0.1906424  0.3967043  9.513001   1.068057   1.496      0.215993   0.4868766  93.782     0.6244301  0.6315941  0.617266  
1059.8     0.237      499.417    -9999      -9999      8.068115   1.979      1.502      0.383      0.473      1.377491   1.674      0.1926899  0.1926899  0.3955915  10.38109   1.127248   1.502      0.2247114  0.4890978  93.653     0.6148531  0.6178353  0.6118709 
1060       0.236      503.266    -9999      -9999      7.970969   1.9        1.525      0.462      0.527      1.371507   1.725      0.1976183  0.1976183  0.3977744  12.80941   1.205193   1.525      0.2469679  0.499547   93.653     0.6065334  0.6011959  0.6118709 
1060.2     0.232      506.844    -9999      -9999      7.857059   1.799      1.529      0.324      0.503      1.35691    1.777      0.2070203  0.2070203  0.4030992  19.12829   1.30348    1.529      0.2777312  0.5130689  93.514     0.5941786  0.5822548  0.6061023 
1060.4     0.23       509.143    -9999      -9999      7.797074   1.723      1.506      0.283      0.426      1.340482   1.828      0.2163119  0.2163119  0.4090921  28.43016   1.358419   1.506      0.2998664  0.5219885  93.264     0.5841825  0.5725217  0.5958432 
1060.6     0.233      510.429    -9999      -9999      7.861567   1.698      1.514      0.308      0.348      1.328004   1.88       0.2191361  0.2191361  0.4136441  32.06939   1.299442   1.514      0.3094508  0.5288492  93.264     0.5894181  0.582993   0.5958432 
1060.8     0.234      510.429    -9999      -9999      8.047707   1.696      1.525      0.411      0.373      1.32045    1.931      0.2167257  0.2167257  0.4163997  28.9364    1.143194   1.525      0.3051311  0.5304391  93.264     0.6050726  0.6143019  0.5958432 
1061       0.234      510.429    -9999      -9999      8.282589   1.643      1.59       0.425      0.399      1.315731   1.982      0.2115309  0.2115309  0.4181213  23.18587   0.972554   1.59       0.3040575  0.5369763  93.264     0.6260316  0.6562199  0.5958432 
1061.2     0.234      510.175    -9999      -9999      8.474038   1.542      1.651      0.334      0.424      1.312629   2.062      0.2075947  0.2075947  0.419253   19.60265   0.8524905  1.651      0.3049664  0.5430784  93.127     0.641389   0.6924939  0.5902842 
1061.4     0.233      508.893    -9999      -9999      8.569588   1.463      1.714      0.296      0.437      1.312392   2.216      0.2062327  0.2062327  0.4193393  18.49641   0.7982329  1.714      0.3131472  0.5504788  92.876     0.6457777  0.711341   0.5802144 
1061.6     0.23       506.326    -9999      -9999      8.575738   1.362      1.728      0.283      0.398      1.317305   2.396      0.2050884  0.2050884  0.4175471  17.61542   0.7948614  1.728      0.3124405  0.5501614  92.746     0.6438144  0.7125715  0.5750573 
1061.8     0.227      502.23     -9999      -9999      8.543944   1.285      1.648      0.27       0.386      1.327618   2.55       0.2032099  0.2032099  0.4137848  16.25916   0.8124461  1.648      0.291318   0.5351574  92.617     0.6381058  0.706233   0.5699785 
1062       0.227      497.095    -9999      -9999      8.524076   1.26       1.544      0.261      0.425      1.339665   2.706      0.2003405  0.2003405  0.4093901  14.38633   0.8236317  1.544      0.2601984  0.5139434  92.481     0.6334836  0.7023008  0.5646665 
1062.2     0.227      490.674    -9999      -9999      8.532069   1.262      1.455      0.372      0.463      1.346998   2.884      0.1990862  0.1990862  0.4067151  13.63694   0.8191136  1.455      0.2351249  0.4960582  92.217     0.6291784  0.7038801  0.5544767 
1062.4     0.227      483.792    -9999      -9999      8.548918   1.286      1.371      0.321      0.436      1.346852   3.042      0.2018045  0.2018045  0.4067684  15.31325   0.8096698  1.371      0.2227159  0.4835814  91.7       0.6211026  0.7072209  0.5349844 
1062.6     0.227      473.748    -9999      -9999      8.524611   1.286      1.377      0.27       0.373      1.346737   3.029      0.2049353  0.2049353  0.4068105  17.50075   0.8233289  1.377      0.2346382  0.4877802  91.321     0.611743   0.7024062  0.5210798 
1062.8     0.225      464.313    -9999      -9999      8.374704   1.26       1.762      0.283      0.387      1.36285    2.67       0.204607   0.204607   0.4009323  17.25745   0.9128101  1.762      0.3173027  0.5428354  91.192     0.594925   0.6734295  0.5164206 
1063       0.223      451.883    -9999      -9999      8.020502   1.235      2.531      0.283      0.412      1.41004    2.336      0.19792    0.19792    0.3837173  12.9753    1.1648     2.531      0.407091   0.6030832  91.192     0.5630219  0.6096233  0.5164206 
1063.2     0.22       430.699    -9999      -9999      7.463841   1.209      2.923      0.296      0.427      1.49555    2.16       0.1812931  0.1812931  0.3525235  6.38477    1.708587   2.923      0.4018189  0.5975131  91.192     0.5188801  0.5213395  0.5164206 
1063.4     0.219      407.163    -9999      -9999      6.805715   1.34       3.538      0.312      1.016      1.621562   2.216      0.1498491  0.1498491  0.3065541  1.670037   2.687515   3.538      0.3543925  0.5710102  91.192     0.4748639  0.4333072  0.5164206 
