~Version
 VERS              .         2.0                           : CWLS LOG ASCII STANDARD - VERSION 2.0
 WRAP              .         NO                            : ONE LINE PER DEPTH STEP
 DLM               .         SPACE                         : DELIMITING CHARACTER(SPACE TAB OR COMMA)
~Well Information
#_______________________________________________________________________________
#
#PARAMETER_NAME    .UNIT     VALUE                         : DESCRIPTION
#_______________________________________________________________________________
STRT               .M        964.4                         : First reference value
STOP               .M        1316                          : Last reference value
STEP               .M        0.2                           : Step increment
NULL               .         -9999                         : Missing value
COMP               .                                       : Company
WELL               .         5975                          : Well name
FLD                .         Узень                         : Field
LOC                .                                       : Location
CNTY               .         KAZAKHSTAN                    : County
STAT               .                                       : State
CTRY               .                                       : Country
SRVC               .         GIS COMPANY                   : Service Company
DATE               .         01.05.1986                    : Date
UWI                .         UZEN_5975                     : Unique Well ID
Block              .         4                             : 
Cartographic_reference_system .         GCS_WGS_1984                  : ESRI,PE_10_3_1- <?xml version="1.0" encoding="utf-16"?><ILateBoundCoordinateReferenceSystem name="GCS_WGS_1984"><AuthorityCode>EPSG,4326</AuthorityCode></ILateBoundCoordinateReferenceSystem>
Category           .         Нефтяная                      : 
Condition          .         В работе                      : 
EREF               .m        230.9                         : 100.8
Gorizont           .         15                            : 14
HZCS               .GCS_WGS_1984 WGS_1984_EASE-Grid_2.0_Global : ESRI,PE_10_3_1- <?xml version="1.0" encoding="utf-16"?><ILateBoundCoordinateReferenceSystem name="WGS_1984_EASE-Grid_2.0_Global"><AuthorityCode>EPSG,6933</AuthorityCode></ILateBoundCoordinateReferenceSystem>
Interpretator      .         Сагынбаева А.Н.               : 
Kupol              .         основной                      : osnovnoi
LATI               .dega     0.6383165337                  : GCS_WGS_1984
LONG               .dega     0.5634935854                  : GCS_WGS_1984
Mud                .         глинистый                     : 
Mud_density        .         1.18                          : 
Mud_resistivity    .         0                             : 
NGDU               .         НГДУ-1                        : 
ORIGINALWELLNAME   .         5975                          : 
Spud_date          .         1986                          : 1961
Viscosity          .         40                            : 
X                  .m        54369.4                       : 46154
Y                  .m        81430.5                       : 85761.93
YEAR               .         2018                          : 
~Parameter Information Block
#_______________________________________________________________________________
#
#PARAMETER_NAME    .UNIT     VALUE                         : DESCRIPTION
#_______________________________________________________________________________
SET                .         LQC_KAZNIPI_Petrel            : 
AVST               .DEGC     9999                          : Average Surface Temperature
BS                 .MM       9999                          : Диаметр долота
CABL               .         9999                          : Cable Tipe
CBD                .m        9999                          : 
CLEN               .KM       9999                          : Cable Length
DFD                .G/C3     9999                          : Drilling Fluid Density
DFV                .s        9999                          : Вязкость промывочной жидкости
DIRE               .         9999                          : Move Direction
EGL                .m        9999                          : Альтитуда поверхности земли
EKB                .m        9999                          : Альтитуда стола ротора
GSDD               .         CSAT                          : CSATкрив,0,DEPT,BOTTOM,,,,0
MT                 .         clay                          : Mud type
RMF                .OHMM     9999                          : Сопротивление фильтрата промывочной жидкости
SPEE               .M        9999                          : Speed
TDL                .m        9999                          : Полная глубина по каротажу
TLFamily_CALI      .         Caliper                       : 
TLFamily_CILD      .         Conductivity                  : 
TLFamily_COLL      .         Net Reservoir Flag            : 
TLFamily_CSAT      .         Fluid Code                    : 
TLFamily_DEPT      .         Measured Depth                : 
TLFamily_GR        .         Russian Gamma Ray             : 
TLFamily_GZ3       .         Gradient 225                  : 
TLFamily_LLS       .         Lateral Log Resistivity       : 
TLFamily_MINV      .         Micro Gradient Resistivity    : 
TLFamily_MNOR      .         Micro Resistivity             : 
TLFamily_NGLD      .         Neutron Gamma                 : 
TLFamily_OGZ       .         Gradient Inverted 225         : 
TLFamily_PHIE      .         Effective Porosity            : 
TLFamily_PHIEN     .         Effective Porosity            : 
TLFamily_PHIT      .         Porosity                      : 
TLFamily_PRMB      .         Permeability                  : 
TLFamily_PRMB_DGR  .         Permeability                  : 
TLFamily_RT        .         Formation Resistivity         : 
TLFamily_SOIL_ARCHIE .         Oil Saturation                : 
TLFamily_SOIL_DW   .         Oil Saturation                : 
TLFamily_SP        .         Spontaneous Potential         : 
TLFamily_VSH_FIN   .         Shale Volume                  : 
TLFamily_VSH_GR    .         Shale Volume                  : 
TLFamily_VSH_SP    .         Shale Volume                  : 
TOOL               .         9999                          : Tool Type
~Curve Information
#_______________________________________________________________________________
#
#LOGNAME           .UNIT     LOG_ID                        : DESCRIPTION
#_______________________________________________________________________________
DEPT               .M                                      : Колонка глубины 
CALI               .м                                      : Каверномер 
CILD               .мСм/м                                  : Индукционный каротаж 
COLL               .unitless                               : Описание 
CSAT               .unitless                               :  
GR                 .uR/h                                   : Гамма каротаж 
GZ3                .Ohmm                                   : Градиент-зонд  длиной 2.25м 
LLS                .Ohmm                                   : Боковой каротаж 
MINV               .Ohmm                                   : Микро-градиент зонд 
MNOR               .Ohmm                                   : Микро-потенциал зонд 
NGLD               .у.е.                                   : Показания зонда НГК-60 аппаратуры ДРСТ-3-90 
OGZ                .Ohmm                                   : Обращенный градиент-зонд 
PHIE               .v/v                                    : Описание 
PHIEN              .v/v                                    :  
PHIT               .v/v                                    : Описание 
PRMB               .mD                                     :  
PRMB_DGR           .mD                                     :  
RT                 .ohmm                                   : УЭС пласта 
SOIL_ARCHIE        .v/v                                    :  
SOIL_DW            .v/v                                    :  
SP                 .мВ                                     : Потенциал самополяризации 
VSH_FIN            .v/v                                    : Описание 
VSH_GR             .v/v                                    : Shale volume 
VSH_SP             .v/v                                    : Shale Volume 
~Ascii
# ...
1082.2     0.225      416.859    -9999      -9999      10.67033   1.832      2.102      0.302      0.566      1.529826   1.986      0.1449825  0.1449825  0.3400194  1.357018   1.093351   2.102      0.151662   0.4717674  90.803     0.591021   0.6255864  0.5564556 
1082.4     0.224      410.585    -9999      -9999      10.52882   1.852      2.006      0.332      0.555      1.547137   2.032      0.1420457  0.1420457  0.3337044  1.197263   1.186182   2.006      0.1172529  0.4486931  90.803     0.5807838  0.6051119  0.5564556 
1082.6     0.224      405.303    -9999      -9999      10.38195   1.852      1.812      0.419      0.592      1.561968   2.063      0.1400248  0.1400248  0.3282939  1.09839    1.290877   1.812      0.0624702  0.4108102  90.803     0.5705125  0.5845694  0.5564556 
1082.8     0.225      400.167    -9999      -9999      10.31766   1.816      1.686      0.495      0.906      1.563362   2.109      0.1409639  0.1409639  0.3277856  1.143275   1.339571   1.686      0.03584898 0.3901047  90.803     0.5661266  0.5757975  0.5564556 
1083       0.225      396.318    -9999      -9999      10.36962   1.718      1.67       0.456      0.903      1.54966    2.14       0.1454461  0.1454461  0.332784   1.384118   1.300076   1.67       0.05757181 0.400006   90.674     0.5676904  0.582877   0.5525038 
1083.2     0.225      393.591    -9999      -9999      10.47372   1.667      1.758      0.427      0.697      1.532002   2.186      0.1501576  0.1501576  0.3392257  1.692157   1.224427   1.758      0.1052038  0.42903    90.544     0.5729337  0.5973215  0.5485459 
1083.4     0.227      392.143    -9999      -9999      10.54102   1.615      1.837      0.391      0.48       1.523785   2.217      0.151583   0.151583   0.3422234  1.798218   1.177877   1.837      0.1306551  0.4464691  90.544     0.5776982  0.6068504  0.5485459 
1083.6     0.23       392.143    -9999      -9999      10.54869   1.543      1.921      0.317      0.522      1.527815   2.269      0.1499317  0.1499317  0.3407529  1.675935   1.172685   1.921      0.1405455  0.4550215  90.544     0.5782461  0.6079462  0.5485459 
1083.8     0.23       391.031    -9999      -9999      10.54763   1.569      2.035      0.322      0.491      1.535309   2.294      0.1472233  0.1472233  0.3380194  1.493107   1.173403   2.035      0.1500973  0.4641994  90.544     0.5781701  0.6077942  0.5485459 
1084       0.229      390.857    -9999      -9999      10.58056   1.595      2.025      0.311      0.546      1.537019   2.346      0.1451667  0.1451667  0.3373955  1.367722   1.151359   2.025      0.1376288  0.4594393  90.674     0.5825115  0.6125191  0.5525038 
1084.2     0.229      392.143    -9999      -9999      10.63      1.621      1.936      0.351      0.581      1.532325   2.371      0.1455763  0.1455763  0.3391079  1.391824   1.119041   1.936      0.1214057  0.449488   90.698     0.5864595  0.6196818  0.553237  
1084.4     0.229      392.143    -9999      -9999      10.64432   1.621      1.895      0.537      0.532      1.527619   2.392      0.1464168  0.1464168  0.3408245  1.442621   1.109847   1.895      0.1169747  0.4465121  90.803     0.5891142  0.6217729  0.5564556 
1084.6     0.229      390.857    -9999      -9999      10.5965    1.621      2.062      0.389      0.615      1.526813   2.392      0.1478583  0.1478583  0.3411186  1.534093   1.140841   2.062      0.1584979  0.4716091  90.803     0.5856373  0.6148189  0.5564556 
1084.8     0.229      388.479    -9999      -9999      10.50124   1.625      2.474      0.418      0.819      1.52811    2.392      0.1496323  0.1496323  0.3406454  1.654671   1.205176   2.474      0.2354253  0.5193238  90.803     0.5788276  0.6011994  0.5564556 
1085       0.225      383.536    -9999      -9999      10.37044   1.672      2.55       0.523      0.831      1.530455   2.418      0.1517815  0.1517815  0.3397898  1.813506   1.299464   2.55       0.255509   0.5283115  90.803     0.5697224  0.582989   0.5564556 
1085.2     0.227      378.401    -9999      -9999      10.17273   1.702      2.181      0.368      0.717      1.535098   2.418      0.1544581  0.1544581  0.3380964  2.032807   1.456179   2.181      0.2109527  0.4917165  90.803     0.5564797  0.5565037  0.5564556 
1085.4     0.228      373.265    -9999      -9999      9.902457   1.753      1.965      0.384      0.601      1.537608   2.418      0.1591968  0.1591968  0.3371808  2.488108   1.701421   1.965      0.1929002  0.4696909  90.803     0.5393453  0.522235   0.5564556 
1085.6     0.226      366.844    -9999      -9999      9.662547   1.805      1.993      0.301      0.651      1.528027   2.41       0.1674185  0.1674185  0.3406757  3.53309    1.953511   1.993      0.2326441  0.4867221  90.803     0.5250217  0.4935876  0.5564556 
1085.8     0.224      361.709    -9999      -9999      9.603444   1.882      2.068      0.398      0.914      1.504118   2.333      0.1772647  0.1772647  0.3493977  5.376878   2.021149   2.068      0.2824498  0.5146732  90.803     0.5216153  0.4867749  0.5564556 
1086       0.226      357.644    -9999      -9999      9.740003   1.933      2.161      0.513      0.878      1.477143   2.234      0.1844841  0.1844841  0.3592383  7.315633   1.868287   2.161      0.321128   0.5403971  90.803     0.5295581  0.5026605  0.5564556 
1086.2     0.23       354.01     -9999      -9999      9.918631   1.985      2.241      0.526      0.743      1.462228   2.157      0.1863668  0.1863668  0.3646791  7.927253   1.685647   2.241      0.3384858  0.5545695  90.803     0.5403403  0.524225   0.5564556 
1086.4     0.229      351.223    -9999      -9999      10.00482   2.006      2.297      0.44       0.609      1.465649   2.08       0.184      0.184      0.3634312  7.166122   1.604021   2.297      0.3387838  0.5569259  90.674     0.5437311  0.5349584  0.5525038 
1086.6     0.229      351        -9999      -9999      10.03539   2.01       2.252      0.364      0.653      1.481447   1.999      0.1775999  0.1775999  0.3576681  5.454299   1.576025   2.252      0.3117177  0.5419024  90.674     0.5456612  0.5388186  0.5525038 
1086.8     0.229      352.055    -9999      -9999      10.13083   2.032      1.953      0.371      0.693      1.497629   1.929      0.1696791  0.1696791  0.3517651  3.890689   1.491744   1.953      0.2343055  0.4942541  90.674     0.5517756  0.5510475  0.5525038 
1087       0.229      353.337    -9999      -9999      10.3313    2.036      1.567      0.422      0.683      1.505011   1.929      0.1625971  0.1625971  0.349072   2.876405   1.329089   1.567      0.1188316  0.4234364  90.674     0.5650757  0.5776476  0.5525038 
1087.2     0.23       360.571    -9999      -9999      10.58343   2.087      1.477      0.437      0.619      1.500701   1.929      0.1583475  0.1583475  0.3506444  2.39959    1.149461   1.477      0.07289071 0.4018572  90.674     0.582718   0.6129321  0.5525038 
1087.4     0.231      369.318    -9999      -9999      10.83096   2.135      1.435      0.461      0.543      1.486986   1.926      0.157289   0.157289   0.3556477  2.293672   0.9967415  1.435      0.05474912 0.3970138  90.674     0.601087   0.6496702  0.5525038 
1087.6     0.233      379.588    -9999      -9999      11.04527   2.154      1.391      0.5        0.553      1.469857   1.904      0.1579968  0.1579968  0.3618962  2.363976   0.8810134  1.391      0.04457796 0.395221   90.674     0.6178769  0.6832499  0.5525038 
1087.8     0.234      391.144    -9999      -9999      11.22252   2.08       1.548      0.491      0.517      1.456947   1.904      0.1571696  0.1571696  0.3666058  2.282026   0.7955173  1.548      0.08717711 0.4302444  90.82      0.6346549  0.7123317  0.5569782 
1088       0.23       399.097    -9999      -9999      11.36997   2.003      1.853      0.324      0.401      1.452326   1.904      0.1533912  0.1533912  0.3682916  1.942383   0.7307531  1.853      0.1430818  0.4760676  91.078     0.6512133  0.7374645  0.5649622 
1088.2     0.223      405.771    -9999      -9999      11.48585   1.926      1.838      0.322      0.286      1.453426   1.932      0.1489635  0.1489635  0.3678901  1.60814    0.6835777  1.838      0.1175813  0.4678973  91.207     0.663414   0.757837   0.5689911 
