~Version
 VERS              .         2.0                           : CWLS LOG ASCII STANDARD - VERSION 2.0
 WRAP              .         NO                            : ONE LINE PER DEPTH STEP
 DLM               .         SPACE                         : DELIMITING CHARACTER(SPACE TAB OR COMMA)
~Well Information
#_______________________________________________________________________________
#
#PARAMETER_NAME    .UNIT     VALUE                         : DESCRIPTION
#_______________________________________________________________________________
STRT               .M        964.4                         : First reference value
STOP               .M        1316                          : Last reference value
STEP               .M        0.2                           : Step increment
NULL               .         -9999                         : Missing value
COMP               .                                       : Company
WELL               .         5975                          : Well name
FLD                .         Узень                         : Field
LOC                .                                       : Location
CNTY               .         KAZAKHSTAN                    : County
STAT               .                                       : State
CTRY               .                                       : Country
SRVC               .         GIS COMPANY                   : Service Company
DATE               .         01.05.1986                    : Date
UWI                .         UZEN_5975                     : Unique Well ID
Block              .         4                             : 
Cartographic_reference_system .         GCS_WGS_1984                  : ESRI,PE_10_3_1- <?xml version="1.0" encoding="utf-16"?><ILateBoundCoordinateReferenceSystem name="GCS_WGS_1984"><AuthorityCode>EPSG,4326</AuthorityCode></ILateBoundCoordinateReferenceSystem>
Category           .         Нефтяная                      : 
Condition          .         В работе                      : 
EREF               .m        230.9                         : 100.8
Gorizont           .         15                            : 14
HZCS               .GCS_WGS_1984 WGS_1984_EASE-Grid_2.0_Global : ESRI,PE_10_3_1- <?xml version="1.0" encoding="utf-16"?><ILateBoundCoordinateReferenceSystem name="WGS_1984_EASE-Grid_2.0_Global"><AuthorityCode>EPSG,6933</AuthorityCode></ILateBoundCoordinateReferenceSystem>
Interpretator      .         Сагынбаева А.Н.               : 
Kupol              .         основной                      : osnovnoi
LATI               .dega     0.6383165337                  : GCS_WGS_1984
LONG               .dega     0.5634935854                  : GCS_WGS_1984
Mud                .         глинистый                     : 
Mud_density        .         1.18                          : 
Mud_resistivity    .         0                             : 
NGDU               .         НГДУ-1                        : 
ORIGINALWELLNAME   .         5975                          : 
Spud_date          .         1986                          : 1961
Viscosity          .         40                            : 
X                  .m        54369.4                       : 46154
Y                  .m        81430.5                       : 85761.93
YEAR               .         2018                          : 
~Parameter Information Block
#_______________________________________________________________________________
#
#PARAMETER_NAME    .UNIT     VALUE                         : DESCRIPTION
#_______________________________________________________________________________
SET                .         LQC_KAZNIPI_Petrel            : 
AVST               .DEGC     9999                          : Average Surface Temperature
BS                 .MM       9999                          : Диаметр долота
CABL               .         9999                          : Cable Tipe
CBD                .m        9999                          : 
CLEN               .KM       9999                          : Cable Length
DFD                .G/C3     9999                          : Drilling Fluid Density
DFV                .s        9999                          : Вязкость промывочной жидкости
DIRE               .         9999                          : Move Direction
EGL                .m        9999                          : Альтитуда поверхности земли
EKB                .m        9999                          : Альтитуда стола ротора
GSDD               .         CSAT                          : CSATкрив,0,DEPT,BOTTOM,,,,0
MT                 .         clay                          : Mud type
RMF                .OHMM     9999                          : Сопротивление фильтрата промывочной жидкости
SPEE               .M        9999                          : Speed
TDL                .m        9999                          : Полная глубина по каротажу
TLFamily_CALI      .         Caliper                       : 
TLFamily_CILD      .         Conductivity                  : 
TLFamily_COLL      .         Net Reservoir Flag            : 
TLFamily_CSAT      .         Fluid Code                    : 
TLFamily_DEPT      .         Measured Depth                : 
TLFamily_GR        .         Russian Gamma Ray             : 
TLFamily_GZ3       .         Gradient 225                  : 
TLFamily_LLS       .         Lateral Log Resistivity       : 
TLFamily_MINV      .         Micro Gradient Resistivity    : 
TLFamily_MNOR      .         Micro Resistivity             : 
TLFamily_NGLD      .         Neutron Gamma                 : 
TLFamily_OGZ       .         Gradient Inverted 225         : 
TLFamily_PHIE      .         Effective Porosity            : 
TLFamily_PHIEN     .         Effective Porosity            : 
TLFamily_PHIT      .         Porosity                      : 
TLFamily_PRMB      .         Permeability                  : 
TLFamily_PRMB_DGR  .         Permeability                  : 
TLFamily_RT        .         Formation Resistivity         : 
TLFamily_SOIL_ARCHIE .         Oil Saturation                : 
TLFamily_SOIL_DW   .         Oil Saturation                : 
TLFamily_SP        .         Spontaneous Potential         : 
TLFamily_VSH_FIN   .         Shale Volume                  : 
TLFamily_VSH_GR    .         Shale Volume                  : 
TLFamily_VSH_SP    .         Shale Volume                  : 
TOOL               .         9999                          : Tool Type
~Curve Information
#_______________________________________________________________________________
#
#LOGNAME           .UNIT     LOG_ID                        : DESCRIPTION
#_______________________________________________________________________________
DEPT               .M                                      : Колонка глубины 
CALI               .м                                      : Каверномер 
CILD               .мСм/м                                  : Индукционный каротаж 
COLL               .unitless                               : Описание 
CSAT               .unitless                               :  
GR                 .uR/h                                   : Гамма каротаж 
GZ3                .Ohmm                                   : Градиент-зонд  длиной 2.25м 
LLS                .Ohmm                                   : Боковой каротаж 
MINV               .Ohmm                                   : Микро-градиент зонд 
MNOR               .Ohmm                                   : Микро-потенциал зонд 
NGLD               .у.е.                                   : Показания зонда НГК-60 аппаратуры ДРСТ-3-90 
OGZ                .Ohmm                                   : Обращенный градиент-зонд 
PHIE               .v/v                                    : Описание 
PHIEN              .v/v                                    :  
PHIT               .v/v                                    : Описание 
PRMB               .mD                                     :  
PRMB_DGR           .mD                                     :  
RT                 .ohmm                                   : УЭС пласта 
SOIL_ARCHIE        .v/v                                    :  
SOIL_DW            .v/v                                    :  
SP                 .мВ                                     : Потенциал самополяризации 
VSH_FIN            .v/v                                    : Описание 
VSH_GR             .v/v                                    : Shale volume 
VSH_SP             .v/v                                    : Shale Volume 
~Ascii
# ...
1262       0.217      409.515    -9999      -9999      10.94351   1.672      1.906      1.512      0.794      1.587092   2.408      0.1892214  0.1892214  0.3349997  8.953606   2.058557   1.906      0.3154074  0.5081476  70.756     0.4417525  0.4831433  0.4003616 
1262.2     0.218      404.69     -9999      -9999      10.83825   1.672      1.98       1.767      0.786      1.6018     2.532      0.187628   0.187628   0.3297814  8.365345   2.261979   1.98       0.3225641  0.5112112  70.624     0.4307679  0.4649054  0.3966304 
1262.4     0.218      400.53     -9999      -9999      10.7114    1.651      2.051      1.554      0.81       1.63516    2.639      0.18035    0.18035    0.3179452  6.133063   2.53402    2.051      0.3103122  0.5012658  70.389     0.4169552  0.4438385  0.3900718 
1262.6     0.218      395.395    -9999      -9999      10.60303   1.6        2.1        1.616      0.797      1.682169   2.742      0.167697   0.167697   0.3012663  3.5753     2.792205   2.1        0.2733001  0.4758925  70.128     0.4047557  0.4265981  0.3829132 
1262.8     0.219      391.545    -9999      -9999      10.53505   1.549      2.172      1.678      0.89       1.730714   2.789      0.1543691  0.1543691  0.2840428  2.025111   2.967423   2.172      0.2312088  0.4481654  69.636     0.3929505  0.416127   0.3697741 
1263       0.219      386.41     -9999      -9999      10.49112   1.472      2.223      1.466      1.003      1.77054    2.64       0.1435422  0.1435422  0.2699125  1.276166   3.08646    2.223      0.1898155  0.4210182  69.116     0.3829404  0.4094973  0.3563834 
1263.2     0.218      382.56     -9999      -9999      10.44446   1.441      2.214      1.846      1.071      1.799847   2.511      0.1364096  0.1364096  0.2595144  0.9414445  3.218116   2.214      0.1514277  0.3938057  68.597     0.3730448  0.4025719  0.3435176 
1263.4     0.218      377.425    -9999      -9999      10.38541   1.415      2.17       1.769      1.16       1.823829   2.357      0.1329115  0.1329115  0.2510055  0.8109639  3.392818   2.17       0.123794   0.3687712  67.67      0.3578606  0.3939749  0.3217463 
1263.6     0.217      372.574    -9999      -9999      10.33594   1.389      2.163      2.177      1.183      1.847619   2.229      0.128848   0.128848   0.2425647  0.6819243  3.546471   2.163      0.09840952 0.3465656  66.781     0.344596   0.3869136  0.3022785 
1263.8     0.217      368.72     -9999      -9999      10.32902   1.389      2.182      1.809      1.17       1.870886   2.141      0.1225275  0.1225275  0.2343096  0.5207914  3.568509   2.182      0.06189301 0.3223146  66.262     0.3387338  0.385936   0.2915316 
1264       0.217      365.877    -9999      -9999      10.35913   1.415      2.186      2.193      1.075      1.887667   2.115      0.1164963  0.1164963  0.2283558  0.402673   3.473603   2.186      0.02057441 0.2984925  66.073     0.338968   0.3902075  0.2877286 
1264.2     0.219      362.027    -9999      -9999      10.36377   1.46       2.138      1.9        1.117      1.891183   2.084      0.1152415  0.1152415  0.2271081  0.381689   3.459217   2.138      0.0009372709 0.2852673  66.042     0.3389899  0.3908693  0.2871105 
1264.4     0.217      358.177    -9999      -9999      10.27649   1.512      2.092      2.111      1.17       1.879956   2.078      0.1208306  0.1208306  0.2310915  0.4844334  3.740359   2.092      0.03147349 0.2982206  66.169     0.3341238  0.3785947  0.289653  
1264.6     0.216      354.592    -9999      -9999      10.09404   1.589      2.071      1.803      1.198      1.858967   2.149      0.131777   0.131777   0.2385386  0.7726585  4.404055   2.071      0.09767026 0.3314312  66.328     0.3235201  0.3541666  0.2928735 
1264.8     0.214      352.025    -9999      -9999      9.88653    1.686      2.086      1.864      1.207      1.83436    2.206      0.1440095  0.1440095  0.2472691  1.301857   5.303192   2.086      0.167627   0.3708228  66.554     0.3129078  0.3282928  0.2975228 
1265       0.218      349.714    1          2          9.742375   1.763      2.108      1.74       1.068      1.808724   2.283      0.1554487  0.1554487  0.2563648  2.120533   6.033753   2.108      0.2250606  0.4060839  66.681     0.3058064  0.3114399  0.3001729 
1265.2     0.22       348.429    1          2          9.701391   1.84       2.13       1.633      1.084      1.782632   2.38       0.1649165  0.1649165  0.2656221  3.175499   6.25926    2.13       0.2675326  0.4352124  66.84      0.3051685  0.3068084  0.3035287 
1265.4     0.219      348.429    1          2          9.73468    1.923      2.177      1.526      1.1        1.757299   2.483      0.1737449  0.1737449  0.2746102  4.627377   6.075466   2.177      0.3071886  0.4637771  66.708     0.3056524  0.310565   0.3007398 
1265.6     0.218      349.714    1          2          9.788049   1.955      2.182      1.654      1.122      1.734652   2.585      0.1812226  0.1812226  0.2826456  6.365623   5.792002   2.182      0.3328727  0.4824461  66.577     0.3073423  0.3166837  0.2980008 
1265.8     0.216      349.714    1          2          9.835784   1.981      2.169      1.899      1.109      1.715877   2.688      0.1865261  0.1865261  0.289307   7.981313   5.549686   2.169      0.347597   0.4940039  66.704     0.3114572  0.3222587  0.3006558 
1266       0.215      349.714    1          2          9.886976   1.981      2.137      1.799      1.126      1.70114    2.823      0.1903041  0.1903041  0.2945355  9.376748   5.301071   2.137      0.3544048  0.4997189  66.832     0.3158527  0.3283464  0.3033589 
1266.2     0.215      351        1          2          9.954425   1.975      2.091      1.721      1.178      1.690494   2.977      0.1931888  0.1931888  0.2983128  10.60433   4.990433   2.091      0.3562689  0.5011218  66.7       0.3185575  0.3365434  0.3005716 
1266.4     0.217      350.769    1          2          10.03292   1.917      2.061      1.895      1.117      1.683854   3.157      0.1939315  0.1939315  0.3006685  10.94563   4.651784   2.061      0.3540512  0.5006155  66.699     0.3234453  0.3463401  0.3005506 
1266.6     0.218      348.429    1          2          10.10612   1.84       2.072      1.662      1.024      1.68011    3.311      0.1938208  0.1938208  0.301997   10.89403   4.356683   2.072      0.3553419  0.5031191  66.667     0.3278067  0.3557341  0.2998794 
1266.8     0.219      346.92     1          2          10.18062   1.763      2.087      1.706      1.032      1.678189   3.471      0.1933321  0.1933321  0.3026784  10.66934   4.075585   2.087      0.3561062  0.5050536  66.536     0.3313525  0.3655554  0.2971495 
1267       0.22       344.133    -9999      -9999      10.28424   1.723      2.205      1.774      1.14       1.679547   3.645      0.191405   0.191405   0.3021966  9.827518   3.714507   2.205      0.3670134  0.5160443  66.275     0.3357319  0.3796684  0.2917954 
1267.2     0.218      338.998    -9999      -9999      10.40499   1.698      2.609      1.454      1.005      1.687635   3.804      0.1865732  0.1865732  0.2993273  7.997347   3.333873   2.609      0.4018932  0.5478723  66.014     0.341679   0.3968045  0.2865535 
1267.4     0.217      331.941    -9999      -9999      10.45662   1.735      3.483      1.88       1.406      1.704729   4.038      0.1794991  0.1794991  0.293262   5.914482   3.183279   3.483      0.4598473  0.5976267  65.941     0.3447362  0.4043651  0.2851073 
1267.6     0.217      320.389    -9999      -9999      10.35081   1.843      4.059      1.926      1.522      1.730563   4.501      0.1731507  0.1731507  0.2840962  4.511577   3.499589   4.059      0.4812636  0.6145767  65.853     0.3361986  0.3890218  0.2833754 
1267.8     0.215      303.897    1          2          10.07551   1.997      4.417      2.327      1.804      1.761544   4.963      0.170911   0.170911   0.2731041  4.100569   4.477738   4.417      0.4957506  0.6197733  65.019     0.3096761  0.3517752  0.2675771 
1268       0.215      287.482    1          2          9.672079   2.126      4.246      1.567      1.913      1.789999   5.425      0.1709628  0.1709628  0.2630084  4.109638   6.425697   4.246      0.4864563  0.6035239  64.27      0.278926   0.3035382  0.2543137 
