~Version
 VERS              .         2.0                           : CWLS LOG ASCII STANDARD - VERSION 2.0
 WRAP              .         NO                            : ONE LINE PER DEPTH STEP
 DLM               .         SPACE                         : DELIMITING CHARACTER(SPACE TAB OR COMMA)
~Well Information
#_______________________________________________________________________________
#
#PARAMETER_NAME    .UNIT     VALUE                         : DESCRIPTION
#_______________________________________________________________________________
STRT               .M        964.4                         : First reference value
STOP               .M        1316                          : Last reference value
STEP               .M        0.2                           : Step increment
NULL               .         -9999                         : Missing value
COMP               .                                       : Company
WELL               .         5975                          : Well name
FLD                .         Узень                         : Field
LOC                .                                       : Location
CNTY               .         KAZAKHSTAN                    : County
STAT               .                                       : State
CTRY               .                                       : Country
SRVC               .         GIS COMPANY                   : Service Company
DATE               .         01.05.1986                    : Date
UWI                .         UZEN_5975                     : Unique Well ID
Block              .         4                             : 
Cartographic_reference_system .         GCS_WGS_1984                  : ESRI,PE_10_3_1- <?xml version="1.0" encoding="utf-16"?><ILateBoundCoordinateReferenceSystem name="GCS_WGS_1984"><AuthorityCode>EPSG,4326</AuthorityCode></ILateBoundCoordinateReferenceSystem>
Category           .         Нефтяная                      : 
Condition          .         В работе                      : 
EREF               .m        230.9                         : 100.8
Gorizont           .         15                            : 14
HZCS               .GCS_WGS_1984 WGS_1984_EASE-Grid_2.0_Global : ESRI,PE_10_3_1- <?xml version="1.0" encoding="utf-16"?><ILateBoundCoordinateReferenceSystem name="WGS_1984_EASE-Grid_2.0_Global"><AuthorityCode>EPSG,6933</AuthorityCode></ILateBoundCoordinateReferenceSystem>
Interpretator      .         Сагынбаева А.Н.               : 
Kupol              .         основной                      : osnovnoi
LATI               .dega     0.6383165337                  : GCS_WGS_1984
LONG               .dega     0.5634935854                  : GCS_WGS_1984
Mud                .         глинистый                     : 
Mud_density        .         1.18                          : 
Mud_resistivity    .         0                             : 
NGDU               .         НГДУ-1                        : 
ORIGINALWELLNAME   .         5975                          : 
Spud_date          .         1986                          : 1961
Viscosity          .         40                            : 
X                  .m        54369.4                       : 46154
Y                  .m        81430.5                       : 85761.93
YEAR               .         2018                          : 
~Parameter Information Block
#_______________________________________________________________________________
#
#PARAMETER_NAME    .UNIT     VALUE                         : DESCRIPTION
#_______________________________________________________________________________
SET                .         LQC_KAZNIPI_Petrel            : 
AVST               .DEGC     9999                          : Average Surface Temperature
BS                 .MM       9999                          : Диаметр долота
CABL               .         9999                          : Cable Tipe
CBD                .m        9999                          : 
CLEN               .KM       9999                          : Cable Length
DFD                .G/C3     9999                          : Drilling Fluid Density
DFV                .s        9999                          : Вязкость промывочной жидкости
DIRE               .         9999                          : Move Direction
EGL                .m        9999                          : Альтитуда поверхности земли
EKB                .m        9999                          : Альтитуда стола ротора
GSDD               .         CSAT                          : CSATкрив,0,DEPT,BOTTOM,,,,0
MT                 .         clay                          : Mud type
RMF                .OHMM     9999                          : Сопротивление фильтрата промывочной жидкости
SPEE               .M        9999                          : Speed
TDL                .m        9999                          : Полная глубина по каротажу
TLFamily_CALI      .         Caliper                       : 
TLFamily_CILD      .         Conductivity                  : 
TLFamily_COLL      .         Net Reservoir Flag            : 
TLFamily_CSAT      .         Fluid Code                    : 
TLFamily_DEPT      .         Measured Depth                : 
TLFamily_GR        .         Russian Gamma Ray             : 
TLFamily_GZ3       .         Gradient 225                  : 
TLFamily_LLS       .         Lateral Log Resistivity       : 
TLFamily_MINV      .         Micro Gradient Resistivity    : 
TLFamily_MNOR      .         Micro Resistivity             : 
TLFamily_NGLD      .         Neutron Gamma                 : 
TLFamily_OGZ       .         Gradient Inverted 225         : 
TLFamily_PHIE      .         Effective Porosity            : 
TLFamily_PHIEN     .         Effective Porosity            : 
TLFamily_PHIT      .         Porosity                      : 
TLFamily_PRMB      .         Permeability                  : 
TLFamily_PRMB_DGR  .         Permeability                  : 
TLFamily_RT        .         Formation Resistivity         : 
TLFamily_SOIL_ARCHIE .         Oil Saturation                : 
TLFamily_SOIL_DW   .         Oil Saturation                : 
TLFamily_SP        .         Spontaneous Potential         : 
TLFamily_VSH_FIN   .         Shale Volume                  : 
TLFamily_VSH_GR    .         Shale Volume                  : 
TLFamily_VSH_SP    .         Shale Volume                  : 
TOOL               .         9999                          : Tool Type
~Curve Information
#_______________________________________________________________________________
#
#LOGNAME           .UNIT     LOG_ID                        : DESCRIPTION
#_______________________________________________________________________________
DEPT               .M                                      : Колонка глубины 
CALI               .м                                      : Каверномер 
CILD               .мСм/м                                  : Индукционный каротаж 
COLL               .unitless                               : Описание 
CSAT               .unitless                               :  
GR                 .uR/h                                   : Гамма каротаж 
GZ3                .Ohmm                                   : Градиент-зонд  длиной 2.25м 
LLS                .Ohmm                                   : Боковой каротаж 
MINV               .Ohmm                                   : Микро-градиент зонд 
MNOR               .Ohmm                                   : Микро-потенциал зонд 
NGLD               .у.е.                                   : Показания зонда НГК-60 аппаратуры ДРСТ-3-90 
OGZ                .Ohmm                                   : Обращенный градиент-зонд 
PHIE               .v/v                                    : Описание 
PHIEN              .v/v                                    :  
PHIT               .v/v                                    : Описание 
PRMB               .mD                                     :  
PRMB_DGR           .mD                                     :  
RT                 .ohmm                                   : УЭС пласта 
SOIL_ARCHIE        .v/v                                    :  
SOIL_DW            .v/v                                    :  
SP                 .мВ                                     : Потенциал самополяризации 
VSH_FIN            .v/v                                    : Описание 
VSH_GR             .v/v                                    : Shale volume 
VSH_SP             .v/v                                    : Shale Volume 
~Ascii
# ...
1280.6     0.224      228.971    1          2          8.758206   2.547      2.626      1.688      1.363      1.74967    4.294      0.1981008  0.1981008  0.277317   13.0757    14.56307   2.626      0.4340498  0.5402054  64.753     0.240049   0.2173298  0.2627682 
1280.8     0.226      222.553    1          2          9.035591   2.727      4.437      1.399      1.24       1.786081   3.807      0.1801978  0.1801978  0.2643985  6.093392   11.36057   4.437      0.519481   0.6216587  65.139     0.2551535  0.2405244  0.2697826 
1281       0.228      216.136    1          2          9.252476   2.984      6.612      2.101      1.046      1.831494   3.781      0.1596145  0.1596145  0.2482858  2.532824   9.355579   6.612      0.5571127  0.6619079  65.525     0.268701   0.2603716  0.2770303 
1281.2     0.228      212.192    -9999      -9999      9.33111    3.241      8.776      2.907      1.537      1.879684   4.167      0.1400288  0.1400288  0.2311881  1.09858    8.719589   8.776      0.5653811  0.6770774  65.911     0.2762403  0.2679651  0.2845155 
1281.4     0.226      213.376    -9999      -9999      9.276305   3.447      6.552      3.72       2.57       1.924324   4.86       0.1233576  0.1233576  0.2153499  0.5395604  9.158098   6.552      0.4433065  0.5896404  66.426     0.2787645  0.2626497  0.2948792 
1281.6     0.226      213.429    -9999      -9999      9.11271    3.652      9.192      3.882      3.59       1.958367   5.554      0.1124657  0.1124657  0.2032712  0.3390745  10.60266   9.192      0.4852662  0.6278231  66.812     0.2751683  0.247402   0.3029346 
1281.8     0.227      212.143    -9999      -9999      8.884425   3.984      7.662      3.895      1.845      1.973487   6.247      0.1094547  0.1094547  0.1979068  0.2982112  13.00698   7.662      0.4259482  0.5812386  67.071     0.2680367  0.2275929  0.3084804 
1282       0.228      205.971    -9999      -9999      8.703993   4.779      5.501      1.906      1.562      1.964949   6.205      0.1144256  0.1144256  0.2009361  0.3686353  15.28735   5.501      0.3548232  0.5188911  67.198     0.2621531  0.2130648  0.3112414 
1282.2     0.228      201.993    -9999      -9999      8.683024   5.6        3.34       2.071      1.329      1.936736   5.358      0.1246966  0.1246966  0.2109459  0.5712709  15.57706   3.34       0.2434255  0.4206404  67.2       0.2613614  0.2114378  0.3112851 
1282.4     0.226      198.072    -9999      -9999      8.830582   6.422      2.891      1.588      1.238      1.897073   4.536      0.1373054  0.1373054  0.2250184  0.9781086  13.64935   2.891      0.2555436  0.4236807  67.069     0.265797   0.2231568  0.3084372 
1282.6     0.226      194.219    -9999      -9999      9.078917   6.943      2.611      1.604      1.439      1.852654   3.689      0.1500311  0.1500311  0.2407782  1.683052   10.92834   2.611      0.2771071  0.4380723  66.938     0.2749914  0.2443644  0.3056185 
1282.8     0.229      201.46     1          2          9.359683   6.898      2.324      2.03       1.532      1.808372   2.867      0.1618584  0.1618584  0.2564896  2.787197   8.499362   2.324      0.2853332  0.4437556  66.803     0.2867615  0.2707788  0.3027441 
1283       0.231      213.013    1          2          9.622966   6.008      2.755      1.602      1.131      1.769583   2.498      0.1715622  0.1715622  0.2702521  4.216046   6.714543   2.755      0.3727962  0.5163125  66.672     0.2990605  0.2981369  0.2999841 
1283.2     0.233      224.652    8          2          9.838822   5.134      4.106      1.049      0.887      1.741347   2.417      0.1784205  0.1784205  0.28027    5.64856    5.534608   4.106      0.4973563  0.6183979  66.415     0.308635   0.3226168  0.2946532 
1283.4     0.231      237.403    8          2          9.988069   4.236      5.474      1.875      1.509      1.725424   2.796      0.1815265  0.1815265  0.2859197  6.448656   4.842357   5.474      0.5673589  0.675675   66.284     0.3163431  0.3407082  0.291978  
1283.6     0.231      246.573    8          2          10.03986   3.737      6.323      1.904      1.037      1.718613   3.157      0.1837307  0.1837307  0.2883362  7.084293   4.622952   6.323      0.5998913  0.7012098  66.024     0.3169864  0.3472205  0.2867523 
1283.8     0.232      249.33     8          2          9.961873   3.353      5.411      1.375      1.163      1.714849   3.516      0.1875206  0.1875206  0.2896717  8.327127   4.957267   5.411      0.5771381  0.6805763  65.764     0.3095488  0.337461   0.2816366 
1284       0.233      250.714    1          2          9.771265   3.581      4.443      1.269      1.118      1.709698   3.876      0.193925   0.193925   0.291499   10.94259   5.879691   4.443      0.5495305  0.6536189  65.503     0.2956787  0.3147466  0.2766108 
1284.2     0.232      251.894    1          2          9.557888   4.504      3.468      1.755      1.104      1.702318   4.062      0.2012521  0.2012521  0.2941176  14.95668   7.117377   3.468      0.5100759  0.6159304  65.242     0.2814106  0.2911277  0.2716935 
1284.4     0.231      253.176    1          2          9.451751   5.404      2.702      1.72       1.195      1.694429   3.842      0.2051434  0.2051434  0.2969167  17.65676   7.826875   2.702      0.4583108  0.570713   65.479     0.278101   0.2800478  0.2761541 
1284.6     0.233      261.832    1          2          9.537397   6.327      2.545      1.461      0.835      1.688392   3.483      0.2049783  0.2049783  0.2990586  17.53291   7.249152   2.545      0.4424878  0.5593777  65.743     0.2850915  0.288955   0.2812281 
1284.8     0.236      270.934    1          2          9.77991    6.254      2.297      1.991      1.029      1.685051   3.099      0.2009141  0.2009141  0.3002439  14.74263   5.834362   2.297      0.4047159  0.5334205  65.999     0.3009993  0.3157429  0.2862556 
1285       0.238      284.702    1          2          10.04831   5.831      2.135      1.353      0.984      1.683103   2.738      0.1953837  0.1953837  0.3009349  11.64496   4.588117   2.135      0.3687705  0.511103   66.256     0.3198523  0.3482946  0.2914099 
1285.2     0.238      300.108    -9999      -9999      10.23579   5.316      2.059      1.791      0.714      1.681207   2.379      0.1911109  0.1911109  0.3016076  9.705011   3.879146   2.059      0.3454575  0.4982868  66.513     0.3348386  0.3730041  0.2966731 
1285.4     0.237      314.229    -9999      -9999      10.34783   4.802      2.059      1.553      0.783      1.68021    2.115      0.1880051  0.1880051  0.3019615  8.500964   3.508925   2.059      0.3360499  0.4952659  66.77      0.3453224  0.3885987  0.302046  
1285.6     0.236      329.635    -9999      -9999      10.45803   4.265      2.058      1.211      0.861      1.683151   2.183      0.1834211  0.1834211  0.3009182  6.991351   3.179269   2.058      0.3214663  0.4889956  67.027     0.3560518  0.4045732  0.3075303 
1285.8     0.235      343.891    -9999      -9999      10.59367   3.749      2.029      1.502      0.785      1.693319   2.262      0.1754999  0.1754999  0.2973106  4.987037   2.815693   2.029      0.2901579  0.472296   67.283     0.3691231  0.4251415  0.3131048 
1286       0.236      350.58     -9999      -9999      10.70782   3.26       2.015      1.355      0.771      1.710159   2.315      0.1655937  0.1655937  0.2913356  3.268552   2.542166   2.015      0.250883   0.4513215  67.54      0.3810359  0.4432572  0.3188145 
1286.2     0.237      356.998    -9999      -9999      10.75493   2.92       2.074      1.424      0.848      1.727448   2.216      0.1572282  0.1572282  0.2852016  2.287737   2.437172   2.074      0.226828   0.44076    67.797     0.3877982  0.4509575  0.3246389 
1286.4     0.237      363.415    -9999      -9999      10.74048   2.562      2.09       1.209      0.785      1.739396   2.114      0.1524044  0.1524044  0.2809622  1.862334   2.468901   2.09       0.2084169  0.4308455  68.053     0.3895691  0.4485821  0.3305562 
1286.6     0.238      368.697    -9999      -9999      10.69508   2.369      2.103      1.593      0.785      1.747319   2.011      0.151272   0.151272   0.2781514  1.774524   2.571321   2.103      0.2055732  0.4274646  67.933     0.3844831  0.4411982  0.327768  
