~Version
 VERS              .         2.0                           : CWLS LOG ASCII STANDARD - VERSION 2.0
 WRAP              .         NO                            : ONE LINE PER DEPTH STEP
 DLM               .         SPACE                         : DELIMITING CHARACTER(SPACE TAB OR COMMA)
~Well Information
#_______________________________________________________________________________
#
#PARAMETER_NAME    .UNIT     VALUE                         : DESCRIPTION
#_______________________________________________________________________________
STRT               .M        964.4                         : First reference value
STOP               .M        1316                          : Last reference value
STEP               .M        0.2                           : Step increment
NULL               .         -9999                         : Missing value
COMP               .                                       : Company
WELL               .         5975                          : Well name
FLD                .         Узень                         : Field
LOC                .                                       : Location
CNTY               .         KAZAKHSTAN                    : County
STAT               .                                       : State
CTRY               .                                       : Country
SRVC               .         GIS COMPANY                   : Service Company
DATE               .         01.05.1986                    : Date
UWI                .         UZEN_5975                     : Unique Well ID
Block              .         4                             : 
Cartographic_reference_system .         GCS_WGS_1984                  : ESRI,PE_10_3_1- <?xml version="1.0" encoding="utf-16"?><ILateBoundCoordinateReferenceSystem name="GCS_WGS_1984"><AuthorityCode>EPSG,4326</AuthorityCode></ILateBoundCoordinateReferenceSystem>
Category           .         Нефтяная                      : 
Condition          .         В работе                      : 
EREF               .m        230.9                         : 100.8
Gorizont           .         15                            : 14
HZCS               .GCS_WGS_1984 WGS_1984_EASE-Grid_2.0_Global : ESRI,PE_10_3_1- <?xml version="1.0" encoding="utf-16"?><ILateBoundCoordinateReferenceSystem name="WGS_1984_EASE-Grid_2.0_Global"><AuthorityCode>EPSG,6933</AuthorityCode></ILateBoundCoordinateReferenceSystem>
Interpretator      .         Сагынбаева А.Н.               : 
Kupol              .         основной                      : osnovnoi
LATI               .dega     0.6383165337                  : GCS_WGS_1984
LONG               .dega     0.5634935854                  : GCS_WGS_1984
Mud                .         глинистый                     : 
Mud_density        .         1.18                          : 
Mud_resistivity    .         0                             : 
NGDU               .         НГДУ-1                        : 
ORIGINALWELLNAME   .         5975                          : 
Spud_date          .         1986                          : 1961
Viscosity          .         40                            : 
X                  .m        54369.4                       : 46154
Y                  .m        81430.5                       : 85761.93
YEAR               .         2018                          : 
~Parameter Information Block
#_______________________________________________________________________________
#
#PARAMETER_NAME    .UNIT     VALUE                         : DESCRIPTION
#_______________________________________________________________________________
SET                .         LQC_KAZNIPI_Petrel            : 
AVST               .DEGC     9999                          : Average Surface Temperature
BS                 .MM       9999                          : Диаметр долота
CABL               .         9999                          : Cable Tipe
CBD                .m        9999                          : 
CLEN               .KM       9999                          : Cable Length
DFD                .G/C3     9999                          : Drilling Fluid Density
DFV                .s        9999                          : Вязкость промывочной жидкости
DIRE               .         9999                          : Move Direction
EGL                .m        9999                          : Альтитуда поверхности земли
EKB                .m        9999                          : Альтитуда стола ротора
GSDD               .         CSAT                          : CSATкрив,0,DEPT,BOTTOM,,,,0
MT                 .         clay                          : Mud type
RMF                .OHMM     9999                          : Сопротивление фильтрата промывочной жидкости
SPEE               .M        9999                          : Speed
TDL                .m        9999                          : Полная глубина по каротажу
TLFamily_CALI      .         Caliper                       : 
TLFamily_CILD      .         Conductivity                  : 
TLFamily_COLL      .         Net Reservoir Flag            : 
TLFamily_CSAT      .         Fluid Code                    : 
TLFamily_DEPT      .         Measured Depth                : 
TLFamily_GR        .         Russian Gamma Ray             : 
TLFamily_GZ3       .         Gradient 225                  : 
TLFamily_LLS       .         Lateral Log Resistivity       : 
TLFamily_MINV      .         Micro Gradient Resistivity    : 
TLFamily_MNOR      .         Micro Resistivity             : 
TLFamily_NGLD      .         Neutron Gamma                 : 
TLFamily_OGZ       .         Gradient Inverted 225         : 
TLFamily_PHIE      .         Effective Porosity            : 
TLFamily_PHIEN     .         Effective Porosity            : 
TLFamily_PHIT      .         Porosity                      : 
TLFamily_PRMB      .         Permeability                  : 
TLFamily_PRMB_DGR  .         Permeability                  : 
TLFamily_RT        .         Formation Resistivity         : 
TLFamily_SOIL_ARCHIE .         Oil Saturation                : 
TLFamily_SOIL_DW   .         Oil Saturation                : 
TLFamily_SP        .         Spontaneous Potential         : 
TLFamily_VSH_FIN   .         Shale Volume                  : 
TLFamily_VSH_GR    .         Shale Volume                  : 
TLFamily_VSH_SP    .         Shale Volume                  : 
TOOL               .         9999                          : Tool Type
~Curve Information
#_______________________________________________________________________________
#
#LOGNAME           .UNIT     LOG_ID                        : DESCRIPTION
#_______________________________________________________________________________
DEPT               .M                                      : Колонка глубины 
CALI               .м                                      : Каверномер 
CILD               .мСм/м                                  : Индукционный каротаж 
COLL               .unitless                               : Описание 
CSAT               .unitless                               :  
GR                 .uR/h                                   : Гамма каротаж 
GZ3                .Ohmm                                   : Градиент-зонд  длиной 2.25м 
LLS                .Ohmm                                   : Боковой каротаж 
MINV               .Ohmm                                   : Микро-градиент зонд 
MNOR               .Ohmm                                   : Микро-потенциал зонд 
NGLD               .у.е.                                   : Показания зонда НГК-60 аппаратуры ДРСТ-3-90 
OGZ                .Ohmm                                   : Обращенный градиент-зонд 
PHIE               .v/v                                    : Описание 
PHIEN              .v/v                                    :  
PHIT               .v/v                                    : Описание 
PRMB               .mD                                     :  
PRMB_DGR           .mD                                     :  
RT                 .ohmm                                   : УЭС пласта 
SOIL_ARCHIE        .v/v                                    :  
SOIL_DW            .v/v                                    :  
SP                 .мВ                                     : Потенциал самополяризации 
VSH_FIN            .v/v                                    : Описание 
VSH_GR             .v/v                                    : Shale volume 
VSH_SP             .v/v                                    : Shale Volume 
~Ascii
# ...
1237.2     0.22       317.292    1          2          9.932384   2.223      2.517      1.106      0.987      1.588031   2.831      0.2244985  0.2244985  0.3346665  40.31012   5.089891   2.517      0.4747418  0.5946949  76.819     0.3338424  0.3338424  0.6113462 
1237.4     0.218      312.292    1          2          10.06006   2.326      2.464      1.189      1.218      1.580152   3.181      0.2220298  0.2220298  0.3374619  36.28179   4.540092   2.464      0.4643361  0.5905105  76.79      0.3497943  0.3497943  0.6101397 
1237.6     0.218      308.439    1          2          10.21466   2.428      2.997      1.244      1.12       1.567091   3.586      0.2199519  0.2199519  0.3420961  33.20484   3.953226   2.997      0.5073484  0.6302691  76.685     0.3701339  0.3701339  0.6057882 
1237.8     0.221      307.157    1          2          10.3114    2.531      3.372      1.479      1.315      1.550184   3.977      0.2215536  0.2215536  0.3480946  35.55231   3.625262   3.372      0.5367996  0.656024   76.657     0.3834575  0.3834575  0.6046323 
1238       0.222      304.589    1          2          10.35456   2.634      2.865      1.712      1.38       1.533308   4.383      0.2255289  0.2255289  0.3540822  42.12125   3.487863   2.865      0.5076788  0.6332469  76.32      0.3895553  0.3895553  0.5908664 
1238.2     0.221      303.429    -9999      -9999      10.43518   2.65       2.323      1.729      1.189      1.522095   4.773      0.2256621  0.2256621  0.3580606  42.36116   3.244982   2.323      0.4570453  0.595491   75.413     0.4012076  0.4012076  0.5551434 
1238.4     0.221      303.429    -9999      -9999      10.61815   2.578      2.106      1.68       1.008      1.520949   5.15       0.2169092  0.2169092  0.3584671  29.1637    2.754652   2.106      0.4115447  0.5685965  74.376     0.4289634  0.4289634  0.5166149 
1238.6     0.222      303.429    -9999      -9999      10.8381    2.368      2.061      1.763      0.98       1.530546   5.114      0.2016519  0.2016519  0.3550623  15.2139    2.262282   2.061      0.3665631  0.5484056  73.34      0.46488    0.46488    0.4805135 
1238.8     0.222      303.319    -9999      -9999      10.9509    2.168      2.015      1.726      1.084      1.549083   5.281      0.1886164  0.1886164  0.3484853  8.725503   2.044971   2.015      0.3214511  0.5257031  72.434     0.4844514  0.4844514  0.4508382 
1239       0.219      299.36     -9999      -9999      10.87576   1.971      1.958      1.763      1.124      1.573655   5.61       0.1842306  0.1842306  0.3397674  7.236938   2.187287   1.958      0.2980141  0.5068548  71.397     0.4713237  0.4713237  0.4189718 
1239.2     0.217      290.061    -9999      -9999      10.65612   1.848      1.916      1.729      1.025      1.601295   5.923      0.1939628  0.1939628  0.3299605  10.96024   2.662597   1.916      0.321928   0.5028853  70.36      0.4121142  0.4349584  0.3892699 
1239.4     0.217      280.089    1          2          10.38735   1.796      2.522      2.127      0.986      1.63047    6.252      0.1955202  0.1955202  0.3196094  11.71297   3.386932   2.522      0.4081053  0.5597942  69.172     0.3760278  0.3942544  0.3578013 
1239.6     0.217      270.813    1          2          10.12307   1.788      3.932      1.424      1.333      1.66124    6.944      0.1957625  0.1957625  0.308692   11.83463   4.291062   3.932      0.5199683  0.6402682  67.877     0.3422105  0.3579454  0.3264757 
1239.8     0.217      256.598    1          2          9.838467   1.964      5.435      1.642      1.341      1.691705   8.189      0.1954742  0.1954742  0.2978829  11.69001   5.536371   5.435      0.5870899  0.6873127  66.581     0.3103294  0.3225749  0.298084  
1240       0.217      241.192    1          2          9.482215   2.31       7.133      1.674      1.516      1.716834   9.366      0.197277   0.197277   0.2889674  12.62428   7.616288   7.133      0.6394414  0.7231707  65.286     0.2778496  0.2831841  0.272515  
1240.2     0.217      225.787    1          2          9.056965   2.772      8.459      1.584      1.633      1.731329   10.439     0.2026443  0.2026443  0.2838246  15.87167   11.14524   8.459      0.6748566  0.7459404  63.991     0.2460009  0.2424112  0.2495906 
1240.4     0.217      211.666    1          2          8.632911   3.222      9.375      1.787      1.397      1.733559   10.1       0.2100661  0.2100661  0.2830333  21.78166   16.29186   9.375      0.6997274  0.7618743  63.058     0.2211129  0.2075994  0.2346264 
1240.6     0.216      196.261    1          2          8.295618   3.633      9.948      1.904      1.618      1.72832    9.309      0.2162814  0.2162814  0.2848922  28.39314   22.0352    9.948      0.7152942  0.7725073  62.906     0.2079116  0.1835163  0.2323069 
1240.8     0.216      180.855    1          2          8.098085   4.044      9.254      1.837      1.728      1.724341   8.43       0.2203493  0.2203493  0.2863037  33.77234   26.29794   9.254      0.7102083  0.7666401  62.685     0.1998619  0.1707311  0.2289926 
1241       0.216      166.734    1          2          8.052639   4.477      7.712      1.801      1.36       1.727802   7.671      0.2193198  0.2193198  0.2850759  32.32159   27.39001   7.712      0.6830394  0.7432299  62.793     0.1992609  0.167918   0.2306037 
1241.2     0.216      156.793    1          2          8.140066   4.884      5.085      1.536      1.79       1.738238   7.081      0.2143987  0.2143987  0.2813732  26.20243   25.32788   5.085      0.606932   0.6783261  62.921     0.202953   0.1733716  0.2325344 
1241.4     0.216      152.94     1          2          8.322715   5.225      4.457      1.425      1.424      1.750909   6.468      0.207608   0.207608   0.2768776  19.61378   21.50706   4.457      0.5699624  0.6484693  63.048     0.209908   0.1853433  0.2344728 
1241.6     0.215      149.313    1          2          8.548386   5.526      3.821      1.559      1.502      1.759427   5.877      0.2016295  0.2016295  0.2738554  15.1994    17.57258   3.821      0.5258276  0.6132094  63.176     0.2188661  0.2012826  0.2364496 
1241.8     0.215      158.302    1          2          8.746508   5.834      3.506      1.698      1.649      1.757159   5.337      0.1992283  0.1992283  0.27466    13.71984   14.7164    3.506      0.5011131  0.5948782  63.45      0.2285811  0.2164023  0.2407599 
1242       0.215      166.005    1          2          8.874959   6.055      3.48       1.425      1.534      1.741584   5.119      0.2020051  0.2020051  0.2801859  15.4448    13.11768   3.48       0.5053666  0.6003774  63.836     0.2369116  0.2268067  0.2470166 
1242.2     0.216      174.993    1          2          8.974739   6.122      3.43       1.309      1.701      1.717289   5.232      0.2081603  0.2081603  0.2888057  20.08134   11.99666   3.43       0.5148463  0.6094428  64.224     0.2443799  0.2352327  0.253527  
1242.4     0.216      182.696    1          2          9.118553   6.093      3.469      1.368      1.615      1.692314   5.415      0.2138208  0.2138208  0.2976671  25.56454   10.54733   3.469      0.5285595  0.6226736  64.61      0.2540796  0.247931   0.2602282 
1242.6     0.216      190.399    1          2          9.295468   6.045      4.102      1.238      1.357      1.672961   5.681      0.2168107  0.2168107  0.3045335  29.04143   9.002316   4.102      0.5694574  0.6595708  64.996     0.2658266  0.2644962  0.267157  
1242.8     0.216      196.782    1          2          9.400059   6.045      4.751      1.391      1.261      1.661708   6.038      0.2179206  0.2179206  0.3085259  30.44927   8.197613   4.751      0.5999165  0.6867418  65.382     0.2745616  0.2748053  0.2743178 
1243       0.216      201.918    1          2          9.36518    6.057      5.622      1.339      1.235      1.657172   6.375      0.218884   0.218884   0.3101352  31.72639   8.457633   5.622      0.6317216  0.7134287  65.768     0.276519   0.2713235  0.2817145 
1243.2     0.215      203.143    1          2          9.241859   6.268      6.549      1.785      1.222      1.655291   6.708      0.2202615  0.2202615  0.3108026  33.64609   9.444923   6.549      0.6590437  0.735507   66.155     0.2743672  0.259363   0.2893714 
