~Version
 VERS              .         2.0                           : CWLS LOG ASCII STANDARD - VERSION 2.0
 WRAP              .         NO                            : ONE LINE PER DEPTH STEP
 DLM               .         SPACE                         : DELIMITING CHARACTER(SPACE TAB OR COMMA)
~Well Information
#_______________________________________________________________________________
#
#PARAMETER_NAME    .UNIT     VALUE                         : DESCRIPTION
#_______________________________________________________________________________
STRT               .M        964.4                         : First reference value
STOP               .M        1316                          : Last reference value
STEP               .M        0.2                           : Step increment
NULL               .         -9999                         : Missing value
COMP               .                                       : Company
WELL               .         5975                          : Well name
FLD                .         Узень                         : Field
LOC                .                                       : Location
CNTY               .         KAZAKHSTAN                    : County
STAT               .                                       : State
CTRY               .                                       : Country
SRVC               .         GIS COMPANY                   : Service Company
DATE               .         01.05.1986                    : Date
UWI                .         UZEN_5975                     : Unique Well ID
Block              .         4                             : 
Cartographic_reference_system .         GCS_WGS_1984                  : ESRI,PE_10_3_1- <?xml version="1.0" encoding="utf-16"?><ILateBoundCoordinateReferenceSystem name="GCS_WGS_1984"><AuthorityCode>EPSG,4326</AuthorityCode></ILateBoundCoordinateReferenceSystem>
Category           .         Нефтяная                      : 
Condition          .         В работе                      : 
EREF               .m        230.9                         : 100.8
Gorizont           .         15                            : 14
HZCS               .GCS_WGS_1984 WGS_1984_EASE-Grid_2.0_Global : ESRI,PE_10_3_1- <?xml version="1.0" encoding="utf-16"?><ILateBoundCoordinateReferenceSystem name="WGS_1984_EASE-Grid_2.0_Global"><AuthorityCode>EPSG,6933</AuthorityCode></ILateBoundCoordinateReferenceSystem>
Interpretator      .         Сагынбаева А.Н.               : 
Kupol              .         основной                      : osnovnoi
LATI               .dega     0.6383165337                  : GCS_WGS_1984
LONG               .dega     0.5634935854                  : GCS_WGS_1984
Mud                .         глинистый                     : 
Mud_density        .         1.18                          : 
Mud_resistivity    .         0                             : 
NGDU               .         НГДУ-1                        : 
ORIGINALWELLNAME   .         5975                          : 
Spud_date          .         1986                          : 1961
Viscosity          .         40                            : 
X                  .m        54369.4                       : 46154
Y                  .m        81430.5                       : 85761.93
YEAR               .         2018                          : 
~Parameter Information Block
#_______________________________________________________________________________
#
#PARAMETER_NAME    .UNIT     VALUE                         : DESCRIPTION
#_______________________________________________________________________________
SET                .         LQC_KAZNIPI_Petrel            : 
AVST               .DEGC     9999                          : Average Surface Temperature
BS                 .MM       9999                          : Диаметр долота
CABL               .         9999                          : Cable Tipe
CBD                .m        9999                          : 
CLEN               .KM       9999                          : Cable Length
DFD                .G/C3     9999                          : Drilling Fluid Density
DFV                .s        9999                          : Вязкость промывочной жидкости
DIRE               .         9999                          : Move Direction
EGL                .m        9999                          : Альтитуда поверхности земли
EKB                .m        9999                          : Альтитуда стола ротора
GSDD               .         CSAT                          : CSATкрив,0,DEPT,BOTTOM,,,,0
MT                 .         clay                          : Mud type
RMF                .OHMM     9999                          : Сопротивление фильтрата промывочной жидкости
SPEE               .M        9999                          : Speed
TDL                .m        9999                          : Полная глубина по каротажу
TLFamily_CALI      .         Caliper                       : 
TLFamily_CILD      .         Conductivity                  : 
TLFamily_COLL      .         Net Reservoir Flag            : 
TLFamily_CSAT      .         Fluid Code                    : 
TLFamily_DEPT      .         Measured Depth                : 
TLFamily_GR        .         Russian Gamma Ray             : 
TLFamily_GZ3       .         Gradient 225                  : 
TLFamily_LLS       .         Lateral Log Resistivity       : 
TLFamily_MINV      .         Micro Gradient Resistivity    : 
TLFamily_MNOR      .         Micro Resistivity             : 
TLFamily_NGLD      .         Neutron Gamma                 : 
TLFamily_OGZ       .         Gradient Inverted 225         : 
TLFamily_PHIE      .         Effective Porosity            : 
TLFamily_PHIEN     .         Effective Porosity            : 
TLFamily_PHIT      .         Porosity                      : 
TLFamily_PRMB      .         Permeability                  : 
TLFamily_PRMB_DGR  .         Permeability                  : 
TLFamily_RT        .         Formation Resistivity         : 
TLFamily_SOIL_ARCHIE .         Oil Saturation                : 
TLFamily_SOIL_DW   .         Oil Saturation                : 
TLFamily_SP        .         Spontaneous Potential         : 
TLFamily_VSH_FIN   .         Shale Volume                  : 
TLFamily_VSH_GR    .         Shale Volume                  : 
TLFamily_VSH_SP    .         Shale Volume                  : 
TOOL               .         9999                          : Tool Type
~Curve Information
#_______________________________________________________________________________
#
#LOGNAME           .UNIT     LOG_ID                        : DESCRIPTION
#_______________________________________________________________________________
DEPT               .M                                      : Колонка глубины 
CALI               .м                                      : Каверномер 
CILD               .мСм/м                                  : Индукционный каротаж 
COLL               .unitless                               : Описание 
CSAT               .unitless                               :  
GR                 .uR/h                                   : Гамма каротаж 
GZ3                .Ohmm                                   : Градиент-зонд  длиной 2.25м 
LLS                .Ohmm                                   : Боковой каротаж 
MINV               .Ohmm                                   : Микро-градиент зонд 
MNOR               .Ohmm                                   : Микро-потенциал зонд 
NGLD               .у.е.                                   : Показания зонда НГК-60 аппаратуры ДРСТ-3-90 
OGZ                .Ohmm                                   : Обращенный градиент-зонд 
PHIE               .v/v                                    : Описание 
PHIEN              .v/v                                    :  
PHIT               .v/v                                    : Описание 
PRMB               .mD                                     :  
PRMB_DGR           .mD                                     :  
RT                 .ohmm                                   : УЭС пласта 
SOIL_ARCHIE        .v/v                                    :  
SOIL_DW            .v/v                                    :  
SP                 .мВ                                     : Потенциал самополяризации 
VSH_FIN            .v/v                                    : Описание 
VSH_GR             .v/v                                    : Shale volume 
VSH_SP             .v/v                                    : Shale Volume 
~Ascii
# ...
1014       0.227      129.717    -9999      -9999      3.975466   12.011     3.584      1.304      1.291      1.963288   6.287      0.1125245  0.1125245  0.2015253  0.3399259  34.14228   3.584      0.1764527  0.3842642  87.06      0.2696996  0.1534687  0.3859306 
1014.2     0.237      136.997    -9999      -9999      4.878069   14.322     2.621      0.801      0.982      1.703897   5.358      0.1903884  0.1903884  0.2935573  9.410496   16.57804   2.621      0.3966879  0.5344434  88.224     0.3126332  0.2061285  0.4191378 
1014.4     0.246      151.968    -9999      -9999      5.752151   16.634     2.307      0.475      0.672      1.536543   4.433      0.232468   0.232468   0.3529346  56.62782   8.235469   2.307      0.4617093  0.589844   89.411     0.3650502  0.2742888  0.4558116 
1014.6     0.257      171.227    -9999      -9999      6.466818   18.424     2.069      0.307      0.506      1.440481   3.483      0.2253883  0.2253883  0.3726127  41.86927   3.393495   2.069      0.4180233  0.5754136  90.681     0.4461346  0.3939428  0.4983264 
1014.8     0.268      190.486    -9999      -9999      6.939921   17.126     1.876      0.306      0.455      1.396036   2.559      0.2254243  0.2254243  0.3888262  41.93374   2.450399   1.876      0.3907414  0.5654103  91.844     0.4951573  0.449962   0.5403525 
1015       0.268      209.745    -9999      -9999      7.190873   15.456     1.857      0.332      0.403      1.385711   1.862      0.2161519  0.2161519  0.3925925  28.23684   2.061709   1.857      0.3650143  0.558471   93.033     0.5346686  0.4828416  0.5864956 
1015.2     0.252      230.128    -9999      -9999      7.342871   13.915     1.953      0.324      0.412      1.394378   1.749      0.2049682  0.2049682  0.3894308  17.52535   1.856928   1.953      0.3504887  0.5582567  93.705     0.5589774  0.5039137  0.614041  
1015.4     0.258      248.264    -9999      -9999      7.515924   12.143     2.462      0.333      0.406      1.413586   1.955      0.1900147  0.1900147  0.382424   9.261697   1.648427   2.462      0.3776434  0.5903376  94.248     0.5830586  0.5290264  0.6370908 
1015.6     0.279      266.237    -9999      -9999      7.703039   10.217     3.113      0.384      0.524      1.436096   2.212      0.172602   0.172602   0.3742122  4.407225   1.449243   3.113      0.3938497  0.616998   94.868     0.6109402  0.5575899  0.6642905 
1015.8     0.251      282.925    -9999      -9999      7.78581    8.291      3.249      0.397      0.77       1.451446   2.468      0.1607693  0.1607693  0.3686126  2.660701   1.368991   3.249      0.3679838  0.611349   95.412     0.629828   0.5707122  0.6889437 
1016       0.25       300.899    -9999      -9999      7.699734   7.259      2.882      0.495      0.87       1.450701   2.685      0.160315   0.160315   0.3688842  2.609645   1.452543   2.882      0.329766   0.5871016  95.8       0.6320277  0.5570723  0.7069831 
1016.2     0.251      317.768    -9999      -9999      7.549794   6.534      2.458      0.469      0.824      1.433979   2.635      0.1679735  0.1679735  0.3749844  3.617715   1.610445   2.458      0.3065629  0.565114   96.086     0.627306   0.534086   0.720526  
1016.4     0.242      335.56     -9999      -9999      7.5303     5.789      2.086      0.33       0.58       1.410565   2.532      0.173087   0.173087   0.3835259  4.499341   1.632198   2.086      0.2703623  0.5397296  96.576     0.6376938  0.531168   0.7442194 
1016.6     0.264      342.908    -9999      -9999      7.731797   5.05       2.126      0.27       0.379      1.393033   2.364      0.172047   0.172047   0.3899217  4.304142   1.42084    2.126      0.2730311  0.5477585  96.862     0.6602262  0.5621145  0.758338  
1016.8     0.287      348.043    -9999      -9999      8.04492    4.325      2.212      0.27       0.435      1.389848   2.132      0.1625368  0.1625368  0.3910833  2.869028   1.145388   2.212      0.2502046  0.5480577  97.121     0.6925651  0.613821   0.7713091 
1017       0.288      350.803    -9999      -9999      8.274052   3.72       2.214      0.257      0.452      1.399162   1.927      0.1513261  0.1513261  0.3876858  1.778626   0.978285   2.214      0.2023889  0.5337754  97.25      0.7162415  0.6546474  0.7778357 
1017.2     0.288      353.371    -9999      -9999      8.325627   3.451      2.258      0.251      0.442      1.411513   1.807      0.1441591  0.1441591  0.3831801  1.310192   0.9441683  2.258      0.1756092  0.5266942  97.379     0.7243059  0.6642052  0.7844065 
1017.4     0.291      355.939    -9999      -9999      8.264673   3.168      2.325      0.282      0.627      1.42034    1.781      0.1425471  0.1425471  0.3799598  1.223138   0.9846196  2.325      0.1788403  0.5291391  97.409     0.7194326  0.6529242  0.785941  
1017.6     0.293      357.221    -9999      -9999      8.215089   2.912      2.429      0.308      0.655      1.42507    1.82       0.1423127  0.1423127  0.3782346  1.210972   1.018801   2.429      0.1943769  0.5377081  97.409     0.714915   0.643889   0.785941  
1017.8     0.286      358.714    -9999      -9999      8.251504   2.739      2.435      0.56       0.669      1.424271   1.891      0.1434256  0.1434256  0.378526   1.269835   0.9935845  2.435      0.2007498  0.53979    97.181     0.7124257  0.6505122  0.7743392 
1018       0.272      360        -9999      -9999      8.360872   2.636      2.372      0.43       0.694      1.416358   1.968      0.1451007  0.1451007  0.3814127  1.363876   0.9215413  2.372      0.1989995  0.5379122  96.923     0.7160968  0.6708168  0.7613769 
1018.2     0.258      362.352    -9999      -9999      8.458421   2.643      2.225      0.346      0.594      1.406717   2          0.1476593  0.1476593  0.3849296  1.521129   0.861703   2.225      0.1870581  0.5286567  96.664     0.7190011  0.6894612  0.748541  
1018.4     0.257      364.92     -9999      -9999      8.478693   2.675      1.938      0.423      0.49       1.404007   2.064      0.1516327  0.1516327  0.3859181  1.802036   0.8497635  1.938      0.15246    0.5005898  96.211     0.7099558  0.6934003  0.7265112 
1018.6     0.265      366.429    -9999      -9999      8.452683   2.701      1.898      0.4        0.552      1.409747   2.09       0.1531672  0.1531672  0.3838243  1.923914   0.8651119  1.898      0.1515973  0.4954452  95.855     0.6989608  0.6883504  0.7095713 
1018.8     0.274      369.824    -9999      -9999      8.454434   2.72       1.953      0.271      0.464      1.419181   2.109      0.1509162  0.1509162  0.3803827  1.747802   0.8640702  1.953      0.1520301  0.4970433  95.694     0.695353   0.6886892  0.7020167 
1019       0.275      373.674    -9999      -9999      8.499721   2.637      2.011      0.289      0.316      1.428948   2.109      0.1466513  0.1466513  0.3768198  1.457123   0.8375543  2.011      0.14245    0.4961671  95.596     0.6974804  0.6975101  0.6974507 
1019.2     0.273      377.524    -9999      -9999      8.537417   2.534      2.086      0.309      0.347      1.439252   2.109      0.1404344  0.1404344  0.3730607  1.117747   0.8161038  2.086      0.1246496  0.4943163  95.756     0.7049283  0.7049388  0.7049178 
1019.4     0.277      381.373    -9999      -9999      8.526223   2.432      2.193      0.296      0.425      1.45033    2.109      0.1357573  0.1357573  0.3690196  0.9156154  0.8224156  2.193      0.1193581  0.4973098  95.885     0.7068554  0.7027246  0.7109863 
1019.6     0.282      385.223    -9999      -9999      8.471113   2.329      2.36       0.296      0.503      1.461457   2.109      0.1314488  0.1314488  0.3649606  0.76192    0.8542081  2.36       0.1249328  0.5063455  96.144     0.7076114  0.6919249  0.7232981 
1019.8     0.285      389.072    -9999      -9999      8.407241   2.226      2.352      0.348      0.552      1.471878   2.141      0.1286555  0.1286555  0.3611588  0.6763484  0.8925964  2.352      0.1069867  0.4983608  96.273     0.7045553  0.6796155  0.729495  
1020       0.275      391.889    -9999      -9999      8.363026   2.124      2.138      0.413      0.476      1.480578   2.192      0.1247926  0.1247926  0.3579853  0.573613   0.9201763  2.138      0.04097375 0.4651457  96.532     0.7066447  0.6712229  0.7420664 
