~Version
 VERS              .         2.0                           : CWLS LOG ASCII STANDARD - VERSION 2.0
 WRAP              .         NO                            : ONE LINE PER DEPTH STEP
 DLM               .         SPACE                         : DELIMITING CHARACTER(SPACE TAB OR COMMA)
~Well Information
#_______________________________________________________________________________
#
#PARAMETER_NAME    .UNIT     VALUE                         : DESCRIPTION
#_______________________________________________________________________________
STRT               .M        964.4                         : First reference value
STOP               .M        1316                          : Last reference value
STEP               .M        0.2                           : Step increment
NULL               .         -9999                         : Missing value
COMP               .                                       : Company
WELL               .         5975                          : Well name
FLD                .         Узень                         : Field
LOC                .                                       : Location
CNTY               .         KAZAKHSTAN                    : County
STAT               .                                       : State
CTRY               .                                       : Country
SRVC               .         GIS COMPANY                   : Service Company
DATE               .         01.05.1986                    : Date
UWI                .         UZEN_5975                     : Unique Well ID
Block              .         4                             : 
Cartographic_reference_system .         GCS_WGS_1984                  : ESRI,PE_10_3_1- <?xml version="1.0" encoding="utf-16"?><ILateBoundCoordinateReferenceSystem name="GCS_WGS_1984"><AuthorityCode>EPSG,4326</AuthorityCode></ILateBoundCoordinateReferenceSystem>
Category           .         Нефтяная                      : 
Condition          .         В работе                      : 
EREF               .m        230.9                         : 100.8
Gorizont           .         15                            : 14
HZCS               .GCS_WGS_1984 WGS_1984_EASE-Grid_2.0_Global : ESRI,PE_10_3_1- <?xml version="1.0" encoding="utf-16"?><ILateBoundCoordinateReferenceSystem name="WGS_1984_EASE-Grid_2.0_Global"><AuthorityCode>EPSG,6933</AuthorityCode></ILateBoundCoordinateReferenceSystem>
Interpretator      .         Сагынбаева А.Н.               : 
Kupol              .         основной                      : osnovnoi
LATI               .dega     0.6383165337                  : GCS_WGS_1984
LONG               .dega     0.5634935854                  : GCS_WGS_1984
Mud                .         глинистый                     : 
Mud_density        .         1.18                          : 
Mud_resistivity    .         0                             : 
NGDU               .         НГДУ-1                        : 
ORIGINALWELLNAME   .         5975                          : 
Spud_date          .         1986                          : 1961
Viscosity          .         40                            : 
X                  .m        54369.4                       : 46154
Y                  .m        81430.5                       : 85761.93
YEAR               .         2018                          : 
~Parameter Information Block
#_______________________________________________________________________________
#
#PARAMETER_NAME    .UNIT     VALUE                         : DESCRIPTION
#_______________________________________________________________________________
SET                .         LQC_KAZNIPI_Petrel            : 
AVST               .DEGC     9999                          : Average Surface Temperature
BS                 .MM       9999                          : Диаметр долота
CABL               .         9999                          : Cable Tipe
CBD                .m        9999                          : 
CLEN               .KM       9999                          : Cable Length
DFD                .G/C3     9999                          : Drilling Fluid Density
DFV                .s        9999                          : Вязкость промывочной жидкости
DIRE               .         9999                          : Move Direction
EGL                .m        9999                          : Альтитуда поверхности земли
EKB                .m        9999                          : Альтитуда стола ротора
GSDD               .         CSAT                          : CSATкрив,0,DEPT,BOTTOM,,,,0
MT                 .         clay                          : Mud type
RMF                .OHMM     9999                          : Сопротивление фильтрата промывочной жидкости
SPEE               .M        9999                          : Speed
TDL                .m        9999                          : Полная глубина по каротажу
TLFamily_CALI      .         Caliper                       : 
TLFamily_CILD      .         Conductivity                  : 
TLFamily_COLL      .         Net Reservoir Flag            : 
TLFamily_CSAT      .         Fluid Code                    : 
TLFamily_DEPT      .         Measured Depth                : 
TLFamily_GR        .         Russian Gamma Ray             : 
TLFamily_GZ3       .         Gradient 225                  : 
TLFamily_LLS       .         Lateral Log Resistivity       : 
TLFamily_MINV      .         Micro Gradient Resistivity    : 
TLFamily_MNOR      .         Micro Resistivity             : 
TLFamily_NGLD      .         Neutron Gamma                 : 
TLFamily_OGZ       .         Gradient Inverted 225         : 
TLFamily_PHIE      .         Effective Porosity            : 
TLFamily_PHIEN     .         Effective Porosity            : 
TLFamily_PHIT      .         Porosity                      : 
TLFamily_PRMB      .         Permeability                  : 
TLFamily_PRMB_DGR  .         Permeability                  : 
TLFamily_RT        .         Formation Resistivity         : 
TLFamily_SOIL_ARCHIE .         Oil Saturation                : 
TLFamily_SOIL_DW   .         Oil Saturation                : 
TLFamily_SP        .         Spontaneous Potential         : 
TLFamily_VSH_FIN   .         Shale Volume                  : 
TLFamily_VSH_GR    .         Shale Volume                  : 
TLFamily_VSH_SP    .         Shale Volume                  : 
TOOL               .         9999                          : Tool Type
~Curve Information
#_______________________________________________________________________________
#
#LOGNAME           .UNIT     LOG_ID                        : DESCRIPTION
#_______________________________________________________________________________
DEPT               .M                                      : Колонка глубины 
CALI               .м                                      : Каверномер 
CILD               .мСм/м                                  : Индукционный каротаж 
COLL               .unitless                               : Описание 
CSAT               .unitless                               :  
GR                 .uR/h                                   : Гамма каротаж 
GZ3                .Ohmm                                   : Градиент-зонд  длиной 2.25м 
LLS                .Ohmm                                   : Боковой каротаж 
MINV               .Ohmm                                   : Микро-градиент зонд 
MNOR               .Ohmm                                   : Микро-потенциал зонд 
NGLD               .у.е.                                   : Показания зонда НГК-60 аппаратуры ДРСТ-3-90 
OGZ                .Ohmm                                   : Обращенный градиент-зонд 
PHIE               .v/v                                    : Описание 
PHIEN              .v/v                                    :  
PHIT               .v/v                                    : Описание 
PRMB               .mD                                     :  
PRMB_DGR           .mD                                     :  
RT                 .ohmm                                   : УЭС пласта 
SOIL_ARCHIE        .v/v                                    :  
SOIL_DW            .v/v                                    :  
SP                 .мВ                                     : Потенциал самополяризации 
VSH_FIN            .v/v                                    : Описание 
VSH_GR             .v/v                                    : Shale volume 
VSH_SP             .v/v                                    : Shale Volume 
~Ascii
# ...
1107       0.227      392.113    -9999      -9999      9.768001   2.301      2.61       0.323      0.389      1.466993   2.275      0.1647325  0.1647325  0.3629411  3.150673   0.8689116  2.61       0.3142777  0.5661092  89.378     0.600632   0.6871198  0.5141442 
1107.2     0.226      388.233    -9999      -9999      9.638831   2.455      2.574      0.347      0.454      1.500885   2.429      0.1560545  0.1560545  0.350577   2.176033   0.9421689  2.574      0.2764828  0.5443675  89.378     0.5894623  0.6647804  0.5141442 
1107.4     0.221      383.098    -9999      -9999      9.366904   2.609      2.127      0.303      0.447      1.53719    2.583      0.1490651  0.1490651  0.3373329  1.615122   1.117207   2.127      0.1765158  0.4776694  89.613     0.5705086  0.6200969  0.5209203 
1107.6     0.222      377.962    -9999      -9999      9.016912   2.763      2.205      0.428      0.529      1.566579   2.81       0.1459876  0.1459876  0.3266121  1.416453   1.391181   2.205      0.1754702  0.4724104  89.846     0.5473471  0.5669774  0.5277167 
1107.8     0.227      371.526    -9999      -9999      8.671945   2.892      2.554      1.596      1.43       1.582659   3.041      0.1466409  0.1466409  0.3207459  1.456476   1.726897   2.554      0.2333932  0.5050277  90.13      0.5275908  0.5190753  0.5361063 
1108       0.224      363.834    -9999      -9999      8.39548    2.794      2.914      0.995      2.142      1.587026   3.154      0.1489749  0.1489749  0.3191528  1.608923   2.053554   2.914      0.2892359  0.5379311  90.518     0.5156904  0.4836237  0.5477573 
1108.2     0.219      358.699    -9999      -9999      8.21836    2.619      2.703      0.465      0.712      1.58735    3.025      0.1522625  0.1522625  0.3190346  1.851093   2.294611   2.703      0.2775836  0.5240797  90.544     0.5053701  0.4621943  0.5485459 
1108.4     0.221      353.568    -9999      -9999      8.164524   2.46       2.269      1.01       1.988      1.587174   2.871      0.1533702  0.1533702  0.319099   1.940647   2.373343   2.269      0.2206813  0.48205    90.544     0.5022084  0.455871   0.5485459 
1108.6     0.223      351        -9999      -9999      8.250199   2.285      2.262      1.793      3.21       1.581002   2.691      0.1551098  0.1551098  0.3213505  2.090106   2.249282   2.262      0.2271795  0.4857168  90.312     0.5037597  0.4659752  0.5415441 
1108.8     0.224      348.432    -9999      -9999      8.449306   2.126      2.398      0.524      2.219      1.563556   2.537      0.1592226  0.1592226  0.3277149  2.490849   1.985443   2.398      0.2650109  0.5114373  89.952     0.5105826  0.4903306  0.5308346 
1109       0.224      349.714    -9999      -9999      8.717922   1.946      2.264      0.478      0.56       1.539009   2.363      0.1631816  0.1631816  0.3366694  2.949022   1.677852   2.264      0.260889   0.5101123  89.795     0.5257203  0.5252182  0.5262223 
1109.2     0.224      352.274    -9999      -9999      9.059861   1.832      1.792      0.542      0.769      1.516402   2.203      0.1647472  0.1647472  0.3449164  3.152652   1.354238   1.792      0.1820132  0.4595203  89.536     0.5459672  0.5732428  0.5186915 
1109.4     0.226      356.113    -9999      -9999      9.49987    1.852      1.607      0.383      0.854      1.498858   2.029      0.1604885  0.1604885  0.3513166  2.629027   1.027891   1.607      0.1192369  0.4301284  89.407     0.5782669  0.6415578  0.5149761 
1109.6     0.228      361.248    -9999      -9999      9.992374   1.878      1.819      0.545      0.891      1.483614   1.995      0.1525774  0.1525774  0.3568774  1.876128   0.7549397  1.819      0.1315887  0.4595181  89.249     0.6190909  0.7277238  0.510458  
1109.8     0.23       368.932    -9999      -9999      10.39913   1.949      1.913      0.357      0.866      1.47056    2.052      0.1454142  0.1454142  0.3616398  1.382236   0.5850766  1.913      0.1156068  0.4680673  89.249     0.655229   0.8        0.510458  
1110       0.228      375.376    -9999      -9999      10.558     2.026      1.808      0.478      0.568      1.464884   2.103      0.1470184  0.1470184  0.3637104  1.480117   0.5296372  1.808      0.1005022  0.4569958  89.348     0.6566424  0.8        0.5132848 
1110.2     0.222      379.225    -9999      -9999      10.39556   2.103      2.141      0.277      0.537      1.470962   2.18       0.1440425  0.1440425  0.3614932  1.30369    0.5863903  2.141      0.1541707  0.4953227  89.508     0.6589415  0.8        0.5178831 
1110.4     0.222      381.823    -9999      -9999      9.981736   2.18       2.47       0.489      0.569      1.48865    2.277      0.1498418  0.1498418  0.3550406  1.669521   0.7599892  2.47       0.2357763  0.5315493  89.508     0.6218143  0.7257456  0.5178831 
1110.6     0.224      383.143    -9999      -9999      9.474755   2.257      2.287      0.435      0.497      1.514889   2.406      0.1548388  0.1548388  0.3454685  2.066087   1.044196   2.287      0.2299835  0.510732   89.508     0.5776656  0.6374481  0.5178831 
1110.8     0.224      383.185    -9999      -9999      9.02408    2.328      2.007      0.689      0.796      1.544548   2.528      0.1542343  0.1542343  0.3346489  2.013496   1.384946   2.007      0.1785222  0.4664535  89.767     0.546711   0.5680184  0.5254036 
1111       0.227      379.331    -9999      -9999      8.728097   2.386      2.253      1.888      0.676      1.569498   2.637      0.1514997  0.1514997  0.325547   1.791843   1.667188   2.253      0.2096875  0.4842331  89.864     0.5274162  0.5265874  0.528245  
1111.2     0.231      374.241    -9999      -9999      8.633435   2.412      2.29       2.62       1.469      1.581738   2.527      0.148326   0.148326   0.321082   1.565005   1.769077   2.29       0.2011099  0.4798593  90.026     0.5235031  0.5139856  0.5330206 
1111.4     0.226      369.106    -9999      -9999      8.714629   2.386      2.082      0.486      2.271      1.579795   2.399      0.1472543  0.1472543  0.3217907  1.49508    1.681318   2.082      0.1593092  0.4537544  90.026     0.5288982  0.5247758  0.5330206 
1111.6     0.226      365.2      -9999      -9999      8.858947   2.348      2.249      0.437      0.817      1.569722   2.245      0.1476718  0.1476718  0.3254655  1.521942   1.535939   2.249      0.1912005  0.478693   90.026     0.5387688  0.544517   0.5330206 
1111.8     0.231      361.346    -9999      -9999      8.919341   2.206      2.62       0.612      0.681      1.559043   2.117      0.1508009  0.1508009  0.329361   1.739226   1.478896   2.62       0.2607487  0.5243476  89.896     0.5410913  0.5529972  0.5291854 
1112       0.225      358.779    -9999      -9999      8.826577   2.135      2.211      0.396      0.699      1.551924   1.975      0.1563117  0.1563117  0.3319582  2.200039   1.567412   2.211      0.2240987  0.4916809  89.736     0.532262   0.5400256  0.5244984 
1112.2     0.223      356.211    -9999      -9999      8.64845    2.078      1.85       0.394      0.756      1.549757   2.088      0.1616915  0.1616915  0.3327487  2.767427   1.752509   1.85       0.1809011  0.4522087  89.607     0.5183553  0.5159641  0.5207464 
1112.4     0.226      354.929    -9999      -9999      8.522055   2.001      2.07       0.641      0.798      1.551278   2.319      0.1649353  0.1649353  0.3321938  3.178049   1.896963   2.07       0.2362986  0.4855286  89.378     0.5068439  0.4995437  0.5141442 
1112.6     0.22       353.647    -9999      -9999      8.512351   1.981      2.554      0.567      0.664      1.552007   2.444      0.1650108  0.1650108  0.3319278  3.18829    1.908533   2.554      0.3082804  0.5366873  89.349     0.5058091  0.4983049  0.5133134 
1112.8     0.219      356.063    -9999      -9999      8.560411   1.992      2.784      0.602      0.787      1.550885   2.407      0.165483   0.165483   0.3323372  3.25315    1.85191    2.784      0.3373624  0.5570612  89.119     0.5056189  0.5044707  0.5067671 
1113       0.219      359.834    -9999      -9999      8.58395    2.095      2.475      0.61       0.705      1.553038   2.272      0.1641946  0.1641946  0.3315517  3.079218   1.824795   2.475      0.2949677  0.5281253  89.119     0.5071427  0.5075184  0.5067671 
