~Version
 VERS              .         2.0                           : CWLS LOG ASCII STANDARD - VERSION 2.0
 WRAP              .         NO                            : ONE LINE PER DEPTH STEP
 DLM               .         SPACE                         : DELIMITING CHARACTER(SPACE TAB OR COMMA)
~Well Information
#_______________________________________________________________________________
#
#PARAMETER_NAME    .UNIT     VALUE                         : DESCRIPTION
#_______________________________________________________________________________
STRT               .M        900                           : First reference value
STOP               .M        1247.6                        : Last reference value
STEP               .M        0.2                           : Step increment
NULL               .         -9999                         : Missing value
COMP               .                                       : Company
WELL               .         6852                          : Well name
FLD                .         УЗЕНЬ                         : Field
LOC                .                                       : Location
CNTY               .                                       : County
STAT               .                                       : State
CTRY               .         KAZAKHSTAN                    : Country
SRVC               .                                       : Service Company
DATE               .                                       : Date
UWI                .                                       : Unique Well ID
Block              .         4                             : 
Category           .         Нефтяная                      : 
Condition          .         В работе                      : 
Date               .         30.01.1988                    : 
EREF               .m        229.6                         : 100.8
Gorizont           .         15                            : 14
Interpretator      .         Алпанова Н.К.                 : 
Kupol              .         основной                      : osnovnoi
Moii_15            .         15_gor                        : 
Mud                .                                       : 
Mud_density        .                                       : 
Mud_resistivity    .                                       : 
NGDU               .         НГДУ-1                        : 
ORIGINALWELLNAME   .         6852                          : 
Spud_date          .         1988                          : 1961
Viscosity          .                                       : 
X                  .m        54532.6                       : 46154
Y                  .m        81739.73                      : 85761.93
YEAR               .         2019                          : 
~Parameter Information Block
#_______________________________________________________________________________
#
#PARAMETER_NAME    .UNIT     VALUE                         : DESCRIPTION
#_______________________________________________________________________________
SET                .         LQC_KAZNIPI_Petrel            : 
TLFamily_CALI      .         Caliper                       : 
TLFamily_CILD      .         Conductivity                  : 
TLFamily_COLL      .         Net Reservoir Flag            : 
TLFamily_CSAT      .         Fluid Code                    : 
TLFamily_DEPT      .         Measured Depth                : 
TLFamily_GR        .         Russian Gamma Ray             : 
TLFamily_GZ3       .         Gradient 225                  : 
TLFamily_LLS       .         Lateral Log Resistivity       : 
TLFamily_MINV      .         Micro Gradient Resistivity    : 
TLFamily_MNOR      .         Micro Resistivity             : 
TLFamily_NGLD      .         Neutron Far                   : 
TLFamily_OGZ       .         Gradient Inverted 225         : 
TLFamily_PHIE      .         Effective Porosity            : 
TLFamily_PHIEN     .         Effective Porosity            : 
TLFamily_PHIT      .         Porosity                      : 
TLFamily_PRMB      .         Permeability                  : 
TLFamily_PRMB_DGR  .         Permeability                  : 
TLFamily_RT        .         Formation Resistivity         : 
TLFamily_SOIL_ARCHIE .         Oil Saturation                : 
TLFamily_SOIL_DW   .         Oil Saturation                : 
TLFamily_SP        .         Spontaneous Potential         : 
TLFamily_VSH_FIN   .         Shale Volume                  : 
TLFamily_VSH_GR    .         Shale Volume                  : 
TLFamily_VSH_SP    .         Shale Volume                  : 
~Curve Information
#_______________________________________________________________________________
#
#LOGNAME           .UNIT     LOG_ID                        : DESCRIPTION
#_______________________________________________________________________________
DEPT               .M                                      : Колонка глубины 
CALI               .м                                      : Каверномер 
CILD               .мСм/м                                  : Индукционный каротаж 
COLL               .unitless                               : Описание 
CSAT               .unitless                               : Описание 
GR                 .мкР/ч                                  : Гамма каротаж 
GZ3                .Ом·м                                   :  
LLS                .Ом·м                                   : Боковой каротаж 
MINV               .Ом·м                                   : Микро-градиент зонд 
MNOR               .Ом·м                                   : Микро-потенциал зонд 
NGLD               .у.е.                                   : Показания зонда НГК-60 аппаратуры ДРСТ-3-90 
OGZ                .Ом·м                                   :  
PHIE               .v/v                                    : Описание 
PHIEN              .v/v                                    :  
PHIT               .v/v                                    : Описание 
PRMB               .mD                                     :  
PRMB_DGR           .mD                                     :  
RT                 .ohmm                                   : УЭС пласта 
SOIL_ARCHIE        .v/v                                    :  
SOIL_DW            .v/v                                    :  
SP                 .мВ                                     : Потенциал самополяризации 
VSH_FIN            .v/v                                    : Описание 
VSH_GR             .v/v                                    : Shale volume 
VSH_SP             .v/v                                    : Shale Volume 
~Ascii
# ...
1154.2     0.208      282        1          2          6.572766   8.253999   4.262      2.74       2.931      1.03481    2.565      0.2201789  0.2201789  0.3060965  33.52781   22.94905   3.913765   0.5596049  0.6497986  28.572     0.2603563  0.1804964  0.3402162 
1154.4     0.209      347        1          2          6.713908   8.228999   2.454      1.508      1.408      1.01669    2.438      0.2199144  0.2199144  0.3129694  33.15179   19.59126   3.761564   0.5508611  0.6472375  30.12      0.2819848  0.1925405  0.3714292 
1154.6     0.21       397        1          2          6.91493    9.037      1.831      1.274      1.777      0.9998739  2.375      0.2173591  0.2173591  0.3193478  29.72871   15.63911   3.761457   0.5462597  0.6497249  31.732     0.3090567  0.2110948  0.4070185 
1154.8     0.211      433        1          2          7.155719   9.692999   1.787      1.412      1.625      0.9835486  2.349      0.2154498  0.2154498  0.32554    27.40381   11.94      3.781574   0.5439026  0.6533571  32.764     0.3336067  0.2356879  0.4315254 
1155       0.215      469        1          2          7.40657    8.253999   1.655      1.171      1.257      0.9684941  2.133      0.2113303  0.2113303  0.3312502  22.9884    9.013617   3.389965   0.5117533  0.6347929  33.989     0.3633935  0.2643608  0.4624261 
1155.2     0.223      497        1          2          7.621899   6.904      1.625      0.983      1.181      0.9569235  1.905      0.2048761  0.2048761  0.3356389  17.45664   7.080842   2.986064   0.4676147  0.6090683  35.408     0.3962509  0.2917401  0.5007618 
1155.4     0.23       508        1          2          7.74683    5.541      1.767      1.374      1.582      0.9513749  1.676      0.2020362  0.2020362  0.3377435  15.46529   6.155641   2.573567   0.4221658  0.5781271  35.86      0.4112343  0.3089068  0.5135617 
1155.6     0.234      515        1          2          7.755722   4.19       2.05       1.382      1.363      0.9549471  1.448      0.1976931  0.1976931  0.3363886  12.85032   6.094596   2.152224   0.3595867  0.5335351  36.44      0.4202893  0.3101666  0.530412  
1155.8     0.233      517        -9999      -9999      7.685811   2.613      2.122      1.894      1.939      0.9694794  1.206      0.191893   0.191893   0.3308764  10.03417   6.59136    1.650316   0.2555431  0.4555684  36.827     0.4211621  0.3003995  0.5419245 
1156       0.231      516        -9999      -9999      7.617305   2.676      2.138      1.71       1.977      0.9923059  1.232      0.1834785  0.1834785  0.3222184  7.008492   7.117398   1.687222   0.2338866  0.4430581  37.085     0.420424   0.2911273  0.5497206 
1156.2     0.232      510        -9999      -9999      7.612675   2.625      2.141      1.467      1.647      1.016653   1.321      0.1740186  0.1740186  0.3129835  4.681711   7.154428   1.757539   0.2129643  0.4328998  37.15      0.4211056  0.2905111  0.5517002 
1156.4     0.233      500        -9999      -9999      7.675924   2.575      2.165      1.399      1.536      1.036695   1.41       0.1653355  0.1653355  0.3053815  3.232753   6.66481    1.822208   0.1909205  0.423201   37.085     0.424382   0.2990434  0.5497206 
1156.6     0.233      491        -9999      -9999      7.764651   2.512      2.262      2.069      2.526      1.050902   1.486      0.158547   0.158547   0.2999928  2.420099   6.033902   1.86735    0.1704121  0.4144945  36.956     0.4286236  0.3114367  0.5458105 
1156.8     0.228      481        -9999      -9999      7.836343   2.436      2.354      2.183      1.921      1.060932   1.536      0.15367    0.15367    0.2961887  1.965621   5.568031   1.884036   0.1510792  0.4053532  36.827     0.4318746  0.3218247  0.5419245 
1157       0.223      473        -9999      -9999      7.881989   2.373      2.377      2.559      2.014      1.068932   1.587      0.1507849  0.1507849  0.2931542  1.738045   5.290326   1.901995   0.1407833  0.4000338  36.569     0.431422   0.3286186  0.5342255 
1157.2     0.22       466        -9999      -9999      7.92645    2.385      2.387      1.999      2.146      1.076521   1.651      0.1480462  0.1480462  0.2902757  1.546441   5.033156   1.951256   0.1373692  0.3998217  36.311     0.4309983  0.3353739  0.5266226 
1157.4     0.218      459        -9999      -9999      7.997845   2.398      2.386      2.406      2.094      1.084228   1.702      0.1451369  0.1451369  0.2873522  1.365984   4.646096   1.990925   0.1305783  0.3975306  35.924     0.4309553  0.3465132  0.5153974 
1157.6     0.217      458        -9999      -9999      8.09742    2.398      2.258      2.004      1.976      1.090244   1.727      0.1407988  0.1407988  0.2850703  1.135255   4.155456   2.007925   0.1108483  0.3900634  35.795     0.4371865  0.3626699  0.5117031 
1157.8     0.218      458        -9999      -9999      8.197192   2.385      2.169      1.935      1.711      1.09145    1.727      0.1393511  0.1393511  0.2846132  1.067282   3.715806   2.003354   0.1018485  0.3863393  35.408     0.440188   0.3796142  0.5007618 
1158       0.219      460        -9999      -9999      8.267989   2.31       2.153      1.845      1.445      1.087746   1.714      0.140464   0.140464   0.2860181  1.119159   3.432351   1.967863   0.1005361  0.3845856  35.021     0.4410731  0.3921157  0.4900306 
1158.2     0.22       463        -9999      -9999      8.315032   2.184      2.242      2.381      1.939      1.082774   1.676      0.1429618  0.1429618  0.2879038  1.244965   3.256063   1.896572   0.09876769 0.3798646  34.57      0.4392184  0.4006494  0.4777873 
1158.4     0.221      468        -9999      -9999      8.3748     2.07       2.322      2.261      2.173      1.079442   1.663      0.1443708  0.1443708  0.2891677  1.322075   3.045091   1.844313   0.09463993 0.3751922  34.118     0.4387785  0.4117599  0.4657972 
1158.6     0.222      475        -9999      -9999      8.462734   2.045      2.065      1.799      1.648      1.076856   1.676      0.1442189  0.1442189  0.2901483  1.313537   2.759287   1.842204   0.09332273 0.3758847  33.731     0.4422103  0.428669   0.4557516 
1158.8     0.223      482        -9999      -9999      8.539288   2.045      2.03       1.948      1.404      1.073161   1.714      0.144072   0.144072   0.2915499  1.305331   2.532407   1.864927   0.09772299 0.3812966  33.5       0.4469028  0.443954   0.4498515 
1159       0.224      482        -9999      -9999      8.550212   2.057      2.273      1.873      1.326      1.069521   1.752      0.1460018  0.1460018  0.2929306  1.41731    2.501588   1.892289   0.1141939  0.3906904  33.28      0.4452388  0.4461792  0.4442985 
1159.2     0.224      495        -9999      -9999      8.496075   1.944      2.432      2.42       1.958      1.069362   1.765      0.1494499  0.1494499  0.292991   1.641849   2.658079   1.850181   0.1228063  0.3893877  32.893     0.434973   0.4352601  0.4346859 
1159.4     0.222      513        -9999      -9999      8.439432   1.893      2.181      1.805      1.753      1.074023   1.778      0.1515842  0.1515842  0.2912231  1.798316   2.832302   1.833699   0.1299273  0.387739   32.377     0.423148   0.4241217  0.4221742 
1159.6     0.221      531        -9999      -9999      8.440747   1.868      1.93       1.622      1.574      1.081253   1.816      0.1505613  0.1505613  0.2884806  1.721546   2.82813    1.841633   0.1265525  0.3838949  31.925     0.4179373  0.4243771  0.4114976 
1159.8     0.223      540        -9999      -9999      8.507668   1.805      1.795      2.078      2.016      1.087509   1.867      0.1474848  0.1474848  0.2861078  1.509852   2.623763   1.835477   0.1093065  0.37475    31.538     0.4200698  0.4375758  0.4025638 
1160       0.226      544        -9999      -9999      8.614346   1.742      1.931      1.631      1.818      1.089606   1.613      0.1442796  0.1442796  0.2853123  1.316939   2.32808    1.67502    0.05227451 0.3387805  31.216     0.427372   0.4594694  0.3952746 
1160.2     0.229      550        -9999      -9999      8.747386   1.666      1.936      1.266      1.619      1.084758   1.308      0.1420697  0.1420697  0.2871514  1.198487   2.005574   1.465453   0          0.2916813  31.023     0.4396414  0.4883149  0.390968  
