~Version
 VERS              .         2.0                           : CWLS LOG ASCII STANDARD - VERSION 2.0
 WRAP              .         NO                            : ONE LINE PER DEPTH STEP
 DLM               .         SPACE                         : DELIMITING CHARACTER(SPACE TAB OR COMMA)
~Well Information
#_______________________________________________________________________________
#
#PARAMETER_NAME    .UNIT     VALUE                         : DESCRIPTION
#_______________________________________________________________________________
STRT               .M        900                           : First reference value
STOP               .M        1247.6                        : Last reference value
STEP               .M        0.2                           : Step increment
NULL               .         -9999                         : Missing value
COMP               .                                       : Company
WELL               .         6852                          : Well name
FLD                .         УЗЕНЬ                         : Field
LOC                .                                       : Location
CNTY               .                                       : County
STAT               .                                       : State
CTRY               .         KAZAKHSTAN                    : Country
SRVC               .                                       : Service Company
DATE               .                                       : Date
UWI                .                                       : Unique Well ID
Block              .         4                             : 
Category           .         Нефтяная                      : 
Condition          .         В работе                      : 
Date               .         30.01.1988                    : 
EREF               .m        229.6                         : 100.8
Gorizont           .         15                            : 14
Interpretator      .         Алпанова Н.К.                 : 
Kupol              .         основной                      : osnovnoi
Moii_15            .         15_gor                        : 
Mud                .                                       : 
Mud_density        .                                       : 
Mud_resistivity    .                                       : 
NGDU               .         НГДУ-1                        : 
ORIGINALWELLNAME   .         6852                          : 
Spud_date          .         1988                          : 1961
Viscosity          .                                       : 
X                  .m        54532.6                       : 46154
Y                  .m        81739.73                      : 85761.93
YEAR               .         2019                          : 
~Parameter Information Block
#_______________________________________________________________________________
#
#PARAMETER_NAME    .UNIT     VALUE                         : DESCRIPTION
#_______________________________________________________________________________
SET                .         LQC_KAZNIPI_Petrel            : 
TLFamily_CALI      .         Caliper                       : 
TLFamily_CILD      .         Conductivity                  : 
TLFamily_COLL      .         Net Reservoir Flag            : 
TLFamily_CSAT      .         Fluid Code                    : 
TLFamily_DEPT      .         Measured Depth                : 
TLFamily_GR        .         Russian Gamma Ray             : 
TLFamily_GZ3       .         Gradient 225                  : 
TLFamily_LLS       .         Lateral Log Resistivity       : 
TLFamily_MINV      .         Micro Gradient Resistivity    : 
TLFamily_MNOR      .         Micro Resistivity             : 
TLFamily_NGLD      .         Neutron Far                   : 
TLFamily_OGZ       .         Gradient Inverted 225         : 
TLFamily_PHIE      .         Effective Porosity            : 
TLFamily_PHIEN     .         Effective Porosity            : 
TLFamily_PHIT      .         Porosity                      : 
TLFamily_PRMB      .         Permeability                  : 
TLFamily_PRMB_DGR  .         Permeability                  : 
TLFamily_RT        .         Formation Resistivity         : 
TLFamily_SOIL_ARCHIE .         Oil Saturation                : 
TLFamily_SOIL_DW   .         Oil Saturation                : 
TLFamily_SP        .         Spontaneous Potential         : 
TLFamily_VSH_FIN   .         Shale Volume                  : 
TLFamily_VSH_GR    .         Shale Volume                  : 
TLFamily_VSH_SP    .         Shale Volume                  : 
~Curve Information
#_______________________________________________________________________________
#
#LOGNAME           .UNIT     LOG_ID                        : DESCRIPTION
#_______________________________________________________________________________
DEPT               .M                                      : Колонка глубины 
CALI               .м                                      : Каверномер 
CILD               .мСм/м                                  : Индукционный каротаж 
COLL               .unitless                               : Описание 
CSAT               .unitless                               : Описание 
GR                 .мкР/ч                                  : Гамма каротаж 
GZ3                .Ом·м                                   :  
LLS                .Ом·м                                   : Боковой каротаж 
MINV               .Ом·м                                   : Микро-градиент зонд 
MNOR               .Ом·м                                   : Микро-потенциал зонд 
NGLD               .у.е.                                   : Показания зонда НГК-60 аппаратуры ДРСТ-3-90 
OGZ                .Ом·м                                   :  
PHIE               .v/v                                    : Описание 
PHIEN              .v/v                                    :  
PHIT               .v/v                                    : Описание 
PRMB               .mD                                     :  
PRMB_DGR           .mD                                     :  
RT                 .ohmm                                   : УЭС пласта 
SOIL_ARCHIE        .v/v                                    :  
SOIL_DW            .v/v                                    :  
SP                 .мВ                                     : Потенциал самополяризации 
VSH_FIN            .v/v                                    : Описание 
VSH_GR             .v/v                                    : Shale volume 
VSH_SP             .v/v                                    : Shale Volume 
~Ascii
# ...
1203.8     0.226      586        -9999      -9999      8.932947   1.817      1.849      1.575      1.717      0.931345   1.283      0.1985537  0.1985537  0.3453408  13.33076   1.628814   1.504007   0.2556653  0.4591289  28.443     0.4448094  0.5316184  0.4448069 
1204       0.226      592        -9999      -9999      8.826579   1.464      1.813      1.598      1.909      0.9278898  1.156      0.2012909  0.2012909  0.3466514  14.98145   1.835051   1.291896   0.2101015  0.4209159  28.443     0.4404863  0.5063581  0.4404838 
1204.2     0.225      599        -9999      -9999      8.733221   1.401      1.867      1.135      1.569      0.9248604  1.13       0.2038535  0.2038535  0.3478004  16.71168   2.037473   1.250992   0.2068719  0.4156578  28.443     0.4362028  0.4851785  0.4362003 
1204.4     0.223      598        -9999      -9999      8.670021   1.464      1.807      1.421      1.657      0.9225285  1.13       0.2056216  0.2056216  0.3486849  18.02062   2.187035   1.275497   0.2199487  0.4241753  28.507     0.4335251  0.4713458  0.4335227 
1204.6     0.221      594        -9999      -9999      8.620028   1.527      1.716      1.599      2.042      0.9213359  1.244      0.2032717  0.2032717  0.3491373  16.3021    2.313082   1.371049   0.2383623  0.442473   29.023     0.4420169  0.4606836  0.4420144 
1204.8     0.22       588        -9999      -9999      8.536044   1.603      1.735      1.315      1.731      0.9230652  1.41       0.2002983  0.2002983  0.3484814  14.36049   2.541392   1.500319   0.2604634  0.4632796  29.475     0.4490394  0.4433124  0.4490369 
1205       0.217      578        -9999      -9999      8.394327   1.679      1.894      1.354      1.346      0.9303154  1.511      0.1946525  0.1946525  0.3457313  11.28744   2.978895   1.590576   0.2623186  0.4702412  29.991     0.4578146  0.4154719  0.457812  
1205.2     0.215      567        -9999      -9999      8.219796   1.742      1.893      1.572      1.647      0.9455777  1.638      0.18703    0.18703    0.3399424  8.154675   3.622525   1.6884     0.2572969  0.4722579  30.378     0.4633709  0.3835757  0.4633683 
1205.4     0.213      557        -9999      -9999      8.049664   1.754      1.763      1.478      1.642      0.9702749  1.714      0.1763732  0.1763732  0.3305748  5.176285   4.383554   1.733769   0.2280276  0.4579249  30.7       0.4672773  0.354842   0.4672747 
1205.6     0.212      553        -9999      -9999      7.89854    1.754      1.906      1.789      2.055      1.001903   1.638      0.1641933  0.1641933  0.3185782  3.079045   5.192651   1.694016   0.1693926  0.4231921  30.894     0.4678331  0.3311287  0.4678305 
1205.8     0.212      549        -9999      -9999      7.773794   1.666      2.099      1.793      2.046      1.032499   1.524      0.1512876  0.1512876  0.306973   1.775707   5.971889   1.59184    0.08158551 0.3716542  31.216     0.4717739  0.3127532  0.4717712 
1206       0.217      540        -9999      -9999      7.69838    1.552      2.018      1.797      2.037      1.053117   1.41       0.1515559  0.1515559  0.2991526  1.796143   6.498617   1.477596   0.05038815 0.3378765  30.442     0.4472627  0.3021428  0.4472602 
1206.2     0.216      532        -9999      -9999      7.69787    1.464      1.946      1.572      2.116      1.060579   1.283      0.160452   0.160452   0.2963223  2.624933   6.502331   1.367537   0.06298677 0.3230367  29.152     0.4117281  0.3020723  0.4117258 
1206.4     0.215      524        -9999      -9999      7.771615   1.388      2.033      1.99       2.863      1.058949   1.181      0.1691168  0.1691168  0.2969407  3.798498   5.986493   1.27616    0.07541797 0.3145367  28.249     0.3873449  0.3124415  0.3873427 
1206.6     0.214      516        -9999      -9999      7.882841   1.338      2.234      2.625      2.919      1.05487    1.181      0.1732918  0.1732918  0.2984877  4.538811   5.284828   1.254607   0.08758503 0.3175044  28.056     0.3793817  0.3287582  0.3793795 
1206.8     0.214      513        -9999      -9999      7.984222   1.325      2.186      2.004      2.486      1.05198    1.232      0.1751595  0.1751595  0.299584   4.915158   4.717171   1.276809   0.1034747  0.3278398  28.12      0.3770438  0.3443717  0.3770416 
1207       0.213      512        -9999      -9999      8.051353   1.376      2.153      1.766      1.83       1.050104   1.27       0.1752683  0.1752683  0.3002955  4.938008   4.375265   1.320877   0.1181139  0.3402508  28.378     0.3788705  0.3551164  0.3788683 
1207.2     0.213      504        -9999      -9999      8.085809   1.502      2.053      1.432      1.875      1.049199   1.346      0.1720692  0.1720692  0.300639   4.308219   4.209519   1.419727   0.1336922  0.3593725  28.765     0.3896052  0.3607607  0.389603  
1207.4     0.212      489        -9999      -9999      8.090245   1.59       2.054      1.653      1.778      1.051744   1.384      0.1708034  0.1708034  0.2996736  4.081794   4.188639   1.479865   0.1449129  0.3694564  28.701     0.3905157  0.3614939  0.3905134 
1207.6     0.211      479        -9999      -9999      8.051093   1.603      2.091      1.629      1.81       1.059823   1.422      0.1693233  0.1693233  0.2966091  3.832093   4.376541   1.507085   0.1457442  0.3691172  28.378     0.3857147  0.3550741  0.3857125 
1207.8     0.212      468        1          2          7.957344   1.603      2.122      2.039      2.948      1.07104    1.448      0.1680037  0.1680037  0.2923544  3.62238    4.861442   1.521563   0.1437535  0.3646688  27.862     0.3768204  0.3401614  0.3768183 
1208       0.211      458        1          2          7.825558   1.603      2.353      2.97       2.849      1.079484   1.473      0.1698681  0.1698681  0.2891518  3.922171   5.635267   1.535253   0.1555013  0.3661173  27.024     0.3614659  0.3202512  0.3614639 
1208.2     0.21       456        1          2          7.697472   1.603      2.388      3.551      3.635      1.080178   1.498      0.1757106  0.1757106  0.2888884  5.032044   6.505236   1.548722   0.1833654  0.3770659  25.992     0.3429632  0.3020172  0.3429612 
1208.4     0.209      461        1          2          7.610754   1.666      2.617      2.548      2.223      1.071382   1.587      0.1844355  0.1844355  0.2922246  7.300473   7.169258   1.625541   0.2347008  0.4078396  25.024     0.3266338  0.2902655  0.3266319 
1208.6     0.207      467        1          2          7.575873   1.817      2.327      2.907      3.3        1.054185   1.74       0.1971761  0.1971761  0.2987476  12.57006   7.455097   1.777667   0.3076381  0.4561241  23.863     0.3077924  0.2856685  0.3077907 
1208.8     0.207      473        1          2          7.575546   2.032      2.302      2.418      3.182      1.031758   1.879      0.2076315  0.2076315  0.307254   19.63347   7.457834   1.952507   0.3666103  0.5002781  23.412     0.3018865  0.2856257  0.3018848 
1209       0.206      478        1          2          7.578283   2.184      2.278      2.686      2.586      1.009025   1.994      0.2171022  0.2171022  0.3158769  29.40481   7.434991   2.08468    0.4091861  0.5328509  23.154     0.299317   0.2859837  0.2993154 
1209.2     0.206      484        1          2          7.554752   2.209      2.204      2.87       2.918      0.9909056  1.892      0.2244585  0.2244585  0.3227495  40.24157   7.633693   2.038248   0.4199882  0.5398685  22.961     0.2978514  0.2829203  0.2978497 
1209.4     0.206      489        1          2          7.496322   2.171      2.13       2.868      2.928      0.9792452  1.727      0.2290123  0.2290123  0.3271723  48.86771   8.150352   1.923713   0.4143662  0.5340214  22.832     0.2974544  0.2754548  0.2974527 
1209.6     0.208      495        1          2          7.416871   2.057      2.283      2.644      3.003      0.9720935  1.587      0.2289857  0.2289857  0.3298849  48.81218   8.909451   1.79169    0.3944362  0.5194669  23.219     0.3057553  0.2656185  0.3057536 
1209.8     0.208      501        1          2          7.331209   1.956      2.268      3.175      2.93       0.9677117  1.702      0.2216136  0.2216136  0.3315469  35.64337   9.807284   1.820181   0.3815245  0.5181962  24.637     0.3331315  0.2554064  0.3331296 
