~Version
 VERS              .         2.0                           : CWLS LOG ASCII STANDARD - VERSION 2.0
 WRAP              .         NO                            : ONE LINE PER DEPTH STEP
 DLM               .         SPACE                         : DELIMITING CHARACTER(SPACE TAB OR COMMA)
~Well Information
#_______________________________________________________________________________
#
#PARAMETER_NAME    .UNIT     VALUE                         : DESCRIPTION
#_______________________________________________________________________________
STRT               .M        900                           : First reference value
STOP               .M        1247.6                        : Last reference value
STEP               .M        0.2                           : Step increment
NULL               .         -9999                         : Missing value
COMP               .                                       : Company
WELL               .         6852                          : Well name
FLD                .         УЗЕНЬ                         : Field
LOC                .                                       : Location
CNTY               .                                       : County
STAT               .                                       : State
CTRY               .         KAZAKHSTAN                    : Country
SRVC               .                                       : Service Company
DATE               .                                       : Date
UWI                .                                       : Unique Well ID
Block              .         4                             : 
Category           .         Нефтяная                      : 
Condition          .         В работе                      : 
Date               .         30.01.1988                    : 
EREF               .m        229.6                         : 100.8
Gorizont           .         15                            : 14
Interpretator      .         Алпанова Н.К.                 : 
Kupol              .         основной                      : osnovnoi
Moii_15            .         15_gor                        : 
Mud                .                                       : 
Mud_density        .                                       : 
Mud_resistivity    .                                       : 
NGDU               .         НГДУ-1                        : 
ORIGINALWELLNAME   .         6852                          : 
Spud_date          .         1988                          : 1961
Viscosity          .                                       : 
X                  .m        54532.6                       : 46154
Y                  .m        81739.73                      : 85761.93
YEAR               .         2019                          : 
~Parameter Information Block
#_______________________________________________________________________________
#
#PARAMETER_NAME    .UNIT     VALUE                         : DESCRIPTION
#_______________________________________________________________________________
SET                .         LQC_KAZNIPI_Petrel            : 
TLFamily_CALI      .         Caliper                       : 
TLFamily_CILD      .         Conductivity                  : 
TLFamily_COLL      .         Net Reservoir Flag            : 
TLFamily_CSAT      .         Fluid Code                    : 
TLFamily_DEPT      .         Measured Depth                : 
TLFamily_GR        .         Russian Gamma Ray             : 
TLFamily_GZ3       .         Gradient 225                  : 
TLFamily_LLS       .         Lateral Log Resistivity       : 
TLFamily_MINV      .         Micro Gradient Resistivity    : 
TLFamily_MNOR      .         Micro Resistivity             : 
TLFamily_NGLD      .         Neutron Far                   : 
TLFamily_OGZ       .         Gradient Inverted 225         : 
TLFamily_PHIE      .         Effective Porosity            : 
TLFamily_PHIEN     .         Effective Porosity            : 
TLFamily_PHIT      .         Porosity                      : 
TLFamily_PRMB      .         Permeability                  : 
TLFamily_PRMB_DGR  .         Permeability                  : 
TLFamily_RT        .         Formation Resistivity         : 
TLFamily_SOIL_ARCHIE .         Oil Saturation                : 
TLFamily_SOIL_DW   .         Oil Saturation                : 
TLFamily_SP        .         Spontaneous Potential         : 
TLFamily_VSH_FIN   .         Shale Volume                  : 
TLFamily_VSH_GR    .         Shale Volume                  : 
TLFamily_VSH_SP    .         Shale Volume                  : 
~Curve Information
#_______________________________________________________________________________
#
#LOGNAME           .UNIT     LOG_ID                        : DESCRIPTION
#_______________________________________________________________________________
DEPT               .M                                      : Колонка глубины 
CALI               .м                                      : Каверномер 
CILD               .мСм/м                                  : Индукционный каротаж 
COLL               .unitless                               : Описание 
CSAT               .unitless                               : Описание 
GR                 .мкР/ч                                  : Гамма каротаж 
GZ3                .Ом·м                                   :  
LLS                .Ом·м                                   : Боковой каротаж 
MINV               .Ом·м                                   : Микро-градиент зонд 
MNOR               .Ом·м                                   : Микро-потенциал зонд 
NGLD               .у.е.                                   : Показания зонда НГК-60 аппаратуры ДРСТ-3-90 
OGZ                .Ом·м                                   :  
PHIE               .v/v                                    : Описание 
PHIEN              .v/v                                    :  
PHIT               .v/v                                    : Описание 
PRMB               .mD                                     :  
PRMB_DGR           .mD                                     :  
RT                 .ohmm                                   : УЭС пласта 
SOIL_ARCHIE        .v/v                                    :  
SOIL_DW            .v/v                                    :  
SP                 .мВ                                     : Потенциал самополяризации 
VSH_FIN            .v/v                                    : Описание 
VSH_GR             .v/v                                    : Shale volume 
VSH_SP             .v/v                                    : Shale Volume 
~Ascii
# ...
1030.2     -9999      438        -9999      -9999      5.486386   2.032      2.596      2.406      2.195      0.9452844  1.752      0.1595564  0.1595564  0.3400536  2.526561   1.974981   1.881641   0.1779313  0.4613803  44.115     0.5469613  0.4913896  0.602533  
1030.4     -9999      422        -9999      -9999      5.396298   1.994      3.296      1.881      2.193      0.936518   1.867      0.1673388  0.1673388  0.3433787  3.521107   2.268309   1.928411   0.2203658  0.4806433  44.115     0.5334542  0.4643753  0.602533  
1030.6     -9999      420        -9999      -9999      5.366622   2.07       3.622      1.574      1.488      0.9140893  1.994      0.1772601  0.1772601  0.3518859  5.375819   2.374176   2.031289   0.2763768  0.5124337  44.115     0.5291693  0.4558056  0.602533  
1030.8     -9999      425        -9999      -9999      5.44175    2.171      3.31       1.154      1.238      0.8908212  2.121      0.1821009  0.1821009  0.3607115  6.608579   2.115242   2.145709   0.3111045  0.5376052  44.18      0.5412443  0.4778139  0.6046748 
1031       -9999      430        -9999      -9999      5.588817   2.272      2.494      0.734      0.987      0.8775489  2.248      0.1798645  0.1798645  0.3657457  6.007381   1.687265   2.259936   0.3203943  0.5511475  44.115     0.5632763  0.5240196  0.602533  
1031.2     -9999      434        -9999      -9999      5.733352   2.36       2.281      1.322      1.645      0.8766384  2.362      0.1719993  0.1719993  0.3660911  4.295381   1.35113    2.361      0.3077641  0.5535788  44.115     0.588157   0.573781   0.602533  
1031.4     -9999      436        -9999      -9999      5.824047   2.36       2.177      1.576      1.611      0.8835465  2.375      0.1634799  0.1634799  0.3634708  2.986776   1.17531    2.367476   0.2773784  0.5435372  44.18      0.6060331  0.6073913  0.6046748 
1031.6     -9999      437        -9999      -9999      5.859039   2.272      2.308      1.795      2.458      0.8939687  2.057      0.1573013  0.1573013  0.3595177  2.294879   1.113764   2.159161   0.2197127  0.5117648  44.18      0.6127769  0.6208789  0.6046748 
1031.8     -9999      440        -9999      -9999      5.859317   2.146      2.338      1.556      1.966      0.9062004  1.689      0.1536956  0.1536956  0.3548782  1.967765   1.113288   1.890271   0.152517   0.4693641  43.986     0.6096442  0.6209872  0.5983012 
1032       -9999      443        -9999      -9999      5.841141   2.095      2.303      1.178      1.638      0.917766   1.702      0.1508159  0.1508159  0.3504913  1.740338   1.14483    1.878162   0.1358382  0.4596976  43.922     0.6050772  0.6139432  0.5962112 
1032.2     -9999      446        -9999      -9999      5.818522   2.07       2.362      1.448      2.059      0.9248874  1.727      0.1491979  0.1491979  0.3477902  1.624293   1.185333   1.883008   0.1287359  0.4555878  43.986     0.601795   0.6052887  0.5983012 
1032.4     -9999      446        -9999      -9999      5.808538   2.057      2.368      2.21       2.283      0.9262941  1.727      0.1489369  0.1489369  0.3472567  1.606316   1.203664   1.87761    0.1262304  0.4539248  44.051     0.6009689  0.6015075  0.6004303 
1032.6     -9999      445        -9999      -9999      5.816216   2.019      2.393      2.135      2.247      0.9244329  1.74       0.1491634  0.1491634  0.3479626  1.62191    1.189544   1.869146   0.1255341  0.4536968  44.051     0.6024216  0.604413   0.6004303 
1032.8     -9999      442        -9999      -9999      5.830478   1.994      2.493      1.725      1.837      0.922873   1.752      0.1488584  0.1488584  0.3485543  1.600945   1.163749   1.865183   0.1231006  0.4532879  44.051     0.6051391  0.6098478  0.6004303 
1033       -9999      441        -9999      -9999      5.848492   2.083      2.539      1.217      1.768      0.9240431  1.752      0.1476217  0.1476217  0.3481105  1.518693   1.131968   1.903216   0.1250333  0.4566712  43.986     0.6075417  0.6167822  0.5983012 
1033.2     -9999      441        -9999      -9999      5.880014   2.196      2.493      2.084      2.094      0.9285412  1.765      0.1438819  0.1438819  0.3464043  1.294793   1.078427   1.957051   0.1168944  0.45743    43.986     0.6137042  0.6291071  0.5983012 
1033.4     -9999      443        -9999      -9999      5.924761   2.221      2.431      1.625      1.908      0.9348666  1.765      0.138526   0.138526   0.3440051  1.030376   1.006745   1.966917   0.08938091 0.4488103  43.986     0.6226639  0.6470265  0.5983012 
1033.6     -9999      445        -9999      -9999      5.96522    2.221      2.438      1.108      1.458      0.9399578  1.778      0.1327975  0.1327975  0.342074   0.8070303  0.9460423  1.974963   0.05707033 0.4394467  44.18      0.6341712  0.6636677  0.6046748 
1033.8     -9999      453        -9999      -9999      5.986391   2.209      2.25       1.537      1.567      0.9411657  1.79       0.1312279  0.1312279  0.3416158  0.7547737  0.9157513  1.977549   0.04783998 0.4369287  44.115     0.6375393  0.6725455  0.602533  
1034       -9999      456        -9999      -9999      5.984577   2.171      2.114      1.338      1.473      0.9382175  1.79       0.1331707  0.1331707  0.3427341  0.8199789  0.9183084  1.962176   0.05650088 0.438884   43.986     0.6350406  0.67178    0.5983012 
1034.2     -9999      462        -9999      -9999      5.960837   2.12       2.13       1.281      1.354      0.9328189  1.803      0.1372026  0.1372026  0.3447818  0.97383    0.9524375  1.948692   0.07771572 0.4451009  43.922     0.6290278  0.6618444  0.5962112 
1034.4     -9999      461        -9999      -9999      5.920979   2.083      2.193      1.345      1.715      0.9271538  1.803      0.1427415  0.1427415  0.3469306  1.233324   1.012615   1.932912   0.1055585  0.4529839  43.793     0.6187547  0.6454921  0.5920173 
1034.6     -9999      460        -9999      -9999      5.880518   2.019      2.368      2.08       1.394      0.9225104  1.816      0.1475205  0.1475205  0.3486918  1.512155   1.077592   1.912127   0.1264279  0.4583723  43.728     0.6096098  0.629306   0.5899137 
1034.8     -9999      457        -9999      -9999      5.856013   2.019      2.396      1.67       1.772      0.9186966  1.829      0.1515764  0.1515764  0.3501384  1.797713   1.118956   1.919309   0.1483214  0.4661782  43.535     0.601703   0.619701   0.5837052 
1035       -9999      456        -9999      -9999      5.859019   2.007      2.421      1.634      1.06       0.9145057  1.829      0.1549992  0.1549992  0.351728   2.080266   1.113798   1.91387    0.1636121  0.4713475  43.148     0.5961479  0.6208713  0.5714245 
1035.2     -9999      455        -9999      -9999      5.893102   2.019      2.377      1.238      1.628      0.9096394  1.841      0.1559602  0.1559602  0.3535738  2.167306   1.056949   1.925896   0.1705445  0.4759368  42.89      0.5988289  0.6342961  0.5633617 
1035.4     -9999      458        -9999      -9999      5.945785   2.019      2.292      1.443      1.437      0.9047563  1.854      0.1549528  0.1549528  0.3554259  2.076159   0.9747303  1.932985   0.1672868  0.4773521  42.761     0.6074942  0.6556211  0.5593674 
1035.6     -9999      456        -9999      -9999      5.984108   2.019      2.293      2.104      1.985      0.8999735  1.854      0.1547884  0.1547884  0.3572401  2.061648   0.9189704  1.932985   0.1665163  0.4788164  42.632     0.6134899  0.6715825  0.5553975 
1035.8     -9999      453        -9999      -9999      5.973754   2.019      2.377      1.885      1.616      0.8946617  1.867      0.1575209  0.1575209  0.3592548  2.316475   0.9337128  1.940027   0.1805228  0.4849592  42.632     0.6113149  0.6672323  0.5553975 
1036       -9999      446        -9999      -9999      5.910654   2.019      2.528      2.211      1.322      0.8889111  1.879      0.1636527  0.1636527  0.361436   3.00887    1.028814   1.946486   0.2085658  0.4950198  42.696     0.5993433  0.6413227  0.5573639 
1036.2     -9999      446        -9999      -9999      5.826004   2.019      2.523      1.309      1.468      0.8840274  1.879      0.1704974  0.1704974  0.3632884  4.028865   1.171781   1.946486   0.2363107  0.5043408  42.761     0.5842153  0.6081376  0.560293  
