~Version
 VERS              .         2.0                           : CWLS LOG ASCII STANDARD - VERSION 2.0
 WRAP              .         NO                            : ONE LINE PER DEPTH STEP
 DLM               .         SPACE                         : DELIMITING CHARACTER(SPACE TAB OR COMMA)
~Well Information
#_______________________________________________________________________________
#
#PARAMETER_NAME    .UNIT     VALUE                         : DESCRIPTION
#_______________________________________________________________________________
STRT               .M        900                           : First reference value
STOP               .M        1247.6                        : Last reference value
STEP               .M        0.2                           : Step increment
NULL               .         -9999                         : Missing value
COMP               .                                       : Company
WELL               .         6852                          : Well name
FLD                .         УЗЕНЬ                         : Field
LOC                .                                       : Location
CNTY               .                                       : County
STAT               .                                       : State
CTRY               .         KAZAKHSTAN                    : Country
SRVC               .                                       : Service Company
DATE               .                                       : Date
UWI                .                                       : Unique Well ID
Block              .         4                             : 
Category           .         Нефтяная                      : 
Condition          .         В работе                      : 
Date               .         30.01.1988                    : 
EREF               .m        229.6                         : 100.8
Gorizont           .         15                            : 14
Interpretator      .         Алпанова Н.К.                 : 
Kupol              .         основной                      : osnovnoi
Moii_15            .         15_gor                        : 
Mud                .                                       : 
Mud_density        .                                       : 
Mud_resistivity    .                                       : 
NGDU               .         НГДУ-1                        : 
ORIGINALWELLNAME   .         6852                          : 
Spud_date          .         1988                          : 1961
Viscosity          .                                       : 
X                  .m        54532.6                       : 46154
Y                  .m        81739.73                      : 85761.93
YEAR               .         2019                          : 
~Parameter Information Block
#_______________________________________________________________________________
#
#PARAMETER_NAME    .UNIT     VALUE                         : DESCRIPTION
#_______________________________________________________________________________
SET                .         LQC_KAZNIPI_Petrel            : 
TLFamily_CALI      .         Caliper                       : 
TLFamily_CILD      .         Conductivity                  : 
TLFamily_COLL      .         Net Reservoir Flag            : 
TLFamily_CSAT      .         Fluid Code                    : 
TLFamily_DEPT      .         Measured Depth                : 
TLFamily_GR        .         Russian Gamma Ray             : 
TLFamily_GZ3       .         Gradient 225                  : 
TLFamily_LLS       .         Lateral Log Resistivity       : 
TLFamily_MINV      .         Micro Gradient Resistivity    : 
TLFamily_MNOR      .         Micro Resistivity             : 
TLFamily_NGLD      .         Neutron Far                   : 
TLFamily_OGZ       .         Gradient Inverted 225         : 
TLFamily_PHIE      .         Effective Porosity            : 
TLFamily_PHIEN     .         Effective Porosity            : 
TLFamily_PHIT      .         Porosity                      : 
TLFamily_PRMB      .         Permeability                  : 
TLFamily_PRMB_DGR  .         Permeability                  : 
TLFamily_RT        .         Formation Resistivity         : 
TLFamily_SOIL_ARCHIE .         Oil Saturation                : 
TLFamily_SOIL_DW   .         Oil Saturation                : 
TLFamily_SP        .         Spontaneous Potential         : 
TLFamily_VSH_FIN   .         Shale Volume                  : 
TLFamily_VSH_GR    .         Shale Volume                  : 
TLFamily_VSH_SP    .         Shale Volume                  : 
~Curve Information
#_______________________________________________________________________________
#
#LOGNAME           .UNIT     LOG_ID                        : DESCRIPTION
#_______________________________________________________________________________
DEPT               .M                                      : Колонка глубины 
CALI               .м                                      : Каверномер 
CILD               .мСм/м                                  : Индукционный каротаж 
COLL               .unitless                               : Описание 
CSAT               .unitless                               : Описание 
GR                 .мкР/ч                                  : Гамма каротаж 
GZ3                .Ом·м                                   :  
LLS                .Ом·м                                   : Боковой каротаж 
MINV               .Ом·м                                   : Микро-градиент зонд 
MNOR               .Ом·м                                   : Микро-потенциал зонд 
NGLD               .у.е.                                   : Показания зонда НГК-60 аппаратуры ДРСТ-3-90 
OGZ                .Ом·м                                   :  
PHIE               .v/v                                    : Описание 
PHIEN              .v/v                                    :  
PHIT               .v/v                                    : Описание 
PRMB               .mD                                     :  
PRMB_DGR           .mD                                     :  
RT                 .ohmm                                   : УЭС пласта 
SOIL_ARCHIE        .v/v                                    :  
SOIL_DW            .v/v                                    :  
SP                 .мВ                                     : Потенциал самополяризации 
VSH_FIN            .v/v                                    : Описание 
VSH_GR             .v/v                                    : Shale volume 
VSH_SP             .v/v                                    : Shale Volume 
~Ascii
# ...
1172.8     0.221      553        -9999      -9999      8.28045    1.653      1.782      1.663      1.2        0.9691204  1.587      0.1768389  0.1768389  0.3310126  5.280121   3.384747   1.619328   0.1934987  0.4325644  36.647     0.467193   0.3943582  0.5400279 
1173       0.221      546        7          7          7.948255   1.691      1.87       1.586      2.254      0.9564369  1.905      0.1946992  0.1946992  0.3358235  11.30991   4.911645   1.791632   0.2926995  0.4851119  35.731     0.4276495  0.3387374  0.5165615 
1173.2     0.223      556        7          7          7.751572   2.032      2.264      1.754      2.018      0.9546822  2.235      0.2122515  0.2122515  0.336489   23.90956   6.123009   2.128671   0.3949018  0.5442166  32.893     0.3764772  0.3095781  0.4433765 
1173.4     0.225      566        7          7          7.675792   2.057      2.346      1.23       1.449      0.9643577  2.552      0.2216912  0.2216912  0.3328191  35.76163   6.665793   2.277919   0.4356394  0.5642827  29.797     0.3367513  0.2990254  0.3744772 
1173.6     0.229      565        7          7          7.679397   1.868      1.995      0.706      0.88       0.9844591  2.857      0.2112544  0.2112544  0.3251947  22.91411   6.638917   2.258995   0.4091234  0.5476156  30.442     0.3452734  0.299519   0.3910277 
1173.8     0.238      535        -9999      -9999      7.689942   1.704      1.643      0.557      0.855      1.013963   2.921      0.198194   0.198194   0.3140039  13.12782   6.560908   2.152382   0.3610188  0.5144011  30.765     0.3509389  0.3009681  0.4009097 
1174       0.249      495        -9999      -9999      7.645053   1.477      1.394      0.524      0.78       1.047573   2.756      0.1808372  0.1808372  0.3012556  6.261828   6.89945    1.923275   0.2703893  0.4536425  32.087     0.3649044  0.294848   0.4349607 
1174.2     0.259      470        -9999      -9999      7.549272   1.186      1.682      0.692      1.146      1.075042   2.159      0.1632779  0.1632779  0.2908365  2.961154   7.681342   1.530986   0.1124008  0.3486071  34.118     0.3865412  0.2822024  0.4908802 
1174.4     0.246      464        -9999      -9999      7.456171   1.048      2.217      1.214      1.639      1.088331   1.333      0.1572624  0.1572624  0.2857961  2.291075   8.526199   1.173443   0          0.2368367  34.634     0.3894962  0.2704305  0.5085619 
1174.6     0.226      461        -9999      -9999      7.40445    1.06       2.752      0.958      1.41       1.087429   1.435      0.1580998  0.1580998  0.2861381  2.374374   9.035061   1.219319   0          0.2534333  34.634     0.387995   0.2641044  0.5118857 
1174.8     0.218      458        -9999      -9999      7.385999   1.085      2.389      1.587      1.606      1.077617   1.536      0.1622456  0.1622456  0.2898598  2.833609   9.223855   1.271698   0.02628334 0.2820279  34.505     0.3867096  0.2618835  0.5115357 
1175       0.216      430        -9999      -9999      7.372705   1.174      2.038      1.264      1.412      1.064348   1.613      0.1678992  0.1678992  0.2948928  3.606269   9.362318   1.358925   0.08387149 0.3218835  34.312     0.3848293  0.2602951  0.5093635 
1175.2     0.214      402        -9999      -9999      7.357295   1.35       3.213      2.111      2.836      1.05093    1.74       0.1757359  0.1757359  0.2999822  5.037481   9.525429   1.520388   0.1647426  0.3768644  33.667     0.3765038  0.2584657  0.4945418 
1175.4     0.211      378        -9999      -9999      7.364958   1.767      4.63       2.679      2.638      1.038569   1.879      0.1826561  0.1826561  0.3046708  6.766927   9.443973   1.82128    0.2579884  0.4445652  33.022     0.3697417  0.2593737  0.4801097 
1175.6     0.209      380        -9999      -9999      7.42717    2.449      4.243      2.472      2.48       1.028337   2.019      0.1887282  0.1887282  0.3085518  8.767237   8.807897   2.213308   0.3418719  0.5064664  32.119     0.3631018  0.2668648  0.4593387 
1175.8     0.207      386        -9999      -9999      7.548811   2.84       2.912      1.872      1.997      1.023215   2.159      0.1917017  0.1917017  0.3104946  9.95264    7.685314   2.453115   0.3813675  0.5358902  31.152     0.3599786  0.2821428  0.4378144 
1176       0.207      392        -9999      -9999      7.706771   3.118      2.916      2.158      2.951      1.027019   2.26       0.1899129  0.1899129  0.3090516  9.221588   6.438315   2.620558   0.3953247  0.5480098  30.249     0.3610265  0.3032952  0.4187578 
1176.2     0.208      398        -9999      -9999      7.87023    3.307      2.344      1.801      2.617      1.040198   2.171      0.1823276  0.1823276  0.304053   6.672778   5.360516   2.621211   0.373546   0.5361131  29.797     0.368865   0.3268547  0.4108753 
1176.4     0.21       422        -9999      -9999      8.013095   3.13       2.447      1.873      2.345      1.05816    2.044      0.1724111  0.1724111  0.2972398  4.3715     4.567358   2.473027   0.3240699  0.504954   29.539     0.3782686  0.3489401  0.407597  
1176.6     0.211      450        -9999      -9999      8.114774   2.474      2.261      1.904      1.716      1.074295   1.892      0.1643272  0.1643272  0.2911198  3.096676   4.075411   2.144209   0.2463969  0.4512918  29.217     0.3842202  0.3655618  0.4028787 
1176.8     0.212      478        -9999      -9999      8.15805    2.209      2.075      1.753      1.881      1.084193   1.752      0.1603779  0.1603779  0.2873655  2.616657   3.882453   1.954137   0.1959908  0.4151054  28.83      0.3848108  0.3728743  0.3967474 
1177       0.212      505        -9999      -9999      8.134991   2.07       2.216      1.92       1.753      1.087179   1.74       0.1611252  0.1611252  0.2862329  2.701396   3.984104   1.890709   0.1867438  0.4050424  28.378     0.3791142  0.3689599  0.3892684 
1177.2     0.213      532        -9999      -9999      8.062298   1.994      2.128      1.751      2.02       1.084678   1.727      0.1656197  0.1656197  0.2871818  3.272181   4.322298   1.850921   0.1980353  0.406379   27.83      0.3683699  0.3568869  0.3798529 
1177.4     0.212      559        -9999      -9999      7.987524   1.906      1.866      2.148      1.732      1.077617   1.714      0.1699766  0.1699766  0.2898598  3.940364   4.700155   1.804908   0.2066517  0.4083482  27.798     0.3632826  0.3448803  0.3816849 
1177.6     0.211      585        -9999      -9999      7.952851   1.817      1.775      1.644      1.864      1.065293   1.625      0.1741928  0.1741928  0.2945345  4.716634   4.886403   1.715645   0.204697   0.4048025  28.056     0.3646716  0.3394508  0.3898925 
1177.8     0.21       602        -9999      -9999      7.948866   1.754      1.692      1.881      1.839      1.047052   1.422      0.1793478  0.1793478  0.3014532  5.876441   4.908279   1.570647   0.1918406  0.3936521  28.443     0.3700164  0.3388323  0.4012006 
1178       0.209      607        -9999      -9999      7.923091   1.679      1.609      1.549      1.864      1.025931   1.295      0.1848413  0.1848413  0.3094642  7.427938   5.052141   1.462209   0.1859249  0.3888015  29.152     0.377645   0.3348588  0.4204311 
1178.2     0.207      599        -9999      -9999      7.83348    1.641      1.526      1.067      1.419      1.008789   1.206      0.193988   0.193988   0.3159665  10.972     5.585926   1.390268   0.200759   0.392812   28.927     0.3696317  0.3214033  0.4178602 
1178.4     0.206      574        -9999      -9999      7.685209   1.565      1.443      1.229      1.327      1.001212   1.156      0.2051344  0.2051344  0.3188401  17.65001   6.595807   1.329761   0.2226554  0.3962582  27.54      0.3445627  0.3003169  0.3888085 
1178.6     0.207      543        1          2          7.521166   1.477      1.926      2.224      1.852      1.003255   1.244      0.2105214  0.2105214  0.3180656  22.20879   7.927168   1.350524   0.2455141  0.4063373  26.701     0.3258914  0.2785956  0.3731872 
1178.8     0.206      515        1          2          7.393585   1.552      2.55       2.175      2.612      1.011566   1.346      0.2124459  0.2124459  0.3149131  24.10855   9.145764   1.441678   0.2740647  0.4241568  25.863     0.3105069  0.2627943  0.3582194 
