~Version
 VERS              .         2.0                           : CWLS LOG ASCII STANDARD - VERSION 2.0
 WRAP              .         NO                            : ONE LINE PER DEPTH STEP
 DLM               .         SPACE                         : DELIMITING CHARACTER(SPACE TAB OR COMMA)
~Well Information
#_______________________________________________________________________________
#
#PARAMETER_NAME    .UNIT     VALUE                         : DESCRIPTION
#_______________________________________________________________________________
STRT               .M        900                           : First reference value
STOP               .M        1247.6                        : Last reference value
STEP               .M        0.2                           : Step increment
NULL               .         -9999                         : Missing value
COMP               .                                       : Company
WELL               .         6852                          : Well name
FLD                .         УЗЕНЬ                         : Field
LOC                .                                       : Location
CNTY               .                                       : County
STAT               .                                       : State
CTRY               .         KAZAKHSTAN                    : Country
SRVC               .                                       : Service Company
DATE               .                                       : Date
UWI                .                                       : Unique Well ID
Block              .         4                             : 
Category           .         Нефтяная                      : 
Condition          .         В работе                      : 
Date               .         30.01.1988                    : 
EREF               .m        229.6                         : 100.8
Gorizont           .         15                            : 14
Interpretator      .         Алпанова Н.К.                 : 
Kupol              .         основной                      : osnovnoi
Moii_15            .         15_gor                        : 
Mud                .                                       : 
Mud_density        .                                       : 
Mud_resistivity    .                                       : 
NGDU               .         НГДУ-1                        : 
ORIGINALWELLNAME   .         6852                          : 
Spud_date          .         1988                          : 1961
Viscosity          .                                       : 
X                  .m        54532.6                       : 46154
Y                  .m        81739.73                      : 85761.93
YEAR               .         2019                          : 
~Parameter Information Block
#_______________________________________________________________________________
#
#PARAMETER_NAME    .UNIT     VALUE                         : DESCRIPTION
#_______________________________________________________________________________
SET                .         LQC_KAZNIPI_Petrel            : 
TLFamily_CALI      .         Caliper                       : 
TLFamily_CILD      .         Conductivity                  : 
TLFamily_COLL      .         Net Reservoir Flag            : 
TLFamily_CSAT      .         Fluid Code                    : 
TLFamily_DEPT      .         Measured Depth                : 
TLFamily_GR        .         Russian Gamma Ray             : 
TLFamily_GZ3       .         Gradient 225                  : 
TLFamily_LLS       .         Lateral Log Resistivity       : 
TLFamily_MINV      .         Micro Gradient Resistivity    : 
TLFamily_MNOR      .         Micro Resistivity             : 
TLFamily_NGLD      .         Neutron Far                   : 
TLFamily_OGZ       .         Gradient Inverted 225         : 
TLFamily_PHIE      .         Effective Porosity            : 
TLFamily_PHIEN     .         Effective Porosity            : 
TLFamily_PHIT      .         Porosity                      : 
TLFamily_PRMB      .         Permeability                  : 
TLFamily_PRMB_DGR  .         Permeability                  : 
TLFamily_RT        .         Formation Resistivity         : 
TLFamily_SOIL_ARCHIE .         Oil Saturation                : 
TLFamily_SOIL_DW   .         Oil Saturation                : 
TLFamily_SP        .         Spontaneous Potential         : 
TLFamily_VSH_FIN   .         Shale Volume                  : 
TLFamily_VSH_GR    .         Shale Volume                  : 
TLFamily_VSH_SP    .         Shale Volume                  : 
~Curve Information
#_______________________________________________________________________________
#
#LOGNAME           .UNIT     LOG_ID                        : DESCRIPTION
#_______________________________________________________________________________
DEPT               .M                                      : Колонка глубины 
CALI               .м                                      : Каверномер 
CILD               .мСм/м                                  : Индукционный каротаж 
COLL               .unitless                               : Описание 
CSAT               .unitless                               : Описание 
GR                 .мкР/ч                                  : Гамма каротаж 
GZ3                .Ом·м                                   :  
LLS                .Ом·м                                   : Боковой каротаж 
MINV               .Ом·м                                   : Микро-градиент зонд 
MNOR               .Ом·м                                   : Микро-потенциал зонд 
NGLD               .у.е.                                   : Показания зонда НГК-60 аппаратуры ДРСТ-3-90 
OGZ                .Ом·м                                   :  
PHIE               .v/v                                    : Описание 
PHIEN              .v/v                                    :  
PHIT               .v/v                                    : Описание 
PRMB               .mD                                     :  
PRMB_DGR           .mD                                     :  
RT                 .ohmm                                   : УЭС пласта 
SOIL_ARCHIE        .v/v                                    :  
SOIL_DW            .v/v                                    :  
SP                 .мВ                                     : Потенциал самополяризации 
VSH_FIN            .v/v                                    : Описание 
VSH_GR             .v/v                                    : Shale volume 
VSH_SP             .v/v                                    : Shale Volume 
~Ascii
# ...
1048.8     -9999      427        -9999      -9999      4.974357   2.133      2.191      0.822      1.29       0.90775    1.905      0.2001302  0.2001302  0.3542905  14.25788   4.338856   2.012563   0.3461182  0.5347483  42.696     0.4671522  0.3563302  0.5779743 
1049       -9999      423        -9999      -9999      4.954772   2.133      2.282      1.679      1.599      0.9276614  1.917      0.1939699  0.1939699  0.346738   10.96355   4.471459   2.01924    0.3291115  0.5235785  42.567     0.4629337  0.3519768  0.5738907 
1049.2     -9999      422        -9999      -9999      4.899124   2.133      2.285      1.135      1.018      0.9426546  1.917      0.1916118  0.1916118  0.3410511  9.914565   4.870775   2.01924    0.3219263  0.5164558  42.309     0.4528464  0.3398952  0.5657976 
1049.4     -9999      435        -9999      -9999      4.848944   2.158      2.414      1.332      1.107      0.9444981  1.917      0.1936396  0.1936396  0.3403518  10.81019   5.261336   2.030374   0.3298464  0.5191872  42.116     0.4445826  0.3293568  0.5598084 
1049.6     -9999      447        -9999      -9999      4.848287   2.234      2.553      1.042      1.346      0.9296547  1.892      0.2002764  0.2002764  0.345982   14.34703   5.266652   2.048826   0.351987   0.5323607  41.922     0.4415322  0.329221   0.5538434 
1049.8     -9999      460        -9999      -9999      4.904791   2.259      2.432      0.752      1.111      0.9019704  1.892      0.2101107  0.2101107  0.3564826  21.82314   4.828528   2.059276   0.3799667  0.5505237  41.664     0.4435514  0.3411063  0.5459964 
1050       -9999      482        -9999      -9999      4.985079   2.196      2.312      1.427      1.198      0.8718902  1.79       0.2198899  0.2198899  0.367892   33.11707   4.26793    1.972323   0.3918652  0.5574425  41.406     0.4484914  0.3587363  0.5382465 
1050.2     -9999      483        -9999      -9999      5.046122   2.108      1.97       1.053      1.168      0.8507985  1.638      0.2268409  0.2268409  0.3758921  44.54521   3.88568    1.843515   0.389069   0.5537031  41.148     0.4516705  0.3727478  0.5305932 
1050.4     -9999      483        -9999      -9999      5.063251   2.019      1.715      1.302      1.153      0.8437278  1.486      0.2291688  0.2291688  0.378574   49.19492   3.78471    1.711974   0.3730733  0.5407258  41.084     0.4527432  0.3767768  0.5287097 
1050.6     -9999      483        -9999      -9999      5.035687   1.868      1.737      1.033      1.309      0.8480836  1.473      0.2282721  0.2282721  0.3769219  47.34906   3.948508   1.64715    0.3594303  0.5298087  41.148     0.4504538  0.3703145  0.5305932 
1050.8     -9999      491        -9999      -9999      4.977424   1.83       1.86       1.459      1.211      0.8580096  1.511      0.2257532  0.2257532  0.3731569  42.52608   4.318446   1.655271   0.3547008  0.5260305  41.342     0.446678   0.3570169  0.536339  
1051       -9999      499        -9999      -9999      4.907143   1.906      1.918      1.202      1.388      0.8683696  1.536      0.2224476  0.2224476  0.3692274  36.93416   4.811104   1.701113   0.3546829  0.5266965  41.729     0.4447872  0.3416102  0.5479641 
1051.2     -9999      502        -9999      -9999      4.84289    2.007      1.987      0.843      0.963      0.8752041  1.638      0.2207844  0.2207844  0.3666351  34.405     5.310527   1.803822   0.3680769  0.5370339  41.987     0.4419717  0.3281076  0.5558358 
1051.4     -9999      505        -9999      -9999      4.803377   2.057      1.987      1.573      1.632      0.8763182  1.689      0.2210325  0.2210325  0.3662125  34.77092   5.643062   1.854924   0.3769166  0.5433449  42.116     0.4399394  0.3200704  0.5598084 
1051.6     -9999      507        -9999      -9999      4.799976   2.083      2.043      0.896      1.123      0.872183   1.752      0.2227136  0.2227136  0.367781   37.35548   5.67264    1.903216   0.3884353  0.5516916  42.116     0.4395982  0.319388   0.5598084 
1051.8     -9999      510        -9999      -9999      4.821619   2.095      2.08       1.062      1.027      0.8660033  1.803      0.2246676  0.2246676  0.370125   40.60198   5.487032   1.938063   0.3982162  0.5589748  42.051     0.4407798  0.3237561  0.5578036 
1052       -9999      511        -9999      -9999      4.833396   2.083      1.99       1.788      1.452      0.8623191  1.79       0.2259933  0.2259933  0.3715224  42.96382   5.388589   1.925417   0.3994499  0.5595666  41.987     0.440997   0.3261583  0.5558358 
1052.2     -9999      503        -9999      -9999      4.811853   2.057      1.899      1.502      1.973      0.864187   1.727      0.2260076  0.2260076  0.3708139  42.99004   5.570019   1.87761    0.3923559  0.5534959  41.987     0.4388067  0.3217777  0.5558358 
1052.4     -9999      495        -9999      -9999      4.773628   1.994      1.909      1.102      1.44       0.8705921  1.663      0.2248368  0.2248368  0.3683844  40.8961    5.9071     1.81352    0.3795714  0.5429313  41.987     0.4349926  0.3141495  0.5558358 
1052.6     -9999      500        -9999      -9999      4.754084   1.906      2.128      0.73       1.224      0.8786703  1.638      0.2224047  0.2224047  0.3653204  36.86664   6.08725    1.761867   0.3651156  0.5319168  41.987     0.4330775  0.3103193  0.5558358 
1052.8     -9999      502        -9999      -9999      4.763311   1.817      2.17       1.797      1.072      0.8881597  1.549      0.2191595  0.2191595  0.361721   32.10132   6.001523   1.672331   0.3410023  0.5138351  41.858     0.4320048  0.3121218  0.5518878 
1053       -9999      498        -9999      -9999      4.783911   1.704      1.973      1.491      1.367      0.9000691  1.435      0.213972   0.213972   0.3572038  25.72995   5.814469   1.557974   0.3043671  0.4876096  41.858     0.4340357  0.3161835  0.5518878 
1053.2     -9999      490        -9999      -9999      4.806217   1.628      1.846      1.955      1.705      0.9118348  1.333      0.208451   0.208451   0.352741   20.33185   5.61848    1.465805   0.2676884  0.4621578  41.922     0.4372424  0.3206415  0.5538434 
1053.4     -9999      486        -9999      -9999      4.836364   1.641      2.031      1.147      1.021      0.9189046  1.321      0.2047589  0.2047589  0.3500595  17.36956   5.364064   1.463714   0.2557025  0.4554354  41.922     0.4403049  0.3267665  0.5538434 
1053.6     -9999      487        -9999      -9999      4.871634   1.704      2.2        1.552      1.464      0.9198011  1.359      0.203212   0.203212   0.3497195  16.2606    5.080998   1.512071   0.2621111  0.4622817  41.922     0.4439621  0.3340809  0.5538434 
1053.8     -9999      489        -9999      -9999      4.893972   1.83       2.051      1.091      1.283      0.9151274  1.435      0.2038776  0.2038776  0.3514922  16.72886   4.909497   1.608606   0.2852713  0.4809275  41.987     0.4473168  0.3387979  0.5558358 
1054       -9999      491        -9999      -9999      4.89006    1.893      2.198      1.627      1.078      0.9037184  1.511      0.2080175  0.2080175  0.3558196  19.95934   4.93911    1.680566   0.3119517  0.4999037  42.051     0.4478853  0.337967   0.5578036 
1054.2     -9999      503        -9999      -9999      4.865715   1.944      2.189      0.982      1.479      0.8851238  1.625      0.2152585  0.2152585  0.3628725  27.18115   5.127438   1.770244   0.3482496  0.5249742  42.18      0.4473152  0.332842   0.5617883 
1054.4     -9999      516        -9999      -9999      4.836499   1.982      2.019      0.772      1.167      0.8639802  1.651      0.2242762  0.2242762  0.3708923  39.92985   5.362949   1.801421   0.3762647  0.5428026  42.18      0.4442912  0.3267941  0.5617883 
1054.6     -9999      528        -9999      -9999      4.817759   2.032      1.749      1.295      0.977      0.8474529  1.575      0.2311756  0.2311756  0.3771611  53.5908    5.519685   1.774549   0.3882095  0.5494624  42.18      0.4423805  0.3229727  0.5617883 
1054.8     -9999      541        -9999      -9999      4.825185   2.045      1.861      0.673      1.042      0.8395906  1.486      0.2342354  0.2342354  0.3801433  61.06138   5.457037   1.721252   0.3864587  0.5470893  42.116     0.442145   0.3244816  0.5598084 
