~Version
 VERS              .         2.0                           : CWLS LOG ASCII STANDARD - VERSION 2.0
 WRAP              .         NO                            : ONE LINE PER DEPTH STEP
 DLM               .         SPACE                         : DELIMITING CHARACTER(SPACE TAB OR COMMA)
~Well Information
#_______________________________________________________________________________
#
#PARAMETER_NAME    .UNIT     VALUE                         : DESCRIPTION
#_______________________________________________________________________________
STRT               .M        900                           : First reference value
STOP               .M        1247.6                        : Last reference value
STEP               .M        0.2                           : Step increment
NULL               .         -9999                         : Missing value
COMP               .                                       : Company
WELL               .         6852                          : Well name
FLD                .         УЗЕНЬ                         : Field
LOC                .                                       : Location
CNTY               .                                       : County
STAT               .                                       : State
CTRY               .         KAZAKHSTAN                    : Country
SRVC               .                                       : Service Company
DATE               .                                       : Date
UWI                .                                       : Unique Well ID
Block              .         4                             : 
Category           .         Нефтяная                      : 
Condition          .         В работе                      : 
Date               .         30.01.1988                    : 
EREF               .m        229.6                         : 100.8
Gorizont           .         15                            : 14
Interpretator      .         Алпанова Н.К.                 : 
Kupol              .         основной                      : osnovnoi
Moii_15            .         15_gor                        : 
Mud                .                                       : 
Mud_density        .                                       : 
Mud_resistivity    .                                       : 
NGDU               .         НГДУ-1                        : 
ORIGINALWELLNAME   .         6852                          : 
Spud_date          .         1988                          : 1961
Viscosity          .                                       : 
X                  .m        54532.6                       : 46154
Y                  .m        81739.73                      : 85761.93
YEAR               .         2019                          : 
~Parameter Information Block
#_______________________________________________________________________________
#
#PARAMETER_NAME    .UNIT     VALUE                         : DESCRIPTION
#_______________________________________________________________________________
SET                .         LQC_KAZNIPI_Petrel            : 
TLFamily_CALI      .         Caliper                       : 
TLFamily_CILD      .         Conductivity                  : 
TLFamily_COLL      .         Net Reservoir Flag            : 
TLFamily_CSAT      .         Fluid Code                    : 
TLFamily_DEPT      .         Measured Depth                : 
TLFamily_GR        .         Russian Gamma Ray             : 
TLFamily_GZ3       .         Gradient 225                  : 
TLFamily_LLS       .         Lateral Log Resistivity       : 
TLFamily_MINV      .         Micro Gradient Resistivity    : 
TLFamily_MNOR      .         Micro Resistivity             : 
TLFamily_NGLD      .         Neutron Far                   : 
TLFamily_OGZ       .         Gradient Inverted 225         : 
TLFamily_PHIE      .         Effective Porosity            : 
TLFamily_PHIEN     .         Effective Porosity            : 
TLFamily_PHIT      .         Porosity                      : 
TLFamily_PRMB      .         Permeability                  : 
TLFamily_PRMB_DGR  .         Permeability                  : 
TLFamily_RT        .         Formation Resistivity         : 
TLFamily_SOIL_ARCHIE .         Oil Saturation                : 
TLFamily_SOIL_DW   .         Oil Saturation                : 
TLFamily_SP        .         Spontaneous Potential         : 
TLFamily_VSH_FIN   .         Shale Volume                  : 
TLFamily_VSH_GR    .         Shale Volume                  : 
TLFamily_VSH_SP    .         Shale Volume                  : 
~Curve Information
#_______________________________________________________________________________
#
#LOGNAME           .UNIT     LOG_ID                        : DESCRIPTION
#_______________________________________________________________________________
DEPT               .M                                      : Колонка глубины 
CALI               .м                                      : Каверномер 
CILD               .мСм/м                                  : Индукционный каротаж 
COLL               .unitless                               : Описание 
CSAT               .unitless                               : Описание 
GR                 .мкР/ч                                  : Гамма каротаж 
GZ3                .Ом·м                                   :  
LLS                .Ом·м                                   : Боковой каротаж 
MINV               .Ом·м                                   : Микро-градиент зонд 
MNOR               .Ом·м                                   : Микро-потенциал зонд 
NGLD               .у.е.                                   : Показания зонда НГК-60 аппаратуры ДРСТ-3-90 
OGZ                .Ом·м                                   :  
PHIE               .v/v                                    : Описание 
PHIEN              .v/v                                    :  
PHIT               .v/v                                    : Описание 
PRMB               .mD                                     :  
PRMB_DGR           .mD                                     :  
RT                 .ohmm                                   : УЭС пласта 
SOIL_ARCHIE        .v/v                                    :  
SOIL_DW            .v/v                                    :  
SP                 .мВ                                     : Потенциал самополяризации 
VSH_FIN            .v/v                                    : Описание 
VSH_GR             .v/v                                    : Shale volume 
VSH_SP             .v/v                                    : Shale Volume 
~Ascii
# ...
1135.6     0.232      453        -9999      -9999      6.371687   2.133      2.214      1.431      1.843      0.9453734  1.854      0.188092   0.188092   0.3400199  8.532541   3.417757   1.983738   0.3051281  0.5076706  35.602     0.4603875  0.3927985  0.5279765 
1135.8     0.231      453        -9999      -9999      6.452869   2.184      2.124      1.77       2.27       0.9374171  1.829      0.1887101  0.1887101  0.3430377  8.760469   3.09109    1.990798   0.308265   0.5118035  35.537     0.4676593  0.4092468  0.5260718 
1136       0.23       458        -9999      -9999      6.540341   2.221      2.211      1.944      2.215      0.9361008  1.803      0.1867785  0.1867785  0.3435369  8.067698   2.773968   1.99029    0.301955   0.5102006  35.408     0.4750255  0.4277412  0.5223098 
1136.2     0.232      464        -9999      -9999      6.596118   2.247      2.282      1.635      2.135      0.9436734  1.765      0.1821953  0.1821953  0.3406647  6.635248   2.588959   1.977046   0.2844477  0.5012224  35.344     0.4802103  0.4399683  0.5204523 
1136.4     0.234      467        -9999      -9999      6.604535   2.247      2.177      1.254      1.588      0.9587331  1.74       0.1761737  0.1761737  0.3349525  5.132432   2.562132   1.961264   0.2604165  0.4873559  35.344     0.4811479  0.4418435  0.5204523 
1136.6     0.234      468        -9999      -9999      6.59644    2.259      2.114      2.201      1.956      0.9756742  1.727      0.1700456  0.1700456  0.3285268  3.951981   2.587927   1.957498   0.2365676  0.4735607  35.344     0.4802461  0.4400399  0.5204523 
1136.8     0.233      475        -9999      -9999      6.620632   2.247      2.257      1.868      1.968      0.9868149  1.714      0.1646204  0.1646204  0.3243011  3.135648   2.511601   1.944639   0.2122685  0.460897   35.408     0.483881   0.4454521  0.5223098 
1137       0.233      486        -9999      -9999      6.697438   2.247      2.31       1.467      1.945      0.986818   1.702      0.1615961  0.1615961  0.3242999  2.756199   2.283877   1.936892   0.197943   0.4559501  35.473     0.4930418  0.46308    0.5230036 
1137.2     0.235      496        -9999      -9999      6.813388   2.196      2.234      1.066      1.504      0.9759254  1.702      0.1610074  0.1610074  0.3284315  2.687853   1.978599   1.917697   0.1916199  0.4567264  35.537     0.5073457  0.4910224  0.523669  
1137.4     0.238      504        -9999      -9999      6.942971   2.158      2.156      1.931      1.907      0.9597083  1.689      0.1615613  0.1615613  0.3345827  2.752105   1.68545    1.894911   0.1895008  0.4604103  35.602     0.5243072  0.52425    0.5243643 
1137.6     0.24       511        -9999      -9999      7.064084   2.133      2.049      1.467      1.751      0.9464247  1.689      0.1616502  0.1616502  0.3396211  2.762563   1.450862   1.88521    0.1879356  0.4641214  35.537     0.5393057  0.5573356  0.5212759 
1137.8     0.241      515        -9999      -9999      7.15285    2.133      1.991      1.381      1.299      0.9428226  1.702      0.1596091  0.1596091  0.3409874  2.53225    1.299933   1.893281   0.1805428  0.46402    35.408     0.549631   0.5829032  0.5163589 
1138       0.241      514        -9999      -9999      7.175879   2.12       1.955      1.571      1.896      0.9489955  1.702      0.15664    0.15664    0.338646   2.231059   1.263411   1.888142   0.1659678  0.4571476  35.344     0.5515333  0.5897258  0.5133408 
1138.2     0.241      512        -9999      -9999      7.108701   2.07       1.942      1.149      1.7        0.9583356  1.752      0.1565391  0.1565391  0.3351033  2.221476   1.372928   1.897771   0.167489   0.4548388  35.344     0.5411037  0.5700434  0.5121641 
1138.4     0.24       510        -9999      -9999      6.967823   2.019      2.01       1.893      1.892      0.9646046  1.816      0.1605163  0.1605163  0.3327255  2.63214    1.634406   1.912127   0.1883591  0.4596566  35.408     0.5218461  0.5308748  0.5128173 
1138.6     0.239      501        -9999      -9999      6.807815   2.019      2.008      1.598      1.544      0.9674264  1.905      0.165834   0.165834   0.3316552  3.30222    1.992293   1.960344   0.2202404  0.4719098  35.537     0.5024884  0.4896416  0.5153353 
1138.8     0.239      485        -9999      -9999      6.677785   1.994      1.965      1.615      1.554      0.9697315  2.032      0.1699842  0.1699842  0.3307808  3.941649   2.340102   2.012821   0.2462501  0.4829447  35.602     0.4872625  0.4585041  0.516021  
1139       0.239      481        -9999      -9999      6.595865   1.944      2.016      2.604      2.254      0.9725848  2.171      0.1718612  0.1718612  0.3296986  4.270155   2.58977    2.051239   0.2600193  0.4889589  35.666     0.4782953  0.4399121  0.5166785 
1139.2     0.236      477        -9999      -9999      6.557338   1.868      2.517      2.172      2.322      0.9748783  2.311      0.1719724  0.1719724  0.3288287  4.290459   2.71623    2.06602    0.2629238  0.4900945  35.795     0.4753221  0.4314308  0.5192134 
1139.4     0.232      472        -9999      -9999      6.541974   1.792      2.438      1.711      1.83       0.9761792  2.451      0.1716094  0.1716094  0.3283352  4.224543   2.768368   2.070324   0.2622868  0.4897382  35.924     0.4749268  0.4280943  0.5217594 
1139.6     0.23       465        -9999      -9999      6.518517   1.767      2.254      1.25       1.391      0.9778216  2.578      0.1704586  0.1704586  0.3277123  4.022214   2.849904   2.096813   0.262365   0.4910549  36.247     0.4765262  0.4230501  0.5300024 
1139.8     0.228      448        -9999      -9999      6.466025   1.805      2.177      1.399      1.933      0.9823212  2.717      0.1695198  0.1695198  0.3260056  3.864343   3.041171   2.169034   0.2704933  0.4969211  36.505     0.4741994  0.4119765  0.5364222 
1140       0.228      430        -9999      -9999      6.389677   1.817      2.177      2.062      2.115      0.9934254  2.908      0.1664919  0.1664919  0.3217938  3.396185   3.342511   2.236544   0.2695339  0.4971102  36.827     0.4706118  0.3963855  0.544838  
1140.2     0.226      408        -9999      -9999      6.295616   1.805      2.193      1.652      1.741      1.016357   2.895      0.1597445  0.1597445  0.3130957  2.546909   3.755121   2.223606   0.2406693  0.47883    37.085     0.4647005  0.3779863  0.5514148 
1140.4     0.224      377        -9999      -9999      6.162177   1.742      2.185      2.178      2.291      1.054832   2.883      0.1510285  0.1510285  0.2985021  1.756192   4.42933    2.171756   0.1937644  0.4450732  36.763     0.4468898  0.35334    0.5404397 
1140.6     0.222      345        -9999      -9999      5.966505   1.641      2.227      1.55       1.813      1.105801   2.87       0.1377081  0.1377081  0.2791698  0.9950528  5.642844   2.088083   0.1099922  0.3889436  36.698     0.4286717  0.3200755  0.537268  
1140.8     0.22       315        -9999      -9999      5.745057   1.628      2.455      2.475      2.471      1.15726    3.048      0.1239827  0.1239827  0.2596513  0.5541391  7.421832   2.122388   0.03219751 0.3402033  36.698     0.4111168  0.2861907  0.5360429 
1141       0.218      299        -9999      -9999      5.588454   1.59       2.903      2.939      3.514      1.193762   3.238      0.1139318  0.1139318  0.2458059  0.360954   9.008947   2.132734   0          0.2968528  36.698     0.3996184  0.2644167  0.5348202 
1141.2     0.217      284        -9999      -9999      5.557553   1.666      5.951      3.204      3.551      1.207111   3.53       0.1097459  0.1097459  0.2407428  0.3019389  9.360109   2.263657   0          0.298759   36.698     0.39696    0.2603201  0.5336    
1141.4     0.215      269        -9999      -9999      5.633155   1.767      6.179      2.704      2.814      1.201102   3.886      0.1108652  0.1108652  0.243022   0.3167017  8.524137   2.429352   0          0.3296264  36.634     0.4004751  0.2704572  0.5304929 
1141.6     0.214      270        -9999      -9999      5.751566   1.956      4.632      3.441      3.47       1.185563   4.495      0.1138965  0.1138965  0.2489161  0.3604102  7.36228    2.725847   0.07341735 0.3828197  36.698     0.4091502  0.2871336  0.5311669 
