~Version
 VERS              .         2.0                           : CWLS LOG ASCII STANDARD - VERSION 2.0
 WRAP              .         NO                            : ONE LINE PER DEPTH STEP
 DLM               .         SPACE                         : DELIMITING CHARACTER(SPACE TAB OR COMMA)
~Well Information
#_______________________________________________________________________________
#
#PARAMETER_NAME    .UNIT     VALUE                         : DESCRIPTION
#_______________________________________________________________________________
STRT               .M        900                           : First reference value
STOP               .M        1247.6                        : Last reference value
STEP               .M        0.2                           : Step increment
NULL               .         -9999                         : Missing value
COMP               .                                       : Company
WELL               .         6852                          : Well name
FLD                .         УЗЕНЬ                         : Field
LOC                .                                       : Location
CNTY               .                                       : County
STAT               .                                       : State
CTRY               .         KAZAKHSTAN                    : Country
SRVC               .                                       : Service Company
DATE               .                                       : Date
UWI                .                                       : Unique Well ID
Block              .         4                             : 
Category           .         Нефтяная                      : 
Condition          .         В работе                      : 
Date               .         30.01.1988                    : 
EREF               .m        229.6                         : 100.8
Gorizont           .         15                            : 14
Interpretator      .         Алпанова Н.К.                 : 
Kupol              .         основной                      : osnovnoi
Moii_15            .         15_gor                        : 
Mud                .                                       : 
Mud_density        .                                       : 
Mud_resistivity    .                                       : 
NGDU               .         НГДУ-1                        : 
ORIGINALWELLNAME   .         6852                          : 
Spud_date          .         1988                          : 1961
Viscosity          .                                       : 
X                  .m        54532.6                       : 46154
Y                  .m        81739.73                      : 85761.93
YEAR               .         2019                          : 
~Parameter Information Block
#_______________________________________________________________________________
#
#PARAMETER_NAME    .UNIT     VALUE                         : DESCRIPTION
#_______________________________________________________________________________
SET                .         LQC_KAZNIPI_Petrel            : 
TLFamily_CALI      .         Caliper                       : 
TLFamily_CILD      .         Conductivity                  : 
TLFamily_COLL      .         Net Reservoir Flag            : 
TLFamily_CSAT      .         Fluid Code                    : 
TLFamily_DEPT      .         Measured Depth                : 
TLFamily_GR        .         Russian Gamma Ray             : 
TLFamily_GZ3       .         Gradient 225                  : 
TLFamily_LLS       .         Lateral Log Resistivity       : 
TLFamily_MINV      .         Micro Gradient Resistivity    : 
TLFamily_MNOR      .         Micro Resistivity             : 
TLFamily_NGLD      .         Neutron Far                   : 
TLFamily_OGZ       .         Gradient Inverted 225         : 
TLFamily_PHIE      .         Effective Porosity            : 
TLFamily_PHIEN     .         Effective Porosity            : 
TLFamily_PHIT      .         Porosity                      : 
TLFamily_PRMB      .         Permeability                  : 
TLFamily_PRMB_DGR  .         Permeability                  : 
TLFamily_RT        .         Formation Resistivity         : 
TLFamily_SOIL_ARCHIE .         Oil Saturation                : 
TLFamily_SOIL_DW   .         Oil Saturation                : 
TLFamily_SP        .         Spontaneous Potential         : 
TLFamily_VSH_FIN   .         Shale Volume                  : 
TLFamily_VSH_GR    .         Shale Volume                  : 
TLFamily_VSH_SP    .         Shale Volume                  : 
~Curve Information
#_______________________________________________________________________________
#
#LOGNAME           .UNIT     LOG_ID                        : DESCRIPTION
#_______________________________________________________________________________
DEPT               .M                                      : Колонка глубины 
CALI               .м                                      : Каверномер 
CILD               .мСм/м                                  : Индукционный каротаж 
COLL               .unitless                               : Описание 
CSAT               .unitless                               : Описание 
GR                 .мкР/ч                                  : Гамма каротаж 
GZ3                .Ом·м                                   :  
LLS                .Ом·м                                   : Боковой каротаж 
MINV               .Ом·м                                   : Микро-градиент зонд 
MNOR               .Ом·м                                   : Микро-потенциал зонд 
NGLD               .у.е.                                   : Показания зонда НГК-60 аппаратуры ДРСТ-3-90 
OGZ                .Ом·м                                   :  
PHIE               .v/v                                    : Описание 
PHIEN              .v/v                                    :  
PHIT               .v/v                                    : Описание 
PRMB               .mD                                     :  
PRMB_DGR           .mD                                     :  
RT                 .ohmm                                   : УЭС пласта 
SOIL_ARCHIE        .v/v                                    :  
SOIL_DW            .v/v                                    :  
SP                 .мВ                                     : Потенциал самополяризации 
VSH_FIN            .v/v                                    : Описание 
VSH_GR             .v/v                                    : Shale volume 
VSH_SP             .v/v                                    : Shale Volume 
~Ascii
# ...
1011.6     -9999      607        1          3          1.967121   1.414      1.839      1.693      1.83       1.092894   1.206      0.2555251  0.2555251  0.2840654  151.3921   4005.182   1.301744   0.3515614  0.4044721  24.315     0.08648562 0.02193024 0.151041  
1011.8     -9999      615        1          3          1.985449   1.401      1.761      1.686      1.746      1.097179   1.168      0.2538693  0.2538693  0.28244    141.0696   3923.743   1.273934   0.3412374  0.3943449  24.315     0.08657798 0.02211497 0.151041  
1012       -9999      618        1          3          2.004706   1.376      1.793      1.816      1.786      1.099564   1.156      0.2529997  0.2529997  0.2815353  135.9336   3839.963   1.256442   0.3349652  0.3881255  24.25      0.08647149 0.02231074 0.1506322 
1012.2     -9999      623        1          3          2.015432   1.363      1.782      1.38       1.621      1.098188   1.156      0.2535035  0.2535035  0.2820572  138.8857   3794.076   1.250995   0.3347613  0.3879653  24.25      0.08652639 0.02242053 0.1506322 
1012.4     -9999      624        1          3          2.023978   1.35       1.754      1.466      1.559      1.09378    1.156      0.2552931  0.2552931  0.2837292  149.9014   3757.908   1.245491   0.3374552  0.3905227  24.121     0.08616998 0.02250839 0.1498316 
1012.6     -9999      624        1          3          2.04618    1.325      1.757      1.672      1.637      1.088967   1.181      0.2570807  0.2570807  0.2855547  161.7767   3665.545   1.248863   0.3423044  0.3953833  24.121     0.08628493 0.02273828 0.1498316 
1012.8     -9999      624        1          3          2.082058   1.313      1.78       1.701      1.97       1.085547   1.219      0.2583159  0.2583159  0.286852   170.5278   3521.069   1.264255   0.3487985  0.4018597  24.121     0.08647315 0.02311472 0.1498316 
1013       -9999      624        1          3          2.11359    1.3        1.754      1.481      1.813      1.083858   1.244      0.2589011  0.2589011  0.2874927  174.8376   3398.8     1.271384   0.3517933  0.4048762  24.121     0.08664115 0.02345072 0.1498316 
1013.2     -9999      627        1          3          2.13016    1.287      1.729      1.458      1.549      1.0848     1.244      0.2585145  0.2585145  0.2871355  171.9781   3336.261   1.265135   0.3494465  0.4026018  24.121     0.08673041 0.02362923 0.1498316 
1013.4     -9999      626        1          3          2.141467   1.262      1.754      1.695      1.603      1.089221   1.244      0.2567511  0.2567511  0.2854587  159.5187   3294.247   1.252935   0.3425744  0.3959188  24.186     0.08699255 0.02375183 0.1502333 
1013.6     -9999      624        1          3          2.162125   1.25       1.795      1.882      1.738      1.095059   1.244      0.2544993  0.2544993  0.283244   144.9111   3218.846   1.246993   0.3360313  0.3894797  24.186     0.08710537 0.02397746 0.1502333 
1013.8     -9999      620        1          3          2.192407   1.237      1.826      1.503      1.894      1.09833    1.244      0.2531376  0.2531376  0.2820034  136.735    3111.428   1.24049    0.3312829  0.3849319  24.25      0.08747216 0.02431208 0.1506322 
1014       -9999      616        1          3          2.214442   1.212      1.793      1.496      1.629      1.097071   1.257      0.2533714  0.2533714  0.282481   138.1058   3035.527   1.23409    0.3301967  0.384179   24.444     0.08821066 0.0245585  0.1518628 
1014.2     -9999      613        1          3          2.208982   1.199      1.793      1.296      1.611      1.092236   1.27       0.2550083  0.2550083  0.284315   148.0915   3054.161   1.233479   0.333788   0.3879915  24.637     0.08880813 0.02449721 0.153119  
1014.4     -9999      609        1          3          2.168227   1.186      1.915      1.476      1.623      1.085139   1.283      0.2577747  0.2577747  0.2870067  166.6371   3196.906   1.232595   0.3397973  0.3938688  24.637     0.08858179 0.02404452 0.153119  
1014.6     -9999      606        1          3          2.098397   1.212      1.998      1.22       1.552      1.075942   1.295      0.261388   0.261388   0.2904952  194.401    3457.172   1.252126   0.3525473  0.4063044  24.637     0.08820364 0.02328823 0.153119  
1014.8     -9999      593        1          3          2.01477    1.224      1.895      1.227      1.462      1.065629   1.308      0.2654438  0.2654438  0.2944067  231.1116   3796.891   1.264607   0.3641382  0.417595   24.637     0.08776639 0.02241374 0.153119  
1015       -9999      591        1          3          1.935734   1.224      1.901      1.365      1.502      1.058481   1.321      0.2682867  0.2682867  0.2971182  260.9025   4148.588   1.270651   0.3714187  0.4246506  24.637     0.08736826 0.02161747 0.153119  
1015.2     -9999      589        1          3          1.872697   1.25       1.867      1.407      1.496      1.059665   1.333      0.2679389  0.2679389  0.2966689  257.0607   4452.305   1.290166   0.3751929  0.4282067  24.637     0.08706088 0.02100271 0.153119  
1015.4     -9999      586        1          3          1.825417   1.275      1.881      1.427      1.645      1.06915    1.346      0.2644848  0.2644848  0.2930714  221.8496   4694.609   1.309538   0.3724961  0.4252943  24.573     0.08662602 0.02055312 0.1526989 
1015.6     -9999      584        1          3          1.789409   1.3        1.922      1.416      1.521      1.079908   1.359      0.2605296  0.2605296  0.2889909  187.4122   4887.955   1.328845   0.3685587  0.4211695  24.508     0.08624651 0.02021718 0.1522758 
1015.8     -9999      583        1          3          1.766344   1.338      1.901      1.721      1.9        1.084617   1.371      0.2587783  0.2587783  0.2872046  173.9242   5015.963   1.354299   0.3704686  0.4229341  24.508     0.08614036 0.02000489 0.1522758 
1016       -9999      583        1          3          1.764325   1.363      1.886      1.46       1.627      1.082536   1.384      0.2594296  0.2594296  0.2879943  178.8234   5027.324   1.37342    0.3759645  0.4284795  24.637     0.08655952 0.02       0.153119  
1016.2     -9999      582        1          3          1.788125   1.363      1.82       1.383      1.564      1.079062   1.397      0.2607825  0.2607825  0.2893116  189.4444   4894.994   1.379791   0.3801325  0.4325518  24.573     0.0864521  0.0202053  0.1526989 
1016.4     -9999      582        1          3          1.827264   1.325      1.84       1.347      1.486      1.079965   1.41       0.2604498  0.2604498  0.2889694  186.7754   4684.898   1.366179   0.3765493  0.4290339  24.508     0.08642317 0.0205705  0.1522758 
1016.6     -9999      583        1          3          1.857554   1.275      1.887      1.259      1.665      1.086772   1.422      0.2578895  0.2578895  0.2863873  167.4545   4528.517   1.344494   0.3664226  0.4190337  24.443     0.08635703 0.02085765 0.1518564 
1016.8     -9999      577        1          3          1.856984   1.237      1.874      1.392      1.53       1.096416   1.486      0.2542999  0.2542999  0.2827293  143.6843   4531.409   1.350115   0.3598951  0.4124511  24.379     0.08614958 0.02085222 0.1514469 
1017       -9999      572        1          3          1.823374   1.199      1.965      1.78       1.746      1.104776   1.524      0.2513159  0.2513159  0.2795583  126.5139   4705.372   1.342105   0.3514721  0.4038821  24.25      0.08558308 0.02053391 0.1506322 
1017.2     -9999      561        1          3          1.77722    1.212      2.081      1.465      1.768      1.110484   1.575      0.2492218  0.2492218  0.2773934  115.7046   4955.189   1.36986    0.3529736  0.405196   24.25      0.08536848 0.02010471 0.1506322 
1017.4     -9999      554        1          3          1.745392   1.275      2.068      1.401      1.736      1.11548    1.638      0.247344   0.247344   0.2754984  106.7997   5135.149   1.433883   0.3625094  0.41445    24.25      0.08531612 0.02       0.1506322 
1017.6     -9999      544        1          3          1.742464   1.275      2.046      1.607      1.856      1.121928   1.676      0.2448984  0.2448984  0.2730528  96.22132   5152.027   1.448255   0.3599708  0.4118874  24.25      0.08531612 0.02       0.1506322 
