~Version
 VERS              .         2.0                           : CWLS LOG ASCII STANDARD - VERSION 2.0
 WRAP              .         NO                            : ONE LINE PER DEPTH STEP
 DLM               .         SPACE                         : DELIMITING CHARACTER(SPACE TAB OR COMMA)
~Well Information
#_______________________________________________________________________________
#
#PARAMETER_NAME    .UNIT     VALUE                         : DESCRIPTION
#_______________________________________________________________________________
STRT               .M        900                           : First reference value
STOP               .M        1247.6                        : Last reference value
STEP               .M        0.2                           : Step increment
NULL               .         -9999                         : Missing value
COMP               .                                       : Company
WELL               .         6852                          : Well name
FLD                .         УЗЕНЬ                         : Field
LOC                .                                       : Location
CNTY               .                                       : County
STAT               .                                       : State
CTRY               .         KAZAKHSTAN                    : Country
SRVC               .                                       : Service Company
DATE               .                                       : Date
UWI                .                                       : Unique Well ID
Block              .         4                             : 
Category           .         Нефтяная                      : 
Condition          .         В работе                      : 
Date               .         30.01.1988                    : 
EREF               .m        229.6                         : 100.8
Gorizont           .         15                            : 14
Interpretator      .         Алпанова Н.К.                 : 
Kupol              .         основной                      : osnovnoi
Moii_15            .         15_gor                        : 
Mud                .                                       : 
Mud_density        .                                       : 
Mud_resistivity    .                                       : 
NGDU               .         НГДУ-1                        : 
ORIGINALWELLNAME   .         6852                          : 
Spud_date          .         1988                          : 1961
Viscosity          .                                       : 
X                  .m        54532.6                       : 46154
Y                  .m        81739.73                      : 85761.93
YEAR               .         2019                          : 
~Parameter Information Block
#_______________________________________________________________________________
#
#PARAMETER_NAME    .UNIT     VALUE                         : DESCRIPTION
#_______________________________________________________________________________
SET                .         LQC_KAZNIPI_Petrel            : 
TLFamily_CALI      .         Caliper                       : 
TLFamily_CILD      .         Conductivity                  : 
TLFamily_COLL      .         Net Reservoir Flag            : 
TLFamily_CSAT      .         Fluid Code                    : 
TLFamily_DEPT      .         Measured Depth                : 
TLFamily_GR        .         Russian Gamma Ray             : 
TLFamily_GZ3       .         Gradient 225                  : 
TLFamily_LLS       .         Lateral Log Resistivity       : 
TLFamily_MINV      .         Micro Gradient Resistivity    : 
TLFamily_MNOR      .         Micro Resistivity             : 
TLFamily_NGLD      .         Neutron Far                   : 
TLFamily_OGZ       .         Gradient Inverted 225         : 
TLFamily_PHIE      .         Effective Porosity            : 
TLFamily_PHIEN     .         Effective Porosity            : 
TLFamily_PHIT      .         Porosity                      : 
TLFamily_PRMB      .         Permeability                  : 
TLFamily_PRMB_DGR  .         Permeability                  : 
TLFamily_RT        .         Formation Resistivity         : 
TLFamily_SOIL_ARCHIE .         Oil Saturation                : 
TLFamily_SOIL_DW   .         Oil Saturation                : 
TLFamily_SP        .         Spontaneous Potential         : 
TLFamily_VSH_FIN   .         Shale Volume                  : 
TLFamily_VSH_GR    .         Shale Volume                  : 
TLFamily_VSH_SP    .         Shale Volume                  : 
~Curve Information
#_______________________________________________________________________________
#
#LOGNAME           .UNIT     LOG_ID                        : DESCRIPTION
#_______________________________________________________________________________
DEPT               .M                                      : Колонка глубины 
CALI               .м                                      : Каверномер 
CILD               .мСм/м                                  : Индукционный каротаж 
COLL               .unitless                               : Описание 
CSAT               .unitless                               : Описание 
GR                 .мкР/ч                                  : Гамма каротаж 
GZ3                .Ом·м                                   :  
LLS                .Ом·м                                   : Боковой каротаж 
MINV               .Ом·м                                   : Микро-градиент зонд 
MNOR               .Ом·м                                   : Микро-потенциал зонд 
NGLD               .у.е.                                   : Показания зонда НГК-60 аппаратуры ДРСТ-3-90 
OGZ                .Ом·м                                   :  
PHIE               .v/v                                    : Описание 
PHIEN              .v/v                                    :  
PHIT               .v/v                                    : Описание 
PRMB               .mD                                     :  
PRMB_DGR           .mD                                     :  
RT                 .ohmm                                   : УЭС пласта 
SOIL_ARCHIE        .v/v                                    :  
SOIL_DW            .v/v                                    :  
SP                 .мВ                                     : Потенциал самополяризации 
VSH_FIN            .v/v                                    : Описание 
VSH_GR             .v/v                                    : Shale volume 
VSH_SP             .v/v                                    : Shale Volume 
~Ascii
# ...
1185.2     0.206      377        -9999      -9999      6.411237   1.729      5.813      1.702      1.367      1.17841    4.508      0.1450047  0.1450047  0.251629   1.358307   27.50372   2.499385   0.2179725  0.4168032  29.346     0.3231037  0.1676342  0.4785732 
1185.4     0.205      397        -9999      -9999      6.874217   2.019      2.029      1.347      1.636      1.133219   4.444      0.1561878  0.1561878  0.2687699  2.188447   16.36929   2.776555   0.302269   0.4836881  29.217     0.3411577  0.2071979  0.4751175 
1185.6     0.203      400        1          2          7.379965   2.259      2.038      1.795      2.034      1.089284   3.594      0.1659169  0.1659169  0.2854347  3.313919   9.286447   2.774251   0.3377829  0.5136828  28.765     0.3621751  0.2611614  0.4631888 
1185.8     0.202      383        1          2          7.74671    2.272      2.448      1.727      1.796      1.060898   2.006      0.1718042  0.1718042  0.2962016  4.259793   6.156466   2.13073    0.2728949  0.4647952  28.056     0.3769617  0.30889    0.4450334 
1186       0.202      357        1          2          7.890685   2.032      2.858      2.211      2.159      1.049859   1.232      0.1754094  0.1754094  0.3003886  4.96782    5.239018   1.533961   0.1668706  0.3796744  27.346     0.378725   0.329929   0.427521  
1186.2     0.202      336        1          2          7.851663   1.704      3.269      2.26       2.424      1.048603   1.308      0.1791292  0.1791292  0.3008648  5.82192    5.473236   1.479968   0.1680876  0.3743143  26.766     0.3688958  0.3240891  0.4137026 
1186.4     0.202      324        1          2          7.731435   2.083      4.103      2.509      2.908      1.048787   1.46       0.1841349  0.1841349  0.3007949  7.207484   6.262774   1.716726   0.2424537  0.4253525  26.185     0.3535151  0.3067381  0.400292  
1186.6     0.202      316        1          2          7.61798    2.688      6.354      2.763      3.342      1.046226   1.778      0.1891024  0.1891024  0.3017665  8.908267   7.112017   2.140288   0.3325814  0.4918078  25.798     0.3414064  0.2912172  0.3915957 
1186.8     0.202      315        1          2          7.554574   3.282      6.049      2.21       2.796      1.039559   2.235      0.1915707  0.1915707  0.3042955  9.897215   7.635829   2.659152   0.4039879  0.5487074  26.185     0.34159    0.282888   0.400292  
1187       0.203      314        1          2          7.560824   3.875      5.744      1.982      2.953      1.027604   2.692      0.1935105  0.1935105  0.3088297  10.75084   7.58253    3.176945   0.456517   0.5924062  26.83      0.3494521  0.2836983  0.415206  
1187.2     0.204      352        1          2          7.65626    4.481      4.625      2.525      2.905      1.010403   3.149      0.1927575  0.1927575  0.315354   10.41106   6.813323   3.698734   0.4922277  0.6263546  28.12      0.3715045  0.2963643  0.4466446 
1187.4     0.205      412        1          2          7.844731   5.074      1.801      1.82       1.971      0.9926141  3.276      0.187513   0.187513   0.3221015  8.324419   5.515928   3.981419   0.4975491  0.6404763  29.862     0.4078438  0.3230625  0.4926251 
1187.6     0.206      472        1          2          8.080997   5.666999   1.54       1.074      1.355      0.9831772  2.756      0.1786281  0.1786281  0.3256809  5.698806   4.232656   3.708477   0.4580891  0.6228027  31.216     0.4456145  0.3599541  0.5312749 
1187.8     0.206      524        1          2          8.277383   4.935      1.594      1.245      1.469      0.9884414  2.121      0.1681816  0.1681816  0.3236842  3.649965   3.396403   2.966875   0.3658503  0.5666345  31.796     0.47122    0.3938051  0.5486349 
1188       0.207      556        -9999      -9999      8.364244   3.471      1.68       1.247      1.247      1.004144   1.511      0.1599106  0.1599106  0.3177283  2.565021   3.081333   2.105452   0.2216675  0.4694307  31.732     0.4782353  0.4097754  0.5466952 
1188.2     0.208      587        -9999      -9999      8.339894   2.108      1.729      1.814      1.635      1.016842   1.079      0.1561675  0.1561675  0.3129119  2.18655    3.166582   1.427381   0.04646092 0.3435777  31.667     0.4749829  0.4052343  0.5447314 
1188.4     0.209      613        -9999      -9999      8.264775   1.653      1.754      1.23       1.555      1.015881   0.876      0.1594318  0.1594318  0.3132764  2.513174   3.444737   1.145139   0          0.2734695  31.538     0.4661958  0.3915393  0.5408522 
1188.6     0.211      638        -9999      -9999      8.203522   1.439      1.743      1.431      1.515      1.003372   0.813      0.1662785  0.1662785  0.3180211  3.365422   3.689538   1.038994   0          0.2564565  31.474     0.4598262  0.3807155  0.5389369 
1188.8     0.212      653        -9999      -9999      8.171365   1.363      1.723      1.4        1.592      0.9904809  0.838      0.1711296  0.1711296  0.3229106  4.138978   3.824943   1.037886   0          0.2711605  31.667     0.4599425  0.3751535  0.5447314 
1189       0.213      660        -9999      -9999      8.136628   1.363      1.71       1.251      1.632      0.9856664  0.889      0.1732879  0.1732879  0.3247367  4.53807    3.976799   1.076116   0.005601398 0.290159   31.796     0.4589357  0.3692365  0.5486349 
1189.2     0.213      658        -9999      -9999      8.070945   1.451      1.694      1.214      1.403      0.9888626  1.003      0.1735538  0.1735538  0.3235244  4.589814   4.280612   1.186107   0.05125943 0.3227337  31.861     0.4544565  0.358302   0.550611  
1189.4     0.212      653        -9999      -9999      7.980325   1.603      1.707      1.298      1.277      0.9958155  1.13       0.1733183  0.1733183  0.3208872  4.543952   4.738231   1.325569   0.09841712 0.3558068  31.861     0.4471784  0.3437459  0.550611  
1189.6     0.211      638        -9999      -9999      7.890781   1.843      1.843      1.636      1.462      1.003806   1.321      0.1725651  0.1725651  0.3178566  4.400293   5.238451   1.53894    0.1562072  0.3976412  31.861     0.4402773  0.3299436  0.550611  
1189.8     0.211      624        -9999      -9999      7.826113   2.31       1.818      1.648      1.955      1.011521   1.473      0.1721962  0.1721962  0.3149299  4.331607   5.632239   1.798906   0.2143386  0.43925    31.667     0.4325264  0.3203214  0.5447314 
1190       0.209      608        -9999      -9999      7.792247   2.335      1.828      1.637      1.755      1.017296   1.486      0.172409   0.172409   0.3127396  4.371094   5.850132   1.816179   0.2186947  0.4398232  31.345     0.4252444  0.315395   0.5350937 
1190.2     0.208      593        -9999      -9999      7.7721     2.196      1.915      1.505      1.88       1.020362   1.435      0.1732892  0.1732892  0.3115767  4.538306   5.983736   1.735753   0.2054426  0.4268441  31.023     0.4190532  0.3125003  0.5256062 
1190.4     0.209      577        -9999      -9999      7.739004   2.045      2.24       1.784      1.897      1.021164   1.359      0.1762177  0.1762177  0.3112727  5.142064   6.209873   1.632876   0.1941798  0.412609   30.507     0.4092574  0.3078024  0.5107124 
1190.6     0.21       563        -9999      -9999      7.681928   1.918      2.412      2.148      2.074      1.019176   1.346      0.1803826  0.1803826  0.3120266  6.141597   6.620105   1.58188    0.1985645  0.4095731  30.055     0.3989212  0.2998663  0.4979761 
1190.8     0.21       560        -9999      -9999      7.62131    1.754      2.335      2.086      2.182      1.013199   1.333      0.1848865  0.1848865  0.3142938  7.442246   7.085519   1.514792   0.1994804  0.4051263  29.862     0.3921433  0.2916615  0.4926251 
1191       0.211      557        -9999      -9999      7.597451   1.552      2.217      1.923      2.134      1.0037     1.333      0.1887202  0.1887202  0.3178967  8.764251   7.277552   1.434188   0.1932249  0.3977614  29.926     0.3914439  0.288494   0.4943937 
1191.2     0.211      554        -9999      -9999      7.643262   1.414      2.084      1.946      1.921      0.993049   1.371      0.1911604  0.1911604  0.3219365  9.725503   6.91331    1.392168   0.190991   0.3964634  30.055     0.3962913  0.2946065  0.4979761 
