~Version
 VERS              .         2.0                           : CWLS LOG ASCII STANDARD - VERSION 2.0
 WRAP              .         NO                            : ONE LINE PER DEPTH STEP
 DLM               .         SPACE                         : DELIMITING CHARACTER(SPACE TAB OR COMMA)
~Well Information
#_______________________________________________________________________________
#
#PARAMETER_NAME    .UNIT     VALUE                         : DESCRIPTION
#_______________________________________________________________________________
STRT               .M        900                           : First reference value
STOP               .M        1247.6                        : Last reference value
STEP               .M        0.2                           : Step increment
NULL               .         -9999                         : Missing value
COMP               .                                       : Company
WELL               .         6852                          : Well name
FLD                .         УЗЕНЬ                         : Field
LOC                .                                       : Location
CNTY               .                                       : County
STAT               .                                       : State
CTRY               .         KAZAKHSTAN                    : Country
SRVC               .                                       : Service Company
DATE               .                                       : Date
UWI                .                                       : Unique Well ID
Block              .         4                             : 
Category           .         Нефтяная                      : 
Condition          .         В работе                      : 
Date               .         30.01.1988                    : 
EREF               .m        229.6                         : 100.8
Gorizont           .         15                            : 14
Interpretator      .         Алпанова Н.К.                 : 
Kupol              .         основной                      : osnovnoi
Moii_15            .         15_gor                        : 
Mud                .                                       : 
Mud_density        .                                       : 
Mud_resistivity    .                                       : 
NGDU               .         НГДУ-1                        : 
ORIGINALWELLNAME   .         6852                          : 
Spud_date          .         1988                          : 1961
Viscosity          .                                       : 
X                  .m        54532.6                       : 46154
Y                  .m        81739.73                      : 85761.93
YEAR               .         2019                          : 
~Parameter Information Block
#_______________________________________________________________________________
#
#PARAMETER_NAME    .UNIT     VALUE                         : DESCRIPTION
#_______________________________________________________________________________
SET                .         LQC_KAZNIPI_Petrel            : 
TLFamily_CALI      .         Caliper                       : 
TLFamily_CILD      .         Conductivity                  : 
TLFamily_COLL      .         Net Reservoir Flag            : 
TLFamily_CSAT      .         Fluid Code                    : 
TLFamily_DEPT      .         Measured Depth                : 
TLFamily_GR        .         Russian Gamma Ray             : 
TLFamily_GZ3       .         Gradient 225                  : 
TLFamily_LLS       .         Lateral Log Resistivity       : 
TLFamily_MINV      .         Micro Gradient Resistivity    : 
TLFamily_MNOR      .         Micro Resistivity             : 
TLFamily_NGLD      .         Neutron Far                   : 
TLFamily_OGZ       .         Gradient Inverted 225         : 
TLFamily_PHIE      .         Effective Porosity            : 
TLFamily_PHIEN     .         Effective Porosity            : 
TLFamily_PHIT      .         Porosity                      : 
TLFamily_PRMB      .         Permeability                  : 
TLFamily_PRMB_DGR  .         Permeability                  : 
TLFamily_RT        .         Formation Resistivity         : 
TLFamily_SOIL_ARCHIE .         Oil Saturation                : 
TLFamily_SOIL_DW   .         Oil Saturation                : 
TLFamily_SP        .         Spontaneous Potential         : 
TLFamily_VSH_FIN   .         Shale Volume                  : 
TLFamily_VSH_GR    .         Shale Volume                  : 
TLFamily_VSH_SP    .         Shale Volume                  : 
~Curve Information
#_______________________________________________________________________________
#
#LOGNAME           .UNIT     LOG_ID                        : DESCRIPTION
#_______________________________________________________________________________
DEPT               .M                                      : Колонка глубины 
CALI               .м                                      : Каверномер 
CILD               .мСм/м                                  : Индукционный каротаж 
COLL               .unitless                               : Описание 
CSAT               .unitless                               : Описание 
GR                 .мкР/ч                                  : Гамма каротаж 
GZ3                .Ом·м                                   :  
LLS                .Ом·м                                   : Боковой каротаж 
MINV               .Ом·м                                   : Микро-градиент зонд 
MNOR               .Ом·м                                   : Микро-потенциал зонд 
NGLD               .у.е.                                   : Показания зонда НГК-60 аппаратуры ДРСТ-3-90 
OGZ                .Ом·м                                   :  
PHIE               .v/v                                    : Описание 
PHIEN              .v/v                                    :  
PHIT               .v/v                                    : Описание 
PRMB               .mD                                     :  
PRMB_DGR           .mD                                     :  
RT                 .ohmm                                   : УЭС пласта 
SOIL_ARCHIE        .v/v                                    :  
SOIL_DW            .v/v                                    :  
SP                 .мВ                                     : Потенциал самополяризации 
VSH_FIN            .v/v                                    : Описание 
VSH_GR             .v/v                                    : Shale volume 
VSH_SP             .v/v                                    : Shale Volume 
~Ascii
# ...
999.2000000000001 -9999      555        1          3          1.587708   1.805      2.009      1.594      1.896      1.196142   1.283      0.2194578  0.2194578  0.2449034  32.51234   6127.863   1.49988    0.3072933  0.3554293  20.971     0.07710785 0.02       0.1342157 
999.4      -9999      547        1          3          1.593479   1.729      2.155      2.084      2.212      1.191953   1.283      0.2210467  0.2210467  0.2464923  34.79199   6088.351   1.472979   0.305761   0.3539696  20.971     0.07710785 0.02       0.1342157 
999.6      -9999      540        1          3          1.605433   1.628      2.185      1.895      1.94       1.188006   1.321      0.2225439  0.2225439  0.2479895  37.08608   6007.318   1.45852    0.3066283  0.3548867  20.971     0.07710785 0.02       0.1342157 
999.8      -9999      537        1          3          1.629964   1.628      2.145      1.869      1.846      1.185834   1.384      0.2233676  0.2233676  0.2488132  38.41209   5844.403   1.496117   0.3170611  0.3652555  20.971     0.07710785 0.02       0.1342157 
1000       -9999      535        1          3          1.668226   1.628      2.177      1.493      1.437      1.183122   1.435      0.2243963  0.2243963  0.2498419  40.13481   5599.062   1.525419   0.3259518  0.3740955  20.971     0.07710785 0.02       0.1342157 
1000.2     -9999      531        1          3          1.7106     1.628      2.138      1.565      1.714      1.178679   1.473      0.2260814  0.2260814  0.251527   43.12552   5339.357   1.546626   0.3346545  0.3827668  20.971     0.07710785 0.02       0.1342157 
1000.4     -9999      529        1          3          1.744004   1.628      2.176      1.721      1.773      1.174476   1.473      0.2276758  0.2276758  0.2531214  46.1601    5143.142   1.546626   0.3387144  0.3868409  20.971     0.07710785 0.02       0.1342157 
1000.6     -9999      528        1          3          1.762216   1.628      2.084      1.976      1.919      1.172787   1.46       0.2280268  0.2280268  0.2537619  46.85622   5039.222   1.53943    0.338154   0.3867014  21.408     0.07798523 0.02       0.1359705 
1000.8     -9999      529        1          3          1.763198   1.628      2.033      1.885      1.867      1.175073   1.448      0.2271596  0.2271596  0.2528947  45.15489   5033.684   1.532733   0.3345941  0.3831532  21.408     0.07798523 0.02       0.1359705 
1001       -9999      529        1          3          1.744193   1.59       2.016      1.802      1.94       1.18262    1.448      0.224297   0.224297   0.2500321  39.96519   5142.055   1.515681   0.3236623  0.3722423  21.408     0.07798523 0.02       0.1359705 
1001.2     -9999      527        1          3          1.706631   1.552      2.076      1.878      1.775      1.195082   1.448      0.2195702  0.2195702  0.2453053  32.66863   5363.162   1.498197   0.3072374  0.3558133  21.408     0.07798523 0.02       0.1359705 
1001.4     -9999      524        1          3          1.658467   1.54       2.164      1.583      1.92       1.20865    1.435      0.2144241  0.2144241  0.2401592  26.23089   5660.641   1.485647   0.2899818  0.3385248  21.408     0.07798523 0.02       0.1359705 
1001.6     -9999      522        1          3          1.606921   1.54       2.107      1.843      1.914      1.217315   1.473      0.2111373  0.2111373  0.2368724  22.79988   5997.308   1.505755   0.2848905  0.333364   21.408     0.07798523 0.02       0.1359705 
1001.8     -9999      522        1          3          1.556101   1.54       2.089      1.565      1.784      1.216569   1.486      0.2111107  0.2111107  0.2371555  22.77405   6348.836   1.512518   0.2863145  0.3352748  21.845     0.07892374 0.02       0.1378475 
1002       -9999      525        1          3          1.5134     1.54       2.015      1.653      1.763      1.206994   1.486      0.2147423  0.2147423  0.2407871  26.58924   6660.086   1.512518   0.2968379  0.3458207  21.845     0.07892374 0.02       0.1378475 
1002.2     -9999      524        1          3          1.490839   1.552      2.001      1.884      1.882      1.194474   1.46       0.2188081  0.2188081  0.245536   31.62386   6830.644   1.504595   0.3065244  0.3565732  22.718     0.08099356 0.02       0.1419871 
1002.4     -9999      521        1          3          1.497398   1.59       2.053      1.965      2.266      1.185977   1.397      0.2216552  0.2216552  0.2487591  35.70667   6780.61    1.487265   0.3105508  0.3611894  23.155     0.08213317 0.02       0.1442664 
1002.6     -9999      513        1          3          1.530848   1.653      2.145      2.334      1.995      1.184621   1.41       0.221344   0.221344   0.2492734  35.23596   6531.102   1.521861   0.3171155  0.3688591  24.029     0.08463452 0.02       0.149269  
1002.8     -9999      504        1          3          1.5744     1.679      2.351      2.076      2.341      1.189667   1.448      0.21943    0.21943    0.2473594  32.47389   6219.945   1.554968   0.3188444  0.3705199  24.029     0.08463452 0.02       0.149269  
1003       -9999      498        1          3          1.606705   1.691      2.359      2.098      1.975      1.198351   1.46       0.2161359  0.2161359  0.2440653  28.21759   5998.762   1.567033   0.3123104  0.3640175  24.029     0.08463452 0.02       0.149269  
1003.2     -9999      495        1          3          1.622075   1.691      2.371      2.22       2.276      1.206839   1.524      0.2129167  0.2129167  0.2408461  24.59759   5896.306   1.603163   0.3106764  0.3623496  24.029     0.08463452 0.02       0.149269  
1003.4     -9999      495        1          3          1.636662   1.691      2.254      1.87       2.013      1.211203   1.575      0.2112611  0.2112611  0.2391905  22.92065   5800.685   1.63094    0.311546   0.36318    24.029     0.08463452 0.02       0.149269  
1003.6     -9999      496        1          3          1.666186   1.691      2.15       1.45       1.906      1.208987   1.613      0.2121018  0.2121018  0.2400312  23.75735   5611.878   1.651079   0.317863   0.3694172  24.029     0.08463452 0.02       0.149269  
1003.8     -9999      496        1          3          1.705076   1.666      2.142      1.519      1.769      1.200019   1.613      0.2155034  0.2155034  0.2434328  27.46658   5372.517   1.639072   0.3249421  0.3764454  24.029     0.08463452 0.02       0.149269  
1004       -9999      496        1          3          1.733054   1.653      2.004      1.546      1.51       1.187152   1.562      0.220384   0.220384   0.2483134  33.82244   5206.654   1.606212   0.3316601  0.3831513  24.029     0.08463452 0.02       0.149269  
1004.2     -9999      502        1          3          1.734448   1.628      2.107      1.508      1.418      1.175551   1.524      0.2247842  0.2247842  0.2527136  40.80435   5198.525   1.574284   0.3368503  0.388353   24.029     0.08463452 0.02       0.149269  
1004.4     -9999      504        1          3          1.708137   1.616      2.137      1.707      1.74       1.169428   1.473      0.2271067  0.2271067  0.2550361  45.05307   5354.117   1.54119    0.3361753  0.3877465  24.029     0.08463452 0.02       0.149269  
1004.6     -9999      506        1          3          1.665415   1.603      2.061      1.941      2.062      1.169169   1.46       0.2272047  0.2272047  0.2551341  45.24184   5616.728   1.528162   0.333776   0.3853909  24.029     0.08463452 0.02       0.149269  
1004.8     -9999      508        1          3          1.625136   1.603      2.038      1.385      1.683      1.172687   1.46       0.2258706  0.2258706  0.2538     42.7395    5876.114   1.528162   0.3303501  0.3819893  24.029     0.08463452 0.02       0.149269  
1005       -9999      511        1          3          1.603237   1.578      2.138      1.723      1.949      1.177453   1.46       0.2234968  0.2234968  0.2519921  38.62433   6022.123   1.516708   0.3217695  0.3742963  24.573     0.08634945 0.02       0.1526989 
1005.2     -9999      513        1          3          1.60071    1.565      2.116      1.609      1.685      1.18023    1.41       0.2224433  0.2224433  0.2509387  36.92738   6039.209   1.483462   0.3118528  0.3645224  24.573     0.08634945 0.02       0.1526989 
