~Version
 VERS              .         2.0                           : CWLS LOG ASCII STANDARD - VERSION 2.0
 WRAP              .         NO                            : ONE LINE PER DEPTH STEP
 DLM               .         SPACE                         : DELIMITING CHARACTER(SPACE TAB OR COMMA)
~Well Information
#_______________________________________________________________________________
#
#PARAMETER_NAME    .UNIT     VALUE                         : DESCRIPTION
#_______________________________________________________________________________
STRT               .M        900                           : First reference value
STOP               .M        1247.6                        : Last reference value
STEP               .M        0.2                           : Step increment
NULL               .         -9999                         : Missing value
COMP               .                                       : Company
WELL               .         6852                          : Well name
FLD                .         УЗЕНЬ                         : Field
LOC                .                                       : Location
CNTY               .                                       : County
STAT               .                                       : State
CTRY               .         KAZAKHSTAN                    : Country
SRVC               .                                       : Service Company
DATE               .                                       : Date
UWI                .                                       : Unique Well ID
Block              .         4                             : 
Category           .         Нефтяная                      : 
Condition          .         В работе                      : 
Date               .         30.01.1988                    : 
EREF               .m        229.6                         : 100.8
Gorizont           .         15                            : 14
Interpretator      .         Алпанова Н.К.                 : 
Kupol              .         основной                      : osnovnoi
Moii_15            .         15_gor                        : 
Mud                .                                       : 
Mud_density        .                                       : 
Mud_resistivity    .                                       : 
NGDU               .         НГДУ-1                        : 
ORIGINALWELLNAME   .         6852                          : 
Spud_date          .         1988                          : 1961
Viscosity          .                                       : 
X                  .m        54532.6                       : 46154
Y                  .m        81739.73                      : 85761.93
YEAR               .         2019                          : 
~Parameter Information Block
#_______________________________________________________________________________
#
#PARAMETER_NAME    .UNIT     VALUE                         : DESCRIPTION
#_______________________________________________________________________________
SET                .         LQC_KAZNIPI_Petrel            : 
TLFamily_CALI      .         Caliper                       : 
TLFamily_CILD      .         Conductivity                  : 
TLFamily_COLL      .         Net Reservoir Flag            : 
TLFamily_CSAT      .         Fluid Code                    : 
TLFamily_DEPT      .         Measured Depth                : 
TLFamily_GR        .         Russian Gamma Ray             : 
TLFamily_GZ3       .         Gradient 225                  : 
TLFamily_LLS       .         Lateral Log Resistivity       : 
TLFamily_MINV      .         Micro Gradient Resistivity    : 
TLFamily_MNOR      .         Micro Resistivity             : 
TLFamily_NGLD      .         Neutron Far                   : 
TLFamily_OGZ       .         Gradient Inverted 225         : 
TLFamily_PHIE      .         Effective Porosity            : 
TLFamily_PHIEN     .         Effective Porosity            : 
TLFamily_PHIT      .         Porosity                      : 
TLFamily_PRMB      .         Permeability                  : 
TLFamily_PRMB_DGR  .         Permeability                  : 
TLFamily_RT        .         Formation Resistivity         : 
TLFamily_SOIL_ARCHIE .         Oil Saturation                : 
TLFamily_SOIL_DW   .         Oil Saturation                : 
TLFamily_SP        .         Spontaneous Potential         : 
TLFamily_VSH_FIN   .         Shale Volume                  : 
TLFamily_VSH_GR    .         Shale Volume                  : 
TLFamily_VSH_SP    .         Shale Volume                  : 
~Curve Information
#_______________________________________________________________________________
#
#LOGNAME           .UNIT     LOG_ID                        : DESCRIPTION
#_______________________________________________________________________________
DEPT               .M                                      : Колонка глубины 
CALI               .м                                      : Каверномер 
CILD               .мСм/м                                  : Индукционный каротаж 
COLL               .unitless                               : Описание 
CSAT               .unitless                               : Описание 
GR                 .мкР/ч                                  : Гамма каротаж 
GZ3                .Ом·м                                   :  
LLS                .Ом·м                                   : Боковой каротаж 
MINV               .Ом·м                                   : Микро-градиент зонд 
MNOR               .Ом·м                                   : Микро-потенциал зонд 
NGLD               .у.е.                                   : Показания зонда НГК-60 аппаратуры ДРСТ-3-90 
OGZ                .Ом·м                                   :  
PHIE               .v/v                                    : Описание 
PHIEN              .v/v                                    :  
PHIT               .v/v                                    : Описание 
PRMB               .mD                                     :  
PRMB_DGR           .mD                                     :  
RT                 .ohmm                                   : УЭС пласта 
SOIL_ARCHIE        .v/v                                    :  
SOIL_DW            .v/v                                    :  
SP                 .мВ                                     : Потенциал самополяризации 
VSH_FIN            .v/v                                    : Описание 
VSH_GR             .v/v                                    : Shale volume 
VSH_SP             .v/v                                    : Shale Volume 
~Ascii
# ...
1086       0.25       713        -9999      -9999      8.046523   1.388      1.499      0.604      0.842      0.8316661  1.156      0.1692069  0.1692069  0.3831491  3.813127   0.4301638  1.261421   0.05768659 0.4027039  35.86      0.6483095  0.8        0.4966189 
1086.2     0.25       718        -9999      -9999      8.021378   1.363      1.472      0.75       0.908      0.8309484  1.105      0.1689505  0.1689505  0.3834213  3.771653   0.4437602  1.220515   0.04173075 0.3927041  35.86      0.6499114  0.8        0.4998229 
1086.4     0.248      719        -9999      -9999      7.935287   1.325      1.473      0.57       0.827      0.834681   1.041      0.1667057  0.1667057  0.3820055  3.427293   0.4936459  1.165955   0.009470948 0.3741041  35.924     0.6524237  0.8        0.5048474 
1086.6     0.247      718        -9999      -9999      7.787601   1.262      1.467      0.526      0.709      0.8425804  1.003      0.1625672  0.1625672  0.3790092  2.872744   0.5926341  1.117692   0          0.3515398  36.053     0.655885   0.8        0.51177   
1086.8     0.246      716        -9999      -9999      7.587593   1.212      1.473      0.619      0.85       0.8549455  0.952      0.1695263  0.1695263  0.3743192  3.865417   0.7590612  1.066381   0          0.3412896  36.053     0.6205844  0.7261078  0.5150611 
1087       0.245      700        -9999      -9999      7.347485   1.174      1.516      0.57       0.689      0.8708378  0.94       0.176641   0.176641   0.3682912  5.235732   1.021687   1.044049   0.008079726 0.3378945  36.053     0.5807583  0.6431456  0.518371  
1087.2     0.244      689        -9999      -9999      7.074801   1.149      1.516      0.552      0.879      0.8858141  0.952      0.1846867  0.1846867  0.3626107  7.379109   1.431747   1.041264   0.04462632 0.3419554  35.924     0.5391637  0.560362   0.5179654 
1087.4     0.242      660        -9999      -9999      6.792781   1.123      1.526      2.391      1.639      0.8937666  1.054      0.1943142  0.1943142  0.3595943  11.12575   2.029704   1.087407   0.104397   0.3654252  35.86      0.5008487  0.4859361  0.5157614 
1087.6     0.241      631        -9999      -9999      6.564353   1.161      2.063      2.025      1.642      0.8914016  1.27       0.2040112  0.2040112  0.3604914  16.82447   2.692753   1.213056   0.1845253  0.4114701  35.86      0.4741822  0.4329628  0.5154015 
1087.8     0.24       624        -9999      -9999      6.465204   1.262      2.829      1.538      0.726      0.8810203  1.486      0.2127136  0.2127136  0.364429   24.38544   3.044262   1.36487    0.2559893  0.4578418  35.602     0.4597435  0.4118056  0.5076815 
1088       0.239      633        -9999      -9999      6.516866   1.502      1.811      0.531      0.767      0.8691565  1.689      0.2172665  0.2172665  0.3689289  29.61152   2.855733   1.590021   0.3200905  0.5055737  35.215     0.4595831  0.4226972  0.496469  
1088.2     0.239      639        -9999      -9999      6.660352   1.628      1.56       0.576      0.904      0.8620859  1.879      0.2153502  0.2153502  0.3716108  27.28769   2.391133   1.744518   0.3440004  0.5283714  35.086     0.4735169  0.4544829  0.4925508 
1088.4     0.241      636        -9999      -9999      6.800395   1.666      1.625      0.556      0.921      0.8621178  1.79       0.2098963  0.2098963  0.3715987  21.62453   2.01067    1.725775   0.3257703  0.5209678  35.086     0.4900073  0.4878092  0.4922054 
1088.6     0.245      634        -9999      -9999      6.862458   1.426      1.526      0.591      0.795      0.8678277  1.613      0.2046349  0.2046349  0.369433   17.27801   1.862028   1.513747   0.2669632  0.481543   35.215     0.4993879  0.5033497  0.4954261 
1088.8     0.248      632        -9999      -9999      6.813273   1.199      1.432      0.81       0.782      0.8772752  1.422      0.20196    0.20196    0.3658495  15.41512   1.978879   1.301013   0.2039013  0.4345244  35.473     0.4966349  0.4909941  0.5022758 
1089       0.252      619        -9999      -9999      6.658469   1.085      1.495      1.018      1.02       0.8881412  1.244      0.2024894  0.2024894  0.3617281  15.76717   2.396712   1.159073   0.1614671  0.3973903  35.795     0.4825413  0.4540506  0.511032  
1089.2     0.247      603        -9999      -9999      6.438417   0.997      1.612      1.971      2.11       0.8951831  1.003      0.2068447  0.2068447  0.3590571  18.98561   3.146867   0.999991   0.11782    0.3537708  35.989     0.4612494  0.4062691  0.5162297 
1089.4     0.235      587        -9999      -9999      6.224696   0.972      1.744      1.411      1.195      0.8915532  1.156      0.2139113  0.2139113  0.3604339  25.66335   4.099573   1.056045   0.1649055  0.380929   36.247     0.4440079  0.3646805  0.5233353 
1089.6     0.224      572        -9999      -9999      6.097016   0.997      1.98       0.954      0.886      0.8749389  1.257      0.222786   0.222786   0.3667357  37.47097   4.801288   1.112004   0.2132498  0.4125755  36.505     0.4362112  0.3418953  0.5305271 
1089.8     0.221      564        -9999      -9999      6.107824   1.048      2.488      0.697      1.054      0.8513461  1.384      0.2318021  0.2318021  0.3756844  55.04219   4.737499   1.192789   0.2645752  0.4497751  36.44      0.436007   0.3437676  0.5282464 
1090       0.223      566        -9999      -9999      6.251325   1.149      2.33       0.799      0.672      0.8315018  1.536      0.2363652  0.2363652  0.3832113  66.86761   3.966681   1.31461    0.3092099  0.4861121  36.182     0.4449882  0.3696207  0.5203558 
1090.2     0.227      579        -9999      -9999      6.462151   1.25       1.965      0.59       1.048      0.8238006  1.638      0.2331048  0.2331048  0.3861324  58.18679   3.055786   1.417936   0.3251921  0.5046832  36.053     0.4637202  0.4111708  0.5162696 
1090.4     0.23       584        -9999      -9999      6.650822   1.325      1.659      0.764      0.901      0.8306728  1.613      0.2240745  0.2240745  0.3835258  39.5878    2.4195     1.454884   0.3099475  0.5012181  35.989     0.4831858  0.4522996  0.5140719 
1090.6     0.233      585        -9999      -9999      6.753796   1.401      1.589      0.709      1.002      0.8490093  1.486      0.2134994  0.2134994  0.3765708  25.21652   2.130024   1.442249   0.2773198  0.4836731  35.924     0.4941556  0.4764571  0.5118541 
1090.8     0.236      566        -9999      -9999      6.758338   1.426      1.563      0.709      1.207      0.8717362  1.384      0.2041481  0.2041481  0.3679504  16.92294   2.118084   1.404686   0.2392086  0.4599723  36.053     0.4963708  0.4775521  0.5151896 
1091       0.238      554        -9999      -9999      6.687969   1.414      1.719      0.816      1.002      0.8899304  1.41       0.1988293  0.1988293  0.3610494  13.48837   2.310797   1.411997   0.2234079  0.449464   36.311     0.491576   0.4608696  0.5222824 
1091.2     0.241      545        -9999      -9999      6.58287    1.414      1.949      1.388      1.609      0.89689    1.473      0.1992483  0.1992483  0.3584096  13.73154   2.631751   1.442897   0.232665   0.4534124  36.505     0.4823071  0.4370329  0.5275813 
1091.4     0.242      533        -9999      -9999      6.501046   1.426      2.024      0.893      1.832      0.8922772  1.549      0.2036692  0.2036692  0.3601593  16.58079   2.912189   1.484957   0.2572744  0.4674235  36.569     0.4742124  0.4193318  0.529093  
1091.6     0.24       527        -9999      -9999      6.50054    1.439      2.231      0.682      1.276      0.8820882  1.638      0.2072966  0.2072966  0.364024   19.35507   2.914015   1.532065   0.2792475  0.4826709  36.634     0.4749312  0.4192245  0.530638  
1091.8     0.236      523        -9999      -9999      6.596588   1.464      2.161      0.584      1.266      0.8740792  1.714      0.207894   0.207894   0.3670618  19.85452   2.587456   1.579167   0.2911954  0.4935752  36.44      0.4823266  0.4400727  0.5245805 
1092       0.23       524        -9999      -9999      6.737669   1.489      1.895      0.726      1.375      0.8729983  1.714      0.2048435  0.2048435  0.3674718  17.43237   2.172959   1.593597   0.2850692  0.4932683  36.053     0.4928129  0.4725902  0.5130356 
