~Version
 VERS              .         2.0                           : CWLS LOG ASCII STANDARD - VERSION 2.0
 WRAP              .         NO                            : ONE LINE PER DEPTH STEP
 DLM               .         SPACE                         : DELIMITING CHARACTER(SPACE TAB OR COMMA)
~Well Information
#_______________________________________________________________________________
#
#PARAMETER_NAME    .UNIT     VALUE                         : DESCRIPTION
#_______________________________________________________________________________
STRT               .M        900                           : First reference value
STOP               .M        1247.6                        : Last reference value
STEP               .M        0.2                           : Step increment
NULL               .         -9999                         : Missing value
COMP               .                                       : Company
WELL               .         6852                          : Well name
FLD                .         УЗЕНЬ                         : Field
LOC                .                                       : Location
CNTY               .                                       : County
STAT               .                                       : State
CTRY               .         KAZAKHSTAN                    : Country
SRVC               .                                       : Service Company
DATE               .                                       : Date
UWI                .                                       : Unique Well ID
Block              .         4                             : 
Category           .         Нефтяная                      : 
Condition          .         В работе                      : 
Date               .         30.01.1988                    : 
EREF               .m        229.6                         : 100.8
Gorizont           .         15                            : 14
Interpretator      .         Алпанова Н.К.                 : 
Kupol              .         основной                      : osnovnoi
Moii_15            .         15_gor                        : 
Mud                .                                       : 
Mud_density        .                                       : 
Mud_resistivity    .                                       : 
NGDU               .         НГДУ-1                        : 
ORIGINALWELLNAME   .         6852                          : 
Spud_date          .         1988                          : 1961
Viscosity          .                                       : 
X                  .m        54532.6                       : 46154
Y                  .m        81739.73                      : 85761.93
YEAR               .         2019                          : 
~Parameter Information Block
#_______________________________________________________________________________
#
#PARAMETER_NAME    .UNIT     VALUE                         : DESCRIPTION
#_______________________________________________________________________________
SET                .         LQC_KAZNIPI_Petrel            : 
TLFamily_CALI      .         Caliper                       : 
TLFamily_CILD      .         Conductivity                  : 
TLFamily_COLL      .         Net Reservoir Flag            : 
TLFamily_CSAT      .         Fluid Code                    : 
TLFamily_DEPT      .         Measured Depth                : 
TLFamily_GR        .         Russian Gamma Ray             : 
TLFamily_GZ3       .         Gradient 225                  : 
TLFamily_LLS       .         Lateral Log Resistivity       : 
TLFamily_MINV      .         Micro Gradient Resistivity    : 
TLFamily_MNOR      .         Micro Resistivity             : 
TLFamily_NGLD      .         Neutron Far                   : 
TLFamily_OGZ       .         Gradient Inverted 225         : 
TLFamily_PHIE      .         Effective Porosity            : 
TLFamily_PHIEN     .         Effective Porosity            : 
TLFamily_PHIT      .         Porosity                      : 
TLFamily_PRMB      .         Permeability                  : 
TLFamily_PRMB_DGR  .         Permeability                  : 
TLFamily_RT        .         Formation Resistivity         : 
TLFamily_SOIL_ARCHIE .         Oil Saturation                : 
TLFamily_SOIL_DW   .         Oil Saturation                : 
TLFamily_SP        .         Spontaneous Potential         : 
TLFamily_VSH_FIN   .         Shale Volume                  : 
TLFamily_VSH_GR    .         Shale Volume                  : 
TLFamily_VSH_SP    .         Shale Volume                  : 
~Curve Information
#_______________________________________________________________________________
#
#LOGNAME           .UNIT     LOG_ID                        : DESCRIPTION
#_______________________________________________________________________________
DEPT               .M                                      : Колонка глубины 
CALI               .м                                      : Каверномер 
CILD               .мСм/м                                  : Индукционный каротаж 
COLL               .unitless                               : Описание 
CSAT               .unitless                               : Описание 
GR                 .мкР/ч                                  : Гамма каротаж 
GZ3                .Ом·м                                   :  
LLS                .Ом·м                                   : Боковой каротаж 
MINV               .Ом·м                                   : Микро-градиент зонд 
MNOR               .Ом·м                                   : Микро-потенциал зонд 
NGLD               .у.е.                                   : Показания зонда НГК-60 аппаратуры ДРСТ-3-90 
OGZ                .Ом·м                                   :  
PHIE               .v/v                                    : Описание 
PHIEN              .v/v                                    :  
PHIT               .v/v                                    : Описание 
PRMB               .mD                                     :  
PRMB_DGR           .mD                                     :  
RT                 .ohmm                                   : УЭС пласта 
SOIL_ARCHIE        .v/v                                    :  
SOIL_DW            .v/v                                    :  
SP                 .мВ                                     : Потенциал самополяризации 
VSH_FIN            .v/v                                    : Описание 
VSH_GR             .v/v                                    : Shale volume 
VSH_SP             .v/v                                    : Shale Volume 
~Ascii
# ...
980.6      0.242      314        -9999      -9999      7.41671    4.556      2.805      0.544      1.196      0.8730766  4.254001   -9999      -9999      -9999      -9999      -9999      4.399824   -9999      -9999      29.862     -9999      0.1841068  0.2708974 
980.8      0.23       307        -9999      -9999      7.26621    3.307      2.703      0.522      0.864      0.8917385  3.733      -9999      -9999      -9999      -9999      -9999      3.507111   -9999      -9999      29.926     -9999      0.148852   0.2718501 
981        0.219      291        -9999      -9999      7.087286   3.042      3.23       0.576      0.597      0.9154449  3.365      -9999      -9999      -9999      -9999      -9999      3.195358   -9999      -9999      30.055     -9999      0.1202678  0.2737829 
981.2000000000001 0.218      276        -9999      -9999      6.933361   2.941      4.329      0.516      0.668      0.9377159  3.492      -9999      -9999      -9999      -9999      -9999      3.192903   -9999      -9999      29.991     -9999      0.08598438 0.2728219 
981.4      0.221      268        -9999      -9999      6.828145   3.042      4.287      1.785      1.741      0.9534155  3.606      -9999      -9999      -9999      -9999      -9999      3.300076   -9999      -9999      29.926     -9999      0.1194666  0.2718501 
981.6      0.22       261        -9999      -9999      6.750212   3.307      4.184      1.156      1.637      0.9632962  3.746      -9999      -9999      -9999      -9999      -9999      3.512838   -9999      -9999      29.862     -9999      0.09498914 0.2708974 
981.8      0.217      253        -9999      -9999      6.670282   3.496      4.376      0.528      1.05       0.9706737  3.86       -9999      -9999      -9999      -9999      -9999      3.668994   -9999      -9999      29.991     -9999      0.09639636 0.2728219 
982        0.216      247        -9999      -9999      6.583617   3.673      4.721      0.56       1.155      0.9748476  3.975      -9999      -9999      -9999      -9999      -9999      3.818037   -9999      -9999      29.991     -9999      0.09058638 0.2728219 
982.2000000000001 0.22       246        -9999      -9999      6.511127   3.85       5.431      0.574      1.228      0.9710258  4.102      -9999      -9999      -9999      -9999      -9999      3.972007   -9999      -9999      29.926     -9999      0.07914482 0.2718501 
982.4      0.229      250        -9999      -9999      6.488623   4.014      5.117      2.195      1.888      0.957172   4.178      -9999      -9999      -9999      -9999      -9999      4.094358   -9999      -9999      29.797     -9999      0.07457373 0.2699341 
982.6      0.237      256        -9999      -9999      6.546885   4.19       4.019      1.324      1.615      0.9381257  4.317      -9999      -9999      -9999      -9999      -9999      4.252552   -9999      -9999      29.733     -9999      0.07835525 0.2689897 
982.8      0.242      259        -9999      -9999      6.694478   4.317      4.56       0.485      0.906      0.9216641  4.19       -9999      -9999      -9999      -9999      -9999      4.252552   -9999      -9999      29.668     -9999      0.08632993 0.2680348 
983        0.248      271        -9999      -9999      6.906436   4.342      3.66       1.344      0.807      0.9112658  3.962      -9999      -9999      -9999      -9999      -9999      4.143305   -9999      -9999      29.668     -9999      0.1061362  0.2680348 
983.2000000000001 0.252      289        -9999      -9999      7.13458    4.253      3.038      0.771      1.457      0.9035851  3.733      -9999      -9999      -9999      -9999      -9999      3.97607    -9999      -9999      29.604     -9999      0.1390415  0.2670986 
983.4      0.255      290        -9999      -9999      7.331203   4.19       2.933      0.503      0.73       0.893222   3.505      -9999      -9999      -9999      -9999      -9999      3.817011   -9999      -9999      29.604     -9999      0.1593548  0.2670986 
983.6      0.256      294        -9999      -9999      7.470247   4.077      3.082      0.474      0.895      0.8794461  3.276      -9999      -9999      -9999      -9999      -9999      3.632872   -9999      -9999      29.668     -9999      0.158717   0.2680348 
983.8      0.233      297        -9999      -9999      7.541608   3.976      3.169      0.449      0.965      0.8670867  3.098      -9999      -9999      -9999      -9999      -9999      3.482513   -9999      -9999      29.797     -9999      0.187585   0.2699341 
984        0.222      310        -9999      -9999      7.535618   3.951      2.851      0.472      0.768      0.8614439  3.06       -9999      -9999      -9999      -9999      -9999      3.448883   -9999      -9999      29.862     -9999      0.1771057  0.2708974 
984.2000000000001 0.226      312        -9999      -9999      7.445953   3.976      2.942      0.498      0.65       0.8641407  3.136      -9999      -9999      -9999      -9999      -9999      3.506394   -9999      -9999      29.733     -9999      0.1786513  0.2689897 
984.4      0.231      312        -9999      -9999      7.287296   3.988      3.075      1.097      1.11       0.8740058  3.238      -9999      -9999      -9999      -9999      -9999      3.574078   -9999      -9999      29.604     -9999      0.1461897  0.2670986 
984.6      0.225      313        -9999      -9999      7.10183    3.951      3.015      0.829      1.064      0.889073   3.378      -9999      -9999      -9999      -9999      -9999      3.642101   -9999      -9999      29.539     -9999      0.1189089  0.266152  
984.8      0.217      311        -9999      -9999      6.931445   3.9        3.053      0.494      0.78       0.9065772  3.568      -9999      -9999      -9999      -9999      -9999      3.72662    -9999      -9999      29.733     -9999      0.09874414 0.2689897 
985        0.21       306        -9999      -9999      6.777848   3.862      3.607      0.485      0.714      0.9236509  3.708      -9999      -9999      -9999      -9999      -9999      3.783433   -9999      -9999      29.862     -9999      0.1020319  0.2708974 
985.2000000000001 0.209      301        -9999      -9999      6.602531   3.824      3.603      0.656      1.832      0.939499   3.809      -9999      -9999      -9999      -9999      -9999      3.816485   -9999      -9999      29.862     -9999      0.1107012  0.2708974 
985.4      0.217      298        -9999      -9999      6.385358   3.786      3.497      0.9        1.483      0.9553916  3.936      -9999      -9999      -9999      -9999      -9999      3.859543   -9999      -9999      29.926     -9999      0.07798945 0.2718501 
985.6      0.227      288        -9999      -9999      6.170708   3.749      3.392      1.025      1.409      0.9708784  4.444      -9999      -9999      -9999      -9999      -9999      4.067022   -9999      -9999      29.862     -9999      0.06033387 0.2708974 
985.8      0.228      276        -9999      -9999      6.02595    3.723      3.6        0.502      1.036      0.9814002  4.863      -9999      -9999      -9999      -9999      -9999      4.217319   -9999      -9999      29.668     -9999      0.04547418 0.2680348 
986        0.217      264        -9999      -9999      5.9557     3.698      4.629      0.647      1.047      0.9821804  5.397      0.2714191  0.2714191  0.326059   298.1937   45.82515   4.388808   0.6521782  0.7079512  29.346     0.1655754  0.1360912  0.1950595 
986.2000000000001 0.22       252        -9999      -9999      5.881606   3.509      5.662      1.127      2.452      0.977018   5.778      0.2746082  0.2746082  0.3280171  341.6395   49.79329   4.366319   0.6548678  0.7096492  29.088     0.1618451  0.1315536  0.1921366 
986.4      0.228      251        -9999      -9999      5.71419    3.559      5.072      2.429      3.062      0.9827499  5.879001   0.2749607  0.2749607  0.3258429  346.8149   60.07084   4.433855   0.6577275  0.7109207  28.572     0.1541885  0.1218503  0.1865268 
986.6      0.233      250        -9999      -9999      5.422936   3.698      4.22       1.803      2.388      1.020057   5.892001   0.2636541  0.2636541  0.3116924  214.127    83.26019   4.544028   0.6490439  0.7017878  28.378     0.1455707  0.1066438  0.1844975 
