~Version
 VERS              .         2.0                           : CWLS LOG ASCII STANDARD - VERSION 2.0
 WRAP              .         NO                            : ONE LINE PER DEPTH STEP
 DLM               .         SPACE                         : DELIMITING CHARACTER(SPACE TAB OR COMMA)
~Well Information
#_______________________________________________________________________________
#
#PARAMETER_NAME    .UNIT     VALUE                         : DESCRIPTION
#_______________________________________________________________________________
STRT               .M        900                           : First reference value
STOP               .M        1247.6                        : Last reference value
STEP               .M        0.2                           : Step increment
NULL               .         -9999                         : Missing value
COMP               .                                       : Company
WELL               .         6852                          : Well name
FLD                .         УЗЕНЬ                         : Field
LOC                .                                       : Location
CNTY               .                                       : County
STAT               .                                       : State
CTRY               .         KAZAKHSTAN                    : Country
SRVC               .                                       : Service Company
DATE               .                                       : Date
UWI                .                                       : Unique Well ID
Block              .         4                             : 
Category           .         Нефтяная                      : 
Condition          .         В работе                      : 
Date               .         30.01.1988                    : 
EREF               .m        229.6                         : 100.8
Gorizont           .         15                            : 14
Interpretator      .         Алпанова Н.К.                 : 
Kupol              .         основной                      : osnovnoi
Moii_15            .         15_gor                        : 
Mud                .                                       : 
Mud_density        .                                       : 
Mud_resistivity    .                                       : 
NGDU               .         НГДУ-1                        : 
ORIGINALWELLNAME   .         6852                          : 
Spud_date          .         1988                          : 1961
Viscosity          .                                       : 
X                  .m        54532.6                       : 46154
Y                  .m        81739.73                      : 85761.93
YEAR               .         2019                          : 
~Parameter Information Block
#_______________________________________________________________________________
#
#PARAMETER_NAME    .UNIT     VALUE                         : DESCRIPTION
#_______________________________________________________________________________
SET                .         LQC_KAZNIPI_Petrel            : 
TLFamily_CALI      .         Caliper                       : 
TLFamily_CILD      .         Conductivity                  : 
TLFamily_COLL      .         Net Reservoir Flag            : 
TLFamily_CSAT      .         Fluid Code                    : 
TLFamily_DEPT      .         Measured Depth                : 
TLFamily_GR        .         Russian Gamma Ray             : 
TLFamily_GZ3       .         Gradient 225                  : 
TLFamily_LLS       .         Lateral Log Resistivity       : 
TLFamily_MINV      .         Micro Gradient Resistivity    : 
TLFamily_MNOR      .         Micro Resistivity             : 
TLFamily_NGLD      .         Neutron Far                   : 
TLFamily_OGZ       .         Gradient Inverted 225         : 
TLFamily_PHIE      .         Effective Porosity            : 
TLFamily_PHIEN     .         Effective Porosity            : 
TLFamily_PHIT      .         Porosity                      : 
TLFamily_PRMB      .         Permeability                  : 
TLFamily_PRMB_DGR  .         Permeability                  : 
TLFamily_RT        .         Formation Resistivity         : 
TLFamily_SOIL_ARCHIE .         Oil Saturation                : 
TLFamily_SOIL_DW   .         Oil Saturation                : 
TLFamily_SP        .         Spontaneous Potential         : 
TLFamily_VSH_FIN   .         Shale Volume                  : 
TLFamily_VSH_GR    .         Shale Volume                  : 
TLFamily_VSH_SP    .         Shale Volume                  : 
~Curve Information
#_______________________________________________________________________________
#
#LOGNAME           .UNIT     LOG_ID                        : DESCRIPTION
#_______________________________________________________________________________
DEPT               .M                                      : Колонка глубины 
CALI               .м                                      : Каверномер 
CILD               .мСм/м                                  : Индукционный каротаж 
COLL               .unitless                               : Описание 
CSAT               .unitless                               : Описание 
GR                 .мкР/ч                                  : Гамма каротаж 
GZ3                .Ом·м                                   :  
LLS                .Ом·м                                   : Боковой каротаж 
MINV               .Ом·м                                   : Микро-градиент зонд 
MNOR               .Ом·м                                   : Микро-потенциал зонд 
NGLD               .у.е.                                   : Показания зонда НГК-60 аппаратуры ДРСТ-3-90 
OGZ                .Ом·м                                   :  
PHIE               .v/v                                    : Описание 
PHIEN              .v/v                                    :  
PHIT               .v/v                                    : Описание 
PRMB               .mD                                     :  
PRMB_DGR           .mD                                     :  
RT                 .ohmm                                   : УЭС пласта 
SOIL_ARCHIE        .v/v                                    :  
SOIL_DW            .v/v                                    :  
SP                 .мВ                                     : Потенциал самополяризации 
VSH_FIN            .v/v                                    : Описание 
VSH_GR             .v/v                                    : Shale volume 
VSH_SP             .v/v                                    : Shale Volume 
~Ascii
# ...
1098.4     0.237      505        -9999      -9999      7.229322   1.59       2.047      1.41       1.826      0.9603209  1.727      0.1467041  0.1467041  0.3343503  1.460407   1.182558   1.655671   0.06082396 0.4011116  37.085     0.5686247  0.6058684  0.5313811 
1098.6     0.237      509        -9999      -9999      7.157503   1.578      2.201      1.236      1.569      0.9593197  1.727      0.1519555  0.1519555  0.33473    1.827019   1.292469   1.649141   0.08746575 0.4081883  36.827     0.5538622  0.5842753  0.5234491 
1098.8     0.233      517        -9999      -9999      7.1246     1.565      2.138      0.644      1.194      0.9611041  1.727      0.1532353  0.1532353  0.3340532  1.929515   1.34618    1.642014   0.09226412 0.4080256  36.763     0.547933   0.5746415  0.5212244 
1099       0.225      517        -9999      -9999      7.129005   1.565      1.992      0.75       0.819      0.965264   1.727      0.1521215  0.1521215  0.3324754  1.839994   1.338862   1.642014   0.08647788 0.4046426  36.634     0.546527   0.575922   0.517132  
1099.2     0.22       516        -9999      -9999      7.159175   1.565      1.843      0.664      0.928      0.9699399  1.727      0.149865   0.149865   0.3307018  1.67117    1.289797   1.642014   0.07450969 0.3992871  36.44      0.5479904  0.5847694  0.5112114 
1099.4     0.232      512        -9999      -9999      7.198108   1.54       1.788      0.642      0.853      0.9736547  1.727      0.1465979  0.1465979  0.3292927  1.453808   1.22913    1.628148   0.0528098  0.3901072  36.44      0.5536208  0.5963872  0.5108543 
1099.6     0.241      510        -9999      -9999      7.224022   1.527      1.895      1.068      1.461      0.97636    1.727      0.1449381  0.1449381  0.3282667  1.354448   1.190339   1.620854   0.04135134 0.3849306  36.311     0.5555413  0.604248   0.5068346 
1099.8     0.244      503        -9999      -9999      7.216085   1.54       1.973      1          1.703      0.979238   1.727      0.1440001  0.1440001  0.3271751  1.301335   1.202088   1.628148   0.0379445  0.3835362  36.376     0.5550756  0.6018295  0.5083218 
1100       0.242      493        -9999      -9999      7.163457   1.59       2.014      0.776      1.342      0.9834291  1.727      0.144775   0.144775   0.3255853  1.34506    1.28298    1.655671   0.0499336  0.3880386  36.44      0.5479102  0.586036   0.5097844 
1100.2     0.242      481        -9999      -9999      7.064294   1.603      2.034      0.676      1.367      0.9896953  1.727      0.1471828  0.1471828  0.3232086  1.490528   1.450485   1.662691   0.06534248 0.3903081  36.44      0.5334115  0.5573948  0.5094282 
1100.4     0.243      468        -9999      -9999      6.92229    1.616      2.014      0.617      1.413      0.9987997  1.727      0.1498511  0.1498511  0.3197553  1.670183   1.729141   1.669657   0.08165792 0.3916337  36.505     0.5148612  0.5188001  0.5109223 
1100.6     0.24       456        -9999      -9999      6.749997   1.616      2.131      1.203      1.624      1.010424   1.727      0.1523369  0.1523369  0.3153462  1.85698    2.140061   1.669657   0.0947233  0.3901961  36.569     0.4939674  0.4755433  0.5123916 
1100.8     0.232      444        -9999      -9999      6.579062   1.628      2.114      0.937      1.359      1.021033   1.727      0.1542548  0.1542548  0.311322   2.015257   2.644185   1.676039   0.1061358  0.3894394  36.698     0.4759614  0.4361926  0.5157301 
1101       0.227      437        -9999      -9999      6.458438   1.641      2.339      1.052      1.286      1.024518   1.727      0.1572484  0.1572484  0.3100005  2.289705   3.069858   1.682902   0.122659   0.3935877  36.698     0.4628852  0.4104001  0.5153702 
1101.2     0.226      434        -9999      -9999      6.431023   1.729      2.896      1.227      2.073      1.016401   1.727      0.160705   0.160705   0.3130792  2.653408   3.175792   1.727999   0.1497345  0.4101458  36.827     0.46174    0.404754   0.518726  
1101.4     0.226      443        -9999      -9999      6.500006   1.868      2.602      1.386      1.858      0.9980005  1.727      0.1647583  0.1647583  0.3200584  3.154149   2.915942   1.794735   0.1826465  0.4344638  36.956     0.4706063  0.4191114  0.5221012 
1101.6     0.227      442        -9999      -9999      6.62918    1.969      2.401      1.061      1.696      0.9765019  1.727      0.1679964  0.1679964  0.3282128  3.621259   2.485173   1.840077   0.205739   0.4541508  37.021     0.4855042  0.4473804  0.5236281 
1101.8     0.228      451        -9999      -9999      6.77628    1.994      2.366      1.141      1.38       0.9604499  1.727      0.1681412  0.1681412  0.3343014  3.643691   2.071575   1.850921   0.20852    0.4620419  37.085     0.5035155  0.4819012  0.5251297 
1102       0.228      453        -9999      -9999      6.917241   1.994      2.059      0.929      1.483      0.9528413  1.702      0.1649037  0.1649037  0.3371873  3.17377    1.73998    1.836465   0.1920362  0.4587607  37.15      0.5220713  0.517478   0.5266646 
1102.2     0.227      460        -9999      -9999      7.046642   2.007      2.134      0.717      1.483      0.9486535  1.651      0.1607831  0.1607831  0.3387757  2.662266   1.482518   1.811677   0.1687468  0.4513892  37.15      0.5393716  0.5524452  0.526298  
1102.4     0.227      483        -9999      -9999      7.173479   2.019      2.263      1.228      1.744      0.9409288  1.575      0.1589774  0.1589774  0.3417057  2.464939   1.267168   1.769574   0.1512157  0.4454962  36.892     0.553722   0.5890112  0.5184329 
1102.6     0.227      507        -9999      -9999      7.3056     2.032      2.311      0.687      1.385      0.9282371  1.524      0.1580606  0.1580606  0.3465196  2.370416   1.07604    1.741714   0.140553   0.4447207  36.698     0.5710879  0.6296767  0.5124991 
1102.8     0.23       529        -9999      -9999      7.43749    2.032      2.246      0.605      1.229      0.9146661  1.498      0.1573155  0.1573155  0.3516672  2.296271   0.9140009  1.72461    0.1330027  0.4461115  36.44      0.5889444  0.673071   0.5048177 
1103       0.234      541        -9999      -9999      7.564718   1.969      1.945      0.516      0.965      0.9048576  1.448      0.1537199  0.1537199  0.3553875  1.96981    0.7808554  1.668781   0.1015999  0.4357888  36.44      0.6111138  0.7177631  0.5044646 
1103.2     0.236      549        -9999      -9999      7.689689   1.868      1.648      0.427      0.784      0.9013702  1.397      0.147381   0.147381   0.3567103  1.503183   0.668971   1.598527   0.04903651 0.4158734  36.44      0.6343311  0.7645504  0.5041118 
1103.4     0.232      554        -9999      -9999      7.802166   1.817      1.62       0.74       1.058      0.904339   1.346      0.140464   0.140464   0.3555842  1.119159   0.5820487  1.546432   0          0.3944077  36.44      0.6518795  0.8        0.5037591 
1103.6     0.228      559        -9999      -9999      7.878083   1.767      1.718      0.921      1.34       0.9114614  1.359      0.1375184  0.1375184  0.3528827  0.9870338  0.529857   1.536374   0          0.3847681  36.505     0.6526192  0.8        0.5052384 
1103.8     0.234      560        -9999      -9999      7.902773   1.729      1.793      0.718      1.372      0.9193954  1.397      0.1330566  0.1330566  0.3498733  0.8159989  0.513913   1.54537    0          0.3758296  36.827     0.6570203  0.8        0.5140406 
1104       0.239      562        -9999      -9999      7.884703   1.704      1.82       0.82       1.094      0.9248404  1.435      0.1295117  0.1295117  0.347808   0.7015015  0.5255342  1.557974   0          0.3699411  37.15      0.6615041  0.8        0.5230082 
1104.2     0.238      560        -9999      -9999      7.843339   1.717      1.8        0.86       1.151      0.9253329  1.473      0.1278273  0.1278273  0.3476212  0.6528751  0.553135   1.585668   0          0.3723372  37.472     0.6660421  0.8        0.5320843 
1104.4     0.233      556        -9999      -9999      7.788702   1.717      1.831      0.907      1.336      0.9213498  1.549      0.1284493  0.1284493  0.349132   0.6704268  0.5918269  1.628679   0          0.3834736  37.666     0.6687354  0.8        0.5374708 
