~Version
 VERS              .         2.0                           : CWLS LOG ASCII STANDARD - VERSION 2.0
 WRAP              .         NO                            : ONE LINE PER DEPTH STEP
 DLM               .         SPACE                         : DELIMITING CHARACTER(SPACE TAB OR COMMA)
~Well Information
#_______________________________________________________________________________
#
#PARAMETER_NAME    .UNIT     VALUE                         : DESCRIPTION
#_______________________________________________________________________________
STRT               .M        900                           : First reference value
STOP               .M        1247.6                        : Last reference value
STEP               .M        0.2                           : Step increment
NULL               .         -9999                         : Missing value
COMP               .                                       : Company
WELL               .         6852                          : Well name
FLD                .         УЗЕНЬ                         : Field
LOC                .                                       : Location
CNTY               .                                       : County
STAT               .                                       : State
CTRY               .         KAZAKHSTAN                    : Country
SRVC               .                                       : Service Company
DATE               .                                       : Date
UWI                .                                       : Unique Well ID
Block              .         4                             : 
Category           .         Нефтяная                      : 
Condition          .         В работе                      : 
Date               .         30.01.1988                    : 
EREF               .m        229.6                         : 100.8
Gorizont           .         15                            : 14
Interpretator      .         Алпанова Н.К.                 : 
Kupol              .         основной                      : osnovnoi
Moii_15            .         15_gor                        : 
Mud                .                                       : 
Mud_density        .                                       : 
Mud_resistivity    .                                       : 
NGDU               .         НГДУ-1                        : 
ORIGINALWELLNAME   .         6852                          : 
Spud_date          .         1988                          : 1961
Viscosity          .                                       : 
X                  .m        54532.6                       : 46154
Y                  .m        81739.73                      : 85761.93
YEAR               .         2019                          : 
~Parameter Information Block
#_______________________________________________________________________________
#
#PARAMETER_NAME    .UNIT     VALUE                         : DESCRIPTION
#_______________________________________________________________________________
SET                .         LQC_KAZNIPI_Petrel            : 
TLFamily_CALI      .         Caliper                       : 
TLFamily_CILD      .         Conductivity                  : 
TLFamily_COLL      .         Net Reservoir Flag            : 
TLFamily_CSAT      .         Fluid Code                    : 
TLFamily_DEPT      .         Measured Depth                : 
TLFamily_GR        .         Russian Gamma Ray             : 
TLFamily_GZ3       .         Gradient 225                  : 
TLFamily_LLS       .         Lateral Log Resistivity       : 
TLFamily_MINV      .         Micro Gradient Resistivity    : 
TLFamily_MNOR      .         Micro Resistivity             : 
TLFamily_NGLD      .         Neutron Far                   : 
TLFamily_OGZ       .         Gradient Inverted 225         : 
TLFamily_PHIE      .         Effective Porosity            : 
TLFamily_PHIEN     .         Effective Porosity            : 
TLFamily_PHIT      .         Porosity                      : 
TLFamily_PRMB      .         Permeability                  : 
TLFamily_PRMB_DGR  .         Permeability                  : 
TLFamily_RT        .         Formation Resistivity         : 
TLFamily_SOIL_ARCHIE .         Oil Saturation                : 
TLFamily_SOIL_DW   .         Oil Saturation                : 
TLFamily_SP        .         Spontaneous Potential         : 
TLFamily_VSH_FIN   .         Shale Volume                  : 
TLFamily_VSH_GR    .         Shale Volume                  : 
TLFamily_VSH_SP    .         Shale Volume                  : 
~Curve Information
#_______________________________________________________________________________
#
#LOGNAME           .UNIT     LOG_ID                        : DESCRIPTION
#_______________________________________________________________________________
DEPT               .M                                      : Колонка глубины 
CALI               .м                                      : Каверномер 
CILD               .мСм/м                                  : Индукционный каротаж 
COLL               .unitless                               : Описание 
CSAT               .unitless                               : Описание 
GR                 .мкР/ч                                  : Гамма каротаж 
GZ3                .Ом·м                                   :  
LLS                .Ом·м                                   : Боковой каротаж 
MINV               .Ом·м                                   : Микро-градиент зонд 
MNOR               .Ом·м                                   : Микро-потенциал зонд 
NGLD               .у.е.                                   : Показания зонда НГК-60 аппаратуры ДРСТ-3-90 
OGZ                .Ом·м                                   :  
PHIE               .v/v                                    : Описание 
PHIEN              .v/v                                    :  
PHIT               .v/v                                    : Описание 
PRMB               .mD                                     :  
PRMB_DGR           .mD                                     :  
RT                 .ohmm                                   : УЭС пласта 
SOIL_ARCHIE        .v/v                                    :  
SOIL_DW            .v/v                                    :  
SP                 .мВ                                     : Потенциал самополяризации 
VSH_FIN            .v/v                                    : Описание 
VSH_GR             .v/v                                    : Shale volume 
VSH_SP             .v/v                                    : Shale Volume 
~Ascii
# ...
1067.4     0.256      528        -9999      -9999      5.704686   3.711      1.807      1.449      1.189      0.8500195  1.067      0.204262   0.204262   0.3761876  17.00533   1.411996   1.657445   0.2963877  0.5096014  36.505     0.5209868  0.5635496  0.478424  
1067.6     0.269      564        -9999      -9999      5.990436   3.648      1.473      0.958      1.377      0.8334004  1.016      0.1881234  0.1881234  0.3824912  8.543985   0.9100749  1.589352   0.2290701  0.4882259  37.343     0.5889934  0.6742552  0.5037315 
1067.8     0.278      596        -9999      -9999      6.156047   3.547      1.409      0.456      0.752      0.8277962  0.978      0.1758581  0.1758581  0.3846169  5.063791   0.7055389  1.533245   0.1685398  0.4672747  37.73      0.6326026  0.7481145  0.5170909 
1068       0.263      619        -9999      -9999      6.214522   3.37       1.399      0.847      0.811      0.8292589  0.99       0.1693671  0.1693671  0.3840621  3.839255   0.6448892  1.530413   0.1401084  0.4587299  37.924     0.650591   0.7760821  0.5250999 
1068.2     0.239      630        -9999      -9999      6.198156   3.118      1.477      0.813      0.897      0.8308124  1.029      0.169064   0.169064   0.3834729  3.789945   0.6613182  1.547346   0.1432015  0.4608212  38.053     0.6497239  0.7681508  0.531297  
1068.4     0.239      641        -9999      -9999      6.139406   2.878      1.649      0.713      0.885      0.8277184  1.079      0.1734777  0.1734777  0.3846464  4.574944   0.7238197  1.569554   0.1678026  0.4707961  38.246     0.6399052  0.7403409  0.5394696 
1068.6     0.242      652        -9999      -9999      6.062387   2.6        1.666      1.129      1.012      0.8202954  1.117      0.1797165  0.1797165  0.387462   5.969589   0.8147891  1.562658   0.1913522  0.4790089  38.633     0.6295316  0.705403   0.5536602 
1068.8     0.245      658        -9999      -9999      5.987997   2.36       1.698      0.987      1.153      0.8118348  1.13       0.1865275  0.1865275  0.390671   7.981784   0.9134933  1.528252   0.2089087  0.483204   39.02      0.6186168  0.6732238  0.5640098 
1069       0.25       662        -9999      -9999      5.941561   2.221      1.723      0.961      0.843      0.8054946  1.168      0.1917246  0.1917246  0.3930759  9.962379   0.9810804  1.530911   0.2282483  0.4909703  39.149     0.6101554  0.6538851  0.5664257 
1069.2     0.251      666        -9999      -9999      5.953326   2.095      1.657      0.821      0.844      0.8031065  1.232      0.1927558  0.1927558  0.3939817  10.41031   0.9634974  1.551572   0.2366627  0.4961236  39.02      0.6097754  0.6587315  0.5608193 
1069.4     0.252      669        -9999      -9999      6.037151   1.982      1.61       1.11       0.86       0.8056861  1.27       0.1858364  0.1858364  0.3930033  7.749969   0.8470169  1.548057   0.211128   0.4876909  39.085     0.6277783  0.6943177  0.5612389 
1069.6     0.254      674        -9999      -9999      6.172351   1.881      1.564      0.739      0.994      0.813157   1.283      0.173119   0.173119   0.3901696  4.505497   0.6880773  1.525489   0.1550857  0.4675633  39.085     0.6577289  0.7558092  0.5596485 
1069.8     0.254      673        -9999      -9999      6.312761   1.754      1.561      0.947      0.893      0.823193   1.257      0.1619569  0.1619569  0.3863629  2.798934   0.5545042  1.464482   0.08727417 0.4395465  39.149     0.6800182  0.8        0.5600365 
1070       0.254      667        -9999      -9999      6.417181   1.616      1.579      0.764      0.896      0.831488   1.27       0.1590725  0.1590725  0.3832166  2.47495    0.4722778  1.422259   0.0600609  0.4245517  39.149     0.6792246  0.8        0.5584491 
1070.2     0.253      663        -9999      -9999      6.465956   1.477      1.667      0.96       0.963      0.8347548  1.257      0.1577695  0.1577695  0.3819775  2.341163   0.4381645  1.358148   0.03258935 0.4081348  39.213     0.6794183  0.8        0.5588366 
1070.4     0.25       663        -9999      -9999      6.457508   1.376      1.667      1.129      1.229      0.833567   1.244      0.158151   0.158151   0.3824281  2.379567   0.4438916  1.306675   0.01695945 0.3975737  39.278     0.6796275  0.8        0.559255  
1070.6     0.246      663        -9999      -9999      6.399626   1.3        1.643      0.874      1.128      0.8312704  1.232      0.1592837  0.1592837  0.3832991  2.497345   0.4851951  1.265087   0.008109333 0.3902317  39.278     0.6788347  0.8        0.5576694 
1070.8     0.244      662        -9999      -9999      6.302886   1.275      1.643      0.981      1.131      0.829978   1.206      0.15971    0.15971    0.3837893  2.54317    0.5629855  1.23954    0.0008970439 0.3850821  39.342     0.6790282  0.8        0.5580563 
1071       0.242      659        -9999      -9999      6.1766     1.262      1.625      0.852      1.01       0.8288699  1.194      0.1673499  0.1673499  0.3842096  3.522768   0.6835977  1.227059   0.03617453 0.3929592  39.342     0.6571507  0.7578279  0.5564736 
1071.2     0.242      653        -9999      -9999      6.034086   1.262      1.613      0.898      0.994      0.8275154  1.181      0.1784942  0.1784942  0.3847234  5.666347   0.8510161  1.220157   0.08638667 0.4062674  39.407     0.6249371  0.6929834  0.5568907 
1071.4     0.244      646        -9999      -9999      5.895809   1.262      1.641      1.029      1.177      0.827732   1.168      0.1881781  0.1881781  0.3846412  8.563926   1.05256    1.213182   0.1251234  0.4163208  39.407     0.5953429  0.6353748  0.555311  
1071.6     0.247      644        -9999      -9999      5.786575   1.262      1.716      1.221      1.17       0.8301893  1.308      0.1941293  0.1941293  0.3837092  11.03835   1.244994   1.284588   0.1710772  0.4386767  39.471     0.5744844  0.5932724  0.5556964 
1071.8     0.249      644        -9999      -9999      5.724831   1.275      1.761      1.033      1.031      0.8321048  1.283      0.1970552  0.1970552  0.3829826  12.50542   1.368944   1.278988   0.1801276  0.440038   39.536     0.5634165  0.5707203  0.5561128 
1072       0.25       648        -9999      -9999      5.712414   1.325      1.694      1.267      1.328      0.8305377  1.295      0.198641   0.198641   0.383577   13.38044   1.395322   1.309828   0.1948838  0.448908   39.536     0.5604123  0.5662898  0.5545349 
1072.2     0.251      650        -9999      -9999      5.737119   1.388      1.611      0.899      1.181      0.8260447  1.308      0.1988215  0.1988215  0.3852812  13.48385   1.343329   1.346813   0.2059639  0.4581922  39.6       0.5650296  0.5751392  0.5549199 
1072.4     0.25       650        -9999      -9999      5.793612   1.451      1.595      1.066      1.101      0.8219425  1.321      0.1981813  0.1981813  0.3868372  13.12069   1.231599   1.382952   0.2135634  0.4659722  39.407     0.5716845  0.5958987  0.5474704 
1072.6     0.249      649        -9999      -9999      5.885004   1.502      1.566      1.149      1.353      0.8219663  1.346      0.1929478  0.1929478  0.3868282  10.49588   1.070188   1.419727   0.2048701  0.4674631  39.342     0.5875164  0.6310803  0.5439526 
1072.8     0.245      640        -9999      -9999      5.991842   1.515      1.607      1.266      1.433      0.8275328  1.321      0.1838697  0.1838697  0.3847168  7.12641    0.9081105  1.411365   0.1684836  0.4541155  39.342     0.6086276  0.6748503  0.5424049 
1073       0.24       634        -9999      -9999      6.059024   1.451      1.685      1.227      1.192      0.8355639  1.308      0.1765985  0.1765985  0.3816706  5.226261   0.8190119  1.375794   0.1283649  0.4358089  39.278     0.6214306  0.7039158  0.5389454 
1073.2     0.236      631        -9999      -9999      6.044237   1.414      1.716      1.033      1.196      0.8406375  1.308      0.1760004  0.1760004  0.3797462  5.094631   0.8378407  1.358936   0.1207132  0.4298013  39.278     0.6174114  0.6974127  0.5374102 
1073.4     0.238      626        -9999      -9999      5.965954   1.401      1.71       1.493      1.513      0.8405961  1.295      0.1836672  0.1836672  0.3797619  7.065121   0.9449751  1.345916   0.1489317  0.4362592  38.891     0.5942265  0.6639737  0.5244793 
