~Version
 VERS              .         2.0                           : CWLS LOG ASCII STANDARD - VERSION 2.0
 WRAP              .         NO                            : ONE LINE PER DEPTH STEP
 DLM               .         SPACE                         : DELIMITING CHARACTER(SPACE TAB OR COMMA)
~Well Information
#_______________________________________________________________________________
#
#PARAMETER_NAME    .UNIT     VALUE                         : DESCRIPTION
#_______________________________________________________________________________
STRT               .M        900                           : First reference value
STOP               .M        1247.6                        : Last reference value
STEP               .M        0.2                           : Step increment
NULL               .         -9999                         : Missing value
COMP               .                                       : Company
WELL               .         6852                          : Well name
FLD                .         УЗЕНЬ                         : Field
LOC                .                                       : Location
CNTY               .                                       : County
STAT               .                                       : State
CTRY               .         KAZAKHSTAN                    : Country
SRVC               .                                       : Service Company
DATE               .                                       : Date
UWI                .                                       : Unique Well ID
Block              .         4                             : 
Category           .         Нефтяная                      : 
Condition          .         В работе                      : 
Date               .         30.01.1988                    : 
EREF               .m        229.6                         : 100.8
Gorizont           .         15                            : 14
Interpretator      .         Алпанова Н.К.                 : 
Kupol              .         основной                      : osnovnoi
Moii_15            .         15_gor                        : 
Mud                .                                       : 
Mud_density        .                                       : 
Mud_resistivity    .                                       : 
NGDU               .         НГДУ-1                        : 
ORIGINALWELLNAME   .         6852                          : 
Spud_date          .         1988                          : 1961
Viscosity          .                                       : 
X                  .m        54532.6                       : 46154
Y                  .m        81739.73                      : 85761.93
YEAR               .         2019                          : 
~Parameter Information Block
#_______________________________________________________________________________
#
#PARAMETER_NAME    .UNIT     VALUE                         : DESCRIPTION
#_______________________________________________________________________________
SET                .         LQC_KAZNIPI_Petrel            : 
TLFamily_CALI      .         Caliper                       : 
TLFamily_CILD      .         Conductivity                  : 
TLFamily_COLL      .         Net Reservoir Flag            : 
TLFamily_CSAT      .         Fluid Code                    : 
TLFamily_DEPT      .         Measured Depth                : 
TLFamily_GR        .         Russian Gamma Ray             : 
TLFamily_GZ3       .         Gradient 225                  : 
TLFamily_LLS       .         Lateral Log Resistivity       : 
TLFamily_MINV      .         Micro Gradient Resistivity    : 
TLFamily_MNOR      .         Micro Resistivity             : 
TLFamily_NGLD      .         Neutron Far                   : 
TLFamily_OGZ       .         Gradient Inverted 225         : 
TLFamily_PHIE      .         Effective Porosity            : 
TLFamily_PHIEN     .         Effective Porosity            : 
TLFamily_PHIT      .         Porosity                      : 
TLFamily_PRMB      .         Permeability                  : 
TLFamily_PRMB_DGR  .         Permeability                  : 
TLFamily_RT        .         Formation Resistivity         : 
TLFamily_SOIL_ARCHIE .         Oil Saturation                : 
TLFamily_SOIL_DW   .         Oil Saturation                : 
TLFamily_SP        .         Spontaneous Potential         : 
TLFamily_VSH_FIN   .         Shale Volume                  : 
TLFamily_VSH_GR    .         Shale Volume                  : 
TLFamily_VSH_SP    .         Shale Volume                  : 
~Curve Information
#_______________________________________________________________________________
#
#LOGNAME           .UNIT     LOG_ID                        : DESCRIPTION
#_______________________________________________________________________________
DEPT               .M                                      : Колонка глубины 
CALI               .м                                      : Каверномер 
CILD               .мСм/м                                  : Индукционный каротаж 
COLL               .unitless                               : Описание 
CSAT               .unitless                               : Описание 
GR                 .мкР/ч                                  : Гамма каротаж 
GZ3                .Ом·м                                   :  
LLS                .Ом·м                                   : Боковой каротаж 
MINV               .Ом·м                                   : Микро-градиент зонд 
MNOR               .Ом·м                                   : Микро-потенциал зонд 
NGLD               .у.е.                                   : Показания зонда НГК-60 аппаратуры ДРСТ-3-90 
OGZ                .Ом·м                                   :  
PHIE               .v/v                                    : Описание 
PHIEN              .v/v                                    :  
PHIT               .v/v                                    : Описание 
PRMB               .mD                                     :  
PRMB_DGR           .mD                                     :  
RT                 .ohmm                                   : УЭС пласта 
SOIL_ARCHIE        .v/v                                    :  
SOIL_DW            .v/v                                    :  
SP                 .мВ                                     : Потенциал самополяризации 
VSH_FIN            .v/v                                    : Описание 
VSH_GR             .v/v                                    : Shale volume 
VSH_SP             .v/v                                    : Shale Volume 
~Ascii
# ...
1117       0.214      344        -9999      -9999      5.33222    1.78       2.896      1.998      2.648      1.068166   3.022      0.1672226  0.1672226  0.2934446  3.503698   12.37034   2.240383   0.2729002  0.4694493  37.73      0.382491   0.2323048  0.5326771 
1117.2     0.214      335        -9999      -9999      5.3665     1.805      3.505      2.363      2.517      1.065957   3.086      0.1677026  0.1677026  0.2942825  3.576168   11.85655   2.277747   0.2803208  0.4753202  37.666     0.3835754  0.2363639  0.530787  
1117.4     0.214      332        -9999      -9999      5.409315   1.855      3.857      1.834      2.133      1.058862   3.01       0.1704804  0.1704804  0.2969738  4.025945   11.24472   2.295396   0.2931094  0.4835771  37.472     0.3833134  0.2415332  0.5250937 
1117.6     0.214      330        -9999      -9999      5.393221   1.931      3.5        2.238      3.052      1.049018   2.908      0.1748449  0.1748449  0.3007076  4.849651   11.47091   2.320871   0.3120754  0.4953622  37.408     0.3814021  0.239577   0.5232273 
1117.8     0.214      326        -9999      -9999      5.289159   2.007      3.142      2.361      2.625      1.041055   2.806      0.1802018  0.1802018  0.3037278  6.094411   13.04739   2.340179   0.3325208  0.5064269  37.343     0.3743213  0.2273048  0.5213377 
1118       0.214      319        -9999      -9999      5.125796   2.196      2.785      2.683      2.869      1.039564   2.73       0.1837392  0.1837392  0.3042935  7.086855   15.97055   2.434056   0.3557287  0.5203196  37.343     0.3653163  0.2092948  0.5213377 
1118.2     0.214      312        -9999      -9999      4.963895   2.348      2.794      2.471      2.647      1.044064   2.705      0.1841252  0.1841252  0.3025866  7.20448    19.51331   2.513889   0.3665707  0.5268012  37.472     0.3589739  0.1928542  0.5250937 
1118.4     0.212      309        -9999      -9999      4.865817   2.449      3.186      2.487      3.427      1.048595   2.73       0.1839451  0.1839451  0.3008679  7.149354   22.03133   2.581877   0.3739201  0.5312935  37.472     0.3543116  0.1835295  0.5250937 
1118.6     0.211      315        -9999      -9999      4.883176   2.613      3.954      2.915      3.012      1.047889   2.692      0.1854857  0.1854857  0.3011358  7.63491    21.5631    2.651912   0.3862092  0.5393158  37.15      0.3504547  0.1851464  0.515763  
1118.8     0.211      316        -9999      -9999      5.035368   2.764      3.571      2.307      2.492      1.042286   2.692      0.1857415  0.1857415  0.3032609  7.718638   17.86153   2.727525   0.3949801  0.547904   36.956     0.3561195  0.1999466  0.5122923 
1119       0.212      316        -9999      -9999      5.275499   2.928      2.966      2.484      2.843      1.035297   2.629      0.1834838  0.1834838  0.3059117  7.010077   13.26983   2.770456   0.3929665  0.5515631  37.021     0.3709939  0.2257412  0.5162466 
1119.2     0.213      317        -9999      -9999      5.502405   3.042      2.949      1.72       2.263      1.028947   2.514      0.1816333  0.1816333  0.3083204  6.478087   10.02119   2.752911   0.3857551  0.5504372  36.892     0.3839004  0.253166   0.5146347 
1119.4     0.213      321        -9999      -9999      5.636043   3.092      2.927      2.417      3.102      1.023383   2.349      0.1813972  0.1813972  0.3104309  6.41318    8.493731   2.66977    0.3761453  0.5451264  36.698     0.3910115  0.2708521  0.5111709 
1119.6     0.213      338        -9999      -9999      5.674669   3.143      3.073      2.823      2.909      1.018353   2.146      0.1823821  0.1823821  0.3123387  6.688326   8.097286   2.55053    0.3656239  0.5373268  36.634     0.3938077  0.2761905  0.5114249 
1119.8     0.212      348        -9999      -9999      5.666887   3.181      3.316      2.656      3.06       1.013458   2.032      0.1849861  0.1849861  0.3141954  7.473937   8.175643   2.479874   0.3650932  0.5350833  36.44      0.3915434  0.2751066  0.5079802 
1120       0.211      357        -9999      -9999      5.655742   3.256      2.87       1.842      2.354      1.007874   1.981      0.1873171  0.1873171  0.3163132  8.255172   8.289174   2.463294   0.3700002  0.537715   36.376     0.3908973  0.2735617  0.5082329 
1120.2     0.212      367        -9999      -9999      5.661031   3.282      2.579      1.843      2.372      1.000925   1.956      0.1900944  0.1900944  0.3189491  9.293247   8.235098   2.451162   0.3765814  0.5415777  36.247     0.3904687  0.2742938  0.5066436 
1120.4     0.213      379        -9999      -9999      5.687598   3.282      2.981      2.865      2.57       0.993246   1.968      0.1932556  0.1932556  0.3218618  10.63458   7.968761   2.460562   0.3865753  0.5479337  35.989     0.3897158  0.2780009  0.5014306 
1120.6     0.215      401        -9999      -9999      5.732889   3.244      2.836      2.176      2.232      0.9865233  1.968      0.1958932  0.1958932  0.3244117  11.90079   7.53443    2.449805   0.3925276  0.5515209  35.666     0.38945    0.2844364  0.4944635 
1120.8     0.22       423        -9999      -9999      5.802253   3.206      2.34       1.487      2.333      0.9818449  1.968      0.1959529  0.1959529  0.3261862  11.93112   6.914674   2.43889    0.3914147  0.5520416  35.602     0.3946465  0.2945828  0.4947102 
1121       0.225      446        -9999      -9999      5.915467   3.218      2.708      2.3        2.888      0.9786739  1.981      0.1939602  0.1939602  0.327389   10.95901   6.010731   2.45234    0.3875554  0.5524353  35.602     0.4043297  0.3119264  0.4967331 
1121.2     0.228      467        -9999      -9999      6.080437   3.218      2.98       1.739      2.244      0.9758519  1.956      0.1908132  0.1908132  0.3284594  9.582576   4.900805   2.433091   0.3764661  0.5486219  35.473     0.4171095  0.3390431  0.4951759 
1121.4     0.228      487        -9999      -9999      6.269669   3.244      2.254      1.578      1.938      0.9728526  1.943      0.1868898  0.1868898  0.329597   8.106063   3.877651   2.430342   0.3647435  0.5455838  35.279     0.4324461  0.3730627  0.4918295 
1121.6     0.228      507        -9999      -9999      6.441647   3.218      1.984      1.065      1.456      0.9696381  1.892      0.183358   0.183358   0.3308163  6.972559   3.134313   2.382957   0.3481039  0.5386567  35.021     0.4468434  0.4069327  0.486754  
1121.8     0.229      525        -9999      -9999      6.571949   3.168      1.914      0.984      1.305      0.9657968  1.765      0.1802052  0.1802052  0.3322733  6.095302   2.66756    2.266986   0.3225043  0.5250438  34.957     0.4608124  0.4346277  0.4869971 
1122       0.232      532        -9999      -9999      6.654883   2.941      1.873      1.11       1.249      0.9606659  1.638      0.1787531  0.1787531  0.3342194  5.729263   2.40737    2.104109   0.2934192  0.5071985  34.957     0.4711102  0.4532287  0.4889916 
1122.2     0.231      538        -9999      -9999      6.684162   2.651      1.922      1.601      1.327      0.9551198  1.498      0.1794118  0.1794118  0.3363231  5.892503   2.321708   1.914292   0.2637275  0.4860545  34.957     0.4754887  0.459984   0.4909934 
1122.4     0.229      538        -9999      -9999      6.647682   2.36       1.909      1.609      1.589      0.9526469  1.371      0.1811125  0.1811125  0.337261   6.335784   2.428921   1.73442    0.2351439  0.4629591  35.021     0.4731774  0.4515824  0.4947724 
1122.6     0.227      527        -9999      -9999      6.548361   2.07       1.86       1.418      1.48       0.9569743  1.295      0.1821909  0.1821909  0.3356197  6.633987   2.746575   1.593254   0.2081634  0.4393084  35.15      0.4649358  0.4294781  0.5003935 
1122.8     0.228      510        -9999      -9999      6.417513   1.83       1.907      1.877      2.205      0.9680282  1.308      0.181893   0.181893   0.3314269  6.550245   3.229332   1.525583   0.1907184  0.4222409  35.215     0.453133   0.4020004  0.5042657 
1123       0.229      493        -9999      -9999      6.296062   1.83       1.903      1.401      1.607      0.9811953  1.321      0.1796026  0.1796026  0.3264326  5.940648   3.753046   1.534389   0.1839442  0.4156636  35.408     0.4449395  0.3780715  0.5118075 
