~Version
 VERS              .         2.0                           : CWLS LOG ASCII STANDARD - VERSION 2.0
 WRAP              .         NO                            : ONE LINE PER DEPTH STEP
 DLM               .         SPACE                         : DELIMITING CHARACTER(SPACE TAB OR COMMA)
~Well Information
#_______________________________________________________________________________
#
#PARAMETER_NAME    .UNIT     VALUE                         : DESCRIPTION
#_______________________________________________________________________________
STRT               .M        900                           : First reference value
STOP               .M        1247.6                        : Last reference value
STEP               .M        0.2                           : Step increment
NULL               .         -9999                         : Missing value
COMP               .                                       : Company
WELL               .         6852                          : Well name
FLD                .         УЗЕНЬ                         : Field
LOC                .                                       : Location
CNTY               .                                       : County
STAT               .                                       : State
CTRY               .         KAZAKHSTAN                    : Country
SRVC               .                                       : Service Company
DATE               .                                       : Date
UWI                .                                       : Unique Well ID
Block              .         4                             : 
Category           .         Нефтяная                      : 
Condition          .         В работе                      : 
Date               .         30.01.1988                    : 
EREF               .m        229.6                         : 100.8
Gorizont           .         15                            : 14
Interpretator      .         Алпанова Н.К.                 : 
Kupol              .         основной                      : osnovnoi
Moii_15            .         15_gor                        : 
Mud                .                                       : 
Mud_density        .                                       : 
Mud_resistivity    .                                       : 
NGDU               .         НГДУ-1                        : 
ORIGINALWELLNAME   .         6852                          : 
Spud_date          .         1988                          : 1961
Viscosity          .                                       : 
X                  .m        54532.6                       : 46154
Y                  .m        81739.73                      : 85761.93
YEAR               .         2019                          : 
~Parameter Information Block
#_______________________________________________________________________________
#
#PARAMETER_NAME    .UNIT     VALUE                         : DESCRIPTION
#_______________________________________________________________________________
SET                .         LQC_KAZNIPI_Petrel            : 
TLFamily_CALI      .         Caliper                       : 
TLFamily_CILD      .         Conductivity                  : 
TLFamily_COLL      .         Net Reservoir Flag            : 
TLFamily_CSAT      .         Fluid Code                    : 
TLFamily_DEPT      .         Measured Depth                : 
TLFamily_GR        .         Russian Gamma Ray             : 
TLFamily_GZ3       .         Gradient 225                  : 
TLFamily_LLS       .         Lateral Log Resistivity       : 
TLFamily_MINV      .         Micro Gradient Resistivity    : 
TLFamily_MNOR      .         Micro Resistivity             : 
TLFamily_NGLD      .         Neutron Far                   : 
TLFamily_OGZ       .         Gradient Inverted 225         : 
TLFamily_PHIE      .         Effective Porosity            : 
TLFamily_PHIEN     .         Effective Porosity            : 
TLFamily_PHIT      .         Porosity                      : 
TLFamily_PRMB      .         Permeability                  : 
TLFamily_PRMB_DGR  .         Permeability                  : 
TLFamily_RT        .         Formation Resistivity         : 
TLFamily_SOIL_ARCHIE .         Oil Saturation                : 
TLFamily_SOIL_DW   .         Oil Saturation                : 
TLFamily_SP        .         Spontaneous Potential         : 
TLFamily_VSH_FIN   .         Shale Volume                  : 
TLFamily_VSH_GR    .         Shale Volume                  : 
TLFamily_VSH_SP    .         Shale Volume                  : 
~Curve Information
#_______________________________________________________________________________
#
#LOGNAME           .UNIT     LOG_ID                        : DESCRIPTION
#_______________________________________________________________________________
DEPT               .M                                      : Колонка глубины 
CALI               .м                                      : Каверномер 
CILD               .мСм/м                                  : Индукционный каротаж 
COLL               .unitless                               : Описание 
CSAT               .unitless                               : Описание 
GR                 .мкР/ч                                  : Гамма каротаж 
GZ3                .Ом·м                                   :  
LLS                .Ом·м                                   : Боковой каротаж 
MINV               .Ом·м                                   : Микро-градиент зонд 
MNOR               .Ом·м                                   : Микро-потенциал зонд 
NGLD               .у.е.                                   : Показания зонда НГК-60 аппаратуры ДРСТ-3-90 
OGZ                .Ом·м                                   :  
PHIE               .v/v                                    : Описание 
PHIEN              .v/v                                    :  
PHIT               .v/v                                    : Описание 
PRMB               .mD                                     :  
PRMB_DGR           .mD                                     :  
RT                 .ohmm                                   : УЭС пласта 
SOIL_ARCHIE        .v/v                                    :  
SOIL_DW            .v/v                                    :  
SP                 .мВ                                     : Потенциал самополяризации 
VSH_FIN            .v/v                                    : Описание 
VSH_GR             .v/v                                    : Shale volume 
VSH_SP             .v/v                                    : Shale Volume 
~Ascii
# ...
1228.6     0.21       394        -9999      -9999      -9999      1.578      2.152      1.714      1.925      -9999      3.606      -9999      -9999      -9999      -9999      -9999      2.195319   -9999      -9999      21.155     0.4393908  -9999      0.4393883 
1228.8     0.21       330        -9999      -9999      -9999      1.515      2.177      2.001      2.542      -9999      5.092      -9999      -9999      -9999      -9999      -9999      2.335214   -9999      -9999      20.381     0.4205611  -9999      0.4205588 
1229       0.21       282        8          2          -9999      1.603      3.481      2.349      2.65       -9999      6.603      -9999      -9999      -9999      -9999      -9999      2.579724   -9999      -9999      19.542     0.401023   -9999      0.4010207 
1229.2     0.208      235        8          2          -9999      1.767      4.988      2.753      3.079      -9999      8.089001   -9999      -9999      -9999      -9999      -9999      2.900419   -9999      -9999      19.123     0.3915991  -9999      0.3915969 
1229.4     0.207      203        8          2          -9999      2.247      6.809      2.832      3.468      -9999      9.575      -9999      -9999      -9999      -9999      -9999      3.639828   -9999      -9999      18.704     0.3823937  -9999      0.3823916 
1229.6     0.206      182        8          2          -9999      2.688      8.697      2.774      3.145      -9999      10.044     -9999      -9999      -9999      -9999      -9999      4.24101    -9999      -9999      17.865     0.3646071  -9999      0.364605  
1229.8     0.205      161        8          2          -9999      2.941      9.897      2.53       3.199      -9999      10.082     -9999      -9999      -9999      -9999      -9999      4.553661   -9999      -9999      17.156     0.3502353  -9999      0.3502333 
1230       0.205      144        8          2          -9999      3.206      9.481      2.704      3.256      -9999      9.536      -9999      -9999      -9999      -9999      -9999      4.798684   -9999      -9999      16.833     0.3438842  -9999      0.3438823 
1230.2     0.207      129        8          2          -9999      3.471      7.374      2.431      3.011      -9999      8.648001   -9999      -9999      -9999      -9999      -9999      4.953743   -9999      -9999      16.898     0.3451526  -9999      0.3451506 
1230.4     0.207      122        8          2          -9999      3.61       7.366      1.822      2.616      -9999      7.759      -9999      -9999      -9999      -9999      -9999      4.927433   -9999      -9999      16.962     0.3464061  -9999      0.3464041 
1230.6     0.207      119        8          2          -9999      4.039      8.531      2.281      2.834      -9999      6.882      -9999      -9999      -9999      -9999      -9999      5.090449   -9999      -9999      16.962     0.3464061  -9999      0.3464041 
1230.8     0.208      120        8          2          -9999      4.506      9.102      1.964      2.405      -9999      5.994      -9999      -9999      -9999      -9999      -9999      5.144565   -9999      -9999      17.091     0.3489474  -9999      0.3489455 
1231       0.208      126        8          2          -9999      4.973      8.655      2.237      2.724      -9999      5.105      -9999      -9999      -9999      -9999      -9999      5.038136   -9999      -9999      17.091     0.3489474  -9999      0.3489455 
1231.2     0.209      133        8          2          -9999      5.452      10.917     2.143      2.826      -9999      4.749      -9999      -9999      -9999      -9999      -9999      5.076277   -9999      -9999      17.349     0.3540885  -9999      0.3540865 
1231.4     0.209      154        8          2          -9999      6.626      13.24      2.107      3.023      -9999      5.041      -9999      -9999      -9999      -9999      -9999      5.725836   -9999      -9999      17.93      0.3659547  -9999      0.3659526 
1231.6     0.21       187        8          2          -9999      7.787      15.564     2.564      3.415      -9999      5.206      -9999      -9999      -9999      -9999      -9999      6.240148   -9999      -9999      18.575     0.3796032  -9999      0.379601  
1231.8     0.21       238        8          2          -9999      8.961      11.166     2.029      3.916      -9999      5.346      -9999      -9999      -9999      -9999      -9999      6.696793   -9999      -9999      19.155     0.392311   -9999      0.3923088 
1232       0.211      291        8          2          -9999      9.984      3.791      1.764      2.777      -9999      5.333001   -9999      -9999      -9999      -9999      -9999      6.952363   -9999      -9999      19.8       0.4069357  -9999      0.4069334 
1232.2     0.211      322        8          2          -9999      9.605      2.305      2.264      2.714      -9999      5.193999   -9999      -9999      -9999      -9999      -9999      6.742126   -9999      -9999      20.381     0.4205611  -9999      0.4205588 
1232.4     -9999      338        8          2          -9999      8.507      2.37       1.431      2.473      -9999      4.152      -9999      -9999      -9999      -9999      -9999      5.580388   -9999      -9999      20.961     0.4345977  -9999      0.4345952 
1232.6     -9999      354        8          2          -9999      7.396      2.616      2.353      2.523      -9999      3.441      -9999      -9999      -9999      -9999      -9999      4.696805   -9999      -9999      21.219     0.440983   -9999      0.4409805 
1232.8     -9999      365        -9999      -9999      -9999      6.286      2.497      1.785      2.541      -9999      2.895      -9999      -9999      -9999      -9999      -9999      3.964267   -9999      -9999      21.413     0.4458423  -9999      0.4458397 
1233       -9999      356        -9999      -9999      -9999      5.175      2.497      1.915      2.231      -9999      2.349      -9999      -9999      -9999      -9999      -9999      3.23128    -9999      -9999      21.413     0.4458423  -9999      0.4458397 
1233.2     -9999      332        -9999      -9999      -9999      4.645      3.013      2.251      2.422      -9999      2.171      -9999      -9999      -9999      -9999      -9999      2.959007   -9999      -9999      21.155     0.4393908  -9999      0.4393883 
1233.4     -9999      307        -9999      -9999      -9999      4.506      3.94       2.36       2.687      -9999      2.171      -9999      -9999      -9999      -9999      -9999      2.930216   -9999      -9999      21.348     0.4442086  -9999      0.444206  
1233.6     -9999      282        -9999      -9999      -9999      4.38       5.285      2.678      2.952      -9999      2.184      -9999      -9999      -9999      -9999      -9999      2.914662   -9999      -9999      20.703     0.4282998  -9999      0.4282973 
1233.8     -9999      261        -9999      -9999      -9999      4.291      6.914      2.789      2.724      -9999      2.197      -9999      -9999      -9999      -9999      -9999      2.906081   -9999      -9999      20.187     0.4159634  -9999      0.4159611 
1234       -9999      249        -9999      -9999      -9999      5.011      7.352      3.384      3.627      -9999      2.197      -9999      -9999      -9999      -9999      -9999      3.054708   -9999      -9999      19.671     0.4039688  -9999      0.4039665 
1234.2     -9999      242        -9999      -9999      -9999      5.617      7.074      3.15       2.987      -9999      2.21       -9999      -9999      -9999      -9999      -9999      3.171987   -9999      -9999      19.413     0.3980982  -9999      0.3980959 
1234.4     -9999      243        -9999      -9999      -9999      6.21       6.593      2.527      3.003      -9999      2.222      -9999      -9999      -9999      -9999      -9999      3.272917   -9999      -9999      19.413     0.3980982  -9999      0.3980959 
1234.6     -9999      246        -9999      -9999      -9999      6.803      3.635      2.498      2.64       -9999      2.21       -9999      -9999      -9999      -9999      -9999      3.33621    -9999      -9999      19.478     0.3995693  -9999      0.399567  
