~Version
 VERS              .         2.0                           : CWLS LOG ASCII STANDARD - VERSION 2.0
 WRAP              .         NO                            : ONE LINE PER DEPTH STEP
 DLM               .         SPACE                         : DELIMITING CHARACTER(SPACE TAB OR COMMA)
~Well Information
#_______________________________________________________________________________
#
#PARAMETER_NAME    .UNIT     VALUE                         : DESCRIPTION
#_______________________________________________________________________________
STRT               .M        900                           : First reference value
STOP               .M        1247.6                        : Last reference value
STEP               .M        0.2                           : Step increment
NULL               .         -9999                         : Missing value
COMP               .                                       : Company
WELL               .         6852                          : Well name
FLD                .         УЗЕНЬ                         : Field
LOC                .                                       : Location
CNTY               .                                       : County
STAT               .                                       : State
CTRY               .         KAZAKHSTAN                    : Country
SRVC               .                                       : Service Company
DATE               .                                       : Date
UWI                .                                       : Unique Well ID
Block              .         4                             : 
Category           .         Нефтяная                      : 
Condition          .         В работе                      : 
Date               .         30.01.1988                    : 
EREF               .m        229.6                         : 100.8
Gorizont           .         15                            : 14
Interpretator      .         Алпанова Н.К.                 : 
Kupol              .         основной                      : osnovnoi
Moii_15            .         15_gor                        : 
Mud                .                                       : 
Mud_density        .                                       : 
Mud_resistivity    .                                       : 
NGDU               .         НГДУ-1                        : 
ORIGINALWELLNAME   .         6852                          : 
Spud_date          .         1988                          : 1961
Viscosity          .                                       : 
X                  .m        54532.6                       : 46154
Y                  .m        81739.73                      : 85761.93
YEAR               .         2019                          : 
~Parameter Information Block
#_______________________________________________________________________________
#
#PARAMETER_NAME    .UNIT     VALUE                         : DESCRIPTION
#_______________________________________________________________________________
SET                .         LQC_KAZNIPI_Petrel            : 
TLFamily_CALI      .         Caliper                       : 
TLFamily_CILD      .         Conductivity                  : 
TLFamily_COLL      .         Net Reservoir Flag            : 
TLFamily_CSAT      .         Fluid Code                    : 
TLFamily_DEPT      .         Measured Depth                : 
TLFamily_GR        .         Russian Gamma Ray             : 
TLFamily_GZ3       .         Gradient 225                  : 
TLFamily_LLS       .         Lateral Log Resistivity       : 
TLFamily_MINV      .         Micro Gradient Resistivity    : 
TLFamily_MNOR      .         Micro Resistivity             : 
TLFamily_NGLD      .         Neutron Far                   : 
TLFamily_OGZ       .         Gradient Inverted 225         : 
TLFamily_PHIE      .         Effective Porosity            : 
TLFamily_PHIEN     .         Effective Porosity            : 
TLFamily_PHIT      .         Porosity                      : 
TLFamily_PRMB      .         Permeability                  : 
TLFamily_PRMB_DGR  .         Permeability                  : 
TLFamily_RT        .         Formation Resistivity         : 
TLFamily_SOIL_ARCHIE .         Oil Saturation                : 
TLFamily_SOIL_DW   .         Oil Saturation                : 
TLFamily_SP        .         Spontaneous Potential         : 
TLFamily_VSH_FIN   .         Shale Volume                  : 
TLFamily_VSH_GR    .         Shale Volume                  : 
TLFamily_VSH_SP    .         Shale Volume                  : 
~Curve Information
#_______________________________________________________________________________
#
#LOGNAME           .UNIT     LOG_ID                        : DESCRIPTION
#_______________________________________________________________________________
DEPT               .M                                      : Колонка глубины 
CALI               .м                                      : Каверномер 
CILD               .мСм/м                                  : Индукционный каротаж 
COLL               .unitless                               : Описание 
CSAT               .unitless                               : Описание 
GR                 .мкР/ч                                  : Гамма каротаж 
GZ3                .Ом·м                                   :  
LLS                .Ом·м                                   : Боковой каротаж 
MINV               .Ом·м                                   : Микро-градиент зонд 
MNOR               .Ом·м                                   : Микро-потенциал зонд 
NGLD               .у.е.                                   : Показания зонда НГК-60 аппаратуры ДРСТ-3-90 
OGZ                .Ом·м                                   :  
PHIE               .v/v                                    : Описание 
PHIEN              .v/v                                    :  
PHIT               .v/v                                    : Описание 
PRMB               .mD                                     :  
PRMB_DGR           .mD                                     :  
RT                 .ohmm                                   : УЭС пласта 
SOIL_ARCHIE        .v/v                                    :  
SOIL_DW            .v/v                                    :  
SP                 .мВ                                     : Потенциал самополяризации 
VSH_FIN            .v/v                                    : Описание 
VSH_GR             .v/v                                    : Shale volume 
VSH_SP             .v/v                                    : Shale Volume 
~Ascii
# ...
962        0.223      303        -9999      -9999      6.938802   2.991      2.919      1.147      1.274      1.002415   2.59       -9999      -9999      -9999      -9999      -9999      2.776094   -9999      -9999      29.797     -9999      0.09391587 0.2699341 
962.2000000000001 0.218      304        -9999      -9999      6.999485   3.029      3.003      1.674      1.288      1.008541   2.654      -9999      -9999      -9999      -9999      -9999      2.829128   -9999      -9999      29.475     -9999      0.1026476  0.2652241 
962.4      0.214      304        -9999      -9999      7.113358   3.118      3.223      1.713      2.392      1.014804   2.73       -9999      -9999      -9999      -9999      -9999      2.911129   -9999      -9999      29.152     -9999      0.1425231  0.2606027 
962.6      0.212      302        -9999      -9999      7.21279    3.155      3.095      1.633      1.891      1.022711   2.819      -9999      -9999      -9999      -9999      -9999      2.977551   -9999      -9999      29.088     -9999      0.1491508  0.2596992 
962.8      0.211      299        -9999      -9999      7.260632   3.181      3.187      1.752      1.808      1.032448   2.921      -9999      -9999      -9999      -9999      -9999      3.045461   -9999      -9999      29.088     -9999      0.139787   0.2596992 
963        0.21       290        -9999      -9999      7.262349   3.193      3.579      1.455      1.683      1.040844   2.997      -9999      -9999      -9999      -9999      -9999      3.091897   -9999      -9999      29.152     -9999      0.1416683  0.2606027 
963.2000000000001 0.209      289        -9999      -9999      7.240508   3.206      4.084      2.42       2.368      1.041937   3.06       -9999      -9999      -9999      -9999      -9999      3.131299   -9999      -9999      29.346     -9999      0.1415736  0.2633661 
963.4      0.207      287        -9999      -9999      7.216889   3.168      3.86       1.653      1.854      1.031074   3.111      -9999      -9999      -9999      -9999      -9999      3.139241   -9999      -9999      29.668     -9999      0.1256085  0.2680348 
963.6      0.208      290        -9999      -9999      7.209966   3.332      3.721      1.897      2.051      1.008235   3.34       -9999      -9999      -9999      -9999      -9999      3.335995   -9999      -9999      30.055     -9999      0.1376543  0.2737829 
963.8      0.209      295        -9999      -9999      7.232663   3.597      3.533      2.201      2.275      0.977852   3.619      -9999      -9999      -9999      -9999      -9999      3.607966   -9999      -9999      30.636     -9999      0.1236095  0.2826979 
964        0.215      297        -9999      -9999      7.289999   3.698      2.946      1.302      1.336      0.9461926  3.809      -9999      -9999      -9999      -9999      -9999      3.752679   -9999      -9999      31.152     -9999      0.1429047  0.2909079 
964.2000000000001 0.229      295        -9999      -9999      7.378553   3.521      2.802      0.5        0.701      0.9186664  3.556      -9999      -9999      -9999      -9999      -9999      3.538413   -9999      -9999      31.345     -9999      0.1459944  0.2940504 
964.4      0.244      292        -9999      -9999      7.484011   3.345      2.78       0.491      0.794      0.8978515  3.289      -9999      -9999      -9999      -9999      -9999      3.316764   -9999      -9999      31.409     -9999      0.1515629  0.2951012 
964.6      0.256      290        -9999      -9999      7.579203   3.181      2.782      0.463      0.756      0.8838269  3.035      -9999      -9999      -9999      -9999      -9999      3.106285   -9999      -9999      31.409     -9999      0.1952612  0.2951012 
964.8      0.276      294        -9999      -9999      7.635587   3.155      2.971      0.473      0.833      0.8761541  2.933      -9999      -9999      -9999      -9999      -9999      3.039953   -9999      -9999      31.409     -9999      0.1884648  0.2951012 
965        0.292      305        -9999      -9999      7.647024   2.941      3.037      0.463      1.025      0.8744149  2.959      -9999      -9999      -9999      -9999      -9999      2.949973   -9999      -9999      31.345     -9999      0.1814191  0.2940504 
965.2000000000001 0.294      323        -9999      -9999      7.635611   2.966      2.984      0.494      0.774      0.877503   2.857      -9999      -9999      -9999      -9999      -9999      2.91048    -9999      -9999      31.087     -9999      0.1831249  0.2898583 
965.4      0.296      330        -9999      -9999      7.635023   3.067      2.694      0.456      0.994      0.8825892  2.717      -9999      -9999      -9999      -9999      -9999      2.88141    -9999      -9999      31.023     -9999      0.1598883  0.2888293 
965.6      0.296      328        -9999      -9999      7.657584   3.218      2.345      0.482      0.65       0.8847713  2.59       -9999      -9999      -9999      -9999      -9999      2.870048   -9999      -9999      31.087     -9999      0.1720876  0.2898583 
965.8      0.289      318        -9999      -9999      7.671643   3.256      2.516      0.45       0.733      0.8795877  2.463      -9999      -9999      -9999      -9999      -9999      2.804521   -9999      -9999      31.152     -9999      0.2013584  0.2909079 
966        0.282      312        -9999      -9999      7.623605   3.244      2.864      0.478      1.01       0.8675449  2.336      -9999      -9999      -9999      -9999      -9999      2.716123   -9999      -9999      31.281     -9999      0.2190521  0.2930039 
966.2000000000001 0.273      321        -9999      -9999      7.499717   3.206      2.881      0.53       0.862      0.855533   2.197      -9999      -9999      -9999      -9999      -9999      2.607285   -9999      -9999      31.474     -9999      0.1691227  0.2961728 
966.4      0.265      331        -9999      -9999      7.357316   3.155      2.872      0.494      1.1        0.8509879  2.159      -9999      -9999      -9999      -9999      -9999      2.56366    -9999      -9999      31.603     -9999      0.1306612  0.298313  
966.6      0.26       337        -9999      -9999      7.281607   3.054      2.743      0.489      0.834      0.8558487  2.248      -9999      -9999      -9999      -9999      -9999      2.589737   -9999      -9999      31.538     -9999      0.1130946  0.2972324 
966.8      0.261      343        -9999      -9999      7.31595    3.799      2.762      0.513      0.955      0.867138   2.362      -9999      -9999      -9999      -9999      -9999      2.912916   -9999      -9999      31.538     -9999      0.1377464  0.2972324 
967        0.266      348        -9999      -9999      7.437035   3.799      2.761      0.494      1.002      0.8818696  2.425      -9999      -9999      -9999      -9999      -9999      2.960339   -9999      -9999      31.538     -9999      0.1461897  0.2972324 
967.2000000000001 0.261      354        -9999      -9999      7.576375   3.761      2.711      0.507      0.962      0.8983501  2.476      -9999      -9999      -9999      -9999      -9999      2.986127   -9999      -9999      31.474     -9999      0.1844763  0.2961728 
967.4      0.257      359        -9999      -9999      7.657972   3.761      2.701      0.507      1.217      0.9138592  2.578      -9999      -9999      -9999      -9999      -9999      3.059113   -9999      -9999      31.474     -9999      0.2175928  0.2961728 
967.6      0.254      361        -9999      -9999      7.636402   3.66       2.624      0.591      1.091      0.9252039  2.819      -9999      -9999      -9999      -9999      -9999      3.184917   -9999      -9999      31.409     -9999      0.2042048  0.2951012 
967.8      0.252      363        -9999      -9999      7.515834   3.572      2.539      0.526      0.92       0.9333102  3.06       -9999      -9999      -9999      -9999      -9999      3.296237   -9999      -9999      31.184     -9999      0.1633452  0.2914262 
968        0.249      365        -9999      -9999      7.328593   3.395      2.535      0.625      0.944      0.9433469  3.2        -9999      -9999      -9999      -9999      -9999      3.294617   -9999      -9999      31.216     -9999      0.1496502  0.2919456 
