~Version
 VERS              .         2.0                           : CWLS LOG ASCII STANDARD - VERSION 2.0
 WRAP              .         NO                            : ONE LINE PER DEPTH STEP
 DLM               .         SPACE                         : DELIMITING CHARACTER(SPACE TAB OR COMMA)
~Well Information
#_______________________________________________________________________________
#
#PARAMETER_NAME    .UNIT     VALUE                         : DESCRIPTION
#_______________________________________________________________________________
STRT               .M        940.2                         : First reference value
STOP               .M        1398.6                        : Last reference value
STEP               .M        0.2                           : Step increment
NULL               .         -9999                         : Missing value
COMP               .                                       : Company
WELL               .         8708                          : Well name
FLD                .         УЗЕНЬ                         : Field
LOC                .                                       : Location
CNTY               .                                       : County
STAT               .                                       : State
CTRY               .                                       : Country
SRVC               .                                       : Service Company
DATE               .                                       : Date
UWI                .                                       : Unique Well ID
Block              .         4                             : 
Category           .         Нефтяная                      : 
Condition          .         В работе                      : 
Date               .         30.03.1997                    : 
EREF               .m        228.6                         : 100.8
Gorizont           .         15                            : 14
Interpretator      .         Алпанова Н.К.                 : 
Kupol              .         основной                      : osnovnoi
Moii_15            .         15_gor                        : 
Mud                .                                       : 
Mud_density        .                                       : 
Mud_resistivity    .                                       : 
NGDU               .         НГДУ-1                        : 
ORIGINALWELLNAME   .         8708                          : 
Spud_date          .         1996                          : 1961
Viscosity          .                                       : 
X                  .m        54224.2                       : 46154
Y                  .m        81794.5                       : 85761.93
YEAR               .         2018                          : 
~Parameter Information Block
#_______________________________________________________________________________
#
#PARAMETER_NAME    .UNIT     VALUE                         : DESCRIPTION
#_______________________________________________________________________________
SET                .         LQC_KAZNIPI_Petrel            : 
TLFamily_CALI      .         Caliper                       : 
TLFamily_CILD      .         Conductivity                  : 
TLFamily_COLL      .         Net Reservoir Flag            : 
TLFamily_CSAT      .         Fluid Code                    : 
TLFamily_DEPT      .         Measured Depth                : 
TLFamily_GR        .         Russian Gamma Ray             : 
TLFamily_GZ3       .         Gradient 225                  : 
TLFamily_LLS       .         Lateral Log Resistivity       : 
TLFamily_MINV      .         Micro Gradient Resistivity    : 
TLFamily_MNOR      .         Micro Resistivity             : 
TLFamily_NGLD      .         Neutron Far                   : 
TLFamily_OGZ       .         Gradient Inverted 225         : 
TLFamily_PHIE      .         Effective Porosity            : 
TLFamily_PHIEN     .         Effective Porosity            : 
TLFamily_PHIT      .         Porosity                      : 
TLFamily_PRMB      .         Permeability                  : 
TLFamily_PRMB_DGR  .         Permeability                  : 
TLFamily_RT        .         Formation Resistivity         : 
TLFamily_SOIL_ARCHIE .         Oil Saturation                : 
TLFamily_SOIL_DW   .         Oil Saturation                : 
TLFamily_SP        .         Spontaneous Potential         : 
TLFamily_VSH_FIN   .         Shale Volume                  : 
TLFamily_VSH_GR    .         Shale Volume                  : 
TLFamily_VSH_SP    .         Shale Volume                  : 
~Curve Information
#_______________________________________________________________________________
#
#LOGNAME           .UNIT     LOG_ID                        : DESCRIPTION
#_______________________________________________________________________________
DEPT               .M                                      : Колонка глубины 
CALI               .м                                      : Каверномер 
CILD               .мСм/м                                  : Индукционный каротаж 
COLL               .unitless                               : Описание 
CSAT               .unitless                               : Описание 
GR                 .мкР/ч                                  : Гамма каротаж 
GZ3                .Ом·м                                   :  
LLS                .Ом·м                                   : Боковой каротаж 
MINV               .Ом·м                                   : Микро-градиент зонд 
MNOR               .Ом·м                                   : Микро-потенциал зонд 
NGLD               .у.е.                                   : Показания зонда НГК-60 аппаратуры ДРСТ-3-90 
OGZ                .Ом·м                                   :  
PHIE               .v/v                                    : Описание 
PHIEN              .v/v                                    :  
PHIT               .v/v                                    : Описание 
PRMB               .mD                                     :  
PRMB_DGR           .mD                                     :  
RT                 .ohmm                                   : УЭС пласта 
SOIL_ARCHIE        .v/v                                    :  
SOIL_DW            .v/v                                    :  
SP                 .мВ                                     : Потенциал самополяризации 
VSH_FIN            .v/v                                    : Описание 
VSH_GR             .v/v                                    : Shale volume 
VSH_SP             .v/v                                    : Shale Volume 
~Ascii
# ...
1101.4     0.273      417.277    -9999      -9999      4.726797   2.222      1.956      0.979      1.444      0.8795267  1.968      0.1585623  0.1585623  0.3457187  2.421676   1.326767   2.087301   0.2127138  0.4926397  66.743     0.5671408  0.5780601  0.5562214 
1101.6     0.288      416.654    -9999      -9999      4.81461    2.108      1.919      0.972      1.457      0.8773266  1.956      0.1546261  0.1546261  0.3464751  2.047426   1.126014   2.029157   0.1845479  0.4812542  66.553     0.5813607  0.6181117  0.5446096 
1101.8     0.299      409.803    -9999      -9999      4.881836   2.083      1.919      0.966      1.482      0.8814506  1.994      0.1494139  0.1494139  0.3450573  1.639328   0.9931105  2.037529   0.161449   0.4743152  66.426     0.5928587  0.6506391  0.5350783 
1102       0.278      402.951    -9999      -9999      4.917166   2.083      1.982      0.966      1.438      0.890838   2.095      0.1454129  0.1454129  0.3418299  1.382159   0.9296749  2.088983   0.1513793  0.4724735  66.172     0.595203   0.6684141  0.5219919 
1102.2     0.265      396.722    -9999      -9999      4.923965   2.146      2.038      0.966      1.451      0.9036985  2.121      0.1425255  0.1425255  0.3374085  1.222016   0.9179391  2.133427   0.1449147  0.4697816  65.919     0.5905543  0.6718904  0.5092182 
1102.4     0.281      390.494    -9999      -9999      4.91583    2.159      2.01       1.056      1.514      0.9180058  2.121      0.1391864  0.1391864  0.3324896  1.059811   0.9319985  2.139831   0.1283027  0.4609556  65.919     0.5857671  0.6677331  0.5038012 
1102.6     0.289      383.019    -9999      -9999      4.906771   2.07       2.048      1.255      1.649      0.9312438  2.121      0.1348091  0.1348091  0.3279384  0.8793257  0.9479061  2.09519    0.09479035 0.443988   66.236     0.5852402  0.6631346  0.5073459 
1102.8     0.281      370.562    -9999      -9999      4.905436   1.956      2.165      1.171      1.636      0.9408658  2.235      0.1295211  0.1295211  0.3246303  0.7017843  0.9502732  2.086213   0.06079563 0.4309504  66.87      0.59124    0.6624594  0.5200205 
1103       0.258      357.482    -9999      -9999      4.91563    1.981      2.442      0.998      1.521      0.9455389  2.299      0.1232546  0.1232546  0.3230237  0.5371955  0.9323467  2.128186   0.02846456 0.4245949  67.843     0.6053609  0.6676313  0.5430905 
1103.2     0.244      358.104    -9999      -9999      4.93695    2.045      2.464      1.113      1.546      0.9459552  2.121      0.121689   0.121689   0.3228806  0.5024977  0.8959386  2.082307   0.00748863 0.4154561  67.957     0.6096715  0.6785792  0.5407637 
1103.4     0.257      365.579    -9999      -9999      4.961267   2.057      2.237      1.325      1.629      0.9444816  1.994      0.1210909  0.1210909  0.3233872  0.4898403  0.8561466  2.02501    0          0.4067986  67.947     0.6130193  0.6912847  0.534754  
1103.6     0.261      366.202    -9999      -9999      4.973566   2.057      2.068      1.338      1.591      0.9437524  1.93       0.1224196  0.1224196  0.3236379  0.5184005  0.8366982  1.991477   0          0.4044492  67.694     0.6097526  0.6978014  0.5217038 
1103.8     0.266      366.825    -9999      -9999      4.961428   2.019      2.029      1.524      1.661      0.9449319  1.956      0.1212446  0.1212446  0.3232324  0.4930623  0.8558881  1.987001   0          0.4012384  68.264     0.6120844  0.69137    0.5327988 
1104       0.268      368.693    -9999      -9999      4.925286   2.019      2.01       1.261      1.725      0.9471487  2.007      0.1226603  0.1226603  0.3224703  0.5237514  0.9156768  2.012982   0          0.4066803  68.644     0.6054847  0.6725678  0.5384015 
1104.2     0.253      373.676    -9999      -9999      4.879713   2.019      2.01       1.267      1.674      0.9487545  2.007      0.1277623  0.1277623  0.3219182  0.6510677  0.9970579  2.012982   0.03347278 0.4146906  68.454     0.5883512  0.649586   0.5271164 
1104.4     0.251      373.676    -9999      -9999      4.845359   2.045      2.01       1.543      1.853      0.9491244  2.007      0.1343192  0.1343192  0.321791   0.8611429  1.06315    2.025822   0.07745428 0.4269677  67.82      0.5680965  0.632783   0.50341   
1104.6     0.256      368.693    -9999      -9999      4.836599   2.095      2.076      1.736      1.949      0.9491372  2.121      0.1370506  0.1370506  0.3217866  0.967539   1.080693   2.10792    0.1102315  0.4423849  67.567     0.559806   0.6285681  0.491044  
1104.8     0.259      361.842    -9999      -9999      4.853707   2.095      2.226      1.646      1.917      0.9498462  2.248      0.1360258  0.1360258  0.3215429  0.9261591  1.046697   2.168805   0.1162832  0.4484786  67.63      0.562173   0.6368256  0.4875205 
1105       0.259      355.613    -9999      -9999      4.882452   2.07       2.408      1.267      1.783      0.9515703  2.4        0.1310851  0.1310851  0.3209502  0.7501928  0.991967   2.222819   0.09781844 0.4471255  68.264     0.5753485  0.6509452  0.4997517 
1105.2     0.26       354.99     -9999      -9999      4.902439   2.083      2.605      1.203      1.757      0.9542996  2.413      0.1290804  0.1290804  0.3200118  0.6887147  0.9556093  2.235889   0.08813895 0.4446039  68.137     0.5785801  0.6609466  0.4962135 
1105.4     0.263      361.219    -9999      -9999      4.901915   2.134      2.557      1.19       1.725      0.9578493  2.349      0.1304783  0.1304783  0.3187914  0.7310247  0.9565457  2.236344   0.09673984 0.4454949  67.567     0.5706459  0.6606821  0.4806097 
1105.6     0.259      367.448    -9999      -9999      4.886837   2.184      2.342      1.434      1.744      0.9618752  2.235      0.1297736  0.1297736  0.3174073  0.7093831  0.9838734  2.209206   0.08725529 0.4394487  67.694     0.5685868  0.6531264  0.4840473 
1105.8     0.248      367.448    -9999      -9999      4.871557   2.197      2.216      1.261      1.649      0.9668779  2.108      0.1275835  0.1275835  0.3156874  0.6461217  1.012367   2.15158    0.06206262 0.426477   68.074     0.5700117  0.6455569  0.4944666 
1106       0.242      368.07     -9999      -9999      4.862806   2.146      2.165      1.139      1.578      0.9746258  2.108      0.1241689  0.1241689  0.3130237  0.5585579  1.029055   2.12683    0.03440962 0.4142832  68.391     0.572287   0.6412615  0.5033126 
1106.2     0.248      375.545    -9999      -9999      4.859458   2.083      2.115      1.261      1.629      0.9863195  2.057      0.1198272  0.1198272  0.3090034  0.46414    1.035511   2.069918   0          0.3936146  68.518     0.573261   0.6396257  0.5068961 
1106.4     0.26       386.757    -9999      -9999      4.862476   2.045      2.01       1.261      1.629      1.000782   2.057      0.1149101  0.1149101  0.3040311  0.3763329  1.029688   2.050982   0          0.3751259  68.454     0.5730939  0.6411003  0.5050875 
1106.6     0.267      392.362    -9999      -9999      4.874993   1.968      1.929      1.101      1.572      1.015869   2.108      0.111039   0.111039   0.2988442  0.3190577  1.005889   2.035596   0          0.3579861  67.947     0.5691067  0.6472513  0.4909621 
1106.8     0.264      392.985    -9999      -9999      4.895085   1.905      1.884      1.043      1.527      1.031178   2.261      0.1072341  0.1072341  0.2935809  0.2712646  0.9688289  2.067789   0          0.3476354  67.25      0.5646874  0.657249   0.4721259 
1107       0.264      381.151    -9999      -9999      4.9138     1.867      1.893      1.12       1.693      1.048069   2.4        0.1004222  0.1004222  0.2877741  0.2028714  0.9355392  2.100211   0          0.328938   67.123     0.5677329  0.6667001  0.4687656 
1107.2     0.271      360.596    -9999      -9999      4.922619   1.88       2.086      1.492      2.109      1.066692   2.756      0.09244588 0.09244588 0.2813712  0.144371   0.9202507  2.235237   0          0.3206964  67.313     0.5725009  0.6712008  0.473801  
1107.4     0.261      330.698    -9999      -9999      4.92068    2.057      2.858      1.389      2.32       1.083933   3.2        0.08413633 0.08413633 0.275444   0.1012901  0.923592   2.504242   0          0.3280053  67.884     0.5797201  0.6702082  0.4892319 
