~Version
 VERS              .         2.0                           : CWLS LOG ASCII STANDARD - VERSION 2.0
 WRAP              .         NO                            : ONE LINE PER DEPTH STEP
 DLM               .         SPACE                         : DELIMITING CHARACTER(SPACE TAB OR COMMA)
~Well Information
#_______________________________________________________________________________
#
#PARAMETER_NAME    .UNIT     VALUE                         : DESCRIPTION
#_______________________________________________________________________________
STRT               .M        940.2                         : First reference value
STOP               .M        1398.6                        : Last reference value
STEP               .M        0.2                           : Step increment
NULL               .         -9999                         : Missing value
COMP               .                                       : Company
WELL               .         8708                          : Well name
FLD                .         УЗЕНЬ                         : Field
LOC                .                                       : Location
CNTY               .                                       : County
STAT               .                                       : State
CTRY               .                                       : Country
SRVC               .                                       : Service Company
DATE               .                                       : Date
UWI                .                                       : Unique Well ID
Block              .         4                             : 
Category           .         Нефтяная                      : 
Condition          .         В работе                      : 
Date               .         30.03.1997                    : 
EREF               .m        228.6                         : 100.8
Gorizont           .         15                            : 14
Interpretator      .         Алпанова Н.К.                 : 
Kupol              .         основной                      : osnovnoi
Moii_15            .         15_gor                        : 
Mud                .                                       : 
Mud_density        .                                       : 
Mud_resistivity    .                                       : 
NGDU               .         НГДУ-1                        : 
ORIGINALWELLNAME   .         8708                          : 
Spud_date          .         1996                          : 1961
Viscosity          .                                       : 
X                  .m        54224.2                       : 46154
Y                  .m        81794.5                       : 85761.93
YEAR               .         2018                          : 
~Parameter Information Block
#_______________________________________________________________________________
#
#PARAMETER_NAME    .UNIT     VALUE                         : DESCRIPTION
#_______________________________________________________________________________
SET                .         LQC_KAZNIPI_Petrel            : 
TLFamily_CALI      .         Caliper                       : 
TLFamily_CILD      .         Conductivity                  : 
TLFamily_COLL      .         Net Reservoir Flag            : 
TLFamily_CSAT      .         Fluid Code                    : 
TLFamily_DEPT      .         Measured Depth                : 
TLFamily_GR        .         Russian Gamma Ray             : 
TLFamily_GZ3       .         Gradient 225                  : 
TLFamily_LLS       .         Lateral Log Resistivity       : 
TLFamily_MINV      .         Micro Gradient Resistivity    : 
TLFamily_MNOR      .         Micro Resistivity             : 
TLFamily_NGLD      .         Neutron Far                   : 
TLFamily_OGZ       .         Gradient Inverted 225         : 
TLFamily_PHIE      .         Effective Porosity            : 
TLFamily_PHIEN     .         Effective Porosity            : 
TLFamily_PHIT      .         Porosity                      : 
TLFamily_PRMB      .         Permeability                  : 
TLFamily_PRMB_DGR  .         Permeability                  : 
TLFamily_RT        .         Formation Resistivity         : 
TLFamily_SOIL_ARCHIE .         Oil Saturation                : 
TLFamily_SOIL_DW   .         Oil Saturation                : 
TLFamily_SP        .         Spontaneous Potential         : 
TLFamily_VSH_FIN   .         Shale Volume                  : 
TLFamily_VSH_GR    .         Shale Volume                  : 
TLFamily_VSH_SP    .         Shale Volume                  : 
~Curve Information
#_______________________________________________________________________________
#
#LOGNAME           .UNIT     LOG_ID                        : DESCRIPTION
#_______________________________________________________________________________
DEPT               .M                                      : Колонка глубины 
CALI               .м                                      : Каверномер 
CILD               .мСм/м                                  : Индукционный каротаж 
COLL               .unitless                               : Описание 
CSAT               .unitless                               : Описание 
GR                 .мкР/ч                                  : Гамма каротаж 
GZ3                .Ом·м                                   :  
LLS                .Ом·м                                   : Боковой каротаж 
MINV               .Ом·м                                   : Микро-градиент зонд 
MNOR               .Ом·м                                   : Микро-потенциал зонд 
NGLD               .у.е.                                   : Показания зонда НГК-60 аппаратуры ДРСТ-3-90 
OGZ                .Ом·м                                   :  
PHIE               .v/v                                    : Описание 
PHIEN              .v/v                                    :  
PHIT               .v/v                                    : Описание 
PRMB               .mD                                     :  
PRMB_DGR           .mD                                     :  
RT                 .ohmm                                   : УЭС пласта 
SOIL_ARCHIE        .v/v                                    :  
SOIL_DW            .v/v                                    :  
SP                 .мВ                                     : Потенциал самополяризации 
VSH_FIN            .v/v                                    : Описание 
VSH_GR             .v/v                                    : Shale volume 
VSH_SP             .v/v                                    : Shale Volume 
~Ascii
# ...
1064.2     0.224      165.014    -9999      -9999      2.329474   4.762      5.118      3.739      7.626      1.238129   1.93       0.1370773  0.1370773  0.2224311  0.9686409  21.05776   2.74676    0.2143055  0.3872969  60.721     0.2586479  0.186948   0.3303477 
1064.4     0.225      181.209    -9999      -9999      2.492749   4.851      4.709      3.784      8.085      1.162665   1.829      0.1748693  0.1748693  0.2483759  4.854702   86.19483   2.656431   0.3543949  0.4714832  61.165     0.2227471  0.105146   0.3403483 
1064.6     0.228      198.026    -9999      -9999      2.671671   4.927      3.824      3.951      7.856      1.082681   1.765      0.2001681  0.2001681  0.2758744  14.28097   61.70297   2.59897    0.4201508  0.5248804  60.975     0.2294129  0.1205237  0.3383021 
1064.8     0.233      229.17     -9999      -9999      2.851276   5.029      2.629      4.002      6.938      1.005898   1.689      0.2229767  0.2229767  0.3022721  37.77698   44.11396   2.528723   0.4653341  0.5633942  61.102     0.2402892  0.1382226  0.3423558 
1065       0.243      296.44     -9999      -9999      3.028836   4.8        1.956      3.681      5.906      0.9386291  1.6        0.2402408  0.2402408  0.3253993  78.886     31.65958   2.4        0.4865214  0.5838376  61.799     0.2580562  0.1582734  0.357839  
1065.2     0.274      366.202    -9999      -9999      3.206524   4.419      1.632      1.954      5.333      0.8850362  1.46       0.2513043  0.2513043  0.3438245  126.4512   22.71597   2.194843   0.4851229  0.5864206  62.75      0.2803645  0.1812504  0.3794786 
1065.4     0.298      410.426    -9999      -9999      3.376603   3.95       1.434      1.043      1.649      0.8476471  1.308      0.2567053  0.2567053  0.3566789  159.2074   16.53219   1.965234   0.4676713  0.5759767  63.574     0.3029504  0.2063617  0.3995391 
1065.6     0.306      438.455    -9999      -9999      3.516808   3.53       1.388      1.03       1.304      0.8268182  1.295      0.2552844  0.2552844  0.3638399  149.8458   12.7224    1.89486    0.4558593  0.5722083  64.715     0.328956   0.2296581  0.4282539 
1065.8     0.302      446.269    -9999      -9999      3.602735   3.238      1.523      1.113      1.291      0.8193092  1.473      0.2510496  0.2510496  0.3664215  125.085    10.83549   2.024867   0.4648019  0.5850475  65.665     0.3496119  0.2452172  0.4540067 
1066       0.287      454.027    -9999      -9999      3.624568   3.086      1.656      1.184      1.399      0.8192358  1.638      0.2456242  0.2456242  0.3664467  99.2462    10.40241   2.140079   0.4685034  0.5927638  66.679     0.366129   0.2493357  0.4829222 
1066.2     0.278      468.353    -9999      -9999      3.592014   2.984      1.758      1.19       1.348      0.8209754  1.714      0.2424712  0.2424712  0.3658487  86.75864   11.05473   2.177342   0.4668254  0.5937374  67.377     0.3738711  0.2432197  0.5045225 
1066.4     0.287      481.433    -9999      -9999      3.526988   2.883      1.742      1.133      1.47       0.8210391  1.702      0.2406904  0.2406904  0.3658268  80.41329   12.48272   2.140399   0.4590648  0.589      68.074     0.3792011  0.2314486  0.5269537 
1066.6     0.298      485.793    -9999      -9999      3.453075   2.769      1.726      1.036      1.38       0.81774    1.689      0.2419634  0.2419634  0.366961   84.89998   14.33118   2.098179   0.4564868  0.5865355  68.391     0.3787805  0.2187589  0.5388021 
1066.8     0.311      486.416    -9999      -9999      3.389614   2.616      1.718      1.004      1.323      0.810532   1.702      0.2457353  0.2457353  0.3694391  99.71746   16.13516   2.062266   0.4593979  0.5872205  68.391     0.3748602  0.2084203  0.5413    
1067       0.321      486.416    -9999      -9999      3.349085   2.476      1.694      1.043      1.367      0.7995852  1.714      0.2513865  0.2513865  0.3732026  126.8952   17.40437   2.025711   0.4655311  0.5898283  68.137     0.3691398  0.2020747  0.5362049 
1067.2     0.316      487.039    -9999      -9999      3.334208   2.337      1.663      1.049      1.374      0.7854905  1.74       0.2598753  0.2598753  0.3780484  182.2548   17.8949    1.99479    0.4770076  0.5953389  67.377     0.3581003  0.1997943  0.5164062 
1067.4     0.313      492.645    -9999      -9999      3.337986   2.159      1.587      1.043      1.387      0.7698247  1.803      0.2680401  0.2680401  0.3834343  258.173    17.76902   1.965006   0.4873037  0.6007738  66.679     0.3496793  0.200371   0.4989876 
1067.6     0.308      504.479    -9999      -9999      3.34942    1.981      1.495      1.152      1.463      0.7558748  1.791      0.273902   0.273902   0.3882303  331.5035   17.39348   1.881215   0.486479   0.5985445  66.299     0.3464492  0.2021264  0.490772  
1067.8     0.314      507.594    -9999      -9999      3.360344   1.841      1.448      1.158      1.553      0.7476348  1.74       0.2760765  0.2760765  0.3910632  363.7173   17.04209   1.789076   0.4778423  0.591426   66.299     0.3484446  0.2038179  0.4930713 
1068       0.328      497.628    -9999      -9999      3.366491   1.702      1.488      1.434      1.706      0.7474692  1.74       0.27354    0.27354    0.3911201  326.4246   16.84748   1.72079    0.4639271  0.5818475  66.743     0.3563032  0.204776   0.5078303 
1068.2     0.331      488.907    -9999      -9999      3.365862   1.664      1.545      1.582      1.744      0.7549098  1.689      0.2678911  0.2678911  0.388562   256.5381   16.8673    1.676407   0.44736    0.5710447  67.313     0.3656693  0.2046777  0.5266609 
1068.4     0.325      488.285    -9999      -9999      3.359843   1.651      1.545      1.73       1.738      0.7673336  1.638      0.2605612  0.2605612  0.3842907  187.6654   17.05805   1.644474   0.4287115  0.5590808  67.884     0.3749378  0.20374    0.5461356 
1068.6     0.327      486.416    -9999      -9999      3.355119   1.638      1.558      1.524      1.655      0.7808626  1.613      0.2523896  0.2523896  0.3796394  132.4419   17.20927   1.625404   0.4094112  0.5474434  68.518     0.3856056  0.2030071  0.5682041 
1068.8     0.33       482.679    -9999      -9999      3.361374   1.638      1.587      1.351      1.636      0.7913843  1.562      0.2458599  0.2458599  0.3760221  100.2488   17.00931   1.599097   0.3911289  0.5362161  68.961     0.394431   0.2039782  0.5848837 
1069       0.304      479.564    -9999      -9999      3.3843     1.626      1.632      1.338      1.674      0.7963362  1.562      0.2424441  0.2424441  0.3743196  86.65862   16.29615   1.593358   0.3826236  0.5314732  69.088     0.3996226  0.2075771  0.5916681 
1069.2     0.286      477.696    -9999      -9999      3.420923   1.638      1.679      1.499      1.706      0.7962089  1.562      0.2430917  0.2430917  0.3743634  89.08549   15.21842   1.599097   0.3850948  0.5328534  68.708     0.3977928  0.2134584  0.5821272 
1069.4     0.291      477.073    -9999      -9999      3.46259    1.651      1.75       1.601      1.642      0.7936091  1.651      0.2453888  0.2453888  0.3752572  98.25488   14.07866   1.651      0.3991846  0.542656   68.137     0.3935406  0.2203526  0.5667285 
1069.6     0.299      482.679    -9999      -9999      3.503135   1.676      1.783      1.665      1.642      0.7910186  1.702      0.2486686  0.2486686  0.3761478  113.0064   13.05158   1.6889     0.412384   0.5508848  67.44      0.3863008  0.227275   0.5453265 
1069.8     0.303      487.039    -9999      -9999      3.540606   1.689      1.671      1.537      1.776      0.7896773  1.727      0.2511527  0.2511527  0.3766089  125.6362   12.16915   1.707789   0.4204817  0.5555041  66.806     0.3801705  0.2338656  0.5264755 
1070       0.301      492.022    -9999      -9999      3.571252   1.714      1.566      1.563      1.815      0.7898186  1.727      0.2514058  0.2514058  0.3765604  126.9998   11.49194   1.720475   0.4229974  0.5572942  66.553     0.3792564  0.2393978  0.519115  
1070.2     0.298      488.285    -9999      -9999      3.58931    1.74       1.482      1.736      1.783      0.7911253  1.727      0.2507135  0.2507135  0.3761111  123.3047   11.1107    1.733476   0.4236495  0.5581487  66.489     0.3799929  0.2427186  0.5172672 
