~Version
 VERS              .         2.0                           : CWLS LOG ASCII STANDARD - VERSION 2.0
 WRAP              .         NO                            : ONE LINE PER DEPTH STEP
 DLM               .         SPACE                         : DELIMITING CHARACTER(SPACE TAB OR COMMA)
~Well Information
#_______________________________________________________________________________
#
#PARAMETER_NAME    .UNIT     VALUE                         : DESCRIPTION
#_______________________________________________________________________________
STRT               .M        940.2                         : First reference value
STOP               .M        1398.6                        : Last reference value
STEP               .M        0.2                           : Step increment
NULL               .         -9999                         : Missing value
COMP               .                                       : Company
WELL               .         8708                          : Well name
FLD                .         УЗЕНЬ                         : Field
LOC                .                                       : Location
CNTY               .                                       : County
STAT               .                                       : State
CTRY               .                                       : Country
SRVC               .                                       : Service Company
DATE               .                                       : Date
UWI                .                                       : Unique Well ID
Block              .         4                             : 
Category           .         Нефтяная                      : 
Condition          .         В работе                      : 
Date               .         30.03.1997                    : 
EREF               .m        228.6                         : 100.8
Gorizont           .         15                            : 14
Interpretator      .         Алпанова Н.К.                 : 
Kupol              .         основной                      : osnovnoi
Moii_15            .         15_gor                        : 
Mud                .                                       : 
Mud_density        .                                       : 
Mud_resistivity    .                                       : 
NGDU               .         НГДУ-1                        : 
ORIGINALWELLNAME   .         8708                          : 
Spud_date          .         1996                          : 1961
Viscosity          .                                       : 
X                  .m        54224.2                       : 46154
Y                  .m        81794.5                       : 85761.93
YEAR               .         2018                          : 
~Parameter Information Block
#_______________________________________________________________________________
#
#PARAMETER_NAME    .UNIT     VALUE                         : DESCRIPTION
#_______________________________________________________________________________
SET                .         LQC_KAZNIPI_Petrel            : 
TLFamily_CALI      .         Caliper                       : 
TLFamily_CILD      .         Conductivity                  : 
TLFamily_COLL      .         Net Reservoir Flag            : 
TLFamily_CSAT      .         Fluid Code                    : 
TLFamily_DEPT      .         Measured Depth                : 
TLFamily_GR        .         Russian Gamma Ray             : 
TLFamily_GZ3       .         Gradient 225                  : 
TLFamily_LLS       .         Lateral Log Resistivity       : 
TLFamily_MINV      .         Micro Gradient Resistivity    : 
TLFamily_MNOR      .         Micro Resistivity             : 
TLFamily_NGLD      .         Neutron Far                   : 
TLFamily_OGZ       .         Gradient Inverted 225         : 
TLFamily_PHIE      .         Effective Porosity            : 
TLFamily_PHIEN     .         Effective Porosity            : 
TLFamily_PHIT      .         Porosity                      : 
TLFamily_PRMB      .         Permeability                  : 
TLFamily_PRMB_DGR  .         Permeability                  : 
TLFamily_RT        .         Formation Resistivity         : 
TLFamily_SOIL_ARCHIE .         Oil Saturation                : 
TLFamily_SOIL_DW   .         Oil Saturation                : 
TLFamily_SP        .         Spontaneous Potential         : 
TLFamily_VSH_FIN   .         Shale Volume                  : 
TLFamily_VSH_GR    .         Shale Volume                  : 
TLFamily_VSH_SP    .         Shale Volume                  : 
~Curve Information
#_______________________________________________________________________________
#
#LOGNAME           .UNIT     LOG_ID                        : DESCRIPTION
#_______________________________________________________________________________
DEPT               .M                                      : Колонка глубины 
CALI               .м                                      : Каверномер 
CILD               .мСм/м                                  : Индукционный каротаж 
COLL               .unitless                               : Описание 
CSAT               .unitless                               : Описание 
GR                 .мкР/ч                                  : Гамма каротаж 
GZ3                .Ом·м                                   :  
LLS                .Ом·м                                   : Боковой каротаж 
MINV               .Ом·м                                   : Микро-градиент зонд 
MNOR               .Ом·м                                   : Микро-потенциал зонд 
NGLD               .у.е.                                   : Показания зонда НГК-60 аппаратуры ДРСТ-3-90 
OGZ                .Ом·м                                   :  
PHIE               .v/v                                    : Описание 
PHIEN              .v/v                                    :  
PHIT               .v/v                                    : Описание 
PRMB               .mD                                     :  
PRMB_DGR           .mD                                     :  
RT                 .ohmm                                   : УЭС пласта 
SOIL_ARCHIE        .v/v                                    :  
SOIL_DW            .v/v                                    :  
SP                 .мВ                                     : Потенциал самополяризации 
VSH_FIN            .v/v                                    : Описание 
VSH_GR             .v/v                                    : Shale volume 
VSH_SP             .v/v                                    : Shale Volume 
~Ascii
# ...
1082.8     0.31       531.886    -9999      -9999      4.43188    1.562      1.434      0.959      1.246      0.7898849  1.473      0.2223667  0.2223667  0.3765376  36.80683   2.301909   1.516195   0.3186601  0.5044616  63.257     0.4671845  0.4615954  0.4727736 
1083       0.33       535        -9999      -9999      4.408591   1.537      1.35       1.056      1.387      0.8018117  1.499      0.2183905  0.2183905  0.3724371  31.06563   2.404277   1.517762   0.3082041  0.4978482  63.447     0.466808   0.4534668  0.4801492 
1083.2     0.323      530.017    -9999      -9999      4.382894   1.549      1.308      1.145      1.316      0.8136609  1.549      0.2128044  0.2128044  0.3683634  24.48005   2.52252    1.549      0.2991469  0.4944538  64.017     0.4713908  0.4446637  0.498118  
1083.4     0.326      527.526    -9999      -9999      4.365166   1.549      1.344      1.094      1.291      0.8227336  1.6        0.2066949  0.2066949  0.3652442  18.8647    2.607468   1.574087   0.2865376  0.4900693  64.778     0.4804523  0.4386902  0.5222143 
1083.6     0.33       533.754    -9999      -9999      4.349741   1.499      1.388      0.991      1.259      0.8273231  1.638      0.2043267  0.2043267  0.3636663  17.05232   2.683702   1.56542    0.2774711  0.4849807  65.031     0.4828475  0.4335584  0.5321365 
1083.8     0.322      541.229    -9999      -9999      4.326131   1.473      1.395      0.959      1.265      0.8281305  1.727      0.20736    0.20736    0.3633887  19.40747   2.804731   1.589919   0.2918645  0.4916956  64.524     0.4728143  0.4258192  0.5198094 
1084       0.31       548.08     -9999      -9999      4.295097   1.448      1.395      1.049      1.393      0.8281338  1.791      0.210399   0.210399   0.3633876  22.09321   2.972159   1.601339   0.3031256  0.4964221  64.144     0.4636016  0.4158561  0.5113472 
1084.2     0.3        548.08     -9999      -9999      4.272821   1.448      1.35       1.094      1.444      0.8307531  1.791      0.209953   0.209953   0.3624871  21.67686   3.098467   1.601339   0.3018362  0.495243   64.207     0.4622246  0.4088486  0.5156006 
1084.4     0.295      543.72     -9999      -9999      4.27709    1.448      1.308      1.049      1.348      0.8375432  1.638      0.2060782  0.2060782  0.3601526  18.37492   3.073854   1.537151   0.2766631  0.4789657  64.398     0.4668923  0.4101821  0.5236025 
1084.6     0.299      539.983    -9999      -9999      4.306577   1.448      1.314      1.139      1.412      0.8471619  1.46       0.202038   0.202038   0.3568457  15.46648   2.909094   1.453975   0.2446172  0.4570392  64.144     0.4691145  0.4195139  0.518715  
1084.8     0.306      536.246    -9999      -9999      4.33563    1.46       1.35       1.332      1.604      0.8563391  1.549      0.198831   0.198831   0.3536906  13.48932   2.755397   1.503184   0.2458877  0.4597206  63.827     0.4692716  0.428916   0.5096273 
1085       0.307      520.051    -9999      -9999      4.331998   1.448      1.44       1.46       1.789      0.8619435  1.6        0.1988665  0.1988665  0.3517638  13.5098    2.774157   1.52021    0.2499797  0.4610132  63.447     0.4633251  0.4277293  0.4989207 
1085.2     0.297      501.365    -9999      -9999      4.281847   1.435      1.566      1.46       1.872      0.8627432  1.651      0.2006541  0.2006541  0.3514889  14.58007   3.046658   1.535441   0.2592759  0.4653343  63.574     0.457075   0.4116734  0.5024765 
1085.4     0.284      490.776    -9999      -9999      4.199402   1.422      1.702      1.543      2.006      0.8601007  1.689      0.2045234  0.2045234  0.3523974  17.19604   3.554005   1.544042   0.2734033  0.471671   63.827     0.4481028  0.3865784  0.5096273 
1085.6     0.285      485.793    -9999      -9999      4.115494   1.422      1.702      1.646      1.93       0.8570359  1.727      0.2071227  0.2071227  0.353451   19.21202   4.157195   1.559729   0.2847522  0.4779065  64.334     0.4434192  0.3626079  0.5242306 
1085.8     0.292      479.564    -9999      -9999      4.055077   1.372      1.663      1.653      1.681      0.8565001  1.816      0.2072154  0.2072154  0.3536353  19.28815   4.653958   1.563082   0.2857509  0.4787231  64.905     0.4436964  0.3462741  0.5411187 
1086       0.292      462.124    -9999      -9999      4.023579   1.511      1.656      1.203      1.7        0.8598791  2.108      0.2042297  0.2042297  0.3524736  16.98193   4.936049   1.760259   0.3158868  0.5049636  65.538     0.4492239  0.3380525  0.5603953 
1086.2     0.266      435.341    -9999      -9999      4.013259   1.943      1.807      1.216      2.205      0.8665211  2.629      0.1994307  0.1994307  0.35019    13.83878   5.032142   2.234535   0.3755445  0.5547255  66.109     0.4568466  0.3354015  0.5782917 
1086.4     0.236      391.74     -9999      -9999      4.016424   2.324      2.453      2.006      2.396      0.8740128  2.946      0.1950472  0.1950472  0.3476144  11.47901   5.002476   2.598294   0.4068412  0.5815641  66.426     0.462325   0.3362123  0.5884378 
1086.6     0.245      376.791    -9999      -9999      4.028269   2.337      3.238      1.665      1.911      0.8792011  2.769      0.1999421  0.1999421  0.3458306  14.14397   4.89299    2.534725   0.4127223  0.5791759  65.031     0.4420865  0.3392641  0.5449088 
1086.8     0.267      389.871    -9999      -9999      4.041141   1.956      2.805      1.261      1.757      0.880028   1.968      0.2064029  0.2064029  0.3455464  18.63116   4.776722   1.961982   0.355811   0.5274635  63.51      0.421647   0.3426121  0.5006818 
1087       0.302      407.311    -9999      -9999      4.041463   1.638      1.956      1.043      1.572      0.8770903  1.765      0.2122408  0.2122408  0.3465563  23.89864   4.773845   1.69913    0.3273683  0.4987443  62.433     0.4070167  0.3426964  0.4713371 
1087.2     0.299      412.294    -9999      -9999      4.013813   1.435      1.64       1.21       1.521      0.8732901  1.689      0.2130495  0.2130495  0.3478629  24.73723   5.026945   1.551674   0.3004155  0.477446   62.813     0.4085254  0.3355431  0.4815077 
1087.4     0.283      397.968    -9999      -9999      3.948829   1.397      1.602      1.633      1.974      0.8710507  1.918      0.2127449  0.2127449  0.3486328  24.418     5.675849   1.616559   0.3128799  0.488424   63.637     0.4117814  0.3193142  0.5042486 
1087.6     0.269      375.545    -9999      -9999      3.853532   1.575      1.775      2.333      2.479      0.8699144  2.134      0.2116824  0.2116824  0.3490234  23.33614   6.781949   1.812375   0.3459296  0.5162042  64.715     0.4161851  0.2969234  0.5354468 
1087.8     0.255      361.842    -9999      -9999      3.755993   1.74       2.076      3.174      2.166      0.8677118  2.248      0.215017   0.215017   0.3497807  26.90259   8.137609   1.961645   0.3782973  0.5384814  64.905     0.4083748  0.2756309  0.5411187 
1088       0.255      373.053    -9999      -9999      3.695286   1.753      2.605      2.333      1.898      0.8638822  2.172      0.2220884  0.2220884  0.3510973  36.37262   9.114939   1.940135   0.3924387  0.5429664  64.144     0.3909359  0.2631569  0.518715  
1088.2     0.274      393.297    -9999      -9999      3.697298   1.689      2.442      1.762      1.642      0.8601931  1.956      0.2244887  0.2244887  0.3523656  40.29334   9.080733   1.812721   0.3786049  0.5302372  63.891     0.3875058  0.2635612  0.5114504 
1088.4     0.283      392.985    -9999      -9999      3.755607   1.638      2.029      1.775      1.623      0.8582923  1.841      0.2213581  0.2213581  0.3530191  35.25708   8.143471   1.733577   0.357641   0.5174348  64.271     0.3989729  0.2755499  0.5223959 
1088.6     0.289      385.511    -9999      -9999      3.837209   1.714      1.893      1.8        1.661      0.8583237  1.854      0.2150254  0.2150254  0.3530083  26.91225   6.991947   1.781253   0.3495295  0.5183389  64.968     0.4181301  0.293249   0.5430111 
1088.8     0.288      378.659    -9999      -9999      3.90704    1.93       2.01       1.402      1.489      0.8591189  1.918      0.2117913  0.2117913  0.3527349  23.44483   6.136754   1.923981   0.3643015  0.5335114  65.031     0.4271018  0.3092947  0.5449088 
