~Version
 VERS              .         2.0                           : CWLS LOG ASCII STANDARD - VERSION 2.0
 WRAP              .         NO                            : ONE LINE PER DEPTH STEP
 DLM               .         SPACE                         : DELIMITING CHARACTER(SPACE TAB OR COMMA)
~Well Information
#_______________________________________________________________________________
#
#PARAMETER_NAME    .UNIT     VALUE                         : DESCRIPTION
#_______________________________________________________________________________
STRT               .M        940.2                         : First reference value
STOP               .M        1398.6                        : Last reference value
STEP               .M        0.2                           : Step increment
NULL               .         -9999                         : Missing value
COMP               .                                       : Company
WELL               .         8708                          : Well name
FLD                .         УЗЕНЬ                         : Field
LOC                .                                       : Location
CNTY               .                                       : County
STAT               .                                       : State
CTRY               .                                       : Country
SRVC               .                                       : Service Company
DATE               .                                       : Date
UWI                .                                       : Unique Well ID
Block              .         4                             : 
Category           .         Нефтяная                      : 
Condition          .         В работе                      : 
Date               .         30.03.1997                    : 
EREF               .m        228.6                         : 100.8
Gorizont           .         15                            : 14
Interpretator      .         Алпанова Н.К.                 : 
Kupol              .         основной                      : osnovnoi
Moii_15            .         15_gor                        : 
Mud                .                                       : 
Mud_density        .                                       : 
Mud_resistivity    .                                       : 
NGDU               .         НГДУ-1                        : 
ORIGINALWELLNAME   .         8708                          : 
Spud_date          .         1996                          : 1961
Viscosity          .                                       : 
X                  .m        54224.2                       : 46154
Y                  .m        81794.5                       : 85761.93
YEAR               .         2018                          : 
~Parameter Information Block
#_______________________________________________________________________________
#
#PARAMETER_NAME    .UNIT     VALUE                         : DESCRIPTION
#_______________________________________________________________________________
SET                .         LQC_KAZNIPI_Petrel            : 
TLFamily_CALI      .         Caliper                       : 
TLFamily_CILD      .         Conductivity                  : 
TLFamily_COLL      .         Net Reservoir Flag            : 
TLFamily_CSAT      .         Fluid Code                    : 
TLFamily_DEPT      .         Measured Depth                : 
TLFamily_GR        .         Russian Gamma Ray             : 
TLFamily_GZ3       .         Gradient 225                  : 
TLFamily_LLS       .         Lateral Log Resistivity       : 
TLFamily_MINV      .         Micro Gradient Resistivity    : 
TLFamily_MNOR      .         Micro Resistivity             : 
TLFamily_NGLD      .         Neutron Far                   : 
TLFamily_OGZ       .         Gradient Inverted 225         : 
TLFamily_PHIE      .         Effective Porosity            : 
TLFamily_PHIEN     .         Effective Porosity            : 
TLFamily_PHIT      .         Porosity                      : 
TLFamily_PRMB      .         Permeability                  : 
TLFamily_PRMB_DGR  .         Permeability                  : 
TLFamily_RT        .         Formation Resistivity         : 
TLFamily_SOIL_ARCHIE .         Oil Saturation                : 
TLFamily_SOIL_DW   .         Oil Saturation                : 
TLFamily_SP        .         Spontaneous Potential         : 
TLFamily_VSH_FIN   .         Shale Volume                  : 
TLFamily_VSH_GR    .         Shale Volume                  : 
TLFamily_VSH_SP    .         Shale Volume                  : 
~Curve Information
#_______________________________________________________________________________
#
#LOGNAME           .UNIT     LOG_ID                        : DESCRIPTION
#_______________________________________________________________________________
DEPT               .M                                      : Колонка глубины 
CALI               .м                                      : Каверномер 
CILD               .мСм/м                                  : Индукционный каротаж 
COLL               .unitless                               : Описание 
CSAT               .unitless                               : Описание 
GR                 .мкР/ч                                  : Гамма каротаж 
GZ3                .Ом·м                                   :  
LLS                .Ом·м                                   : Боковой каротаж 
MINV               .Ом·м                                   : Микро-градиент зонд 
MNOR               .Ом·м                                   : Микро-потенциал зонд 
NGLD               .у.е.                                   : Показания зонда НГК-60 аппаратуры ДРСТ-3-90 
OGZ                .Ом·м                                   :  
PHIE               .v/v                                    : Описание 
PHIEN              .v/v                                    :  
PHIT               .v/v                                    : Описание 
PRMB               .mD                                     :  
PRMB_DGR           .mD                                     :  
RT                 .ohmm                                   : УЭС пласта 
SOIL_ARCHIE        .v/v                                    :  
SOIL_DW            .v/v                                    :  
SP                 .мВ                                     : Потенциал самополяризации 
VSH_FIN            .v/v                                    : Описание 
VSH_GR             .v/v                                    : Shale volume 
VSH_SP             .v/v                                    : Shale Volume 
~Ascii
# ...
1020.8     0.216      94.63      6          6          1.543529   4.508      6.42       2.827      3.911      1.476797   4.75       0.1122878  0.1122878  0.1403773  0.336512   2309.753   6.42       0.3724     0.4296159  48.552     0.08511973 0.02745732 0.1427821 
1021       0.216      85.909     6          6          1.597955   4.521      7.834      3.219      4.16       1.491639   4.165      0.1064327  0.1064327  0.1352744  0.2621496  2066.483   7.834      0.4010754  0.4604389  49.312     0.08739929 0.02873389 0.1460647 
1021.2     0.216      74.075     6          6          1.648009   4.356      13.091     3.322      4.39       1.509342   4.331      0.09955353 0.09955353 0.1291882  0.1954929  1865.44    13.091     0.5011097  0.5591195  50.073     0.08980188 0.02996023 0.1496435 
1021.4     0.216      65.978     6          6          1.694572   4.394      34.586     3.825      4.409      1.525469   5.321      0.09306044 0.09306044 0.1236437  0.1482051  1696.02    4.813273   0.1538904  0.2327912  50.96      0.09267652 0.03114798 0.1542051 
1021.6     0.216      60.995     6          6          1.74411    4.94       58.066     4.32       4.409      1.528212   6.291      0.09088663 0.09088663 0.1227007  0.1350825  1532.637   5.534243   0.1910505  0.2741987  52.038     0.09640638 0.03246333 0.1603494 
1021.8     0.216      60.995     6          6          1.808882   5.931      26.324     4.458      4.409      1.498371   8.456      0.09943594 0.09943594 0.1329601  0.1945149  1342.51    6.971924   0.3288     0.4056227  53.369     0.1015883  0.0342674  0.1689093 
1022       0.219      66.6       6          6          1.903421   7.988      14.228     4.201      4.358      1.420086   10.287     0.1244354  0.1244354  0.1598744  0.5649415  1106.528   8.992892   0.5100574  0.5719563  54.58      0.1073909  0.03708197 0.1776998 
1022.2     0.221      83.418     6          6          2.039766   10.35      4.688      2.051      3.016      1.298347   9.968999   0.1640364  0.1640364  0.2017282  3.058507   837.2999   10.15593   0.6362126  0.686601   55.717     0.1142178  0.04155319 0.1868823 
1022.4     0.222      113.316    -9999      -9999      2.219918   12.7       4.118      2.519      3.08       1.162877   8.762999   0.2074294  0.2074294  0.2483029  19.46494   579.29     10.37041   0.7063621  0.7508902  57.108     0.1238592  0.04829827 0.1994202 
1022.6     0.226      133.248    -9999      -9999      2.428322   13.462     4.005      2.102      2.658      1.048493   6.616      0.204133   0.204133   0.2876283  16.91203   16.27848   8.87186    0.6796102  0.7510884  57.932     0.2530161  0.2076691  0.2983631 
1022.8     0.231      151.311    -9999      -9999      2.633327   10.985     3.903      1.967      2.511      0.9723608  5.143      0.2194487  0.2194487  0.3138023  32.49978   9.544453   7.005934   0.6639253  0.7416946  58.82      0.2859201  0.2582553  0.313585  
1023       0.238      166.26     -9999      -9999      2.801835   8.255001   3.807      1.839      1.661      0.9308675  3.226      0.222308   0.222308   0.3280677  36.71482   6.154117   4.639079   0.5967695  0.6924195  59.834     0.3204841  0.3089381  0.3320301 
1023.2     0.245      180.586    -9999      -9999      2.915265   5.677001   3.391      1.608      1.738      0.9122295  2.845      0.2193604  0.2193604  0.3344755  32.37757   4.580103   3.79044    0.5514856  0.6617633  60.721     0.3488337  0.3485433  0.349124  
1023.4     0.248      195.535    -9999      -9999      2.974712   4.699      3.283      1.351      1.732      0.9070911  2.667      0.2154783  0.2154783  0.3362421  27.43711   3.923197   3.402724   0.5207949  0.6415406  61.292     0.365951   0.3712882  0.3606138 
1023.6     0.251      212.352    -9999      -9999      2.99461    4          3.407      1.222      1.744      0.9097057  2.553      0.2113128  0.2113128  0.3353432  22.97122   3.725073   3.11674    0.492079   0.6218858  61.862     0.3758496  0.3792283  0.3724709 
1023.8     0.255      220.45     -9999      -9999      2.99123    3.734      3.503      1.133      1.853      0.9154295  2.54       0.2068559  0.2068559  0.3333753  18.99466   3.758008   3.023385   0.4751236  0.6114171  62.623     0.3833922  0.3778677  0.3889166 
1024       0.26       227.301    -9999      -9999      2.974222   3.899      3.486      1.235      2.013      0.9201702  2.603      0.2027856  0.2027856  0.3317455  15.9676    3.928204   3.121838   0.4739302  0.6133958  63.574     0.3907875  0.3710949  0.4104802 
1024.2     0.268      234.153    -9999      -9999      2.947847   4.229      3.407      1.293      2          0.9217122  2.807      0.1996895  0.1996895  0.3312154  13.99242   4.207504   3.374304   0.4859397  0.6254815  64.651     0.3985631  0.3608313  0.4362949 
1024.4     0.278      232.907    -9999      -9999      2.919988   4.661      3.375      1.113      1.891      0.9204565  2.896      0.198969   0.198969   0.3316471  13.56897   4.524116   3.572385   0.4979397  0.6357709  65.348     0.4020547  0.3502981  0.4538113 
1024.6     0.276      224.187    -9999      -9999      2.907016   4.851      3.585      1.261      1.923      0.9183283  2.845      0.2036387  0.2036387  0.3323787  16.55929   4.679563   3.586563   0.5088957  0.6403294  64.588     0.3901212  0.3454992  0.4347432 
1024.8     0.266      214.221    -9999      -9999      2.926738   4.661      3.969      1.152      1.911      0.9167783  2.769      0.2076965  0.2076965  0.3329116  19.68796   4.445277   3.474107   0.509992   0.6377897  63.383     0.3794398  0.3528218  0.4060578 
1025       0.263      209.238    -9999      -9999      2.98435    4.458      4.274      1.113      1.885      0.9154004  2.819      0.2070905  0.2070905  0.3333853  19.18563   3.825948   3.453924   0.5073983  0.636614   62.686     0.3827117  0.3751132  0.3903102 
1025.2     0.267      208.615    -9999      -9999      3.06493    4.445      4.414      1.081      1.751      0.9125408  2.934      0.2036848  0.2036848  0.3343685  16.59186   3.101716   3.534796   0.505631   0.6390306  62.369     0.3960111  0.4086736  0.3833485 
1025.4     0.279      214.844    -9999      -9999      3.142809   4.469999   4.005      1.068      1.61       0.9070572  2.819      0.1991236  0.1991236  0.3362537  13.65871   2.53233    3.457519   0.4905252  0.6329395  62.542     0.415546   0.4439595  0.3871324 
1025.6     0.301      227.924    -9999      -9999      3.20054    4.331      3.634      1.017      1.527      0.8991355  2.603      0.1938236  0.1938236  0.3389772  10.89536   2.178843   3.251685   0.4631716  0.6192773  63.452     0.4398594  0.4720687  0.40765   
1025.8     0.314      236.644    -9999      -9999      3.239526   4.152999   3.298      1.017      1.527      0.8901514  2.362      0.1904202  0.1904202  0.3420659  9.423297   1.968486   3.011323   0.4348201  0.6037794  64.271     0.4595324  0.492051   0.4270138 
1026       0.322      245.365    -9999      -9999      3.272633   3.962      2.979      1.017      1.546      0.8825999  2.261      0.1856859  0.1856859  0.3446622  7.700353   1.805876   2.879024   0.4099807  0.5926327  65.348     0.4817464  0.5096828  0.45381   
1026.2     0.329      254.085    -9999      -9999      3.308398   3.784      2.884      1.017      1.604      0.8793138  2.197      0.1777363  0.1777363  0.3457919  5.486123   1.64527    2.779953   0.3769065  0.5791664  66.679     0.5092595  0.5294406  0.4890783 
1026.4     0.35       260.936    -9999      -9999      3.343289   3.607      2.858      1.036      1.681      0.8811845  2.172      0.1684799  0.1684799  0.3451488  3.696699   1.502364   2.711335   0.3394933  0.5645217  67.82      0.5353603  0.5494535  0.5212672 
1026.6     0.364      269.034    -9999      -9999      3.366266   3.556      2.951      1.056      1.649      0.885469   2.197      0.1601032  0.1601032  0.3436758  2.586178   1.415103   2.715985   0.3100497  0.5552009  68.771     0.5562804  0.563044   0.5495167 
1026.8     0.332      275.262    -9999      -9999      3.370558   3.619      2.951      1.056      1.617      0.8873336  2.299      0.1564632  0.1564632  0.3430347  2.2143     1.399373   2.811788   0.3074488  0.5585244  69.278     0.5653681  0.5656197  0.5651165 
