~Version
 VERS              .         2.0                           : CWLS LOG ASCII STANDARD - VERSION 2.0
 WRAP              .         NO                            : ONE LINE PER DEPTH STEP
 DLM               .         SPACE                         : DELIMITING CHARACTER(SPACE TAB OR COMMA)
~Well Information
#_______________________________________________________________________________
#
#PARAMETER_NAME    .UNIT     VALUE                         : DESCRIPTION
#_______________________________________________________________________________
STRT               .M        940.2                         : First reference value
STOP               .M        1398.6                        : Last reference value
STEP               .M        0.2                           : Step increment
NULL               .         -9999                         : Missing value
COMP               .                                       : Company
WELL               .         8708                          : Well name
FLD                .         УЗЕНЬ                         : Field
LOC                .                                       : Location
CNTY               .                                       : County
STAT               .                                       : State
CTRY               .                                       : Country
SRVC               .                                       : Service Company
DATE               .                                       : Date
UWI                .                                       : Unique Well ID
Block              .         4                             : 
Category           .         Нефтяная                      : 
Condition          .         В работе                      : 
Date               .         30.03.1997                    : 
EREF               .m        228.6                         : 100.8
Gorizont           .         15                            : 14
Interpretator      .         Алпанова Н.К.                 : 
Kupol              .         основной                      : osnovnoi
Moii_15            .         15_gor                        : 
Mud                .                                       : 
Mud_density        .                                       : 
Mud_resistivity    .                                       : 
NGDU               .         НГДУ-1                        : 
ORIGINALWELLNAME   .         8708                          : 
Spud_date          .         1996                          : 1961
Viscosity          .                                       : 
X                  .m        54224.2                       : 46154
Y                  .m        81794.5                       : 85761.93
YEAR               .         2018                          : 
~Parameter Information Block
#_______________________________________________________________________________
#
#PARAMETER_NAME    .UNIT     VALUE                         : DESCRIPTION
#_______________________________________________________________________________
SET                .         LQC_KAZNIPI_Petrel            : 
TLFamily_CALI      .         Caliper                       : 
TLFamily_CILD      .         Conductivity                  : 
TLFamily_COLL      .         Net Reservoir Flag            : 
TLFamily_CSAT      .         Fluid Code                    : 
TLFamily_DEPT      .         Measured Depth                : 
TLFamily_GR        .         Russian Gamma Ray             : 
TLFamily_GZ3       .         Gradient 225                  : 
TLFamily_LLS       .         Lateral Log Resistivity       : 
TLFamily_MINV      .         Micro Gradient Resistivity    : 
TLFamily_MNOR      .         Micro Resistivity             : 
TLFamily_NGLD      .         Neutron Far                   : 
TLFamily_OGZ       .         Gradient Inverted 225         : 
TLFamily_PHIE      .         Effective Porosity            : 
TLFamily_PHIEN     .         Effective Porosity            : 
TLFamily_PHIT      .         Porosity                      : 
TLFamily_PRMB      .         Permeability                  : 
TLFamily_PRMB_DGR  .         Permeability                  : 
TLFamily_RT        .         Formation Resistivity         : 
TLFamily_SOIL_ARCHIE .         Oil Saturation                : 
TLFamily_SOIL_DW   .         Oil Saturation                : 
TLFamily_SP        .         Spontaneous Potential         : 
TLFamily_VSH_FIN   .         Shale Volume                  : 
TLFamily_VSH_GR    .         Shale Volume                  : 
TLFamily_VSH_SP    .         Shale Volume                  : 
~Curve Information
#_______________________________________________________________________________
#
#LOGNAME           .UNIT     LOG_ID                        : DESCRIPTION
#_______________________________________________________________________________
DEPT               .M                                      : Колонка глубины 
CALI               .м                                      : Каверномер 
CILD               .мСм/м                                  : Индукционный каротаж 
COLL               .unitless                               : Описание 
CSAT               .unitless                               : Описание 
GR                 .мкР/ч                                  : Гамма каротаж 
GZ3                .Ом·м                                   :  
LLS                .Ом·м                                   : Боковой каротаж 
MINV               .Ом·м                                   : Микро-градиент зонд 
MNOR               .Ом·м                                   : Микро-потенциал зонд 
NGLD               .у.е.                                   : Показания зонда НГК-60 аппаратуры ДРСТ-3-90 
OGZ                .Ом·м                                   :  
PHIE               .v/v                                    : Описание 
PHIEN              .v/v                                    :  
PHIT               .v/v                                    : Описание 
PRMB               .mD                                     :  
PRMB_DGR           .mD                                     :  
RT                 .ohmm                                   : УЭС пласта 
SOIL_ARCHIE        .v/v                                    :  
SOIL_DW            .v/v                                    :  
SP                 .мВ                                     : Потенциал самополяризации 
VSH_FIN            .v/v                                    : Описание 
VSH_GR             .v/v                                    : Shale volume 
VSH_SP             .v/v                                    : Shale Volume 
~Ascii
# ...
1237.8     0.21       144.771    -9999      -9999      4.346541   13.716     8.092      2.095      3.316      1.127347   3.657      0.1850759  0.1850759  0.2605182  7.502619   11.80029   5.77441    0.579093   0.6642968  49.883     0.2286131  0.2368234  0.2204028 
1238       0.21       153.18     8          2          4.408896   12.446     8.593      2.192      3.457      1.139301   3.429      0.1798484  0.1798484  0.2564082  6.003263   10.34746   5.376672   0.5537605  0.6446515  49.249     0.2319992  0.2498755  0.214123  
1238.2     0.21       165.014    8          2          4.4767     11.43      8.633      2.41       3.604      1.145424   3.353      0.1767871  0.1767871  0.2543031  5.26847    8.969946   5.184981   0.5392552  0.633797   48.298     0.2348968  0.2648855  0.204908  
1238.4     0.211      178.717    8          2          4.551404   10.731     8.017      2.506      3.655      1.141001   3.315      0.176723   0.176723   0.2558239  5.254088   7.663582   5.065252   0.5340291  0.6307328  47.411     0.2396995  0.2824692  0.1969297 
1238.6     0.211      194.912    8          2          4.624311   10.16      6.273      2.474      3.77       1.126724   3.302      0.1794753  0.1794753  0.2607322  5.908482   6.572291   4.984151   0.5367634  0.6342124  46.777     0.2462329  0.3007552  0.1917107 
1238.8     0.211      224.187    8          2          4.685072   9.968999   5.213      2.481      3.783      1.108293   3.238      0.1831505  0.1831505  0.267069   6.911139   5.782518   4.888259   0.5407019  0.6388485  46.714     0.2542984  0.3168957  0.1917011 
1239       0.211      256.576    8          2          4.734345   9.652      4.156      2.327      3.629      1.091367   3.137      0.1854552  0.1854552  0.2728882  7.624969   5.212305   4.735057   0.5388374  0.6395352  47.474     0.2649483  0.3306184  0.1992783 
1239.2     0.212      291.768    8          2          4.787952   9.270999   3.391      2.384      3.597      1.077706   2.946      0.1846902  0.1846902  0.2775847  7.380216   4.655606   4.471207   0.5245528  0.6321363  49.122     0.2814985  0.346224   0.216773  
1239.4     0.213      314.503    8          2          4.861377   8.826      3.091      2.41       3.559      1.065566   2.743      0.1811826  0.1811826  0.2817585  6.35477    3.988302   4.185274   0.5013184  0.6201485  51.087     0.3047754  0.3688012  0.2407496 
1239.6     0.215      326.338    8          2          4.950019   8.255001   3.36       2.384      3.451      1.052769   2.54       0.1766338  0.1766338  0.2861579  5.234142   3.308841   3.884706   0.472006   0.6052813  52.862     0.331891   0.3980276  0.2657543 
1239.8     0.216      336.304    -9999      -9999      5.032086   7.429      3.486      2.269      3.31       1.040016   2.311      0.1711932  0.1711932  0.2905425  4.150231   2.783424   3.525343   0.4321344  0.5841882  54.763     0.3616644  0.4271472  0.2961815 
1240       0.218      343.778    -9999      -9999      5.090286   6.731      3.193      2.16       3.157      1.031155   2.121      0.1651176  0.1651176  0.293589   3.202853   2.462199   3.225588   0.3890248  0.561736   56.601     0.3893073  0.4490802  0.3295345 
1240.2     0.22       351.876    -9999      -9999      5.122744   5.88       2.951      2.134      3.144      1.02905    2.057      0.1605354  0.1605354  0.2943125  2.634287   2.299443   3.047791   0.3569809  0.5447575  57.552     0.4053851  0.4617974  0.3489728 
1240.4     0.222      356.859    -9999      -9999      5.134708   4.927      2.911      2.173      3.189      1.032033   2.146      0.1574711  0.1574711  0.2932871  2.311562   2.2422     2.989776   0.3401725  0.5358769  57.869     0.4115634  0.4665757  0.3565511 
1240.6     0.223      359.973    -9999      -9999      5.129257   4.343      2.703      2.205      3.246      1.03553    2.362      0.157263   0.157263   0.2920847  2.291134   2.268101   3.059856   0.3465554  0.5398388  57.616     0.4085505  0.4643926  0.3527083 
1240.8     0.221      361.218    -9999      -9999      5.111136   4.064      2.464      2.333      3.297      1.036302   2.438      0.1586073  0.1586073  0.2918193  2.426327   2.356372   3.047688   0.3501676  0.5402119  57.425     0.4036728  0.4572087  0.350137  
1241       0.222      348.138    -9999      -9999      5.092728   3.861      2.278      2.166      2.978      1.033975   2.375      0.159338   0.159338   0.2926194  2.503139   2.449563   2.940948   0.3418449  0.5335645  57.742     0.4038831  0.4500246  0.3577415 
1241.2     0.225      331.944    -9999      -9999      5.088732   3.632      2.353      2.211      2.805      1.029772   2.337      0.1591012  0.1591012  0.2940645  2.47798    2.470274   2.844022   0.3305459  0.5268184  58.249     0.4089799  0.4484802  0.3694796 
1241.4     0.227      316.372    -9999      -9999      5.105044   3.454      2.741      2.198      2.741      1.025236   2.337      0.1573841  0.1573841  0.2956238  2.302999   2.386814   2.787773   0.3178243  0.5215611  58.82      0.4189082  0.4548186  0.3829978 
1241.6     0.224      311.389    -9999      -9999      5.136914   3.264      3.47       2.018      2.613      1.021455   2.337      0.1542898  0.1542898  0.2969238  2.018273   2.231804   2.723788   0.29832    0.5134947  59.39      0.4322241  0.4674619  0.3969864 
1241.8     0.227      308.898    -9999      -9999      5.176951   3.035      4.455      2.211      2.466      1.018488   2.349      0.1506953  0.1506953  0.297944   1.731413   2.051254   2.648297   0.2742557  0.5030995  59.897     0.4462081  0.4838449  0.4085713 
1242       0.231      307.029    -9999      -9999      5.21775    2.807      4.776      2.461      2.466      1.01602    2.375      0.1469733  0.1469733  0.2987923  1.477274   1.882291   2.572993   0.2481657  0.491862   60.341     0.4600575  0.5011299  0.418985  
1242.2     0.232      302.357    -9999      -9999      5.246059   2.616      4.731      2.307      2.786      1.014637   2.527      0.144911   0.144911   0.2992678  1.352888   1.7733     2.57073    0.2385408  0.4893627  60.468     0.4677478  0.5134854  0.4220102 
1242.4     0.228      298.309    -9999      -9999      5.245387   2.502      4.517      2.006      3.105      1.015838   2.781      0.1460305  0.1460305  0.2988549  1.419046   1.775812   2.634133   0.2522257  0.4966104  60.088     0.4631043  0.5131887  0.41302   
1242.6     0.223      300.177    -9999      -9999      5.210943   2.553      4.623      2.16       3.425      1.020687   3.073      0.1511082  0.1511082  0.2971879  1.762171   1.909481   2.788969   0.2933552  0.5155557  58.947     0.4426658  0.4982038  0.3871279 
1242.8     0.216      302.046    -9999      -9999      5.1572     2.769      4.623      2.224      3.495      1.0288     3.238      0.1599921  0.1599921  0.2943987  2.573954   2.138419   2.985191   0.3487683  0.539475   56.601     0.4072927  0.4756924  0.3388929 
1243       0.214      300.819    8          2          5.10475    2.959      4.455      2.16       3.355      1.038137   3.2        0.1662795  0.1662795  0.2911886  3.365563   2.388296   3.074785   0.3789462  0.55015    54.573     0.3785125  0.4547033  0.3023218 
1243.2     0.215      299.554    8          2          5.062768   3.035      4.274      2.147      3.252      1.045491   2.94       0.1701331  0.1701331  0.28866    3.966754   2.609179   2.986745   0.38286    0.5453563  53.179     0.3591726  0.4385728  0.2797724 
1243.4     0.217      293.949    8          2          5.026199   2.997      4.234      2.018      3.093      1.04833    2.794      0.1715614  0.1715614  0.2876843  4.215914   2.818167   2.891942   0.3779933  0.5385787  53.115     0.3518875  0.424989   0.2787859 
1243.6     0.218      291.457    8          2          4.986812   2.921      4.175      2.108      3.125      1.047001   2.705      0.1735415  0.1735415  0.2881411  4.58742    3.062018   2.808853   0.3756969  0.5344025  53.432     0.3472714  0.4108288  0.2837138 
1243.8     0.215      294.572    8          2          4.945451   2.87       3.789      2.095      3.137      1.04467    2.692      0.1748641  0.1748641  0.2889423  4.85361    3.340842   2.778152   0.3766044  0.5340402  54.129     0.3456917  0.3964663  0.294917  
