~Version
 VERS              .         2.0                           : CWLS LOG ASCII STANDARD - VERSION 2.0
 WRAP              .         NO                            : ONE LINE PER DEPTH STEP
 DLM               .         SPACE                         : DELIMITING CHARACTER(SPACE TAB OR COMMA)
~Well Information
#_______________________________________________________________________________
#
#PARAMETER_NAME    .UNIT     VALUE                         : DESCRIPTION
#_______________________________________________________________________________
STRT               .M        940.2                         : First reference value
STOP               .M        1398.6                        : Last reference value
STEP               .M        0.2                           : Step increment
NULL               .         -9999                         : Missing value
COMP               .                                       : Company
WELL               .         8708                          : Well name
FLD                .         УЗЕНЬ                         : Field
LOC                .                                       : Location
CNTY               .                                       : County
STAT               .                                       : State
CTRY               .                                       : Country
SRVC               .                                       : Service Company
DATE               .                                       : Date
UWI                .                                       : Unique Well ID
Block              .         4                             : 
Category           .         Нефтяная                      : 
Condition          .         В работе                      : 
Date               .         30.03.1997                    : 
EREF               .m        228.6                         : 100.8
Gorizont           .         15                            : 14
Interpretator      .         Алпанова Н.К.                 : 
Kupol              .         основной                      : osnovnoi
Moii_15            .         15_gor                        : 
Mud                .                                       : 
Mud_density        .                                       : 
Mud_resistivity    .                                       : 
NGDU               .         НГДУ-1                        : 
ORIGINALWELLNAME   .         8708                          : 
Spud_date          .         1996                          : 1961
Viscosity          .                                       : 
X                  .m        54224.2                       : 46154
Y                  .m        81794.5                       : 85761.93
YEAR               .         2018                          : 
~Parameter Information Block
#_______________________________________________________________________________
#
#PARAMETER_NAME    .UNIT     VALUE                         : DESCRIPTION
#_______________________________________________________________________________
SET                .         LQC_KAZNIPI_Petrel            : 
TLFamily_CALI      .         Caliper                       : 
TLFamily_CILD      .         Conductivity                  : 
TLFamily_COLL      .         Net Reservoir Flag            : 
TLFamily_CSAT      .         Fluid Code                    : 
TLFamily_DEPT      .         Measured Depth                : 
TLFamily_GR        .         Russian Gamma Ray             : 
TLFamily_GZ3       .         Gradient 225                  : 
TLFamily_LLS       .         Lateral Log Resistivity       : 
TLFamily_MINV      .         Micro Gradient Resistivity    : 
TLFamily_MNOR      .         Micro Resistivity             : 
TLFamily_NGLD      .         Neutron Far                   : 
TLFamily_OGZ       .         Gradient Inverted 225         : 
TLFamily_PHIE      .         Effective Porosity            : 
TLFamily_PHIEN     .         Effective Porosity            : 
TLFamily_PHIT      .         Porosity                      : 
TLFamily_PRMB      .         Permeability                  : 
TLFamily_PRMB_DGR  .         Permeability                  : 
TLFamily_RT        .         Formation Resistivity         : 
TLFamily_SOIL_ARCHIE .         Oil Saturation                : 
TLFamily_SOIL_DW   .         Oil Saturation                : 
TLFamily_SP        .         Spontaneous Potential         : 
TLFamily_VSH_FIN   .         Shale Volume                  : 
TLFamily_VSH_GR    .         Shale Volume                  : 
TLFamily_VSH_SP    .         Shale Volume                  : 
~Curve Information
#_______________________________________________________________________________
#
#LOGNAME           .UNIT     LOG_ID                        : DESCRIPTION
#_______________________________________________________________________________
DEPT               .M                                      : Колонка глубины 
CALI               .м                                      : Каверномер 
CILD               .мСм/м                                  : Индукционный каротаж 
COLL               .unitless                               : Описание 
CSAT               .unitless                               : Описание 
GR                 .мкР/ч                                  : Гамма каротаж 
GZ3                .Ом·м                                   :  
LLS                .Ом·м                                   : Боковой каротаж 
MINV               .Ом·м                                   : Микро-градиент зонд 
MNOR               .Ом·м                                   : Микро-потенциал зонд 
NGLD               .у.е.                                   : Показания зонда НГК-60 аппаратуры ДРСТ-3-90 
OGZ                .Ом·м                                   :  
PHIE               .v/v                                    : Описание 
PHIEN              .v/v                                    :  
PHIT               .v/v                                    : Описание 
PRMB               .mD                                     :  
PRMB_DGR           .mD                                     :  
RT                 .ohmm                                   : УЭС пласта 
SOIL_ARCHIE        .v/v                                    :  
SOIL_DW            .v/v                                    :  
SP                 .мВ                                     : Потенциал самополяризации 
VSH_FIN            .v/v                                    : Описание 
VSH_GR             .v/v                                    : Shale volume 
VSH_SP             .v/v                                    : Shale Volume 
~Ascii
# ...
1219.2     0.217      286.474    1          2          4.649555   2.172      4.175      2.262      3.463      1.051936   4.332      0.1855643  0.1855643  0.2864443  7.660523   6.231855   2.893328   0.4192089  0.5519753  61.609     0.305697   0.3073586  0.3040353 
1219.4     0.214      264.051    1          2          4.46319    2.324      5.025      2.378      3.342      1.054762   4.833      0.1965027  0.1965027  0.2854729  12.21422   9.228943   3.138715   0.4681793  0.5790011  59.897     0.2696066  0.2618245  0.2773886 
1219.6     0.216      239.136    1          2          4.30105    2.464      5.585      2.423      3.342      1.060375   5.651      0.2042753  0.2042753  0.2835431  17.01504   12.98733   3.431685   0.5069336  0.6022173  58.123     0.2402053  0.2277335  0.2526771 
1219.8     0.215      216.09     1          2          4.167379   2.603      6.13       2.673      3.923      1.066146   6.34       0.2092256  0.2092256  0.2815589  21.01472   17.2122    3.690712   0.5333207  0.6186844  56.728     0.2191919  0.202993   0.2353908 
1220       0.213      194.912    1          2          4.079268   2.794      7.174      2.84       4.307      1.06906    6.98       0.2124221  0.2124221  0.2805572  24.08415   20.72351   3.990612   0.5560219  0.6348581  55.777     0.2064697  0.1881734  0.2247661 
1220.2     0.211      182.455    1          2          4.047985   3.061      8.129      2.853      4.377      1.066913   7.62       0.2142278  0.2142278  0.2812953  26.01214   22.13546   4.367535   0.5775588  0.6527372  55.587     0.2032349  0.1831765  0.2232932 
1220.4     0.212      177.472    1          2          4.062817   3.365      8.513      2.949      4.428      1.059378   7.62       0.2145709  0.2145709  0.283886   26.39565   21.45442   4.66842    0.5911317  0.6661211  56.475     0.2100457  0.1855288  0.2345625 
1220.6     0.211      184.946    1          2          4.096158   3.53       7.445      2.75       4.377      1.048068   7.429      0.2138773  0.2138773  0.2877742  25.62624   19.99898   4.785905   0.5947316  0.6723977  58.123     0.2239301  0.1909278  0.2569323 
1220.8     0.212      193.043    1          2          4.123666   3.429      5.166      2.667      4          1.035386   7.239      0.2106244  0.2106244  0.2921342  22.30655   18.87278   4.653643   0.5838486  0.6685617  60.785     0.2469996  0.1955005  0.2984987 
1221       0.216      188.06     -9999      -9999      4.13794    3.213      3.719      2.692      3.22       1.023317   7.112      0.2060022  0.2060022  0.2962835  18.31549   18.31364   4.426316   0.5656385  0.6598337  63.51      0.2735799  0.1979161  0.3492436 
1221.2     0.221      165.014    -9999      -9999      4.143944   2.984      3.36       2.538      2.505      1.013378   7.239      0.2015241  0.2015241  0.2997006  15.1312    18.08341   4.225996   0.5475163  0.6510549  65.665     0.2975044  0.1989412  0.3960676 
1221.4     0.223      133.871    -9999      -9999      4.146141   2.781      3.987      2.571      2.824      1.00697    7.81       0.1998011  0.1998011  0.3019037  14.05917   17.9999    4.101522   0.537679   0.6460801  66.616     0.3094017  0.1993175  0.4194859 
1221.6     0.222      113.939    -9999      -9999      4.143636   2.807      5.238      2.847      3.572      1.005234   8.762999   0.2095313  0.2095313  0.3025004  21.29054   18.09515   4.251986   0.5638708  0.6595317  64.081     0.2817244  0.1988885  0.3645603 
1221.8     0.219      101.481    1          2          4.135172   3.073      7.174      3.039      4.173      1.008852   10.033     0.220139   0.220139   0.3012567  33.47078   18.42075   4.70493    0.6016127  0.6821384  60.214     0.2458114  0.1974454  0.2941773 
1222       0.214      90.27      1          2          4.122232   3.594      10.93      2.981      4.345      1.017749   10.731     0.2210493  0.2210493  0.298198   34.7959    18.92991   5.384603   0.6273978  0.7016191  58.756     0.2337837  0.1952594  0.272308  
1222.2     0.213      82.795     1          2          4.104966   4.204      14.162     2.911      4.422      1.030481   10.731     0.2197108  0.2197108  0.2938207  32.86509   19.63123   6.041262   0.6451115  0.7151454  57.616     0.2245755  0.1923803  0.2567706 
1222.4     0.213      75.321     1          2          4.081031   4.927      15.899     2.808      4.058      1.043884   10.223     0.2170343  0.2170343  0.2892128  29.31973   20.64666   6.649336   0.6570878  0.7245662  56.982     0.2187227  0.1884591  0.2489862 
1222.6     0.214      68.469     1          2          4.051664   5.575      17.52      2.282      3.757      1.053824   9.207      0.2149487  0.2149487  0.2857952  26.82437   21.96454   6.944801   0.6611754  0.727521   56.665     0.2146865  0.1837571  0.2456159 
1222.8     0.214      65.355     1          2          4.025091   6.02       17.36      2.243      3.981      1.057127   8.191      0.2146388  0.2146388  0.2846597  26.47214   23.22938   6.93967    0.6606317  0.726624   56.538     0.2121847  0.1796037  0.2447657 
1223       0.215      67.846     1          2          4.009304   6.917      16.271     2.416      3.994      1.053403   7.302      0.2163211  0.2163211  0.28594    28.44136   24.01509   7.104288   0.6666195  0.7313937  56.475     0.2109661  0.1771807  0.2447516 
1223.2     0.214      74.075     1          2          4.003623   7.493      14.561     2.327      3.981      1.044853   6.636      0.2199466  0.2199466  0.2888795  33.19731   24.30426   7.038509   0.6699733  0.7336031  56.158     0.2088875  0.1763169  0.2414581 
1223.4     0.214      82.795     1          2          4.00094    8.064      11.824     2.436      4.077      1.034259   5.969      0.2240585  0.2240585  0.2925216  39.56076   24.44202   6.860118   0.6713187  0.7341913  55.904     0.207464   0.1759104  0.2390177 
1223.6     0.212      92.138     1          2          3.997777   8.445      8.554      2.359      3.22       1.024104   5.486      0.2266919  0.2266919  0.2960132  44.26318   24.60546   6.651248   0.6698916  0.7332138  56.285     0.2100644  0.1754323  0.2446964 
1223.8     0.214      98.99      1          2          3.999401   8.445      6.216      1.948      2.741      1.017144   5.08       0.2291838  0.2291838  0.2984059  49.22632   24.52144   6.343896   0.6656791  0.729346   56.158     0.2097641  0.1756775  0.2438506 
1224       0.218      103.973    1          2          4.0139     8.128      6.42       1.723      3.265      1.015147   4.914999   0.2308343  0.2308343  0.2990924  52.81648   23.78363   6.125756   0.6622617  0.7257645  55.461     0.2068428  0.1778828  0.2358029 
1224.2     0.22       115.184    1          2          4.043403   7.874      7.296      2.25       3.859      1.016205   5.207      0.2314734  0.2314734  0.2987286  54.27587   22.35021   6.268621   0.6666994  0.7290319  54.51      0.2038036  0.1824557  0.2251515 
1224.4     0.214      127.019    1          2          4.083508   8.255001   7.343      2.66       4.064      1.015899   5.435      0.2327234  0.2327234  0.2988338  57.24804   20.53918   6.554555   0.6751307  0.7356624  53.242     0.2003344  0.1888612  0.2118076 
1224.6     0.214      138.231    1          2          4.129217   8.826      5.826      2.686      3.77       1.012267   5.702      0.2312424  0.2312424  0.3000825  53.7437    18.65335   6.928119   0.6817067  0.7428173  54.003     0.2086066  0.1964363  0.2207768 
1224.8     0.215      148.82     1          2          4.17781    9.270999   5.025      2.526      3.815      1.008085   5.854      0.2283064  0.2283064  0.3015202  47.41835   16.83804   7.17652    0.6834214  0.7466508  55.461     0.2218601  0.2048229  0.2388972 
1225       0.215      148.82     -9999      -9999      4.22596    9.08       4.864      2.587      2.987      1.007528   5.854      0.2228355  0.2228355  0.3017117  37.55011   15.21356   7.118565   0.6754299  0.7431204  57.299     0.239019   0.2134862  0.2645519 
1225.2     0.216      145.082    -9999      -9999      4.268754   8.191      5.262      1.749      3.029      1.011971   5.689      0.2179758  0.2179758  0.3001845  30.52093   13.90186   6.714496   0.6599379  0.732269   58.059     0.2491175  0.2214927  0.2767423 
