~Version
 VERS              .         2.0                           : CWLS LOG ASCII STANDARD - VERSION 2.0
 WRAP              .         NO                            : ONE LINE PER DEPTH STEP
 DLM               .         SPACE                         : DELIMITING CHARACTER(SPACE TAB OR COMMA)
~Well Information
#_______________________________________________________________________________
#
#PARAMETER_NAME    .UNIT     VALUE                         : DESCRIPTION
#_______________________________________________________________________________
STRT               .M        940.2                         : First reference value
STOP               .M        1398.6                        : Last reference value
STEP               .M        0.2                           : Step increment
NULL               .         -9999                         : Missing value
COMP               .                                       : Company
WELL               .         8708                          : Well name
FLD                .         УЗЕНЬ                         : Field
LOC                .                                       : Location
CNTY               .                                       : County
STAT               .                                       : State
CTRY               .                                       : Country
SRVC               .                                       : Service Company
DATE               .                                       : Date
UWI                .                                       : Unique Well ID
Block              .         4                             : 
Category           .         Нефтяная                      : 
Condition          .         В работе                      : 
Date               .         30.03.1997                    : 
EREF               .m        228.6                         : 100.8
Gorizont           .         15                            : 14
Interpretator      .         Алпанова Н.К.                 : 
Kupol              .         основной                      : osnovnoi
Moii_15            .         15_gor                        : 
Mud                .                                       : 
Mud_density        .                                       : 
Mud_resistivity    .                                       : 
NGDU               .         НГДУ-1                        : 
ORIGINALWELLNAME   .         8708                          : 
Spud_date          .         1996                          : 1961
Viscosity          .                                       : 
X                  .m        54224.2                       : 46154
Y                  .m        81794.5                       : 85761.93
YEAR               .         2018                          : 
~Parameter Information Block
#_______________________________________________________________________________
#
#PARAMETER_NAME    .UNIT     VALUE                         : DESCRIPTION
#_______________________________________________________________________________
SET                .         LQC_KAZNIPI_Petrel            : 
TLFamily_CALI      .         Caliper                       : 
TLFamily_CILD      .         Conductivity                  : 
TLFamily_COLL      .         Net Reservoir Flag            : 
TLFamily_CSAT      .         Fluid Code                    : 
TLFamily_DEPT      .         Measured Depth                : 
TLFamily_GR        .         Russian Gamma Ray             : 
TLFamily_GZ3       .         Gradient 225                  : 
TLFamily_LLS       .         Lateral Log Resistivity       : 
TLFamily_MINV      .         Micro Gradient Resistivity    : 
TLFamily_MNOR      .         Micro Resistivity             : 
TLFamily_NGLD      .         Neutron Far                   : 
TLFamily_OGZ       .         Gradient Inverted 225         : 
TLFamily_PHIE      .         Effective Porosity            : 
TLFamily_PHIEN     .         Effective Porosity            : 
TLFamily_PHIT      .         Porosity                      : 
TLFamily_PRMB      .         Permeability                  : 
TLFamily_PRMB_DGR  .         Permeability                  : 
TLFamily_RT        .         Formation Resistivity         : 
TLFamily_SOIL_ARCHIE .         Oil Saturation                : 
TLFamily_SOIL_DW   .         Oil Saturation                : 
TLFamily_SP        .         Spontaneous Potential         : 
TLFamily_VSH_FIN   .         Shale Volume                  : 
TLFamily_VSH_GR    .         Shale Volume                  : 
TLFamily_VSH_SP    .         Shale Volume                  : 
~Curve Information
#_______________________________________________________________________________
#
#LOGNAME           .UNIT     LOG_ID                        : DESCRIPTION
#_______________________________________________________________________________
DEPT               .M                                      : Колонка глубины 
CALI               .м                                      : Каверномер 
CILD               .мСм/м                                  : Индукционный каротаж 
COLL               .unitless                               : Описание 
CSAT               .unitless                               : Описание 
GR                 .мкР/ч                                  : Гамма каротаж 
GZ3                .Ом·м                                   :  
LLS                .Ом·м                                   : Боковой каротаж 
MINV               .Ом·м                                   : Микро-градиент зонд 
MNOR               .Ом·м                                   : Микро-потенциал зонд 
NGLD               .у.е.                                   : Показания зонда НГК-60 аппаратуры ДРСТ-3-90 
OGZ                .Ом·м                                   :  
PHIE               .v/v                                    : Описание 
PHIEN              .v/v                                    :  
PHIT               .v/v                                    : Описание 
PRMB               .mD                                     :  
PRMB_DGR           .mD                                     :  
RT                 .ohmm                                   : УЭС пласта 
SOIL_ARCHIE        .v/v                                    :  
SOIL_DW            .v/v                                    :  
SP                 .мВ                                     : Потенциал самополяризации 
VSH_FIN            .v/v                                    : Описание 
VSH_GR             .v/v                                    : Shale volume 
VSH_SP             .v/v                                    : Shale Volume 
~Ascii
# ...
1138.6     0.241      156.942    -9999      -9999      4.411509   3.594      6.756      1.922      3.744      1.008      2.959      0.1368494  0.1368494  0.3015498  0.9592704  2.391206   3.245734   0.2724459  0.5316791  72.891     0.499092   0.4544773  0.5437067 
1138.8     0.255      145.705    -9999      -9999      4.42666    3.67       7.174      2.212      4.053      1.02239    3.48       0.1379549  0.1379549  0.2966022  1.005581   2.324469   3.572476   0.3093242  0.5503467  71.687     0.4807493  0.4597609  0.5017377 
1139       0.244      120.167    -9999      -9999      4.468687   4.331      11.237     2.474      4.332      1.053497   4.331      0.1281792  0.1281792  0.2859078  0.6627473  2.148934   4.331      0.3272785  0.5704406  71.18      0.4779655  0.4747405  0.4811905 
1139.2     0.223      116.43     -9999      -9999      4.530964   5.782      15.464     4.085      4.415      1.082676   5.918      0.1162332  0.1162332  0.275876   0.3981796  1.912897   5.849209   0.3637955  0.6079874  70.989     0.483766   0.4978403  0.4696916 
1139.4     0.219      143.214    -9999      -9999      4.601913   8.061      14.902     1.788      2.294      1.091491   6.914      0.1071761  0.1071761  0.2728454  0.2705953  1.675421   7.443573   0.3902417  0.6395342  71.56      0.5020279  0.5255291  0.4785267 
1139.6     0.224      203.632    -9999      -9999      4.674415   9.542      7.108      1.101      1.61       1.079388   7.369      0.1037749  0.1037749  0.2770064  0.234057   1.463179   8.315889   0.404651   0.6583211  72.384     0.5249438  0.5554152  0.4944725 
1139.8     0.237      240.07     -9999      -9999      4.741581   8.517      3.344      0.985      1.681      1.060507   6.002      0.1024415  0.1024415  0.2834977  0.2211171  1.290622   7.041674   0.3490318  0.6325162  73.271     0.5486552  0.5846166  0.5126939 
1140       0.253      267.165    -9999      -9999      4.791488   7.149      2.593      1.011      1.7        1.046998   3.518      0.09961698 0.09961698 0.288142   0.1960226  1.175722   4.715512   0.1948886  0.5512668  74.285     0.5712878  0.6073042  0.5352713 
1140.2     0.256      288.966    -9999      -9999      4.814904   4.559      2.557      1.043      1.738      1.04028    2.616      0.09561179 0.09561179 0.2904518  0.165242   1.125396   3.324416   0.01685284 0.4607514  75.109     0.5904244  0.6182505  0.5625982 
1140.4     0.256      313.881    -9999      -9999      4.815972   3.251      2.442      1.043      1.744      1.035681   2.045      0.093074   0.093074   0.292033   0.1482909  1.123153   2.510685   0          0.3759972  75.807     0.6029062  0.6187543  0.5870581 
1140.6     0.256      327.584    -9999      -9999      4.808035   2.578      2.487      1.011      1.636      1.030838   1.88       0.09221677 0.09221677 0.2936979  0.1429672  1.139931   2.174356   0          0.329889   76.314     0.6105487  0.6150193  0.6060782 
1140.8     0.255      336.927    -9999      -9999      4.800565   2.222      2.636      1.171      1.706      1.027872   1.791      0.09374753 0.09374753 0.2947176  0.1526124  1.155952   1.983355   0          0.3038634  76.25      0.6090003  0.6115243  0.6064762 
1141       0.255      333.19     -9999      -9999      4.794632   2.095      2.979      1.184      1.796      1.029477   1.892      0.09461344 0.09461344 0.2941658  0.1583538  1.168837   1.988332   0          0.3060478  75.997     0.604704   0.6087625  0.6006455 
1141.2     0.252      323.846    -9999      -9999      4.788805   2.172      3.859      3.745      3.495      1.034304   2.21       0.09671339 0.09671339 0.2925062  0.1731907  1.181632   2.190835   0          0.3413973  75.3       0.5933117  0.6060622  0.5805612 
1141.4     0.246      316.372    -9999      -9999      4.78443    2.451      4.886      2.622      3.054      1.036914   2.667      0.1019305  0.1019305  0.2916089  0.2163506  1.191329   2.554442   0          0.3998726  74.095     0.5747831  0.6040429  0.5455233 
1141.6     0.247      326.961    -9999      -9999      4.784068   3.073      3.208      1.527      1.943      1.031804   3.34       0.1049086  0.1049086  0.2933656  0.2456517  1.192136   3.200942   0.07693337 0.4713451  73.778     0.5710819  0.603876   0.5382879 
1141.8     0.239      340.041    -9999      -9999      4.788651   3.861      2.715      1.062      1.738      1.017917   4.369      0.1073796  0.1073796  0.2981402  0.2729541  1.181971   4.099322   0.1945993  0.5414869  74.095     0.5780623  0.6059912  0.5501334 
1142       0.229      345.024    -9999      -9999      4.797352   4.077      2.51       1.088      1.668      0.9999933  4.635      0.1112057  0.1112057  0.3043023  0.3213351  1.162912   4.33813    0.2392719  0.5655519  74.349     0.5851411  0.6100272  0.560255  
1142.2     0.236      344.401    -9999      -9999      4.809944   3.327      2.442      1.235      1.636      0.9851484  4.458      0.116882   0.116882   0.309406   0.4093517  1.135874   3.810344   0.2258296  0.5494326  73.968     0.583406   0.6159152  0.5508966 
1142.4     0.249      334.435    -9999      -9999      4.825109   2.654      2.419      1.171      1.617      0.9777228  4.318      0.1457444  0.1457444  0.3119589  1.401837   2.582418   3.287427   0.3153881  0.5550809  74.412     0.5036803  0.440423   0.5669377 
1142.6     0.256      323.224    -9999      -9999      4.834841   2.286      2.464      1.113      1.853      0.9781093  4.953      0.1391957  0.1391957  0.311826   1.060229   2.526546   3.128211   0.2706242  0.5358207  75.426     0.5231223  0.4443742  0.6018703 
1142.8     0.256      283.36     -9999      -9999      4.823641   2.007      2.593      1.46       3.137      0.9855255  5.702      0.1362894  0.1362894  0.3092763  0.9366291  2.590954   2.968975   0.2386578  0.5172901  75.553     0.5242029  0.4398299  0.6085758 
1143       0.255      228.493    -9999      -9999      4.779501   1.829      2.911      2.359      3.15       0.9997293  5.943      0.1352523  0.1352523  0.3043931  0.8961046  2.861195   2.797156   0.2118329  0.4962654  75.3       0.5125478  0.4223676  0.6027281 
1143.2     0.246      174.835    -9999      -9999      4.704644   1.74       3.755      3.052      3.591      1.019171   12.255     0.1368565  0.1368565  0.2977092  0.95956    3.385473   3.047331   0.250623   0.5128028  74.539     0.4874324  0.3943237  0.580541  
1143.4     0.233      143.535    1          2          4.610875   1.714      5.213      3.334      5.034      1.038941   15.366     0.1415193  0.1415193  0.2909122  1.170681   4.179771   3.083996   0.2762469  0.5149191  73.271     0.4527057  0.3618069  0.5436044 
1143.6     0.223      96.585     1          2          4.508571   1.816      10.829     3.604      6.443      1.052647   20.827     0.1482049  0.1482049  0.2862     1.556939   5.260384   3.340708   0.3303691  0.5375082  71.94      0.4181671  0.3293811  0.5069531 
1143.8     0.221      52.987     1          2          4.405642   2.159      26.447     3.54       6.683      1.057284   25.59      0.1588399  0.1588399  0.2846059  2.450519   6.629669   3.98204    0.4194588  0.5862949  70.229     0.3811091  0.2996896  0.4625287 
1144       0.221      37.948     1          2          4.313776   2.857      43.992     3.36       6.798      1.055332   29.717     0.1699939  0.1699939  0.2852768  3.943285   8.150186   5.212837   0.5177484  0.648519   68.581     0.3493421  0.2754572  0.423227  
1144.2     0.216      26.737     1          2          4.247169   3.505      40.476     3.257      6.844      1.050996   51.116     0.1821742  0.1821742  0.2867674  6.629267   9.466418   6.560173   0.5923882  0.6962242  66.362     0.3169493  0.2591224  0.3747762 
1144.4     0.211      18.016     1          2          4.212176   4          36.223     3.476      6.884      1.046003   52.703     0.1947985  0.1947985  0.2884842  11.35793   10.24105   7.435657   0.6374455  0.7233176  63.32      0.2838959  0.2509324  0.3168594 
1144.6     0.211      11.165     1          2          4.200548   4.242      34.11      3.456      6.924      1.040336   45.401     0.205592   0.205592   0.2904324  17.99782   10.51225   7.759041   0.6609225  0.7361258  60.088     0.2570924  0.2482685  0.2659162 
