~Version
 VERS              .         2.0                           : CWLS LOG ASCII STANDARD - VERSION 2.0
 WRAP              .         NO                            : ONE LINE PER DEPTH STEP
 DLM               .         SPACE                         : DELIMITING CHARACTER(SPACE TAB OR COMMA)
~Well Information
#_______________________________________________________________________________
#
#PARAMETER_NAME    .UNIT     VALUE                         : DESCRIPTION
#_______________________________________________________________________________
STRT               .M        940.2                         : First reference value
STOP               .M        1398.6                        : Last reference value
STEP               .M        0.2                           : Step increment
NULL               .         -9999                         : Missing value
COMP               .                                       : Company
WELL               .         8708                          : Well name
FLD                .         УЗЕНЬ                         : Field
LOC                .                                       : Location
CNTY               .                                       : County
STAT               .                                       : State
CTRY               .                                       : Country
SRVC               .                                       : Service Company
DATE               .                                       : Date
UWI                .                                       : Unique Well ID
Block              .         4                             : 
Category           .         Нефтяная                      : 
Condition          .         В работе                      : 
Date               .         30.03.1997                    : 
EREF               .m        228.6                         : 100.8
Gorizont           .         15                            : 14
Interpretator      .         Алпанова Н.К.                 : 
Kupol              .         основной                      : osnovnoi
Moii_15            .         15_gor                        : 
Mud                .                                       : 
Mud_density        .                                       : 
Mud_resistivity    .                                       : 
NGDU               .         НГДУ-1                        : 
ORIGINALWELLNAME   .         8708                          : 
Spud_date          .         1996                          : 1961
Viscosity          .                                       : 
X                  .m        54224.2                       : 46154
Y                  .m        81794.5                       : 85761.93
YEAR               .         2018                          : 
~Parameter Information Block
#_______________________________________________________________________________
#
#PARAMETER_NAME    .UNIT     VALUE                         : DESCRIPTION
#_______________________________________________________________________________
SET                .         LQC_KAZNIPI_Petrel            : 
TLFamily_CALI      .         Caliper                       : 
TLFamily_CILD      .         Conductivity                  : 
TLFamily_COLL      .         Net Reservoir Flag            : 
TLFamily_CSAT      .         Fluid Code                    : 
TLFamily_DEPT      .         Measured Depth                : 
TLFamily_GR        .         Russian Gamma Ray             : 
TLFamily_GZ3       .         Gradient 225                  : 
TLFamily_LLS       .         Lateral Log Resistivity       : 
TLFamily_MINV      .         Micro Gradient Resistivity    : 
TLFamily_MNOR      .         Micro Resistivity             : 
TLFamily_NGLD      .         Neutron Far                   : 
TLFamily_OGZ       .         Gradient Inverted 225         : 
TLFamily_PHIE      .         Effective Porosity            : 
TLFamily_PHIEN     .         Effective Porosity            : 
TLFamily_PHIT      .         Porosity                      : 
TLFamily_PRMB      .         Permeability                  : 
TLFamily_PRMB_DGR  .         Permeability                  : 
TLFamily_RT        .         Formation Resistivity         : 
TLFamily_SOIL_ARCHIE .         Oil Saturation                : 
TLFamily_SOIL_DW   .         Oil Saturation                : 
TLFamily_SP        .         Spontaneous Potential         : 
TLFamily_VSH_FIN   .         Shale Volume                  : 
TLFamily_VSH_GR    .         Shale Volume                  : 
TLFamily_VSH_SP    .         Shale Volume                  : 
~Curve Information
#_______________________________________________________________________________
#
#LOGNAME           .UNIT     LOG_ID                        : DESCRIPTION
#_______________________________________________________________________________
DEPT               .M                                      : Колонка глубины 
CALI               .м                                      : Каверномер 
CILD               .мСм/м                                  : Индукционный каротаж 
COLL               .unitless                               : Описание 
CSAT               .unitless                               : Описание 
GR                 .мкР/ч                                  : Гамма каротаж 
GZ3                .Ом·м                                   :  
LLS                .Ом·м                                   : Боковой каротаж 
MINV               .Ом·м                                   : Микро-градиент зонд 
MNOR               .Ом·м                                   : Микро-потенциал зонд 
NGLD               .у.е.                                   : Показания зонда НГК-60 аппаратуры ДРСТ-3-90 
OGZ                .Ом·м                                   :  
PHIE               .v/v                                    : Описание 
PHIEN              .v/v                                    :  
PHIT               .v/v                                    : Описание 
PRMB               .mD                                     :  
PRMB_DGR           .mD                                     :  
RT                 .ohmm                                   : УЭС пласта 
SOIL_ARCHIE        .v/v                                    :  
SOIL_DW            .v/v                                    :  
SP                 .мВ                                     : Потенциал самополяризации 
VSH_FIN            .v/v                                    : Описание 
VSH_GR             .v/v                                    : Shale volume 
VSH_SP             .v/v                                    : Shale Volume 
~Ascii
# ...
1039.4     0.345      407.934    -9999      -9999      3.476231   2.565      1.656      1.088      1.508      0.7991024  2.07       0.1807834  0.1807834  0.3733686  6.24749    1.062711   2.291068   0.3277338  0.5607092  68.264     0.5835914  0.6328894  0.5342933 
1039.6     0.314      393.608    -9999      -9999      3.46427    2.413      1.775      1.235      1.617      0.8065796  2.235      0.181072   0.181072   0.3707979  6.324845   1.096337   2.320592   0.3326886  0.5619114  67.947     0.5749272  0.6248902  0.5249642 
1039.8     0.299      381.774    -9999      -9999      3.456169   2.4        1.992      1.139      1.661      0.8184685  2.476      0.1799849  0.1799849  0.3667105  6.038316   1.11971    2.437408   0.3444633  0.5686099  67.503     0.5658351  0.6195304  0.5121398 
1040       0.284      368.07     -9999      -9999      3.432777   2.349      2.331      1.043      1.54       0.832636   2.718      0.1785169  0.1785169  0.3618397  5.671852   1.190042   2.520064   0.3500226  0.5708848  67.313     0.5555236  0.6043097  0.5067376 
1040.2     0.279      356.859    -9999      -9999      3.389107   2.349      2.476      1.036      1.47       0.8463165  2.718      0.1780389  0.1780389  0.3571364  5.557394   1.333381   2.520064   0.348503   0.5669651  67.377     0.5427195  0.5768876  0.5085515 
1040.4     0.299      346.893    -9999      -9999      3.340606   2.324      2.487      1.017      1.47       0.8587556  2.654      0.177653   0.177653   0.3528598  5.466671   1.512897   2.478062   0.3421021  0.5596935  67.567     0.5309297  0.5478883  0.5139711 
1040.6     0.319      338.795    -9999      -9999      3.308195   2.324      2.397      0.972      1.47       0.8716675  2.616      0.1750727  0.1750727  0.3484207  4.896996   1.646139   2.46137    0.3315483  0.5522348  67.82      0.5252969  0.5293266  0.5212672 
1040.8     0.332      334.435    -9999      -9999      3.298665   2.311      2.353      0.979      1.476      0.8857311  2.629      0.1695886  0.1695886  0.3435856  3.875696   1.687504   2.459765   0.3125498  0.5426612  68.137     0.5272639  0.5239893  0.5305384 
1041       0.307      333.19     -9999      -9999      3.301441   2.286      2.331      1.004      1.482      0.8978423  2.629      0.1639262  0.1639262  0.3394218  3.044165   1.675348   2.445532   0.2899826  0.5318267  68.391     0.531805   0.5255386  0.5380715 
1041.2     0.302      328.829    -9999      -9999      3.300518   2.222      2.216      1.03       1.47       0.9039881  2.565      0.1603254  0.1603254  0.3373089  2.610795   1.679382   2.381212   0.2670031  0.5196643  68.708     0.5363137  0.5250228  0.5476046 
1041.4     0.317      321.978    -9999      -9999      3.286825   2.108      2.195      1.017      1.431      0.9039459  2.527      0.159026   0.159026   0.3373234  2.470045   1.740349   2.298561   0.2494501  0.5096061  69.215     0.5402952  0.5174332  0.5631573 
1041.6     0.312      310.766    -9999      -9999      3.262752   2.007      2.342      1.178      1.463      0.9012317  2.527      0.1604805  0.1604805  0.3382565  2.628128   1.852946   2.237181   0.2458603  0.5054867  69.532     0.5387152  0.5043555  0.5730749 
1041.8     0.297      297.063    -9999      -9999      3.239802   2.007      2.57       1.351      1.642      0.8990231  2.616      0.162918   0.162918   0.3390159  2.916054   1.967068   2.271387   0.2609781  0.512707   69.595     0.5336298  0.4921957  0.5750638 
1042       0.295      292.703    -9999      -9999      3.230056   2.146      2.766      1.396      1.732      0.8975666  2.756      0.1652429  0.1652429  0.3395166  3.220009   2.017636   2.413046   0.2904742  0.5302036  69.405     0.5281022  0.4871207  0.5690837 
1042.2     0.286      303.292    -9999      -9999      3.234294   2.286      2.581      1.287      1.668      0.8954243  2.756      0.1675632  0.1675632  0.3402531  3.554963   1.995491   2.499094   0.3104702  0.5414319  69.025     0.5233028  0.4893209  0.5572846 
1042.4     0.292      300.177    -9999      -9999      3.237418   2.4        2.353      1.139      1.566      0.8921362  2.603      0.1712844  0.1712844  0.3413836  4.166396   1.979319   2.497382   0.3233181  0.5460546  68.454     0.515452   0.4909495  0.5399545 
1042.6     0.319      287.097    -9999      -9999      3.218384   2.311      2.408      1.543      1.597      0.88949    2.578      0.1753711  0.1753711  0.3422933  4.9597     2.079909   2.437209   0.3294419  0.5453878  68.137     0.5058251  0.4811118  0.5305384 
1042.8     0.314      275.262    -9999      -9999      3.167484   2.311      2.729      1.852      1.904      0.8898981  2.807      0.1794133  0.1794133  0.342153   5.892878   2.374719   2.534966   0.3546398  0.5580478  68.137     0.4931508  0.4557631  0.5305384 
1043       0.295      277.131    -9999      -9999      3.095548   2.451      2.858      1.415      1.764      0.8936934  2.946      0.1824036  0.1824036  0.3408482  6.694449   2.863997   2.6758     0.3798014  0.5715972  68.391     0.4801352  0.4221988  0.5380715 
1043.2     0.295      283.36     -9999      -9999      3.025265   2.603      2.581      1.627      1.566      0.8986015  2.832      0.1835281  0.1835281  0.3391608  7.023326   3.439248   2.712676   0.3870617  0.5742542  68.834     0.4716145  0.3917944  0.5514345 
1043.4     0.31       280.868    -9999      -9999      2.973335   2.603      2.641      1.447      1.553      0.9016746  2.845      0.1843378  0.1843378  0.3381042  7.270101   3.937287   2.718625   0.3900347  0.574646   69.151     0.4659591  0.370745   0.5611733 
1043.6     0.309      283.983    -9999      -9999      2.941701   2.578      2.593      1.428      1.649      0.9012156  3.035      0.1842272  0.1842272  0.3382621  7.235917   4.275392   2.787896   0.3968793  0.5799841  69.595     0.4667722  0.3584806  0.5750638 
1043.8     0.299      282.737    -9999      -9999      2.923774   2.565      2.581      1.409      1.642      0.8974871  3.061      0.1846259  0.1846259  0.3395439  7.359991   4.479728   2.791136   0.3983417  0.5815471  69.975     0.4694487  0.3517113  0.587186  
1044       0.31       273.394    -9999      -9999      2.91343    2.565      2.629      1.518      1.514      0.8922581  3.022      0.1860449  0.1860449  0.3413417  7.819166   4.602041   2.774809   0.4006928  0.5829166  70.165     0.4705963  0.3478639  0.5933288 
1044.2     0.337      279        -9999      -9999      2.905867   2.565      2.487      1.248      1.47       0.8878508  3.022      0.188693   0.188693   0.3428569  8.75408    4.693583   2.774809   0.4080248  0.5863374  70.039     0.4671632  0.3450774  0.5892491 
1044.4     0.353      290.211    -9999      -9999      2.895544   2.515      2.246      1.184      1.585      0.8862779  2.883      0.1925241  0.1925241  0.3433976  10.30795   4.821472   2.686456   0.4093974  0.5833002  69.532     0.4571925  0.3413101  0.5730749 
1044.6     0.369      280.868    -9999      -9999      2.877814   2.464      2.257      1.511      1.706      0.8887714  2.984      0.1966058  0.1966058  0.3425404  12.26804   5.04932    2.699183   0.4213757  0.5870925  68.771     0.4422259  0.3349351  0.5495167 
1044.8     0.353      262.182    -9999      -9999      2.851645   2.464      2.678      1.704      1.834      0.8949353  3.261      0.1985152  0.1985152  0.3404212  13.30889   5.405426   2.807023   0.4366775  0.5951389  68.264     0.4300182  0.3257431  0.5342933 
1045       0.306      257.822    -9999      -9999      2.819779   2.642      2.884      1.332      1.649      0.902397   2.972      0.1986662  0.1986662  0.3378559  13.39485   5.873151   2.797301   0.436133   0.5927075  68.074     0.421787   0.3148896  0.5286843 
1045.2     0.293      281.491    -9999      -9999      2.786273   2.87       2.691      1.158      1.54       0.9084915  3.01       0.1986994  0.1986994  0.3357606  13.41382   6.408664   2.938333   0.4490792  0.6011386  68.01      0.4153371  0.3038674  0.5268068 
1045.4     0.305      276.508    -9999      -9999      2.754188   2.87       2.289      1.351      1.725      0.9129825  2.845      0.1991412  0.1991412  0.3342166  13.66898   6.967157   2.857445   0.4428938  0.5947697  67.947     0.4093194  0.2936746  0.5249642 
