~Version
 VERS              .         2.0                           : CWLS LOG ASCII STANDARD - VERSION 2.0
 WRAP              .         NO                            : ONE LINE PER DEPTH STEP
 DLM               .         SPACE                         : DELIMITING CHARACTER(SPACE TAB OR COMMA)
~Well Information
#_______________________________________________________________________________
#
#PARAMETER_NAME    .UNIT     VALUE                         : DESCRIPTION
#_______________________________________________________________________________
STRT               .M        940.2                         : First reference value
STOP               .M        1398.6                        : Last reference value
STEP               .M        0.2                           : Step increment
NULL               .         -9999                         : Missing value
COMP               .                                       : Company
WELL               .         8708                          : Well name
FLD                .         УЗЕНЬ                         : Field
LOC                .                                       : Location
CNTY               .                                       : County
STAT               .                                       : State
CTRY               .                                       : Country
SRVC               .                                       : Service Company
DATE               .                                       : Date
UWI                .                                       : Unique Well ID
Block              .         4                             : 
Category           .         Нефтяная                      : 
Condition          .         В работе                      : 
Date               .         30.03.1997                    : 
EREF               .m        228.6                         : 100.8
Gorizont           .         15                            : 14
Interpretator      .         Алпанова Н.К.                 : 
Kupol              .         основной                      : osnovnoi
Moii_15            .         15_gor                        : 
Mud                .                                       : 
Mud_density        .                                       : 
Mud_resistivity    .                                       : 
NGDU               .         НГДУ-1                        : 
ORIGINALWELLNAME   .         8708                          : 
Spud_date          .         1996                          : 1961
Viscosity          .                                       : 
X                  .m        54224.2                       : 46154
Y                  .m        81794.5                       : 85761.93
YEAR               .         2018                          : 
~Parameter Information Block
#_______________________________________________________________________________
#
#PARAMETER_NAME    .UNIT     VALUE                         : DESCRIPTION
#_______________________________________________________________________________
SET                .         LQC_KAZNIPI_Petrel            : 
TLFamily_CALI      .         Caliper                       : 
TLFamily_CILD      .         Conductivity                  : 
TLFamily_COLL      .         Net Reservoir Flag            : 
TLFamily_CSAT      .         Fluid Code                    : 
TLFamily_DEPT      .         Measured Depth                : 
TLFamily_GR        .         Russian Gamma Ray             : 
TLFamily_GZ3       .         Gradient 225                  : 
TLFamily_LLS       .         Lateral Log Resistivity       : 
TLFamily_MINV      .         Micro Gradient Resistivity    : 
TLFamily_MNOR      .         Micro Resistivity             : 
TLFamily_NGLD      .         Neutron Far                   : 
TLFamily_OGZ       .         Gradient Inverted 225         : 
TLFamily_PHIE      .         Effective Porosity            : 
TLFamily_PHIEN     .         Effective Porosity            : 
TLFamily_PHIT      .         Porosity                      : 
TLFamily_PRMB      .         Permeability                  : 
TLFamily_PRMB_DGR  .         Permeability                  : 
TLFamily_RT        .         Formation Resistivity         : 
TLFamily_SOIL_ARCHIE .         Oil Saturation                : 
TLFamily_SOIL_DW   .         Oil Saturation                : 
TLFamily_SP        .         Spontaneous Potential         : 
TLFamily_VSH_FIN   .         Shale Volume                  : 
TLFamily_VSH_GR    .         Shale Volume                  : 
TLFamily_VSH_SP    .         Shale Volume                  : 
~Curve Information
#_______________________________________________________________________________
#
#LOGNAME           .UNIT     LOG_ID                        : DESCRIPTION
#_______________________________________________________________________________
DEPT               .M                                      : Колонка глубины 
CALI               .м                                      : Каверномер 
CILD               .мСм/м                                  : Индукционный каротаж 
COLL               .unitless                               : Описание 
CSAT               .unitless                               : Описание 
GR                 .мкР/ч                                  : Гамма каротаж 
GZ3                .Ом·м                                   :  
LLS                .Ом·м                                   : Боковой каротаж 
MINV               .Ом·м                                   : Микро-градиент зонд 
MNOR               .Ом·м                                   : Микро-потенциал зонд 
NGLD               .у.е.                                   : Показания зонда НГК-60 аппаратуры ДРСТ-3-90 
OGZ                .Ом·м                                   :  
PHIE               .v/v                                    : Описание 
PHIEN              .v/v                                    :  
PHIT               .v/v                                    : Описание 
PRMB               .mD                                     :  
PRMB_DGR           .mD                                     :  
RT                 .ohmm                                   : УЭС пласта 
SOIL_ARCHIE        .v/v                                    :  
SOIL_DW            .v/v                                    :  
SP                 .мВ                                     : Потенциал самополяризации 
VSH_FIN            .v/v                                    : Описание 
VSH_GR             .v/v                                    : Shale volume 
VSH_SP             .v/v                                    : Shale Volume 
~Ascii
# ...
1281.2     0.221      402.328    -9999      -9999      -9999      1.981      2.342      2.885      3.137      -9999      2.184      -9999      -9999      -9999      -9999      -9999      2.077553   -9999      -9999      57.679     0.4415025  -9999      0.4415025 
1281.4     0.221      403.574    -9999      -9999      -9999      1.981      2.309      2.84       3.061      -9999      2.261      -9999      -9999      -9999      -9999      -9999      2.111759   -9999      -9999      57.679     0.4415025  -9999      0.4415025 
1281.6     0.221      404.197    -9999      -9999      -9999      1.968      2.32       3.155      3.125      -9999      2.349      -9999      -9999      -9999      -9999      -9999      2.141687   -9999      -9999      57.996     0.449477   -9999      0.449477  
1281.8     0.221      404.197    -9999      -9999      -9999      1.943      2.32       3.36       3.157      -9999      2.438      -9999      -9999      -9999      -9999      -9999      2.162535   -9999      -9999      58.566     0.4641544  -9999      0.4641544 
1282       0.221      404.82     -9999      -9999      -9999      1.93       2.299      3.302      3.169      -9999      2.553      -9999      -9999      -9999      -9999      -9999      2.198211   -9999      -9999      59.073     0.4775793  -9999      0.4775793 
1282.2     0.221      403.574    -9999      -9999      -9999      1.88       2.289      3.257      3.086      -9999      2.654      -9999      -9999      -9999      -9999      -9999      2.200935   -9999      -9999      59.644     0.4931216  -9999      0.4931216 
1282.4     0.221      402.328    -9999      -9999      -9999      1.841      2.257      3.046      3.054      -9999      2.769      -9999      -9999      -9999      -9999      -9999      2.211596   -9999      -9999      60.088     0.5055208  -9999      0.5055208 
1282.6     0.221      396.1      -9999      -9999      -9999      1.791      2.237      3.161      3.144      -9999      2.87       -9999      -9999      -9999      -9999      -9999      2.205608   -9999      -9999      60.468     0.5163534  -9999      0.5163534 
1282.8     0.221      383.019    -9999      -9999      -9999      1.753      2.205      3.193      3.176      -9999      2.997      -9999      -9999      -9999      -9999      -9999      2.212101   -9999      -9999      60.595     0.5200197  -9999      0.5200197 
1283       0.221      366.825    -9999      -9999      -9999      1.714      2.226      3.187      3.131      -9999      3.137      -9999      -9999      -9999      -9999      -9999      2.216788   -9999      -9999      60.151     0.5073027  -9999      0.5073027 
1283.2     0.221      343.156    -9999      -9999      -9999      1.714      2.442      2.93       3.233      -9999      3.251      -9999      -9999      -9999      -9999      -9999      2.244598   -9999      -9999      59.01      0.4758919  -9999      0.4758919 
1283.4     0.221      313.258    -9999      -9999      -9999      1.778      2.979      2.59       3.201      -9999      3.416      -9999      -9999      -9999      -9999      -9999      2.338717   -9999      -9999      55.587     0.3921515  -9999      0.3921515 
1283.6     0.221      289.589    1          2          -9999      1.854      3.602      2.372      3.323      -9999      3.518      -9999      -9999      -9999      -9999      -9999      2.428284   -9999      -9999      51.214     0.3062085  -9999      0.3062085 
1283.8     0.221      273.394    1          2          -9999      1.968      4.253      2.333      3.399      -9999      3.391      -9999      -9999      -9999      -9999      -9999      2.490572   -9999      -9999      48.235     0.2597404  -9999      0.2597404 
1284       0.221      261.559    1          2          -9999      2.095      4.539      2.359      3.38       -9999      3.188      -9999      -9999      -9999      -9999      -9999      2.528435   -9999      -9999      45.699     0.2270532  -9999      0.2270532 
1284.2     0.221      255.953    1          2          -9999      2.222      4.434      2.41       3.399      -9999      2.997      -9999      -9999      -9999      -9999      -9999      2.551958   -9999      -9999      44.432     0.2128906  -9999      0.2128906 
1284.4     0.221      253.462    1          2          -9999      2.337      4.373      2.384      3.323      -9999      2.73       -9999      -9999      -9999      -9999      -9999      2.518259   -9999      -9999      44.242     0.2108846  -9999      0.2108846 
1284.6     0.221      254.708    1          2          -9999      2.426      4.175      2.173      3.374      -9999      2.616      -9999      -9999      -9999      -9999      -9999      2.51742    -9999      -9999      44.749     0.2163049  -9999      0.2163049 
1284.8     0.221      262.805    1          2          -9999      2.502      3.969      2.372      3.553      -9999      2.502      -9999      -9999      -9999      -9999      -9999      2.502      -9999      -9999      45.826     0.2285498  -9999      0.2285498 
1285       0.221      272.148    1          2          -9999      2.578      3.932      2.468      3.604      -9999      2.413      -9999      -9999      -9999      -9999      -9999      2.492773   -9999      -9999      47.284     0.2467782  -9999      0.2467782 
1285.2     0.221      283.983    1          2          -9999      2.654      3.859      2.378      3.342      -9999      2.375      -9999      -9999      -9999      -9999      -9999      2.506761   -9999      -9999      48.869     0.2688707  -9999      0.2688707 
1285.4     0.221      298.932    1          2          -9999      2.718      3.668      2.327      3.297      -9999      2.311      -9999      -9999      -9999      -9999      -9999      2.498031   -9999      -9999      50.39      0.2924322  -9999      0.2924322 
1285.6     0.221      313.258    1          2          -9999      2.781      3.329      2.731      3.304      -9999      2.273      -9999      -9999      -9999      -9999      -9999      2.501469   -9999      -9999      52.101     0.3218627  -9999      0.3218627 
1285.8     0.221      321.978    1          2          -9999      2.857      2.898      3.212      3.431      -9999      2.235      -9999      -9999      -9999      -9999      -9999      2.508011   -9999      -9999      53.876     0.3558566  -9999      0.3558566 
1286       -9999      330.075    -9999      -9999      -9999      2.883      2.641      3.617      3.661      -9999      2.235      -9999      -9999      -9999      -9999      -9999      2.517978   -9999      -9999      55.397     0.3879444  -9999      0.3879444 
1286.2     -9999      340.664    -9999      -9999      -9999      2.883      2.678      3.899      3.847      -9999      2.222      -9999      -9999      -9999      -9999      -9999      2.509706   -9999      -9999      56.221     0.4065165  -9999      0.4065165 
1286.4     -9999      352.499    -9999      -9999      -9999      2.832      2.557      3.893      3.617      -9999      2.261      -9999      -9999      -9999      -9999      -9999      2.514491   -9999      -9999      56.728     0.4183707  -9999      0.4183707 
1286.6     -9999      369.316    -9999      -9999      -9999      2.705      2.353      3.745      3.374      -9999      2.299      -9999      -9999      -9999      -9999      -9999      2.48553    -9999      -9999      57.108     0.4274723  -9999      0.4274723 
1286.8     -9999      386.757    -9999      -9999      -9999      2.527      2.51       3.636      3.585      -9999      2.349      -9999      -9999      -9999      -9999      -9999      2.434751   -9999      -9999      57.235     0.4305559  -9999      0.4305559 
1287       -9999      393.608    -9999      -9999      -9999      2.375      2.605      3.559      3.534      -9999      2.4        -9999      -9999      -9999      -9999      -9999      2.387435   -9999      -9999      57.806     0.4446813  -9999      0.4446813 
1287.2     -9999      397.345    -9999      -9999      -9999      2.311      2.375      3.02       2.927      -9999      2.413      -9999      -9999      -9999      -9999      -9999      2.360899   -9999      -9999      58.82      0.4708362  -9999      0.4708362 
