~Version
 VERS              .         2.0                           : CWLS LOG ASCII STANDARD - VERSION 2.0
 WRAP              .         NO                            : ONE LINE PER DEPTH STEP
 DLM               .         SPACE                         : DELIMITING CHARACTER(SPACE TAB OR COMMA)
~Well Information
#_______________________________________________________________________________
#
#PARAMETER_NAME    .UNIT     VALUE                         : DESCRIPTION
#_______________________________________________________________________________
STRT               .M        940.2                         : First reference value
STOP               .M        1398.6                        : Last reference value
STEP               .M        0.2                           : Step increment
NULL               .         -9999                         : Missing value
COMP               .                                       : Company
WELL               .         8708                          : Well name
FLD                .         УЗЕНЬ                         : Field
LOC                .                                       : Location
CNTY               .                                       : County
STAT               .                                       : State
CTRY               .                                       : Country
SRVC               .                                       : Service Company
DATE               .                                       : Date
UWI                .                                       : Unique Well ID
Block              .         4                             : 
Category           .         Нефтяная                      : 
Condition          .         В работе                      : 
Date               .         30.03.1997                    : 
EREF               .m        228.6                         : 100.8
Gorizont           .         15                            : 14
Interpretator      .         Алпанова Н.К.                 : 
Kupol              .         основной                      : osnovnoi
Moii_15            .         15_gor                        : 
Mud                .                                       : 
Mud_density        .                                       : 
Mud_resistivity    .                                       : 
NGDU               .         НГДУ-1                        : 
ORIGINALWELLNAME   .         8708                          : 
Spud_date          .         1996                          : 1961
Viscosity          .                                       : 
X                  .m        54224.2                       : 46154
Y                  .m        81794.5                       : 85761.93
YEAR               .         2018                          : 
~Parameter Information Block
#_______________________________________________________________________________
#
#PARAMETER_NAME    .UNIT     VALUE                         : DESCRIPTION
#_______________________________________________________________________________
SET                .         LQC_KAZNIPI_Petrel            : 
TLFamily_CALI      .         Caliper                       : 
TLFamily_CILD      .         Conductivity                  : 
TLFamily_COLL      .         Net Reservoir Flag            : 
TLFamily_CSAT      .         Fluid Code                    : 
TLFamily_DEPT      .         Measured Depth                : 
TLFamily_GR        .         Russian Gamma Ray             : 
TLFamily_GZ3       .         Gradient 225                  : 
TLFamily_LLS       .         Lateral Log Resistivity       : 
TLFamily_MINV      .         Micro Gradient Resistivity    : 
TLFamily_MNOR      .         Micro Resistivity             : 
TLFamily_NGLD      .         Neutron Far                   : 
TLFamily_OGZ       .         Gradient Inverted 225         : 
TLFamily_PHIE      .         Effective Porosity            : 
TLFamily_PHIEN     .         Effective Porosity            : 
TLFamily_PHIT      .         Porosity                      : 
TLFamily_PRMB      .         Permeability                  : 
TLFamily_PRMB_DGR  .         Permeability                  : 
TLFamily_RT        .         Formation Resistivity         : 
TLFamily_SOIL_ARCHIE .         Oil Saturation                : 
TLFamily_SOIL_DW   .         Oil Saturation                : 
TLFamily_SP        .         Spontaneous Potential         : 
TLFamily_VSH_FIN   .         Shale Volume                  : 
TLFamily_VSH_GR    .         Shale Volume                  : 
TLFamily_VSH_SP    .         Shale Volume                  : 
~Curve Information
#_______________________________________________________________________________
#
#LOGNAME           .UNIT     LOG_ID                        : DESCRIPTION
#_______________________________________________________________________________
DEPT               .M                                      : Колонка глубины 
CALI               .м                                      : Каверномер 
CILD               .мСм/м                                  : Индукционный каротаж 
COLL               .unitless                               : Описание 
CSAT               .unitless                               : Описание 
GR                 .мкР/ч                                  : Гамма каротаж 
GZ3                .Ом·м                                   :  
LLS                .Ом·м                                   : Боковой каротаж 
MINV               .Ом·м                                   : Микро-градиент зонд 
MNOR               .Ом·м                                   : Микро-потенциал зонд 
NGLD               .у.е.                                   : Показания зонда НГК-60 аппаратуры ДРСТ-3-90 
OGZ                .Ом·м                                   :  
PHIE               .v/v                                    : Описание 
PHIEN              .v/v                                    :  
PHIT               .v/v                                    : Описание 
PRMB               .mD                                     :  
PRMB_DGR           .mD                                     :  
RT                 .ohmm                                   : УЭС пласта 
SOIL_ARCHIE        .v/v                                    :  
SOIL_DW            .v/v                                    :  
SP                 .мВ                                     : Потенциал самополяризации 
VSH_FIN            .v/v                                    : Описание 
VSH_GR             .v/v                                    : Shale volume 
VSH_SP             .v/v                                    : Shale Volume 
~Ascii
# ...
983.6      -9999      127.642    -9999      -9999      4.529068   -9999      3.602      1.511      1.923      0.8635005  -9999      -9999      -9999      -9999      -9999      -9999      -9999      -9999      -9999      57.425     -9999      0.02318162 0.8       
983.8      -9999      138.854    -9999      -9999      4.622119   -9999      3.535      1.601      1.962      0.8705727  -9999      -9999      -9999      -9999      -9999      -9999      -9999      -9999      -9999      57.996     -9999      0.02440601 0.8       
984        -9999      154.426    -9999      -9999      4.686124   -9999      3.789      1.524      2.006      0.8793447  -9999      -9999      -9999      -9999      -9999      -9999      -9999      -9999      -9999      58.44      -9999      0.02535384 0.8       
984.2000000000001 -9999      156.917    -9999      -9999      4.718481   -9999      3.772      2.147      2.019      0.8894122  -9999      -9999      -9999      -9999      -9999      -9999      -9999      -9999      -9999      59.01      -9999      0.02611061 0.8       
984.4      -9999      162.523    -9999      -9999      4.714247   -9999      3.634      1.832      1.981      0.8995632  -9999      -9999      -9999      -9999      -9999      -9999      -9999      -9999      -9999      59.517     -9999      0.02667513 0.8       
984.6      -9999      179.963    -9999      -9999      4.671023   -9999      3.535      1.492      1.866      0.9098547  -9999      -9999      -9999      -9999      -9999      -9999      -9999      -9999      -9999      59.771     -9999      0.02578109 0.8       
984.8      -9999      192.421    -9999      -9999      4.595468   -9999      3.568      1.274      1.802      0.9223018  -9999      -9999      -9999      -9999      -9999      -9999      -9999      -9999      -9999      59.644     -9999      0.02347792 0.8       
985        -9999      192.421    -9999      -9999      4.500904   -9999      3.789      1.139      1.566      0.9388319  -9999      -9999      -9999      -9999      -9999      -9999      -9999      -9999      -9999      59.137     -9999      0.02166824 0.8       
985.2000000000001 -9999      182.455    -9999      -9999      4.397306   -9999      4.214      1.043      1.476      0.9595076  -9999      -9999      -9999      -9999      -9999      -9999      -9999      -9999      -9999      58.63      -9999      0.02102617 0.8       
985.4      -9999      171.242    -9999      -9999      4.285242   -9999      4.333      1.454      1.783      0.983027   -9999      -9999      -9999      -9999      -9999      -9999      4.333      -9999      -9999      58.059     -9999      0.02       0.8       
985.6      -9999      170.62     -9999      -9999      4.159856   -9999      4.08       2.275      2.741      1.008144   -9999      -9999      -9999      -9999      -9999      -9999      4.08       -9999      -9999      57.679     -9999      0.02       0.8       
985.8      -9999      174.357    -9999      -9999      4.021848   -9999      4.623      2.891      3.642      1.034546   -9999      0.2227191  0.2227191  0.2924232  37.36432   14.54416   4.623      0.5967614  0.6706309  57.679     0.2112243  0.2174451  0.2050035 
986        -9999      169.374    -9999      -9999      3.886228   -9999      6.48       3.296      3.425      1.063432   -9999      0.2162072  0.2162072  0.2824921  28.30351   19.19226   6.48       0.6468425  0.7126058  57.932     0.2008632  0.194165   0.2075614 
986.2000000000001 -9999      151.311    -9999      -9999      3.773888   -9999      7.834      2.063      1.911      1.098083   -9999      0.2068382  0.2068382  0.2705789  18.98028   24.1485    7.834      0.6642208  0.7269725  58.123     0.1931538  0.1767803  0.2095271 
986.4      -9999      130.133    -9999      -9999      3.690842   -9999      7.208      1.524      1.783      1.143139   -9999      0.1930853  0.1930853  0.2550887  10.55764   28.61798   7.208      0.6292751  0.6968347  58.249     0.1878891  0.1649377  0.2108405 
986.6      -9999      122.659    6          6          3.618905   -9999      5.02       1.21       1.802      1.20132    -9999      0.174886   0.174886   0.2350861  4.858146   33.15303   5.02       0.5211228  0.6029589  58.123     0.1824247  0.1553223  0.2095271 
986.8      -9999      128.576    6          6          3.52791    -9999      4.559      1.691      2.479      1.26932    -9999      0.1540249  0.1540249  0.2117079  1.995593   39.93295   4.559      0.4403703  0.5330628  57.742     0.174797   0.1439584  0.2056356 
987        -9999      125.773    6          6          3.395696   -9999      6.42       2.526      3.431      1.336482   -9999      0.13532    0.13532    0.1886176  0.8986962  52.32919   6.42       0.4665298  0.555784   56.538     0.1615077  0.1289121  0.1941033 
987.2000000000001 -9999      108.956    6          6          3.214971   -9999      10.582     3.18       4.217      1.388703   -9999      0.1226543  0.1226543  0.1706639  0.5236154  75.72473   10.582     0.5403403  0.6178766  54.89      0.1454838  0.1108559  0.1801118 
987.4      -9999      90.27      6          6          2.989536   -9999      25.603     3.033      4.435      1.416083   -9999      0.1184409  0.1184409  0.1612508  0.4374924  120.0702   25.603     0.6869662  0.7423301  53.179     0.1297271  0.09183568 0.1676186 
987.6      -9999      74.075     6          6          2.736125   -9999      30.525     2.782      4.415      1.417873   -9999      0.1224052  0.1224052  0.1606352  0.518082   201.5939   30.525     0.7199065  0.7667085  51.531     0.1158486  0.07432231 0.157375  
987.8      -9999      57.257     6          6          2.488329   -9999      27.317     2.763      4.422      1.399499   -9999      0.1322388  0.1322388  0.1669523  0.7880278  334.6055   27.317     0.7241305  0.766537   50.136     0.1051924  0.06043147 0.1499534 
988        -9999      49.16      6          6          2.2845     -9999      23.558     2.705      4.32       1.366093   -9999      0.1463808  0.1463808  0.1784372  1.44041    507.6261   23.558     0.7293277  0.7682316  48.678     0.09714054 0.05097419 0.1433069 
988.2000000000001 -9999      47.914     6          6          2.142429   -9999      17.602     2.461      4.102      1.32162    -9999      0.1631549  0.1631549  0.1937272  2.945662   678.7512   17.602     0.7176384  0.7557659  47.855     0.09264322 0.04527227 0.1400142 
988.4      -9999      50.094     6          6          2.050759   -9999      12.213     2.577      3.828      1.271392   -9999      0.1812835  0.1812835  0.2109954  6.382174   818.6876   12.213     0.694196   0.7330636  47.347     0.09003597 0.04193637 0.1381356 
988.6      -9999      59.126     6          6          1.984474   -9999      9.827      2.705      3.604      1.221555   -9999      0.1987899  0.1987899  0.2281292  13.46572   937.5256   9.827      0.6874837  0.7264162  47.347     0.08890699 0.03967842 0.1381356 
988.8      -9999      75.321     6          6          1.919825   -9999      7.726      2.474      3.067      1.17746    -9999      0.2141797  0.2141797  0.2432894  25.95891   1070.028   7.726      0.6721388  0.7119381  47.538     0.08821094 0.03759336 0.1388285 
989        -9999      102.727    1          3          1.83791    -9999      5.537      2.339      2.856      1.143697   -9999      0.226081   0.226081   0.2548969  43.12478   1265.142   5.537      0.6342974  0.6762585  47.728     0.08732094 0.0351081  0.1395338 
989.2000000000001 -9999      133.248    1          3          1.73252    -9999      4.353      2.173      2.754      1.122697   -9999      0.2336298  0.2336298  0.2621168  59.50442   1569.393   4.353      0.6021347  0.6456777  47.981     0.08632432 0.03215069 0.1404979 
989.4      -9999      165.014    1          3          1.620257   -9999      3.736      2.031      2.652      1.111951   -9999      0.2377172  0.2377172  0.2658112  70.83649   1974.363   3.736      0.5789571  0.6233926  48.108     0.08513343 0.02927396 0.1409929 
989.6      -9999      195.535    1          3          1.532887   -9999      3.391      2.051      2.601      1.105443   -9999      0.2402117  0.2402117  0.2680488  78.7883    2360.565   3.391      0.5633596  0.6083434  48.235     0.08435486 0.02721443 0.1414953 
