~Version
 VERS              .         2.0                           : CWLS LOG ASCII STANDARD - VERSION 2.0
 WRAP              .         NO                            : ONE LINE PER DEPTH STEP
 DLM               .         SPACE                         : DELIMITING CHARACTER(SPACE TAB OR COMMA)
~Well Information
#_______________________________________________________________________________
#
#PARAMETER_NAME    .UNIT     VALUE                         : DESCRIPTION
#_______________________________________________________________________________
STRT               .M        940.2                         : First reference value
STOP               .M        1398.6                        : Last reference value
STEP               .M        0.2                           : Step increment
NULL               .         -9999                         : Missing value
COMP               .                                       : Company
WELL               .         8708                          : Well name
FLD                .         УЗЕНЬ                         : Field
LOC                .                                       : Location
CNTY               .                                       : County
STAT               .                                       : State
CTRY               .                                       : Country
SRVC               .                                       : Service Company
DATE               .                                       : Date
UWI                .                                       : Unique Well ID
Block              .         4                             : 
Category           .         Нефтяная                      : 
Condition          .         В работе                      : 
Date               .         30.03.1997                    : 
EREF               .m        228.6                         : 100.8
Gorizont           .         15                            : 14
Interpretator      .         Алпанова Н.К.                 : 
Kupol              .         основной                      : osnovnoi
Moii_15            .         15_gor                        : 
Mud                .                                       : 
Mud_density        .                                       : 
Mud_resistivity    .                                       : 
NGDU               .         НГДУ-1                        : 
ORIGINALWELLNAME   .         8708                          : 
Spud_date          .         1996                          : 1961
Viscosity          .                                       : 
X                  .m        54224.2                       : 46154
Y                  .m        81794.5                       : 85761.93
YEAR               .         2018                          : 
~Parameter Information Block
#_______________________________________________________________________________
#
#PARAMETER_NAME    .UNIT     VALUE                         : DESCRIPTION
#_______________________________________________________________________________
SET                .         LQC_KAZNIPI_Petrel            : 
TLFamily_CALI      .         Caliper                       : 
TLFamily_CILD      .         Conductivity                  : 
TLFamily_COLL      .         Net Reservoir Flag            : 
TLFamily_CSAT      .         Fluid Code                    : 
TLFamily_DEPT      .         Measured Depth                : 
TLFamily_GR        .         Russian Gamma Ray             : 
TLFamily_GZ3       .         Gradient 225                  : 
TLFamily_LLS       .         Lateral Log Resistivity       : 
TLFamily_MINV      .         Micro Gradient Resistivity    : 
TLFamily_MNOR      .         Micro Resistivity             : 
TLFamily_NGLD      .         Neutron Far                   : 
TLFamily_OGZ       .         Gradient Inverted 225         : 
TLFamily_PHIE      .         Effective Porosity            : 
TLFamily_PHIEN     .         Effective Porosity            : 
TLFamily_PHIT      .         Porosity                      : 
TLFamily_PRMB      .         Permeability                  : 
TLFamily_PRMB_DGR  .         Permeability                  : 
TLFamily_RT        .         Formation Resistivity         : 
TLFamily_SOIL_ARCHIE .         Oil Saturation                : 
TLFamily_SOIL_DW   .         Oil Saturation                : 
TLFamily_SP        .         Spontaneous Potential         : 
TLFamily_VSH_FIN   .         Shale Volume                  : 
TLFamily_VSH_GR    .         Shale Volume                  : 
TLFamily_VSH_SP    .         Shale Volume                  : 
~Curve Information
#_______________________________________________________________________________
#
#LOGNAME           .UNIT     LOG_ID                        : DESCRIPTION
#_______________________________________________________________________________
DEPT               .M                                      : Колонка глубины 
CALI               .м                                      : Каверномер 
CILD               .мСм/м                                  : Индукционный каротаж 
COLL               .unitless                               : Описание 
CSAT               .unitless                               : Описание 
GR                 .мкР/ч                                  : Гамма каротаж 
GZ3                .Ом·м                                   :  
LLS                .Ом·м                                   : Боковой каротаж 
MINV               .Ом·м                                   : Микро-градиент зонд 
MNOR               .Ом·м                                   : Микро-потенциал зонд 
NGLD               .у.е.                                   : Показания зонда НГК-60 аппаратуры ДРСТ-3-90 
OGZ                .Ом·м                                   :  
PHIE               .v/v                                    : Описание 
PHIEN              .v/v                                    :  
PHIT               .v/v                                    : Описание 
PRMB               .mD                                     :  
PRMB_DGR           .mD                                     :  
RT                 .ohmm                                   : УЭС пласта 
SOIL_ARCHIE        .v/v                                    :  
SOIL_DW            .v/v                                    :  
SP                 .мВ                                     : Потенциал самополяризации 
VSH_FIN            .v/v                                    : Описание 
VSH_GR             .v/v                                    : Shale volume 
VSH_SP             .v/v                                    : Shale Volume 
~Ascii
# ...
1175.8     0.216      8.673      1          2          4.064674   43.496     31.529     2.41       4.051      1.065644   9.715      0.219901   0.219901   0.2817315  33.13277   14.26689   15.88257   0.7715163  0.8174395  44.559     0.1873651  0.2191609  0.1555693 
1176       0.216      14.279     1          2          4.089841   43.496     30.952     2.423      3.955      1.059761   9.08       0.2211757  0.2211757  0.2837541  34.984     13.48225   15.02372   0.7666551  0.8135245  44.432     0.1896314  0.224282   0.1549808 
1176.2     0.216      20.508     1          2          4.100588   42.544     31.095     2.372      3.821      1.053802   8.509      0.2228396  0.2228396  0.2858029  37.55682   13.16049   14.18161   0.7618123  0.8094677  44.432     0.1907977  0.2265051  0.1550902 
1176.4     0.216      26.114     1          2          4.094363   39.686     30.104     2.32       3.655      1.046576   7.936999   0.2252865  0.2252865  0.2882872  41.68787   13.34593   13.22839   0.7562362  0.804608   44.685     0.1909112  0.2252147  0.1566078 
1176.6     0.216      32.965     1          2          4.074006   36.511     25.962     2.339      3.578      1.036551   7.556      0.229102   0.229102   0.2917338  49.0549    13.97077   12.5208    0.7534981  0.8019439  45.002     0.1897934  0.221046   0.1585409 
1176.8     0.216      39.817     1          2          4.046967   32.035     21.083     2.397      3.636      1.024514   7.175      0.2340531  0.2340531  0.2958722  60.5885    14.84617   11.72411   0.750465   0.7988052  45.066     0.1873305  0.2156279  0.1590331 
1177       0.216      44.8       1          2          4.021124   28.447     14.743     2.686      3.821      1.014075   6.731      0.2385793  0.2385793  0.299461   73.48946   15.73407   10.88616   0.7459031  0.7943221  44.939     0.1844902  0.2105737  0.1584067 
1177.2     0.216      48.537     1          2          4.001119   24.129     11.824     2.603      3.962      1.00868    6.413      0.2411685  0.2411685  0.3013159  82.07003   16.4577    10.13288   0.7396665  0.7885379  44.812     0.1822648  0.2067427  0.157787  
1177.4     0.215      55.389     1          2          3.990137   21.97      11.237     2.416      3.821      1.008714   6.246      0.2417769  0.2417769  0.3013042  84.22729   16.869     9.726724   0.7352023  0.7843919  44.495     0.1803858  0.2046693  0.1561024 
1177.6     0.215      60.372     1          2          3.992143   20.192     10.779     2.288      3.546      1.012361   6.078001   0.2408429  0.2408429  0.3000501  80.93806   16.7931    9.343509   0.7292491  0.7791234  44.051     0.1794159  0.2050465  0.1537853 
1177.8     0.215      64.731     1          2          4.008816   18.351     10.388     2.32       3.412      1.018136   5.943      0.2388071  0.2388071  0.2980649  74.20705   16.17542   8.978348   0.7220892  0.772999   43.481     0.1795691  0.2082083  0.1509299 
1178       0.215      73.452     1          2          4.035747   16.636     10.103     2.359      3.47       1.024996   5.803999   0.2359336  0.2359336  0.2957065  65.64802   15.22533   8.605645   0.7134998  0.7658765  43.037     0.1811298  0.2134188  0.1488408 
1178.2     0.215      79.058     1          2          4.06494    15.049     9.827      2.352      3.559      1.031065   5.739999   0.2329743  0.2329743  0.2936197  57.8639    14.25836   8.310285   0.7055464  0.7594994  42.911     0.1837739  0.2192144  0.1483334 
1178.4     0.215      85.909     1          2          4.09124    13.716     9.602      2.307      3.591      1.034164   5.664      0.2308585  0.2308585  0.2925544  52.87102   13.43992   8.017277   0.6981556  0.7536851  43.101     0.1869572  0.2245702  0.1493442 
1178.6     0.215      92.138     1          2          4.111833   12.7       9.339      2.288      3.54       1.033192   5.778      0.2302631  0.2302631  0.2928885  51.5453    12.83203   7.942483   0.6961424  0.7524236  43.354     0.1897741  0.2288548  0.1506934 
1178.8     0.215      97.121     1          2          4.118664   11.684     8.917      2.372      3.725      1.028396   5.739999   0.2313904  0.2313904  0.2945373  54.08404   12.63651   7.698135   0.6929627  0.7498563  43.671     0.1913543  0.2302942  0.1524144 
1179       0.215      101.481    1          2          4.098654   10.858     8.673      2.461      3.859      1.021065   5.626      0.2341943  0.2341943  0.2970577  60.95429   13.21782   7.411685   0.6907119  0.7476048  44.115     0.1904952  0.2261035  0.1548869 
1179.2     0.215      110.201    1          2          4.048664   10.096     8.673      2.429      3.636      1.013105   5.55       0.2382362  0.2382362  0.2997945  72.422     14.78966   7.162571   0.690359   0.7464444  44.495     0.1865402  0.2159639  0.1571166 
1179.4     0.215      119.545    1          2          3.987468   9.334      8.554      2.269      3.521      1.005914   5.677001   0.2422086  0.2422086  0.3022667  85.79232   16.97048   7.060039   0.6927146  0.7475842  44.939     0.1819944  0.2041686  0.1598202 
1179.6     0.215      115.807    1          2          3.944547   8.826      7.98       2.314      3.597      0.999988   5.931      0.2455276  0.2455276  0.3043042  98.83813   18.68928   7.094532   0.6970293  0.7506095  44.939     0.1781108  0.196282   0.1599396 
1179.8     0.216      107.71     1          2          3.938623   8.191      6.914      2.372      3.572      0.9961918  6.185      0.2471745  0.2471745  0.3056093  106.0304   18.93979   7.048043   0.6978576  0.7511094  44.749     0.1770749  0.1952177  0.1589321 
1180       0.216      99.613     1          2          3.97113    8.064      6.756      2.346      3.489      0.9961486  6.261001   0.2464975  0.2464975  0.3056241  103.0126   17.60527   7.049034   0.6971549  0.750846   44.432     0.1791715  0.2011299  0.1572131 
1180.2     0.216      90.892     1          2          4.031291   7.874      7.208      2.359      3.636      1.000445   6.323999   0.2433541  0.2433541  0.3041472  90.08782   15.37858   7.014393   0.6930419  0.7481727  44.178     0.1842215  0.2125478  0.1558951 
1180.4     0.216      83.418     1          2          4.099607   7.936999   6.978      2.474      3.847      1.007575   6.323999   0.2387879  0.2387879  0.3016956  74.14633   13.18953   7.039279   0.6884541  0.7454168  43.988     0.1906294  0.2263014  0.1549574 
1180.6     0.216      77.189     1          2          4.154498   8.128      7.834      2.404      3.943      1.01537    6.323999   0.2339872  0.2339872  0.2990157  60.41832   11.65864   7.113406   0.6844492  0.7432527  44.178     0.1970561  0.2379941  0.156118  
1180.8     0.215      74.698     1          2          4.185627   8.509      10.34      2.397      3.885      1.022258   6.299      0.2301036  0.2301036  0.2966476  51.19584   10.87079   7.239086   0.6824364  0.7425132  44.559     0.2016485  0.2448917  0.1584053 
1181       0.215      74.698     1          2          4.198847   8.89       13.584     2.372      3.713      1.026957   6.274      0.2275395  0.2275395  0.2950321  45.89248   10.55251   7.356352   0.681731   0.7425568  45.002     0.2045231  0.2478814  0.1611648 
1181.2     0.215      75.321     1          2          4.202025   9.270999   13.459     2.365      3.597      1.028388   6.21       0.2265163  0.2265163  0.2945401  43.93285   10.47741   7.43788    0.6821275  0.7432392  45.383     0.2061328  0.2486054  0.1636602 
1181.4     0.215      78.435     1          2          4.19223    9.017      11.555     2.436      3.553      1.026716   6.172      0.2270312  0.2270312  0.2951151  44.90834   10.71063   7.328056   0.6805332  0.741861   45.763     0.2063149  0.2463805  0.1662493 
1181.6     0.215      80.645     1          2          4.16466    8.255001   9.691      2.526      3.649      1.023908   6.007      0.2286394  0.2286394  0.2960805  48.09657   11.39534   6.953834   0.6745844  0.7362888  46.08      0.204367   0.2402244  0.1685097 
1181.8     0.215      82.795     1          2          4.127138   7.683      8.876      2.526      3.77       1.022544   5.893      0.2301392  0.2301392  0.2965495  51.27356   12.39811   6.669994   0.6700422  0.7317193  46.333     0.2012436  0.2320923  0.1703949 
