~Version
 VERS              .         2.0                           : CWLS LOG ASCII STANDARD - VERSION 2.0
 WRAP              .         NO                            : ONE LINE PER DEPTH STEP
 DLM               .         SPACE                         : DELIMITING CHARACTER(SPACE TAB OR COMMA)
~Well Information
#_______________________________________________________________________________
#
#PARAMETER_NAME    .UNIT     VALUE                         : DESCRIPTION
#_______________________________________________________________________________
STRT               .M        940.2                         : First reference value
STOP               .M        1398.6                        : Last reference value
STEP               .M        0.2                           : Step increment
NULL               .         -9999                         : Missing value
COMP               .                                       : Company
WELL               .         8708                          : Well name
FLD                .         УЗЕНЬ                         : Field
LOC                .                                       : Location
CNTY               .                                       : County
STAT               .                                       : State
CTRY               .                                       : Country
SRVC               .                                       : Service Company
DATE               .                                       : Date
UWI                .                                       : Unique Well ID
Block              .         4                             : 
Category           .         Нефтяная                      : 
Condition          .         В работе                      : 
Date               .         30.03.1997                    : 
EREF               .m        228.6                         : 100.8
Gorizont           .         15                            : 14
Interpretator      .         Алпанова Н.К.                 : 
Kupol              .         основной                      : osnovnoi
Moii_15            .         15_gor                        : 
Mud                .                                       : 
Mud_density        .                                       : 
Mud_resistivity    .                                       : 
NGDU               .         НГДУ-1                        : 
ORIGINALWELLNAME   .         8708                          : 
Spud_date          .         1996                          : 1961
Viscosity          .                                       : 
X                  .m        54224.2                       : 46154
Y                  .m        81794.5                       : 85761.93
YEAR               .         2018                          : 
~Parameter Information Block
#_______________________________________________________________________________
#
#PARAMETER_NAME    .UNIT     VALUE                         : DESCRIPTION
#_______________________________________________________________________________
SET                .         LQC_KAZNIPI_Petrel            : 
TLFamily_CALI      .         Caliper                       : 
TLFamily_CILD      .         Conductivity                  : 
TLFamily_COLL      .         Net Reservoir Flag            : 
TLFamily_CSAT      .         Fluid Code                    : 
TLFamily_DEPT      .         Measured Depth                : 
TLFamily_GR        .         Russian Gamma Ray             : 
TLFamily_GZ3       .         Gradient 225                  : 
TLFamily_LLS       .         Lateral Log Resistivity       : 
TLFamily_MINV      .         Micro Gradient Resistivity    : 
TLFamily_MNOR      .         Micro Resistivity             : 
TLFamily_NGLD      .         Neutron Far                   : 
TLFamily_OGZ       .         Gradient Inverted 225         : 
TLFamily_PHIE      .         Effective Porosity            : 
TLFamily_PHIEN     .         Effective Porosity            : 
TLFamily_PHIT      .         Porosity                      : 
TLFamily_PRMB      .         Permeability                  : 
TLFamily_PRMB_DGR  .         Permeability                  : 
TLFamily_RT        .         Formation Resistivity         : 
TLFamily_SOIL_ARCHIE .         Oil Saturation                : 
TLFamily_SOIL_DW   .         Oil Saturation                : 
TLFamily_SP        .         Spontaneous Potential         : 
TLFamily_VSH_FIN   .         Shale Volume                  : 
TLFamily_VSH_GR    .         Shale Volume                  : 
TLFamily_VSH_SP    .         Shale Volume                  : 
~Curve Information
#_______________________________________________________________________________
#
#LOGNAME           .UNIT     LOG_ID                        : DESCRIPTION
#_______________________________________________________________________________
DEPT               .M                                      : Колонка глубины 
CALI               .м                                      : Каверномер 
CILD               .мСм/м                                  : Индукционный каротаж 
COLL               .unitless                               : Описание 
CSAT               .unitless                               : Описание 
GR                 .мкР/ч                                  : Гамма каротаж 
GZ3                .Ом·м                                   :  
LLS                .Ом·м                                   : Боковой каротаж 
MINV               .Ом·м                                   : Микро-градиент зонд 
MNOR               .Ом·м                                   : Микро-потенциал зонд 
NGLD               .у.е.                                   : Показания зонда НГК-60 аппаратуры ДРСТ-3-90 
OGZ                .Ом·м                                   :  
PHIE               .v/v                                    : Описание 
PHIEN              .v/v                                    :  
PHIT               .v/v                                    : Описание 
PRMB               .mD                                     :  
PRMB_DGR           .mD                                     :  
RT                 .ohmm                                   : УЭС пласта 
SOIL_ARCHIE        .v/v                                    :  
SOIL_DW            .v/v                                    :  
SP                 .мВ                                     : Потенциал самополяризации 
VSH_FIN            .v/v                                    : Описание 
VSH_GR             .v/v                                    : Shale volume 
VSH_SP             .v/v                                    : Shale Volume 
~Ascii
# ...
1120       0.241      300.177    -9999      -9999      3.634855   3.099      3.195      3.482      1.712      1.007686   3.048      0.1879248  0.1879248  0.3016576  8.471905   10.20439   3.073288   0.4337277  0.5747451  65.919     0.3446447  0.2513002  0.4379893 
1120.2     0.237      305.783    -9999      -9999      3.769799   3.403      3.932      2.339      1.885      1.007507   2.934      0.1797801  0.1797801  0.301719   5.985799   7.930389   3.151145   0.4183175  0.5725555  66.806     0.3695116  0.2785494  0.4604737 
1120.4     0.247      307.652    -9999      -9999      3.931865   3.162      3.164      1.566      2.224      1.002897   2.845      0.1722786  0.1722786  0.3033041  4.346855   5.858629   2.995136   0.3817618  0.5554838  67.503     0.397047   0.3152082  0.4788859 
1120.6     0.244      306.406    -9999      -9999      4.099371   2.972      2.818      1.75       2.76       0.9927883  2.946      0.1649304  0.1649304  0.3067794  3.177385   4.284325   2.958943   0.3541659  0.5481817  68.327     0.4298453  0.3581752  0.5015154 
1120.8     0.233      311.389    -9999      -9999      4.235945   2.87       2.779      1.518      2.351      0.975956   2.896      0.1624482  0.1624482  0.3125663  2.858201   3.319463   2.882941   0.3375394  0.5447809  68.708     0.4549035  0.397507   0.5123    
1121       0.235      326.338    -9999      -9999      4.308923   2.603      2.773      1.388      2.174      0.9544466  2.667      0.166088   0.166088   0.3199613  3.338184   2.896371   2.634611   0.3221465  0.5345949  68.708     0.4662827  0.4202654  0.5123    
1121.2     0.249      344.401    -9999      -9999      4.310685   2.286      2.593      1.274      2.019      0.9326862  2.413      0.1734759  0.1734759  0.3274425  4.574599   2.886852   2.347784   0.3110867  0.5220538  68.708     0.4665653  0.4208307  0.5123    
1121.4     0.256      362.465    -9999      -9999      4.264831   2.108      2.175      1.293      2.109      0.9147219  2.4        0.1843996  0.1843996  0.3336186  7.28931    3.14507    2.244543   0.3328385  0.5281239  68.201     0.4521788  0.4063639  0.4979936 
1121.6     0.258      371.808    -9999      -9999      4.211378   2.07       1.859      1.165      2.006      0.9034513  2.413      0.1971444  0.1971444  0.3374934  12.55311   3.47537    2.228378   0.3684249  0.5419732  66.806     0.4253001  0.3901264  0.4604737 
1121.8     0.252      369.316    -9999      -9999      4.178693   2.083      1.833      1.126      1.949      0.9004543  2.375      0.2050108  0.2050108  0.3385238  17.55719   3.694206   2.219437   0.3884316  0.5489886  65.538     0.404585   0.3805189  0.428651  
1122       0.249      363.087    -9999      -9999      4.163845   1.994      1.965      1.158      1.757      0.9051378  2.083      0.2092478  0.2092478  0.3369136  21.03466   3.798126   2.037529   0.3746325  0.5318023  64.207     0.386866   0.3762328  0.3974993 
1122.2     0.267      358.727    -9999      -9999      4.141902   1.892      2.237      1.126      1.514      0.9149196  1.867      0.2114673  0.2114673  0.3335507  23.12308   3.957063   1.879417   0.3564143  0.5116613  62.94      0.3699495  0.3699873  0.3699118 
1122.4     0.282      348.138    -9999      -9999      4.096588   1.867      2.617      1.023      1.329      0.9271743  1.778      0.2114853  0.2114853  0.3293375  23.14087   4.30666    1.821413   0.3469252  0.5001951  62.306     0.3571276  0.3574155  0.3568397 
1122.6     0.283      334.747    -9999      -9999      4.035995   1.892      2.898      1.057      1.354      0.9407781  1.892      0.207754   0.207754   0.3246605  19.7363    4.822873   1.892      0.3484505  0.5018374  62.813     0.3542621  0.3412696  0.3672547 
1122.8     0.273      328.207    -9999      -9999      3.981389   2.032      2.858      1.101      1.387      0.9550949  2.045      0.2017677  0.2017677  0.3197384  15.28924   5.340872   2.038479   0.3546292  0.5099229  63.764     0.3574868  0.3273451  0.3876284 
1123       0.261      318.241    -9999      -9999      3.949749   2.197      2.979      1.274      1.482      0.9684953  2.248      0.1941713  0.1941713  0.3151313  11.05811   5.666109   2.222207   0.359177   0.5191574  64.905     0.3665456  0.3195382  0.413553  
1123.2     0.26       316.995    -9999      -9999      3.945794   2.388      2.729      1.068      1.431      0.978727   2.476      0.1846811  0.1846811  0.3116136  7.377332   5.708126   2.431204   0.3582384  0.5278062  66.426     0.3846443  0.3185757  0.4507128 
1123.4     0.25       317.618    -9999      -9999      3.96059    2.616      2.605      0.972      1.406      0.984491   2.68       0.1768888  0.1768888  0.309632   5.291361   5.552494   2.647613   0.3598209  0.537926   67.63      0.4022522  0.3221921  0.4823123 
1123.6     0.245      308.898    -9999      -9999      3.981466   2.73       2.766      0.902      1.629      0.9861181  2.756      0.1728885  0.1728885  0.3090726  4.46142    5.34011    2.742939   0.3576895  0.5414053  68.201     0.4126789  0.3273642  0.4979936 
1123.8     0.251      312.012    -9999      -9999      4.00909    2.781      2.753      0.946      1.84       0.9851944  2.553      0.1729295  0.1729295  0.3093902  4.469227   5.071495   2.662127   0.3487469  0.5348299  68.01      0.4135171  0.3343364  0.4926979 
1124       0.245      323.224    -9999      -9999      4.054851   2.705      2.51       1.099      1.789      0.9842549  2.413      0.1735716  0.1735716  0.3097132  4.59331    4.655922   2.55067    0.3376856  0.5257688  67.503     0.4125501  0.3462144  0.4788859 
1124.2     0.243      323.846    -9999      -9999      4.117207   2.578      2.408      1.267      1.732      0.9854723  2.324      0.1736772  0.1736772  0.3092946  4.614033   4.143916   2.444419   0.3246862  0.515291   66.743     0.4109619  0.3630819  0.4588419 
1124.4     0.245      315.749    -9999      -9999      4.175694   2.4        2.715      2.057      2          0.9884679  2.222      0.1720484  0.1720484  0.3082647  4.304385   3.714966   2.307572   0.3004627  0.4982566  66.236     0.4127769  0.3796493  0.4459046 
1124.6     0.245      316.372    -9999      -9999      4.21303    2.21       3.208      3.63       2.537      0.9903221  2.159      0.1690758  0.1690758  0.3076273  3.791851   3.464658   2.184202   0.2712122  0.4800823  66.362     0.419853   0.3906185  0.4490876 
1124.8     0.24       331.944    -9999      -9999      4.227791   2.121      3.048      2.08       2.128      0.9886944  2.083      0.167296   0.167296   0.3081869  3.514684   3.370415   2.101828   0.2510749  0.4683765  66.743     0.426942   0.3950421  0.4588419 
1125       0.246      350.63     -9999      -9999      4.223836   2.083      2.617      1.476      1.955      0.9839091  2.07       0.1677739  0.1677739  0.309832   3.587048   3.395415   2.07648    0.2486673  0.4674665  67.06      0.4304793  0.3938518  0.4671068 
1125.2     0.25       365.891    -9999      -9999      4.202048   2.032      2.246      1.274      1.891      0.9770312  2.146      0.1692662  0.1692662  0.3121967  3.822774   3.536479   2.087445   0.2562802  0.4731482  67.503     0.4331227  0.3873595  0.4788859 
1125.4     0.244      368.693    -9999      -9999      4.166605   2.083      2.105      1.367      2.058      0.967728   2.235      0.1727516  0.1727516  0.3153951  4.435445   3.778584   2.156325   0.2804126  0.4889325  67.82      0.4322531  0.3770261  0.48748   
1125.6     0.245      378.036    -9999      -9999      4.128293   2.324      2.115      1.46       2.227      0.9555936  2.324      0.1781408  0.1781408  0.3195669  5.581594   4.058968   2.324      0.3236016  0.5174859  67.947     0.428564   0.3661658  0.4909621 
1125.8     0.248      386.757    -9999      -9999      4.098789   2.464      2.115      1.171      1.719      0.941983   2.299      0.1841648  0.1841648  0.3242462  7.216683   4.28899    2.378642   0.3500396  0.5334019  67.947     0.4244891  0.358016   0.4909621 
1126       0.257      389.871    -9999      -9999      4.084558   2.464      2.115      1.024      1.617      0.9289265  2.159      0.1901497  0.1901497  0.3287351  9.315208   4.404552   2.301439   0.3580302  0.5354838  67.757     0.4199556  0.3541503  0.4857609 
