~Version
 VERS              .         2.0                           : CWLS LOG ASCII STANDARD - VERSION 2.0
 WRAP              .         NO                            : ONE LINE PER DEPTH STEP
 DLM               .         SPACE                         : DELIMITING CHARACTER(SPACE TAB OR COMMA)
~Well Information
#_______________________________________________________________________________
#
#PARAMETER_NAME    .UNIT     VALUE                         : DESCRIPTION
#_______________________________________________________________________________
STRT               .M        940.2                         : First reference value
STOP               .M        1398.6                        : Last reference value
STEP               .M        0.2                           : Step increment
NULL               .         -9999                         : Missing value
COMP               .                                       : Company
WELL               .         8708                          : Well name
FLD                .         УЗЕНЬ                         : Field
LOC                .                                       : Location
CNTY               .                                       : County
STAT               .                                       : State
CTRY               .                                       : Country
SRVC               .                                       : Service Company
DATE               .                                       : Date
UWI                .                                       : Unique Well ID
Block              .         4                             : 
Category           .         Нефтяная                      : 
Condition          .         В работе                      : 
Date               .         30.03.1997                    : 
EREF               .m        228.6                         : 100.8
Gorizont           .         15                            : 14
Interpretator      .         Алпанова Н.К.                 : 
Kupol              .         основной                      : osnovnoi
Moii_15            .         15_gor                        : 
Mud                .                                       : 
Mud_density        .                                       : 
Mud_resistivity    .                                       : 
NGDU               .         НГДУ-1                        : 
ORIGINALWELLNAME   .         8708                          : 
Spud_date          .         1996                          : 1961
Viscosity          .                                       : 
X                  .m        54224.2                       : 46154
Y                  .m        81794.5                       : 85761.93
YEAR               .         2018                          : 
~Parameter Information Block
#_______________________________________________________________________________
#
#PARAMETER_NAME    .UNIT     VALUE                         : DESCRIPTION
#_______________________________________________________________________________
SET                .         LQC_KAZNIPI_Petrel            : 
TLFamily_CALI      .         Caliper                       : 
TLFamily_CILD      .         Conductivity                  : 
TLFamily_COLL      .         Net Reservoir Flag            : 
TLFamily_CSAT      .         Fluid Code                    : 
TLFamily_DEPT      .         Measured Depth                : 
TLFamily_GR        .         Russian Gamma Ray             : 
TLFamily_GZ3       .         Gradient 225                  : 
TLFamily_LLS       .         Lateral Log Resistivity       : 
TLFamily_MINV      .         Micro Gradient Resistivity    : 
TLFamily_MNOR      .         Micro Resistivity             : 
TLFamily_NGLD      .         Neutron Far                   : 
TLFamily_OGZ       .         Gradient Inverted 225         : 
TLFamily_PHIE      .         Effective Porosity            : 
TLFamily_PHIEN     .         Effective Porosity            : 
TLFamily_PHIT      .         Porosity                      : 
TLFamily_PRMB      .         Permeability                  : 
TLFamily_PRMB_DGR  .         Permeability                  : 
TLFamily_RT        .         Formation Resistivity         : 
TLFamily_SOIL_ARCHIE .         Oil Saturation                : 
TLFamily_SOIL_DW   .         Oil Saturation                : 
TLFamily_SP        .         Spontaneous Potential         : 
TLFamily_VSH_FIN   .         Shale Volume                  : 
TLFamily_VSH_GR    .         Shale Volume                  : 
TLFamily_VSH_SP    .         Shale Volume                  : 
~Curve Information
#_______________________________________________________________________________
#
#LOGNAME           .UNIT     LOG_ID                        : DESCRIPTION
#_______________________________________________________________________________
DEPT               .M                                      : Колонка глубины 
CALI               .м                                      : Каверномер 
CILD               .мСм/м                                  : Индукционный каротаж 
COLL               .unitless                               : Описание 
CSAT               .unitless                               : Описание 
GR                 .мкР/ч                                  : Гамма каротаж 
GZ3                .Ом·м                                   :  
LLS                .Ом·м                                   : Боковой каротаж 
MINV               .Ом·м                                   : Микро-градиент зонд 
MNOR               .Ом·м                                   : Микро-потенциал зонд 
NGLD               .у.е.                                   : Показания зонда НГК-60 аппаратуры ДРСТ-3-90 
OGZ                .Ом·м                                   :  
PHIE               .v/v                                    : Описание 
PHIEN              .v/v                                    :  
PHIT               .v/v                                    : Описание 
PRMB               .mD                                     :  
PRMB_DGR           .mD                                     :  
RT                 .ohmm                                   : УЭС пласта 
SOIL_ARCHIE        .v/v                                    :  
SOIL_DW            .v/v                                    :  
SP                 .мВ                                     : Потенциал самополяризации 
VSH_FIN            .v/v                                    : Описание 
VSH_GR             .v/v                                    : Shale volume 
VSH_SP             .v/v                                    : Shale Volume 
~Ascii
# ...
1002.2     -9999      351.876    1          3          1.360125   -9999      2.51       2.282      2.722      1.184348   -9999      0.2134319  0.2134319  0.2409213  25.14403   3360.761   2.51       0.4426278  0.4910109  48.615     0.08330116 0.02355874 0.1430436 
1002.4     -9999      345.024    1          3          1.340782   -9999      2.629      2.378      2.62       1.180011   -9999      0.2151989  0.2151989  0.2424121  27.11214   3496.353   2.629      0.4585148  0.5061609  48.298     0.08246429 0.02318131 0.1417473 
1002.6     -9999      338.795    1          3          1.30175    -9999      2.858      2.429      2.626      1.175908   -9999      0.2172523  0.2172523  0.2438227  29.5936    3786.849   2.858      0.4836151  0.5298422  47.474     0.08051627 0.02243799 0.1385946 
1002.8     -9999      336.927    1          3          1.262203   -9999      2.715      2.256      2.556      1.172154   -9999      0.2190299  0.2190299  0.2451133  31.92446   4105.8     2.715      0.4747668  0.5207481  46.84      0.07904059 0.02170918 0.136372  
1003       -9999      334.435    1          3          1.236126   -9999      2.533      2.243      2.62       1.168732   -9999      0.2205572  0.2205572  0.24629    34.07321   4330.672   2.533      0.4606572  0.5066561  46.333     0.07797825 0.02124161 0.1347149 
1003.2     -9999      330.075    1          3          1.225412   -9999      2.605      2.333      2.824      1.164415   -9999      0.2221377  0.2221377  0.247774   36.44921   4426.595   2.605      0.4710047  0.5166699  46.207     0.07768573 0.02105243 0.134319  
1003.4     -9999      325.092    1          3          1.222906   -9999      2.805      2.526      3.208      1.156918   -9999      0.2247225  0.2247225  0.2503515  40.69715   4449.339   2.805      0.4941744  0.5392557  46.207     0.07766373 0.02100842 0.134319  
1003.6     -9999      319.486    1          3          1.22032    -9999      2.993      2.648      3.342      1.145315   -9999      0.2285535  0.2285535  0.2543409  47.92076   4472.927   2.993      0.5165117  0.5611627  46.523     0.07814342 0.02096311 0.1353237 
1003.8     -9999      314.503    1          3          1.214754   -9999      3.12       2.648      3.278      1.131552   -9999      0.2331281  0.2331281  0.2590723  58.24462   4524.13    3.12       0.5339627  0.578287   46.84      0.07861895 0.02086591 0.136372  
1004       -9999      309.52     1          3          1.208856   -9999      3.164      2.564      3.137      1.119598   -9999      0.2370011  0.2370011  0.2631823  68.70591   4579.019   3.164      0.5436119  0.5878994  47.284     0.07933694 0.02076341 0.1379105 
1004.2     -9999      305.783    1          3          1.20674    -9999      3.076      2.603      3.24       1.113091   -9999      0.2389372  0.2389372  0.2654194  74.62005   4598.873   3.076      0.5407963  0.5855106  47.791     0.08024897 0.02072676 0.1397712 
1004.4     -9999      301.423    1          3          1.211325   -9999      3.106      2.59       3.284      1.112502   -9999      0.2388839  0.2388839  0.2656218  74.45051   4555.962   3.106      0.542794   0.5876575  48.171     0.08102372 0.02080625 0.1412412 
1004.6     -9999      297.063    1          3          1.224837   -9999      3.149      2.506      3.157      1.114513   -9999      0.2380275  0.2380275  0.2649303  71.78023   4431.805   3.149      0.5443113  0.5892404  48.362     0.08152374 0.02104232 0.1420052 
1004.8     -9999      298.309    1          3          1.247849   -9999      3.106      2.474      3.022      1.114909   -9999      0.237824   0.237824   0.2647942  71.15991   4228.097   3.106      0.5410199  0.5861337  48.362     0.08172785 0.02145054 0.1420052 
1005       -9999      302.669    1          3          1.275887   -9999      2.779      2.513      3.022      1.112186   -9999      0.2388843  0.2388843  0.2657306  74.4516    3992.507   2.779      0.5182932  0.5641745  48.045     0.08135254 0.02195864 0.1407464 
1005.2     -9999      309.52     1          3          1.298716   -9999      2.593      2.622      2.946      1.108071   -9999      0.2406971  0.2406971  0.2671452  80.43639   3810.416   2.593      0.5056422  0.5516357  47.284     0.08014584 0.02238122 0.1379105 
1005.4     -9999      317.618    1          3          1.306677   -9999      2.581      2.596      2.767      1.105363   -9999      0.2421306  0.2421306  0.2680761  85.50748   3748.886   2.581      0.5071205  0.5526268  46.333     0.07862269 0.02253049 0.1347149 
1005.6     -9999      323.224    1          3          1.298784   -9999      2.545      2.442      2.722      1.105745   -9999      0.2420567  0.2420567  0.267945   85.23836   3809.885   2.545      0.5037291  0.5492889  46.27      0.07844934 0.02238249 0.1345162 
1005.8     -9999      326.338    1          3          1.28203    -9999      2.487      2.282      2.78       1.109301   -9999      0.2407176  0.2407176  0.2667222  80.50656   3942.666   2.487      0.4959014  0.5417822  46.587     0.07880183 0.02207157 0.1355321 
1006       -9999      327.584    1          3          1.261615   -9999      2.499      2.314      2.933      1.115261   -9999      0.2385204  0.2385204  0.2646733  73.30525   4110.734   2.499      0.493006   0.5390572  46.967     0.07925105 0.02169853 0.1368036 
1006.2     -9999      328.207    1          3          1.23666    -9999      2.581      2.532      3.131      1.122379   -9999      0.2358516  0.2358516  0.2622262  65.41879   4325.947   2.581      0.4957116  0.5418206  47.474     0.07992282 0.02125108 0.1385946 
1006.4     -9999      328.207    1          3          1.20626    -9999      2.753      2.667      3.15       1.129027   -9999      0.2332989  0.2332989  0.2599406  58.67037   4603.392   2.753      0.5060904  0.5520554  48.045     0.08073245 0.02071845 0.1407464 
1006.6     -9999      326.338    1          3          1.175168   -9999      2.938      2.686      3.086      1.134024   -9999      0.2314608  0.2314608  0.2582226  54.24662   4905.565   2.938      0.517625   0.5632638  48.362     0.08109634 0.02018751 0.1420052 
1006.8     -9999      328.207    1          3          1.151439   -9999      2.779      2.615      2.965      1.137144   -9999      0.2303343  0.2303343  0.2571499  51.70212   5149.459   2.779      0.5027567  0.5489323  48.488     0.08125926 0.02       0.1425185 
1007       -9999      333.812    1          3          1.140872   -9999      2.629      2.526      2.863      1.138601   -9999      0.2298335  0.2298335  0.2566491  50.60957   5261.933   2.629      0.4886709  0.5352926  48.488     0.08125926 0.02       0.1425185 
1007.2     -9999      342.533    1          3          1.144154   -9999      2.453      2.519      2.971      1.138245   -9999      0.2299982  0.2299982  0.2567713  50.96635   5226.739   2.453      0.4721007  0.5191888  48.425     0.08113045 0.02       0.1422609 
1007.4     -9999      347.516    1          3          1.156753   -9999      2.386      2.474      3.233      1.135526   -9999      0.2312642  0.2312642  0.2577063  53.7938    5093.812   2.386      0.4677462  0.5146391  47.918     0.08012757 0.02       0.1402552 
1007.6     -9999      351.253    1          3          1.172498   -9999      2.43       2.436      3.093      1.129607   -9999      0.2337728  0.2337728  0.2597412  59.8683    4932.421   2.43       0.4772261  0.5234184  47.094     0.07869224 0.02014256 0.1372419 
1007.8     -9999      354.99     1          3          1.187749   -9999      2.487      2.532      3.029      1.119899   -9999      0.2373499  0.2373499  0.2630788  69.7356    4780.977   2.487      0.4896777  0.5353698  46.587     0.07796638 0.02040069 0.1355321 
1008       -9999      356.236    1          3          1.201911   -9999      2.487      2.641      3.016      1.10678    -9999      0.2419214  0.2419214  0.2675891  84.7479    4644.509   2.487      0.4980868  0.5436078  46.397     0.07778086 0.02064336 0.1349184 
1008.2     -9999      359.973    1          3          1.214559   -9999      2.442      2.68       2.818      1.092018   -9999      0.2469272  0.2469272  0.2726644  104.9178   4525.932   2.442      0.5027177  0.5483227  46.46      0.07799138 0.02086252 0.1351202 
