~Version
 VERS              .         2.0                           : CWLS LOG ASCII STANDARD - VERSION 2.0
 WRAP              .         NO                            : ONE LINE PER DEPTH STEP
 DLM               .         SPACE                         : DELIMITING CHARACTER(SPACE TAB OR COMMA)
~Well Information
#_______________________________________________________________________________
#
#PARAMETER_NAME    .UNIT     VALUE                         : DESCRIPTION
#_______________________________________________________________________________
STRT               .M        940.2                         : First reference value
STOP               .M        1398.6                        : Last reference value
STEP               .M        0.2                           : Step increment
NULL               .         -9999                         : Missing value
COMP               .                                       : Company
WELL               .         8708                          : Well name
FLD                .         УЗЕНЬ                         : Field
LOC                .                                       : Location
CNTY               .                                       : County
STAT               .                                       : State
CTRY               .                                       : Country
SRVC               .                                       : Service Company
DATE               .                                       : Date
UWI                .                                       : Unique Well ID
Block              .         4                             : 
Category           .         Нефтяная                      : 
Condition          .         В работе                      : 
Date               .         30.03.1997                    : 
EREF               .m        228.6                         : 100.8
Gorizont           .         15                            : 14
Interpretator      .         Алпанова Н.К.                 : 
Kupol              .         основной                      : osnovnoi
Moii_15            .         15_gor                        : 
Mud                .                                       : 
Mud_density        .                                       : 
Mud_resistivity    .                                       : 
NGDU               .         НГДУ-1                        : 
ORIGINALWELLNAME   .         8708                          : 
Spud_date          .         1996                          : 1961
Viscosity          .                                       : 
X                  .m        54224.2                       : 46154
Y                  .m        81794.5                       : 85761.93
YEAR               .         2018                          : 
~Parameter Information Block
#_______________________________________________________________________________
#
#PARAMETER_NAME    .UNIT     VALUE                         : DESCRIPTION
#_______________________________________________________________________________
SET                .         LQC_KAZNIPI_Petrel            : 
TLFamily_CALI      .         Caliper                       : 
TLFamily_CILD      .         Conductivity                  : 
TLFamily_COLL      .         Net Reservoir Flag            : 
TLFamily_CSAT      .         Fluid Code                    : 
TLFamily_DEPT      .         Measured Depth                : 
TLFamily_GR        .         Russian Gamma Ray             : 
TLFamily_GZ3       .         Gradient 225                  : 
TLFamily_LLS       .         Lateral Log Resistivity       : 
TLFamily_MINV      .         Micro Gradient Resistivity    : 
TLFamily_MNOR      .         Micro Resistivity             : 
TLFamily_NGLD      .         Neutron Far                   : 
TLFamily_OGZ       .         Gradient Inverted 225         : 
TLFamily_PHIE      .         Effective Porosity            : 
TLFamily_PHIEN     .         Effective Porosity            : 
TLFamily_PHIT      .         Porosity                      : 
TLFamily_PRMB      .         Permeability                  : 
TLFamily_PRMB_DGR  .         Permeability                  : 
TLFamily_RT        .         Formation Resistivity         : 
TLFamily_SOIL_ARCHIE .         Oil Saturation                : 
TLFamily_SOIL_DW   .         Oil Saturation                : 
TLFamily_SP        .         Spontaneous Potential         : 
TLFamily_VSH_FIN   .         Shale Volume                  : 
TLFamily_VSH_GR    .         Shale Volume                  : 
TLFamily_VSH_SP    .         Shale Volume                  : 
~Curve Information
#_______________________________________________________________________________
#
#LOGNAME           .UNIT     LOG_ID                        : DESCRIPTION
#_______________________________________________________________________________
DEPT               .M                                      : Колонка глубины 
CALI               .м                                      : Каверномер 
CILD               .мСм/м                                  : Индукционный каротаж 
COLL               .unitless                               : Описание 
CSAT               .unitless                               : Описание 
GR                 .мкР/ч                                  : Гамма каротаж 
GZ3                .Ом·м                                   :  
LLS                .Ом·м                                   : Боковой каротаж 
MINV               .Ом·м                                   : Микро-градиент зонд 
MNOR               .Ом·м                                   : Микро-потенциал зонд 
NGLD               .у.е.                                   : Показания зонда НГК-60 аппаратуры ДРСТ-3-90 
OGZ                .Ом·м                                   :  
PHIE               .v/v                                    : Описание 
PHIEN              .v/v                                    :  
PHIT               .v/v                                    : Описание 
PRMB               .mD                                     :  
PRMB_DGR           .mD                                     :  
RT                 .ohmm                                   : УЭС пласта 
SOIL_ARCHIE        .v/v                                    :  
SOIL_DW            .v/v                                    :  
SP                 .мВ                                     : Потенциал самополяризации 
VSH_FIN            .v/v                                    : Описание 
VSH_GR             .v/v                                    : Shale volume 
VSH_SP             .v/v                                    : Shale Volume 
~Ascii
# ...
1194.4     0.213      158.785    6          6          3.651058   5.397      10.292     2.301      3.725      1.120741   4.647999   0.2115133  0.2115133  0.2627894  23.16848   36.14789   4.994575   0.5932446  0.6554595  43.608     0.1553821  0.1499329  0.1608313 
1194.6     0.213      173.111    6          6          3.678208   5.943      11.134     2.282      3.655      1.100024   4.407      0.2186074  0.2186074  0.2699117  31.35432   34.00794   5.061024   0.607209   0.6676368  42.974     0.1554676  0.1537159  0.1572194 
1194.8     0.213      187.438    1          2          3.724548   6.083      9.646      2.288      3.732      1.077284   4.14       0.2259384  0.2259384  0.2777296  42.86321   30.64401   4.926855   0.61349    0.6732355  42.277     0.1569433  0.1603946  0.153492  
1195       0.213      203.632    1          2          3.785668   5.969      7.011      2.307      3.713      1.060141   3.861      0.2305077  0.2305077  0.2836234  52.08597   26.71053   4.688974   0.611248   0.6718745  42.023     0.1609566  0.1696493  0.1522638 
1195.2     0.213      218.581    1          2          3.846817   5.753      5.64       2.294      3.572      1.052463   3.772      0.2313501  0.2313501  0.2862633  53.99132   23.28046   4.556497   0.6072341  0.6694261  42.213     0.1664036  0.1794427  0.1533645 
1195.4     0.213      232.907    1          2          3.889596   5.601      5.511      2.23       3.482      1.054855   3.924      0.2291553  0.2291553  0.2854407  49.16664   21.14621   4.614872   0.6063185  0.669652   42.404     0.1705617  0.1866283  0.1544952 
1195.6     0.213      247.233    1          2          3.905439   5.55       5.143      2.449      3.508      1.065982   4.102      0.2247476  0.2247476  0.2816155  40.74066   20.40645   4.717385   0.6037093  0.6679953  42.53      0.1723271  0.1893618  0.1552923 
1195.8     0.213      259.068    1          2          3.898867   5.397      4.709      2.481      3.451      1.083098   4.102      0.2188582  0.2188582  0.275731   31.69154   20.71014   4.661226   0.5921519  0.6580924  42.72      0.1723417  0.188223   0.1564603 
1196       0.214      265.919    1          2          3.87765    5.143      4.475      2.352      3.342      1.102503   3.861      0.2124676  0.2124676  0.2690595  24.13088   21.7217    4.410733   0.570498   0.6390236  43.037     0.1714908  0.1845933  0.1583882 
1196.2     0.214      271.525    1          2          3.845363   4.851      4.234      2.333      3.412      1.120764   3.454      0.2068118  0.2068118  0.2627813  18.95898   23.3567    4.035004   0.5415254  0.6130271  43.291     0.1696043  0.1792034  0.1600052 
1196.4     0.215      268.411    1          2          3.804407   4.483      4.118      2.32       3.348      1.136405   3.01       0.202252   0.202252   0.2574038  15.60829   25.60889   3.601716   0.5069406  0.5815704  43.544     0.1671267  0.1725922  0.1616613 
1196.6     0.215      255.331    1          2          3.761267   4.191      4.414      2.147      3.22       1.150504   2.578      0.1982286  0.1982286  0.2525568  13.1472    28.21641   3.192317   0.4690049  0.546813   43.798     0.1646307  0.1658922  0.1633692 
1196.8     0.214      237.89     1          2          3.724212   4.013      4.956      2.262      3.182      1.165501   2.578      0.1939012  0.1939012  0.2474009  10.93147   30.66717   3.139285   0.4544263  0.5331941  43.861     0.1621204  0.1603451  0.1638957 
1197       0.214      213.598    1          2          3.696218   3.848      5.667      2.262      3.157      1.184223   2.692      0.1881145  0.1881145  0.2409642  8.540739   32.65878   3.167834   0.4422128  0.5221009  43.861     0.1601505  0.1562779  0.1640232 
1197.2     0.213      191.798    1          2          3.673735   3.899      6.48       2.192      3.112      1.209835   2.972      0.1798147  0.1798147  0.2321588  5.994639   34.35159   3.372967   0.4366875  0.5177019  43.861     0.1586185  0.1530861  0.1641509 
1197.4     0.211      170.62     1          2          3.654097   4.115      7.584      2.301      3.393      1.243975   3.353      0.1679578  0.1679578  0.2204213  3.615297   35.90183   3.695124   0.4272559  0.5113425  44.368     0.1589803  0.1503517  0.167609  
1197.6     0.212      161.277    6          6          3.642625   4.432      9.339      2.705      4.16       1.284088   3.746      0.153451   0.153451   0.2066305  1.947342   36.83959   4.060228   0.4071761  0.4973591  45.192     0.16115    0.1487769  0.1735231 
1197.8     0.214      164.391    6          6          3.650128   5.118001   12.102     2.962      4.364      1.323112   3.962      0.137699   0.137699   0.193214   0.9946659  36.22356   4.466413   0.3770361  0.4786628  46.84      0.1682273  0.1498049  0.1866496 
1198       0.216      183.7      6          6          3.685988   6.480999   16.651     2.917      4.377      1.350074   3.886      0.1228379  0.1228379  0.1839445  0.527732   33.4184    4.858718   0.3385406  0.4607581  49.819     0.1851715  0.1548175  0.2155255 
1198.2     0.216      231.039    6          6          3.75811    7.506001   12.442     2.872      3.067      1.351016   3.619      0.1141715  0.1141715  0.1836209  0.3646634  28.41738   4.883454   0.2966974  0.4453545  53.052     0.2104524  0.1654121  0.2554927 
1198.4     0.216      274.017    6          6          3.875762   8.304      5.142      2.333      2.032      1.314788   3.276      0.1157699  0.1157699  0.196076   0.3903888  21.8141    4.698429   0.292453   0.4593723  56.094     0.2433519  0.1842736  0.3024302 
1198.6     0.218      320.732    6          6          4.045751   8.076      2.115      2.24       2.085      1.243439   2.794      0.1253212  0.1253212  0.2206056  0.5866933  14.8868    4.151673   0.3001861  0.4809322  59.264     0.2887407  0.2153874  0.362094  
1198.8     0.224      348.761    -9999      -9999      4.262795   6.822      1.938      2.153      2.134      1.155306   2.235      0.1374685  0.1374685  0.2509057  0.9849384  9.13971    3.366936   0.2876617  0.4859409  62.052     0.3437489  0.2628654  0.4246324 
1199       0.23       379.853    -9999      -9999      4.500823   4.381      2.01       1.929      2.051      1.074063   1.778      0.1462229  0.1462229  0.2788371  1.430743   5.352792   2.529443   0.2279928  0.4571162  64.081     0.4018612  0.3270472  0.4766751 
1199.2     0.239      395.504    -9999      -9999      4.714653   2.921      2.001      1.742      1.93       1.014986   1.676      0.1636342  0.1636342  0.2991477  3.006488   5.43311    2.129909   0.2517944  0.4648277  64.778     0.4106472  0.3250643  0.4962301 
1199.4     0.245      404.119    -9999      -9999      4.85971    2.426      2.068      1.344      1.943      0.9809792  1.74       0.1681048  0.1681048  0.3108394  3.638027   4.002334   2.02652    0.2518883  0.4696053  64.778     0.4325291  0.3682727  0.4967855 
1199.6     0.249      412.917    -9999      -9999      4.918502   2.299      2.115      1.511      1.706      0.9667795  1.841      0.1697422  0.1697422  0.3157212  3.901174   3.536024   2.044666   0.2612745  0.4789217  64.778     0.4423607  0.3873799  0.4973415 
1199.8     0.251      425.997    -9999      -9999      4.907905   2.299      2.175      1.62       1.617      0.9643399  1.994      0.1710692  0.1710692  0.31656    4.128336   3.615866   2.135665   0.2811086  0.492522   64.778     0.440881   0.383864   0.497898  
1200       0.247      430.98     -9999      -9999      4.860693   2.349      2.226      1.377      1.738      0.9659178  2.159      0.1723698  0.1723698  0.3160174  4.363805   3.99406    2.249996   0.3031002  0.5065458  64.905     0.4352959  0.368584   0.5020077 
1200.2     0.234      432.226    -9999      -9999      4.804491   2.388      2.237      1.171      1.866      0.9656235  2.273      0.1728693  0.1728693  0.3161186  4.457756   4.496168   2.329081   0.3160323  0.5156436  65.412     0.434089   0.3511856  0.5169923 
1200.4     0.237      432.226    -9999      -9999      4.754243   2.438      2.237      1.261      1.904      0.9606774  2.172      0.1747954  0.1747954  0.3178191  4.83941    4.998298   2.297326   0.3182232  0.5160114  65.855     0.4334052  0.336327   0.5304834 
