~Version
 VERS              .         2.0                           : CWLS LOG ASCII STANDARD - VERSION 2.0
 WRAP              .         NO                            : ONE LINE PER DEPTH STEP
 DLM               .         SPACE                         : DELIMITING CHARACTER(SPACE TAB OR COMMA)
~Well Information
#_______________________________________________________________________________
#
#PARAMETER_NAME    .UNIT     VALUE                         : DESCRIPTION
#_______________________________________________________________________________
STRT               .M        940.2                         : First reference value
STOP               .M        1398.6                        : Last reference value
STEP               .M        0.2                           : Step increment
NULL               .         -9999                         : Missing value
COMP               .                                       : Company
WELL               .         8708                          : Well name
FLD                .         УЗЕНЬ                         : Field
LOC                .                                       : Location
CNTY               .                                       : County
STAT               .                                       : State
CTRY               .                                       : Country
SRVC               .                                       : Service Company
DATE               .                                       : Date
UWI                .                                       : Unique Well ID
Block              .         4                             : 
Category           .         Нефтяная                      : 
Condition          .         В работе                      : 
Date               .         30.03.1997                    : 
EREF               .m        228.6                         : 100.8
Gorizont           .         15                            : 14
Interpretator      .         Алпанова Н.К.                 : 
Kupol              .         основной                      : osnovnoi
Moii_15            .         15_gor                        : 
Mud                .                                       : 
Mud_density        .                                       : 
Mud_resistivity    .                                       : 
NGDU               .         НГДУ-1                        : 
ORIGINALWELLNAME   .         8708                          : 
Spud_date          .         1996                          : 1961
Viscosity          .                                       : 
X                  .m        54224.2                       : 46154
Y                  .m        81794.5                       : 85761.93
YEAR               .         2018                          : 
~Parameter Information Block
#_______________________________________________________________________________
#
#PARAMETER_NAME    .UNIT     VALUE                         : DESCRIPTION
#_______________________________________________________________________________
SET                .         LQC_KAZNIPI_Petrel            : 
TLFamily_CALI      .         Caliper                       : 
TLFamily_CILD      .         Conductivity                  : 
TLFamily_COLL      .         Net Reservoir Flag            : 
TLFamily_CSAT      .         Fluid Code                    : 
TLFamily_DEPT      .         Measured Depth                : 
TLFamily_GR        .         Russian Gamma Ray             : 
TLFamily_GZ3       .         Gradient 225                  : 
TLFamily_LLS       .         Lateral Log Resistivity       : 
TLFamily_MINV      .         Micro Gradient Resistivity    : 
TLFamily_MNOR      .         Micro Resistivity             : 
TLFamily_NGLD      .         Neutron Far                   : 
TLFamily_OGZ       .         Gradient Inverted 225         : 
TLFamily_PHIE      .         Effective Porosity            : 
TLFamily_PHIEN     .         Effective Porosity            : 
TLFamily_PHIT      .         Porosity                      : 
TLFamily_PRMB      .         Permeability                  : 
TLFamily_PRMB_DGR  .         Permeability                  : 
TLFamily_RT        .         Formation Resistivity         : 
TLFamily_SOIL_ARCHIE .         Oil Saturation                : 
TLFamily_SOIL_DW   .         Oil Saturation                : 
TLFamily_SP        .         Spontaneous Potential         : 
TLFamily_VSH_FIN   .         Shale Volume                  : 
TLFamily_VSH_GR    .         Shale Volume                  : 
TLFamily_VSH_SP    .         Shale Volume                  : 
~Curve Information
#_______________________________________________________________________________
#
#LOGNAME           .UNIT     LOG_ID                        : DESCRIPTION
#_______________________________________________________________________________
DEPT               .M                                      : Колонка глубины 
CALI               .м                                      : Каверномер 
CILD               .мСм/м                                  : Индукционный каротаж 
COLL               .unitless                               : Описание 
CSAT               .unitless                               : Описание 
GR                 .мкР/ч                                  : Гамма каротаж 
GZ3                .Ом·м                                   :  
LLS                .Ом·м                                   : Боковой каротаж 
MINV               .Ом·м                                   : Микро-градиент зонд 
MNOR               .Ом·м                                   : Микро-потенциал зонд 
NGLD               .у.е.                                   : Показания зонда НГК-60 аппаратуры ДРСТ-3-90 
OGZ                .Ом·м                                   :  
PHIE               .v/v                                    : Описание 
PHIEN              .v/v                                    :  
PHIT               .v/v                                    : Описание 
PRMB               .mD                                     :  
PRMB_DGR           .mD                                     :  
RT                 .ohmm                                   : УЭС пласта 
SOIL_ARCHIE        .v/v                                    :  
SOIL_DW            .v/v                                    :  
SP                 .мВ                                     : Потенциал самополяризации 
VSH_FIN            .v/v                                    : Описание 
VSH_GR             .v/v                                    : Shale volume 
VSH_SP             .v/v                                    : Shale Volume 
~Ascii
# ...
1256.4     0.213      182.455    1          2          4.417973   3.543      5.511      2.397      3.789      1.08271    3.543      0.2045554  0.2045554  0.2758645  17.21951   10.15146   3.543      0.5148439  0.6024272  44.495     0.216088   0.2518343  0.1803417 
1256.6     0.214      185.569    1          2          4.400079   3.569      6.016      2.609      4.026      1.075971   3.213      0.2080748  0.2080748  0.278181   20.00824   10.54151   3.381656   0.5114291  0.5979077  44.051     0.2124429  0.247987   0.1768988 
1256.8     0.215      191.798    1          2          4.400669   3.734      6.756      2.692      4.16       1.060642   2.908      0.2130826  0.2130826  0.2834512  24.77224   10.5284    3.269639   0.5138199  0.5995229  44.242     0.213238   0.248113   0.178363  
1257       0.215      196.78     1          2          4.420579   3.975      6.601      2.635      4.045      1.041664   2.565      0.2185735  0.2185735  0.2899759  31.30906   10.09586   3.118005   0.5137594  0.5995788  44.495     0.2163707  0.2523998  0.1803417 
1257.2     0.214      211.107    1          2          4.447541   4.28       6.42       2.538      3.808      1.026653   2.337      0.2224216  0.2224216  0.2951366  36.89322   9.538325   3.023231   0.5141072  0.6004301  44.749     0.2203484  0.258323   0.1823739 
1257.4     0.215      227.924    1          2          4.471789   4.534      6.245      2.378      3.591      1.02043    2.21       0.2234068  0.2234068  0.2972761  38.4763    9.063233   2.971572   0.5120432  0.5994021  44.939     0.2238466  0.2637688  0.1839244 
1257.6     0.216      243.496    1          2          4.496601   4.623      5.614      2.237      3.476      1.021215   2.121      0.2221121  0.2221121  0.2970063  36.40934   8.601598   2.907884   0.5045553  0.5938377  45.002     0.2269521  0.26946    0.1844442 
1257.8     0.216      261.248    1          2          4.532384   4.534      5.461      2.314      3.444      1.022486   2.045      0.2200234  0.2200234  0.2965693  33.30622   7.97692    2.818675   0.4931038  0.5854717  45.192     0.2319572  0.2778848  0.1860297 
1258       0.216      267.165    1          2          4.586056   4.572      5.693      2.314      3.336      1.01887    1.981      0.2174352  0.2174352  0.2978124  29.82528   7.123976   2.764271   0.483147   0.5803627  46.333     0.2435673  0.2910175  0.1961171 
1258.2     0.216      270.902    1          2          4.657014   4.647999   5.935      2.487      3.348      1.010011   1.88       0.2143084  0.2143084  0.3008582  26.10176   6.134678   2.677157   0.468661   0.5735533  48.235     0.2622721  0.3093375  0.2152067 
1258.4     0.217      282.114    1          2          4.737377   4.699      5.562      2.32       3.22       0.9995201  1.753      0.2099476  0.2099476  0.304465   21.67186   5.179116   2.553424   0.4469153  0.5626742  50.453     0.2864164  0.3314819  0.241351  
1258.6     0.218      299.554    1          2          4.814554   4.673      4.688      2.14       2.952      0.9916387  1.613      0.2030439  0.2030439  0.3071746  16.14448   4.401835   2.398202   0.4135648  0.5448728  52.989     0.3155476  0.3542395  0.2768556 
1258.8     0.225      329.452    1          2          4.87665    4.508      3.47       1.8        2.582      0.9882386  1.511      0.2000544  0.2000544  0.3083436  14.21185   3.861999   2.263362   0.3895866  0.5297163  56.031     0.328149   0.3736794  0.3281486 
1259       0.234      371.185    1          2          4.916785   4.191      2.246      1.434      2.166      0.9876511  1.499      0.1807933  0.1807933  0.3085456  6.250132   3.54884    2.208193   0.3255571  0.5041654  58.947     0.387128   0.386808   0.3871279 
1259.2     0.245      390.494    -9999      -9999      4.930007   3.581      1.867      1.543      1.783      0.9868004  1.537      0.1670525  0.1670525  0.308838   3.478372   3.451338   2.150839   0.2685111  0.4818625  60.785     0.429653   0.3912334  0.4296527 
1259.4     0.249      405.443    -9999      -9999      4.909166   3.124      1.85       1.627      1.847      0.9845206  1.664      0.1594768  0.1594768  0.3096218  2.517996   3.60627    2.171402   0.2417314  0.4756624  61.799     0.454985   0.3842808  0.4549848 
1259.6     0.249      419.769    -9999      -9999      4.852335   2.857      1.902      1.357      1.917      0.9824753  1.816      0.1569304  0.1569304  0.310325   2.258866   4.065015   2.220549   0.2390607  0.4789619  62.179     0.464832   0.3659433  0.4648316 
1259.8     0.254      434.718    -9999      -9999      4.77273    2.692      1.919      1.178      1.923      0.9828517  1.956      0.1545933  0.1545933  0.3101956  2.044566   4.80734    2.265728   0.2363036  0.4810407  62.433     0.471522   0.3417194  0.4715223 
1260       0.258      447.798    -9999      -9999      4.692446   2.591      1.902      1.178      1.84       0.9856943  2.121      0.1513879  0.1513879  0.3092183  1.783319   5.693377   2.33256    0.2327771  0.4833732  62.686     0.478274   0.3189124  0.4782744 
1260.2     0.259      457.764    -9999      -9999      4.626124   2.451      1.911      1.075      1.7        0.9883143  2.299      0.1482207  0.1482207  0.3083175  1.557992   6.54724    2.372568   0.2247301  0.4826361  62.94      0.485142   0.3012245  0.4851415 
1260.4     0.253      467.107    -9999      -9999      4.576848   2.337      1.929      0.985      1.642      0.9871838  2.489      0.1463231  0.1463231  0.3087062  1.436869   7.263553   2.410606   0.2218108  0.4845937  63.193     0.49207    0.288721   0.4920702 
1260.6     0.247      472.09     -9999      -9999      4.543966   2.21       1.938      1.075      1.77       0.9810556  2.718      0.1466935  0.1466935  0.3108131  1.45975    7.784623   2.437817   0.2276016  0.4901198  63.383     0.497332   0.2806675  0.4973321 
1260.8     0.243      476.45     -9999      -9999      4.524095   2.07       1.938      1.158      1.917      0.9720677  3.086      0.1474359  0.1474359  0.3139032  1.506709   8.117467   2.477898   0.2368527  0.4983112  63.637     0.504446   0.27591    0.5044457 
1261       0.242      482.056    -9999      -9999      4.509116   1.93       1.929      1.094      1.904      0.9631625  3.505      0.1469296  0.1469296  0.3169647  1.47452    8.377746   2.489292   0.2362087  0.5018048  64.017     0.515258   0.2723771  0.5152577 
1261.2     0.238      484.547    -9999      -9999      4.494907   1.803      1.919      1.158      1.955      0.9551617  3.835      0.1441785  0.1441785  0.3197154  1.311274   8.63235    2.452822   0.2181345  0.4972066  64.461     0.53193    0.2690676  0.53193   
1261.4     0.231      485.793    -9999      -9999      4.489562   1.676      1.799      1.274      1.84       0.9475466  4.178      0.1405061  0.1405061  0.3223335  1.121172   8.730127   2.392323   0.1909394  0.4885258  64.968     0.550992   0.267833   0.5509917 
1261.6     0.228      478.319    -9999      -9999      4.506353   1.575      1.75       1.139      1.681      0.9411706  4.623      0.1375248  0.1375248  0.3245255  0.9873029  8.426655   2.34954    0.1686748  0.4819419  65.348     0.566669   0.2717304  0.566669  
1261.8     0.227      453.404    -9999      -9999      4.547994   1.486      1.766      1.178      1.629      0.9383707  5.054      0.1455362  0.1455362  0.3254882  1.389445   7.71883    2.296711   0.2001862  0.4879695  64.524     0.545309   0.2816419  0.5453086 
1262       0.226      416.654    -9999      -9999      4.600391   1.41       1.902      1.434      2.166      0.9408637  5.461      0.158679   0.158679   0.324631   2.433763   6.912019   2.241307   0.2496525  0.4976732  62.94      0.502885   0.2946289  0.5028853 
1262.2     0.222      343.466    -9999      -9999      4.641529   1.38       2.299      1.781      2.709      0.9482052  5.943      0.1881713  0.1881713  0.322107   8.561439   6.338145   2.239885   0.3529889  0.5278433  59.01      0.405866   0.3052434  0.4058661 
1262.4     0.219      273.394    -9999      -9999      4.657547   1.494      3.035      2.063      3.029      0.9577984  6.724      0.2153668  0.2153668  0.3188089  27.30698   6.127804   2.444793   0.4479071  0.5695414  54.32      0.313461   0.3094791  0.3134613 
