~Version
 VERS              .         2.0                           : CWLS LOG ASCII STANDARD - VERSION 2.0
 WRAP              .         NO                            : ONE LINE PER DEPTH STEP
 DLM               .         SPACE                         : DELIMITING CHARACTER(SPACE TAB OR COMMA)
~Well Information
#_______________________________________________________________________________
#
#PARAMETER_NAME    .UNIT     VALUE                         : DESCRIPTION
#_______________________________________________________________________________
STRT               .M        940.2                         : First reference value
STOP               .M        1398.6                        : Last reference value
STEP               .M        0.2                           : Step increment
NULL               .         -9999                         : Missing value
COMP               .                                       : Company
WELL               .         8708                          : Well name
FLD                .         УЗЕНЬ                         : Field
LOC                .                                       : Location
CNTY               .                                       : County
STAT               .                                       : State
CTRY               .                                       : Country
SRVC               .                                       : Service Company
DATE               .                                       : Date
UWI                .                                       : Unique Well ID
Block              .         4                             : 
Category           .         Нефтяная                      : 
Condition          .         В работе                      : 
Date               .         30.03.1997                    : 
EREF               .m        228.6                         : 100.8
Gorizont           .         15                            : 14
Interpretator      .         Алпанова Н.К.                 : 
Kupol              .         основной                      : osnovnoi
Moii_15            .         15_gor                        : 
Mud                .                                       : 
Mud_density        .                                       : 
Mud_resistivity    .                                       : 
NGDU               .         НГДУ-1                        : 
ORIGINALWELLNAME   .         8708                          : 
Spud_date          .         1996                          : 1961
Viscosity          .                                       : 
X                  .m        54224.2                       : 46154
Y                  .m        81794.5                       : 85761.93
YEAR               .         2018                          : 
~Parameter Information Block
#_______________________________________________________________________________
#
#PARAMETER_NAME    .UNIT     VALUE                         : DESCRIPTION
#_______________________________________________________________________________
SET                .         LQC_KAZNIPI_Petrel            : 
TLFamily_CALI      .         Caliper                       : 
TLFamily_CILD      .         Conductivity                  : 
TLFamily_COLL      .         Net Reservoir Flag            : 
TLFamily_CSAT      .         Fluid Code                    : 
TLFamily_DEPT      .         Measured Depth                : 
TLFamily_GR        .         Russian Gamma Ray             : 
TLFamily_GZ3       .         Gradient 225                  : 
TLFamily_LLS       .         Lateral Log Resistivity       : 
TLFamily_MINV      .         Micro Gradient Resistivity    : 
TLFamily_MNOR      .         Micro Resistivity             : 
TLFamily_NGLD      .         Neutron Far                   : 
TLFamily_OGZ       .         Gradient Inverted 225         : 
TLFamily_PHIE      .         Effective Porosity            : 
TLFamily_PHIEN     .         Effective Porosity            : 
TLFamily_PHIT      .         Porosity                      : 
TLFamily_PRMB      .         Permeability                  : 
TLFamily_PRMB_DGR  .         Permeability                  : 
TLFamily_RT        .         Formation Resistivity         : 
TLFamily_SOIL_ARCHIE .         Oil Saturation                : 
TLFamily_SOIL_DW   .         Oil Saturation                : 
TLFamily_SP        .         Spontaneous Potential         : 
TLFamily_VSH_FIN   .         Shale Volume                  : 
TLFamily_VSH_GR    .         Shale Volume                  : 
TLFamily_VSH_SP    .         Shale Volume                  : 
~Curve Information
#_______________________________________________________________________________
#
#LOGNAME           .UNIT     LOG_ID                        : DESCRIPTION
#_______________________________________________________________________________
DEPT               .M                                      : Колонка глубины 
CALI               .м                                      : Каверномер 
CILD               .мСм/м                                  : Индукционный каротаж 
COLL               .unitless                               : Описание 
CSAT               .unitless                               : Описание 
GR                 .мкР/ч                                  : Гамма каротаж 
GZ3                .Ом·м                                   :  
LLS                .Ом·м                                   : Боковой каротаж 
MINV               .Ом·м                                   : Микро-градиент зонд 
MNOR               .Ом·м                                   : Микро-потенциал зонд 
NGLD               .у.е.                                   : Показания зонда НГК-60 аппаратуры ДРСТ-3-90 
OGZ                .Ом·м                                   :  
PHIE               .v/v                                    : Описание 
PHIEN              .v/v                                    :  
PHIT               .v/v                                    : Описание 
PRMB               .mD                                     :  
PRMB_DGR           .mD                                     :  
RT                 .ohmm                                   : УЭС пласта 
SOIL_ARCHIE        .v/v                                    :  
SOIL_DW            .v/v                                    :  
SP                 .мВ                                     : Потенциал самополяризации 
VSH_FIN            .v/v                                    : Описание 
VSH_GR             .v/v                                    : Shale volume 
VSH_SP             .v/v                                    : Shale Volume 
~Ascii
# ...
1157.2     0.249      447.175    -9999      -9999      4.930761   2.756      1.85       2.134      2.313      0.9050817  3.099      0.2034128  0.2034128  0.3369329  16.40051   2.036547   2.917453   0.458405   0.6042742  60.595     0.4046062  0.4852687  0.3239438 
1157.4     0.243      413.54     -9999      -9999      4.760506   3.365      1.902      2.166      2.498      0.8971171  4.14       0.2179267  0.2179267  0.3396711  30.45716   2.985998   3.712485   0.5444965  0.6604437  60.531     0.3689225  0.4150681  0.322777  
1157.6     0.24       397.068    -9999      -9999      4.636203   3.962      2.145      2.314      2.709      0.8900964  4.775      0.2261784  0.2261784  0.3420849  43.30434   3.948464   4.330674   0.5897539  0.6916214  61.038     0.3512316  0.3703161  0.3321471 
1157.8     0.241      380.528    -9999      -9999      4.604782   3.759      2.729      2.269      2.952      0.887036   3.899      0.2261427  0.2261427  0.343137   43.23845   4.237407   3.82772    0.5652257  0.6725619  61.926     0.3545281  0.3597893  0.349267  
1158       0.243      364.956    -9999      -9999      4.6709     2.324      3.617      2.596      2.69       0.8916854  2.845      0.2174181  0.2174181  0.3415386  29.80357   3.652237   2.558243   0.4564167  0.5919001  62.94      0.3761227  0.3822984  0.369947  
1158.2     0.244      372.43     -9999      -9999      4.796229   1.651      3.896      1.717      2.16       0.9054797  2.159      0.2060744  0.2060744  0.3367961  18.37199   2.755615   1.871133   0.3404041  0.5083151  62.623     0.3961262  0.4289022  0.3633502 
1158.4     0.24       388.002    -9999      -9999      4.922941   1.372      2.617      1.531      2.076      0.9265165  1.905      0.190757   0.190757   0.3295636  9.559613   2.07266    1.595154   0.2396496  0.4435959  62.433     0.4206261  0.4817982  0.359454  
1158.6     0.23       391.117    -9999      -9999      5.002246   1.283      2.185      1.377      2.006      0.9514962  2.045      0.1770152  0.1770152  0.3209756  5.319972   1.734257   1.576764   0.1840629  0.414309   62.179     0.4362436  0.5181746  0.3543125 
1158.8     0.22       394.231    -9999      -9999      5.010504   1.245      2.205      1.576      2.128      0.9769894  2.235      0.1710589  0.1710589  0.312211   4.126518   1.702364   1.599181   0.1649234  0.4005649  61.102     0.4277338  0.5221169  0.3333507 
1159       0.222      394.854    -9999      -9999      4.954134   1.219      2.43       1.858      2.262      0.9995987  2.235      0.1730319  0.1730319  0.304438   4.488788   1.93232    1.577571   0.1679274  0.3899403  59.264     0.3982001  0.4957909  0.3006094 
1159.2     0.227      401.083    -9999      -9999      4.863842   1.143      3.007      2.089      2.198      1.0169     2.032      0.1746334  0.1746334  0.2984897  4.806091   2.367107   1.46304    0.1448609  0.3612611  58.883     0.3753223  0.4563609  0.2942838 
1159.4     0.231      408.569    -9999      -9999      4.776934   1.079      3.135      2.051      2.115      1.028185   2.07       0.1761814  0.1761814  0.2946099  5.1341     2.877754   1.418565   0.1390259  0.3484972  59.01      0.3588743  0.4213735  0.2963751 
1159.6     0.235      418.523    -9999      -9999      4.716884   1.143      2.289      2.102      2.153      1.033213   2.261      0.1776593  0.1776593  0.2928812  5.468144   3.293603   1.518404   0.1721168  0.3701617  59.2       0.3491572  0.3987785  0.2995359 
1159.8     0.235      482.056    -9999      -9999      4.687867   1.359      1.733      2.037      2.16       1.031597   2.464      0.180981   0.180981   0.2934369  6.300365   3.515579   1.751805   0.2382339  0.4186223  58.82      0.3407755  0.3882983  0.2932528 
1160       0.231      504.479    -9999      -9999      4.686187   1.537      1.71       1.986      2.166      1.024515   2.654      0.1835147  0.1835147  0.2958719  7.019314   3.528875   1.946647   0.2837408  0.4542623  58.82      0.3404765  0.3877002  0.2932528 
1160.2     0.234      493.89     -9999      -9999      4.708831   1.702      1.884      1.807      2.236      1.015404   2.756      0.1835594  0.1835594  0.299004   7.032732   3.353764   2.104402   0.3096055  0.4784622  59.454     0.3498318  0.3958418  0.3038219 
1160.4     0.232      486.416    -9999      -9999      4.750548   1.702      1.919      1.852      2.345      1.007677   2.921      0.1807281  0.1807281  0.3016606  6.232762   3.053586   2.150786   0.3073179  0.4836389  60.468     0.3664623  0.4112917  0.3216328 
1160.6     0.234      482.056    -9999      -9999      4.799233   1.626      1.929      1.781      2.32       1.002871   2.832      0.1738871  0.1738871  0.3033129  4.655524   2.737071   2.065874   0.2699733  0.4667396  62.179     0.3921995  0.4300864  0.3543125 
1160.8     0.233      475.204    -9999      -9999      4.836653   1.537      1.933      1.999      2.556      1.002059   2.667      0.1643158  0.1643158  0.303592   3.095176   2.516275   1.950133   0.2120406  0.4390857  64.271     0.422049   0.445114   0.3989839 
1161       0.225      457.764    -9999      -9999      4.844525   1.562      1.938      2.282      3.24       1.00644    2.832      0.159128   0.159128   0.302086   2.480821   2.472143   2.013466   0.2017754  0.4393283  65.095     0.4332059  0.4483416  0.4180702 
1161.2     0.221      432.226    -9999      -9999      4.813852   1.74       2.048      2.333      3.406      1.015043   3.238      0.1608969  0.1608969  0.2991282  2.675213   2.648593   2.263608   0.2516953  0.4703169  64.398     0.4188827  0.435896   0.4018694 
1161.4     0.217      392.362    8          2          4.754731   2.019      2.246      2.341      3.42       1.024304   3.746      0.1680847  0.1680847  0.2959444  3.634921   3.025013   2.623825   0.3278725  0.513245   62.559     0.3874534  0.4128737  0.3620331 
1161.6     0.214      353.744    8          2          4.69517    2.349      2.499      2.352      3.438      1.031116   4.508      0.1740995  0.1740995  0.2936024  4.697886   3.45834    3.088608   0.3961682  0.5554568  61.102     0.3621302  0.3909097  0.3333507 
1161.8     0.213      294.882    8          2          4.664649   2.68       2.844      2.352      3.495      1.035076   4.699      0.1788554  0.1788554  0.2922409  5.754328   3.703912   3.413286   0.437204   0.5804951  59.644     0.3435925  0.3801115  0.3070735 
1162       0.211      236.022    8          2          4.674694   2.946      3.719      2.275      3.514      1.037055   4.381      0.1810538  0.1810538  0.2915604  6.319955   3.621228   3.522977   0.4513646  0.5885266  58.376     0.3348683  0.3836319  0.2861047 
1162.2     0.211      201.141    8          2          4.713883   3.111      5.094      2.32       3.521      1.037184   4          0.1793482  0.1793482  0.2915161  5.876538   3.315893   3.49993    0.4451167  0.5855621  58.123     0.3399026  0.3976817  0.2821236 
1162.4     0.212      175.603    8          2          4.76163    3.238      7.726      2.455      3.297      1.034409   3.873      0.1756988  0.1756988  0.2924703  5.029521   2.978466   3.527148   0.437142   0.5845628  58.756     0.3538529  0.4154962  0.2922096 
1162.6     0.213      163.146    8          2          4.8049     3.416      9.254      2.648      2.939      1.027436   3.581      0.1719565  0.1719565  0.2948675  4.287553   2.702427   3.496554   0.4241386  0.5812133  59.961     0.3724576  0.4323292  0.3125859 
1162.8     0.217      158.785    8          2          4.84357    3.48       8.554      2.449      2.67       1.016592   3.149      0.1684863  0.1684863  0.2985957  3.697707   2.477456   3.306236   0.3982231  0.5691183  61.482     0.394271   0.4479488  0.3405932 
1163       0.225      165.014    8          2          4.883369   3.213      8.358      2.243      2.454      1.004904   2.4        0.1653499  0.1653499  0.302614   3.23474    2.265457   2.747622   0.3327925  0.5276809  62.813     0.4159518  0.4646139  0.3672897 
1163.2     0.237      188.683    -9999      -9999      4.927258   2.832      8.397      2.32       2.524      0.9962409  1.676      0.1634076  0.1634076  0.3055924  2.977578   2.052644   2.105782   0.2362508  0.4612037  63.32      0.430863   0.4837111  0.378015  
