~Version
 VERS              .         2.0                           : CWLS LOG ASCII STANDARD - VERSION 2.0
 WRAP              .         NO                            : ONE LINE PER DEPTH STEP
 DLM               .         SPACE                         : DELIMITING CHARACTER(SPACE TAB OR COMMA)
~Well Information
#_______________________________________________________________________________
#
#PARAMETER_NAME    .UNIT     VALUE                         : DESCRIPTION
#_______________________________________________________________________________
STRT               .м        101.4                         : First reference value
STOP               .м        1218.4                        : Last reference value
STEP               .м        0.2                           : Step increment
NULL               .         -9999                         : Missing value
COMP               .                                       : Company
WELL               .         4534                          : Well name
FLD                .         УЗЕНЬ                         : Field
LOC                .                                       : Location
CNTY               .                                       : County
STAT               .                                       : State
CTRY               .                                       : Country
SRVC               .         AO"UPGF"                      : Service Company
DATE               .         27.04/01.05/2014              : Date
UWI                .                                       : Unique Well ID
Block              .         4                             : 
Category           .         Нагнетательная                : 
Condition          .         В работе                      : 
Date               .         26.05.2014                    : 
EREF               .m        225.4                         : 100.8
GRP                .                                       : Group name
Gorizont           .         14                            : 14
ISS                .                                       : Well surveys
Interpretator      .         Ким С.В.                      : 
Kupol              .         основной                      : osnovnoi
Mud                .         0                             : 
Mud_density        .         0                             : 
Mud_resistivity    .         0                             : 
NGDU               .         НГДУ-1                        : 
ORIGINALWELLNAME   .         4534                          : 
Spud_date          .         2014                          : 1961
TIME               .                                       : LOG TIME
Viscosity          .         0                             : 
X                  .m        54002.4                       : 46154
Y                  .m        81965.1                       : 85761.93
YEAR               .         2019                          : 
~Parameter Information Block
#_______________________________________________________________________________
#
#PARAMETER_NAME    .UNIT     VALUE                         : DESCRIPTION
#_______________________________________________________________________________
SET                .         LQC_KAZNIPI_Petrel            : 
TLFamily_CALI      .         Caliper                       : 
TLFamily_COLL      .         Net Reservoir Flag            : 
TLFamily_CSAT      .         Fluid Code                    : 
TLFamily_DEPT      .         Measured Depth                : 
TLFamily_DT        .         Compressional Slowness        : 
TLFamily_GR        .         Russian Gamma Ray             : 
TLFamily_GZ3       .         Gradient 225                  : 
TLFamily_IK1       .         Resistivity 05                : 
TLFamily_IK2       .         Resistivity 07                : 
TLFamily_IK3       .         Resistivity 10                : 
TLFamily_IK4       .         Resistivity 14                : 
TLFamily_IK5       .         Resistivity 20                : 
TLFamily_LLS       .         Lateral Log Resistivity       : 
TLFamily_MBK       .         Micro Lateral Log Resistivity : 
TLFamily_MINV      .         Micro Gradient Resistivity    : 
TLFamily_MNOR      .         Micro Resistivity             : 
TLFamily_NNKTB_1   .         Neutron Far                   : 
TLFamily_NNKTM_1   .         Neutron Near                  : 
TLFamily_NPHI      .         Neutron Porosity              : 
TLFamily_OGZ       .         Gradient Inverted 225         : 
TLFamily_PHIE      .         Effective Porosity            : 
TLFamily_PHIED     .         Effective Porosity            : 
TLFamily_PHIEN     .         Effective Porosity            : 
TLFamily_PHIES     .         Effective Porosity            : 
TLFamily_PHIT      .         Porosity                      : 
TLFamily_PRMB      .         Permeability                  : 
TLFamily_PRMB_DGR  .         Permeability                  : 
TLFamily_RHOB      .         Bulk Density                  : 
TLFamily_RT        .         Formation Resistivity         : 
TLFamily_SOIL_ARCHIE .         Oil Saturation                : 
TLFamily_SOIL_DW   .         Oil Saturation                : 
TLFamily_SP        .         Spontaneous Potential         : 
TLFamily_VSH_FIN   .         Shale Volume                  : 
TLFamily_VSH_GR    .         Shale Volume                  : 
TLFamily_VSH_SP    .         Shale Volume                  : 
~Curve Information
#_______________________________________________________________________________
#
#LOGNAME           .UNIT     LOG_ID                        : DESCRIPTION
#_______________________________________________________________________________
DEPT               .м                                      : Колонка глубины 
CALI               .м                                      : Каверномер 
COLL               .unitless                               : Описание 
CSAT               .unitless                               : Описание 
DT                 .мкс/м                                  : Интервальное время пробега продольной волны 
GR                 .uR/h                                   : Гамма каротаж 
GZ3                .Ohmm                                   : Градиент-зонд  длиной 2.25м 
IK1                .Ohmm                                   : И0.10И0.40 
IK2                .Ohmm                                   : И0.14И0.56 
IK3                .Ohmm                                   : И0.20И0.80 
IK4                .Ohmm                                   : И0.28И1.12 
IK5                .Ohmm                                   : И0.40И1.60 
LLS                .Ohmm                                   : Боковой каротаж 
MBK                .Ohmm                                   : Микробоковой каротаж 
MINV               .Ohmm                                   : Микро-градиент зонд 
MNOR               .Ohmm                                   : Микро-потенциал зонд 
NNKTB_1            .у.е.                                   : Показания большого зонда 2ННКт аппаратуры СРК 
NNKTM_1            .у.е.                                   : Показания малого зонда 2ННКт аппаратуры СРК 
NPHI               .v/v                                    : Total porosity 
OGZ                .Ohmm                                   :  
PHIE               .v/v                                    : Описание 
PHIED              .v/v                                    :  
PHIEN              .v/v                                    :  
PHIES              .v/v                                    :  
PHIT               .v/v                                    : Описание 
PRMB               .mD                                     :  
PRMB_DGR           .mD                                     :  
RHOB               .g/cm3                                  : Плотность по ГГКп 
RT                 .ohmm                                   : Удельное электрическое сопротивление 
SOIL_ARCHIE        .v/v                                    :  
SOIL_DW            .v/v                                    :  
SP                 .мВ                                     : Потенциал самополяризации 
VSH_FIN            .v/v                                    : Описание 
VSH_GR             .v/v                                    : Shale volume 
VSH_SP             .v/v                                    : Shale Volume 
~Ascii
# ...
1193.4     0.252      -9999      -9999      276.897    10.791     1.672      1.03       1.22       1.28       1.3        1.31       1.24       2.04       0.72       0.81       1.695      1.03       0.034      1.922      0.01       -0.06294048 0          0.03762269 0.08695476 0.004289259 0.09197954 2.54       1.31       0          0          432.518    0.6354342  0.8        0.4708683 
1193.6     0.252      -9999      -9999      266.582    10.365     1.704      1.04       1.24       1.28       1.33       1.35       1.24       2          0.64       0.95       1.628      1.04       0.036      1.965      0.01       -0.02593852 0          0.02315607 0.09746261 0.004289259 0.1892299  2.48       1.35       0          0          432.4      0.6305873  0.8        0.4611747 
1193.8     0.248      -9999      -9999      273.984    9.896      1.73       1.07       1.31       1.35       1.39       1.39       1.33       2.09       0.65       1.01       1.824      1.029      0.032      2.028      0.01       -0.01635225 0          0.0313679  0.1080526  0.004289259 0.4187086  2.46       1.39       0          0          432.755    0.6413736  0.8        0.4827471 
1194       0.246      -9999      -9999      285.297    9.735      1.761      1.08       1.3        1.34       1.4        1.41       1.25       2.18       0.65       0.9        1.759      1.04       0.033      2.036      0.01       -0.04498806 0          0.0497706  0.1020132  0.004289259 0.5499439  2.51       1.41       0          0          432.609    0.6354867  0.8        0.4709733 
1194.2     0.243      -9999      -9999      290.186    9.451      1.729      1.06       1.27       1.33       1.38       1.39       1.26       2.06       0.69       0.91       1.745      1.029      0.04       1.986      0.0233649  -0.03041672 0          0.07714652 0.1126767  0.007584601 0.8895764  2.51       1.39       0          0          432.454    0.5697187  0.6805567  0.4588808 
1194.4     0.257      -9999      -9999      286.171    9.357      1.737      1.05       1.27       1.33       1.37       1.38       1.25       2.16       0.75       0.99       1.636      1.04       0.036      2.089      0.03018491 -0.01195287 0          0.07232269 0.1191431  0.01014509 1.043073   2.48       1.38       0          0          433.055    0.5674629  0.6377282  0.4971977 
1194.6     0.26       -9999      -9999      282.923    9.544      1.697      1.03       1.26       1.31       1.36       1.36       1.26       2.07       0.71       1.04       1.71       1.02       0.043      2.074      0.02854146 -0.0114136 0          0.06849653 0.1171181  0.009458345 1.039081   2.48       1.36       0          0          433        0.5650289  0.6387274  0.4913305 
1194.8     0.248      -9999      -9999      275.692    9.679      1.776      1.06       1.3        1.34       1.38       1.37       1.27       2.04       0.54       0.91       1.761      1.011      0.042      2.141      0.03132502 0.01282597 0          0.04982407 0.1239351  0.01065058 0.8330539  2.43       1.37       0          0          432.9      0.5907583  0.6990463  0.4824702 
1195       0.232      -9999      -9999      268.994    8.848      1.71       1.13       1.37       1.37       1.39       1.38       1.29       2.12       0.6        0.81       1.894      1.032      0.044      2.109      0.06279134 0.03965337 0          0.08592931 0.1321825  0.04075735 3.246841   2.44       1.38       0          0          432.955    0.4426455  0.4011138  0.4841771 
1195.2     0.238      -9999      -9999      266.68     8.618      1.702      1.07       1.26       1.29       1.34       1.36       1.34       2.17       0.69       0.87       1.661      1.041      0.059      1.995      0.07799132 0.06078596 0          0.09519668 0.1409037  0.07793751 4.731249   2.42       1.36       0          0          432.6      0.4013172  0.343953   0.4586815 
1195.4     0.26       -9999      -9999      273.04     8.266      1.674      1.02       1.21       1.26       1.32       1.36       1.29       2.38       0.55       0.85       1.729      1.06       0.101      1.924      0.1401683  0.1616766  0          0.1186601  0.1963452  1.105136   8.418317   2.4        1.36       0          0.0840363  432.109    0.3583513  0.2718403  0.4448624 
1195.6     0.267      -9999      -9999      290.612    8.53       1.691      1.07       1.29       1.33       1.36       1.38       1.31       1.87       0.59       0.96       1.783      1.05       0.118      2.006      0.1107823  0.08734794 0          0.1342166  0.171848   0.3155834  5.464349   2.38       1.38       0          0          431.991    0.3895374  0.3243043  0.4547705 
1195.8     0.254      -9999      -9999      297.194    8.435      1.688      1.06       1.25       1.29       1.34       1.37       1.23       1.85       0.55       0.91       1.711      1.04       0.131      2.12       0.1057027  0.06900571 0.001889391 0.1423997  0.167036   0.2541139  6.383762   2.41       1.37       0          0          432.073    0.3912443  0.3043508  0.4781377 
1196       0.273      -9999      -9999      287.967    8.048      1.798      0.97       1.21       1.27       1.33       1.37       1.29       1.74       0.63       0.87       1.625      1.06       0.148      2.205      0.1434037  0.1497006  0.02630049 0.1371069  0.2012164  1.268653   12.02843   2.42       1.37       0          0.1088546  432.155    0.3687864  0.2349789  0.5025939 
1196.2     0.255      -9999      -9999      279.438    8.471      1.766      1.06       1.32       1.4        1.43       1.41       1.3        1.65       0.71       0.89       1.722      1.059      0.105      2.349      0.1059607  0.1003987  0          0.1115226  0.1705028  0.256925   6.018435   2.35       1.41       0          0          432.009    0.4117134  0.3117633  0.419485  
1196.4     0.279      -9999      -9999      279.965    8.513      1.842      1.07       1.32       1.4        1.43       1.42       1.27       1.82       0.84       1.05       1.752      1.049      0.108      2.534      0.09841929 0.09032588 0          0.1065127  0.1658517  0.186261   5.618553   2.36       1.42       0          0          432.118    0.4301504  0.3206399  0.3977662 
1196.6     0.283      -9999      -9999      279.19     8.968      1.899      1.06       1.3        1.35       1.38       1.38       1.26       2          0.88       1.14       1.83       1.05       0.08       2.866      0.08631322 0.0912962  0          0.08133025 0.1657697  0.1111446  2.667768   2.33       1.38       0          0          432.355    0.339849   0.434614   0.3398494 
1196.8     0.264      -9999      -9999      262.301    9.044      2.06       1.08       1.3        1.33       1.37       1.41       1.28       2.35       0.77       1.06       1.897      1.125      0.058      3.186      0.06591891 0.08182295 0          0.05001486 0.1478414  0.04657321 2.355687   2.34       1.41       0          0          432.191    0.33261    0.4572631  0.3326098 
1197       0.241      6          6          230.342    8.425      2.312      1.17       1.52       1.67       1.58       1.63       1.9        2.33       0.66       0.96       2.139      1.19       0.053      3.433      0.05269104 0.09241587 0          0.01296621 0.1228815  0.02649256 6.489128   2.35       1.63       0          0          431.982    0.33261    0.3023232  0.3326098 
1197.2     0.229      6          6          195.987    8.706      2.531      2.29       2.84       2.9        2.43       2.17       3.37       4.7        0.93       1.27       1.848      1.155      0.076      3.196      0.0483034  0.0966068  0          0          0.0814473  0.02197122 4.096502   2.34       2.17       0          0          431.118    0.347089   0.3647921  0.347089  
1197.4     0.246      6          6          200.319    8.871      2.394      2.38       2.62       2.55       2.45       2.4        2.24       3.84       1.29       1.7        1.659      1.047      0.089      2.604      0.04162735 0.08325471 0          0          0.0810828  0.01652714 3.126863   2.36       2.4        0          0          430.436    0.354329   0.4073284  0.3543286 
