~Version
 VERS              .         2.0                           : CWLS LOG ASCII STANDARD - VERSION 2.0
 WRAP              .         NO                            : ONE LINE PER DEPTH STEP
 DLM               .         SPACE                         : DELIMITING CHARACTER(SPACE TAB OR COMMA)
~Well Information
#_______________________________________________________________________________
#
#PARAMETER_NAME    .UNIT     VALUE                         : DESCRIPTION
#_______________________________________________________________________________
STRT               .м        101.4                         : First reference value
STOP               .м        1218.4                        : Last reference value
STEP               .м        0.2                           : Step increment
NULL               .         -9999                         : Missing value
COMP               .                                       : Company
WELL               .         4534                          : Well name
FLD                .         УЗЕНЬ                         : Field
LOC                .                                       : Location
CNTY               .                                       : County
STAT               .                                       : State
CTRY               .                                       : Country
SRVC               .         AO"UPGF"                      : Service Company
DATE               .         27.04/01.05/2014              : Date
UWI                .                                       : Unique Well ID
Block              .         4                             : 
Category           .         Нагнетательная                : 
Condition          .         В работе                      : 
Date               .         26.05.2014                    : 
EREF               .m        225.4                         : 100.8
GRP                .                                       : Group name
Gorizont           .         14                            : 14
ISS                .                                       : Well surveys
Interpretator      .         Ким С.В.                      : 
Kupol              .         основной                      : osnovnoi
Mud                .         0                             : 
Mud_density        .         0                             : 
Mud_resistivity    .         0                             : 
NGDU               .         НГДУ-1                        : 
ORIGINALWELLNAME   .         4534                          : 
Spud_date          .         2014                          : 1961
TIME               .                                       : LOG TIME
Viscosity          .         0                             : 
X                  .m        54002.4                       : 46154
Y                  .m        81965.1                       : 85761.93
YEAR               .         2019                          : 
~Parameter Information Block
#_______________________________________________________________________________
#
#PARAMETER_NAME    .UNIT     VALUE                         : DESCRIPTION
#_______________________________________________________________________________
SET                .         LQC_KAZNIPI_Petrel            : 
TLFamily_CALI      .         Caliper                       : 
TLFamily_COLL      .         Net Reservoir Flag            : 
TLFamily_CSAT      .         Fluid Code                    : 
TLFamily_DEPT      .         Measured Depth                : 
TLFamily_DT        .         Compressional Slowness        : 
TLFamily_GR        .         Russian Gamma Ray             : 
TLFamily_GZ3       .         Gradient 225                  : 
TLFamily_IK1       .         Resistivity 05                : 
TLFamily_IK2       .         Resistivity 07                : 
TLFamily_IK3       .         Resistivity 10                : 
TLFamily_IK4       .         Resistivity 14                : 
TLFamily_IK5       .         Resistivity 20                : 
TLFamily_LLS       .         Lateral Log Resistivity       : 
TLFamily_MBK       .         Micro Lateral Log Resistivity : 
TLFamily_MINV      .         Micro Gradient Resistivity    : 
TLFamily_MNOR      .         Micro Resistivity             : 
TLFamily_NNKTB_1   .         Neutron Far                   : 
TLFamily_NNKTM_1   .         Neutron Near                  : 
TLFamily_NPHI      .         Neutron Porosity              : 
TLFamily_OGZ       .         Gradient Inverted 225         : 
TLFamily_PHIE      .         Effective Porosity            : 
TLFamily_PHIED     .         Effective Porosity            : 
TLFamily_PHIEN     .         Effective Porosity            : 
TLFamily_PHIES     .         Effective Porosity            : 
TLFamily_PHIT      .         Porosity                      : 
TLFamily_PRMB      .         Permeability                  : 
TLFamily_PRMB_DGR  .         Permeability                  : 
TLFamily_RHOB      .         Bulk Density                  : 
TLFamily_RT        .         Formation Resistivity         : 
TLFamily_SOIL_ARCHIE .         Oil Saturation                : 
TLFamily_SOIL_DW   .         Oil Saturation                : 
TLFamily_SP        .         Spontaneous Potential         : 
TLFamily_VSH_FIN   .         Shale Volume                  : 
TLFamily_VSH_GR    .         Shale Volume                  : 
TLFamily_VSH_SP    .         Shale Volume                  : 
~Curve Information
#_______________________________________________________________________________
#
#LOGNAME           .UNIT     LOG_ID                        : DESCRIPTION
#_______________________________________________________________________________
DEPT               .м                                      : Колонка глубины 
CALI               .м                                      : Каверномер 
COLL               .unitless                               : Описание 
CSAT               .unitless                               : Описание 
DT                 .мкс/м                                  : Интервальное время пробега продольной волны 
GR                 .uR/h                                   : Гамма каротаж 
GZ3                .Ohmm                                   : Градиент-зонд  длиной 2.25м 
IK1                .Ohmm                                   : И0.10И0.40 
IK2                .Ohmm                                   : И0.14И0.56 
IK3                .Ohmm                                   : И0.20И0.80 
IK4                .Ohmm                                   : И0.28И1.12 
IK5                .Ohmm                                   : И0.40И1.60 
LLS                .Ohmm                                   : Боковой каротаж 
MBK                .Ohmm                                   : Микробоковой каротаж 
MINV               .Ohmm                                   : Микро-градиент зонд 
MNOR               .Ohmm                                   : Микро-потенциал зонд 
NNKTB_1            .у.е.                                   : Показания большого зонда 2ННКт аппаратуры СРК 
NNKTM_1            .у.е.                                   : Показания малого зонда 2ННКт аппаратуры СРК 
NPHI               .v/v                                    : Total porosity 
OGZ                .Ohmm                                   :  
PHIE               .v/v                                    : Описание 
PHIED              .v/v                                    :  
PHIEN              .v/v                                    :  
PHIES              .v/v                                    :  
PHIT               .v/v                                    : Описание 
PRMB               .mD                                     :  
PRMB_DGR           .mD                                     :  
RHOB               .g/cm3                                  : Плотность по ГГКп 
RT                 .ohmm                                   : Удельное электрическое сопротивление 
SOIL_ARCHIE        .v/v                                    :  
SOIL_DW            .v/v                                    :  
SP                 .мВ                                     : Потенциал самополяризации 
VSH_FIN            .v/v                                    : Описание 
VSH_GR             .v/v                                    : Shale volume 
VSH_SP             .v/v                                    : Shale Volume 
~Ascii
# ...
1084.2     0.509      -9999      -9999      423.178    4.73       1.465      0.38       0.59       0.74       0.81       0.9        0.85       0.83       0.38       0.26       1.154      0.93       -9999      1.727      0.3168267  0.3293414  -9999      0.304312   0.354503   2068.032   29.69475   2.12       0.9        0.3606376  0.4244984  448.146    0.2403366  0.1624688  0.3182045 
1084.4     0.525      -9999      -9999      361.758    4.487      1.443      0.33       0.52       0.68       0.82       0.93       0.87       0.81       0.54       0.41       1.182      0.91       -9999      1.743      0.3035007  0.3413174  -9999      0.2656839  0.3375419  1171.457   43.11189   2.1        0.93       0.3463905  0.4069484  447.6      0.217149   0.1395255  0.2947724 
1084.6     0.491      -9999      -9999      328.821    4.159      1.462      0.39       0.69       0.89       1.05       1.1        0.93       0.82       0.72       0.5        1.261      0.912      -9999      1.746      0.2816548  0.3233534  -9999      0.2399563  0.3127219  461.412    71.31026   2.13       1.1        0.355296   0.4118398  447.3      0.1981763  0.1136084  0.2827443 
1084.8     0.506      -9999      -9999      370.191    4.39       1.45       0.45       0.78       1.01       1.17       1.24       0.92       0.83       0.42       0.29       1.237      0.931      -9999      1.713      0.2817991  0.2874251  -9999      0.276173   0.3141977  464.2594   50.03003   2.19       1.24       0.3908119  0.4476468  447.282    0.2066706  0.131299   0.2820422 
1085       0.509      -9999      -9999      404.306    4.562      1.484      0.5        0.62       0.82       0.99       1.12       0.86       0.82       0.37       0.28       1.322      0.952      -9999      1.743      0.2789448  0.257485   -9999      0.3004047  0.3122655  411.0489   38.42577   2.24       1.12       0.3553185  0.4142079  447.2      0.212552   0.1462379  0.278866  
1085.2     0.457      -9999      -9999      415.601    4.854      1.595      0.45       0.65       0.82       1          1.11       0.9        0.82       0.35       0.24       1.555      0.993      -9999      1.878      0.2666091  0.2275449  -9999      0.3056733  0.3011405  242.888    24.55021   2.29       1.11       0.3265871  0.3874961  446.827    0.2202749  0.1755934  0.2649564 
1085.4     0.341      -9999      -9999      385.725    5.268      1.692      0.47       0.78       1.07       1.31       1.37       1.02       0.88       0.38       0.27       1.668      1.043      -9999      2.402      0.234011   0.1916167  -9999      0.2764052  0.2725162  60.4796    13.00757   2.35       1.37       0.3165266  0.382777   446.791    0.2456242  0.2275887  0.2636596 
1085.6     0.24       -9999      -9999      323.2      5.377      2.01       0.75       1.3        1.78       1.99       1.9        1.31       1.09       0.47       0.35       1.839      1.137      -9999      2.804      0.1855256  0.1556886  -9999      0.2153627  0.2258641  7.64791    11.00441   2.41       1.9        0.282386   0.3556095  446.991    0.2573186  0.2436732  0.2709641 
1085.8     0.225      -9999      -9999      254.21     4.924      2.162      1.65       2.25       2.85       2.87       2.52       2.02       1.47       0.73       0.64       2.116      1.252      -9999      2.962      0.1328852  0.1377245  -9999      0.1280458  0.1688515  0.8100538  22.05021   2.44       2.52       0.1594529  0.2379284  447.109    0.2294284  0.1834653  0.2753915 
1086       0.232      -9999      -9999      201.981    5.012      2.138      3.18       3.05       2.95       2.93       2.62       2.02       1.82       0.92       0.94       2.066      1.222      -9999      2.695      0.03499055 0.05988028 -9999      0.01010082 0.07174519 0.01245282 19.2653    2.57       2.62       0          0          447.1      0.2344574  0.1938641  0.2750506 
1086.2     0.239      -9999      -9999      230.499    5.483      1.987      1.51       1.55       1.75       1.99       2.01       1.57       2.07       0.95       1.07       1.667      1.084      -9999      2.293      0.1107947  0.1497006  -9999      0.07188888 0.151693   0.3157512  9.352682   2.42       2.01       0          0.02014412 446.727    0.2608897  0.2604045  0.2613748 
1086.4     0.29       -9999      -9999      341.057    5.354      1.723      0.78       0.91       1.12       1.24       1.36       1.1        1.33       0.88       0.77       1.275      0.997      -9999      1.993      0.2713106  0.3053892  -9999      0.2372319  0.3099807  296.8165   11.39967   2.16       1.36       0.3970616  0.4597942  446.491    0.2466763  0.2401872  0.2531653 
1086.6     0.387      -9999      -9999      437.59     5.405      1.461      0.49       0.63       0.75       0.86       1.01       0.92       0.99       0.63       0.53       1.315      0.94       -9999      1.912      0.2904221  0.2694611  -9999      0.311383   0.3290146  670.624    10.54167   2.22       1.01       0.3466256  0.4115421  446.227    0.2461811  0.2479854  0.2443768 
1086.8     0.404      -9999      -9999      429.309    5.062      1.535      0.47       0.76       0.81       0.96       1.03       0.95       0.91       0.35       0.3        1.457      0.982      -9999      2.174      0.2944428  0.2754491  -9999      0.3134365  0.3294871  796.0724   17.84266   2.21       1.03       0.3603164  0.4211747  446.309    0.2235477  0.2000329  0.2470624 
1087       0.319      -9999      -9999      333.42     5.031      1.669      0.84       2.08       2.47       1.7        1.53       1.25       0.99       0.37       0.31       1.756      1.064      -9999      2.408      0.2177832  0.1976047  -9999      0.2379618  0.252247   30.27135   18.7118    2.34       1.53       0.3091327  0.3704637  446.2      0.2198437  0.1961855  0.2435019 
1087.2     0.299      -9999      -9999      268.351    4.893      1.831      1.76       2.72       3.51       3.04       2.37       1.62       1.24       0.38       0.4        1.857      1.109      -9999      2.324      0.1151484  0.07185631 -9999      0.1584405  0.1477745  0.3801769  23.1243    2.55       2.37       0.01992696 0.09835348 445.973    0.2081215  0.1799366  0.2363064 
1087.4     0.367      -9999      -9999      261.38     4.824      1.655      1.49       1.6        1.82       2.01       2.22       1.45       1.39       0.4        0.49       1.588      1.024      -9999      2.025      0.1368964  0.1257485  -9999      0.1480443  0.1690358  0.9611945  25.70663   2.46       2.22       0.1307492  0.1986701  446.018    0.2050167  0.172324   0.2377095 
1087.6     0.449      -9999      -9999      330.454    4.829      1.595      0.92       0.93       1.01       1.22       1.45       1.12       1.13       0.46       0.48       1.508      0.936      -9999      1.877      0.2268209  0.2155689  -9999      0.2380729  0.2596893  44.50729   25.51018   2.31       1.45       0.3161519  0.374956   446.291    0.209667   0.1728646  0.2464693 
1087.8     0.486      -9999      -9999      366.405    4.925      1.558      0.48       0.59       0.75       0.96       1.1        1          0.89       0.5        0.43       1.315      0.914      -9999      1.874      0.2765633  0.2814371  -9999      0.2716896  0.3096071  371.349    22.01639   2.2        1.1        0.344971   0.403825   446.027    0.2107859  0.1835803  0.2379915 
1088       0.45       -9999      -9999      345.981    5.33       1.789      0.53       0.81       1          1.17       1.23       1.01       0.86       0.42       0.38       1.408      0.963      -9999      2.163      0.2693118  0.2934131  -9999      0.2452105  0.3063796  272.563    11.82726   2.18       1.23       0.3638706  0.4263386  445.973    0.2364546  0.2366028  0.2363064 
1088.2     0.347      -9999      -9999      318.248    5.289      2.171      1.22       2.4        2.54       2.1        1.79       1.34       0.95       0.42       0.42       1.557      1.009      -9999      2.426      0.2053333  0.1916167  -9999      0.2190499  0.2410743  17.80034   12.59515   2.35       1.79       0.3244229  0.3874797  445.609    0.2279915  0.2306027  0.2253803 
