~Version
 VERS              .         2.0                           : CWLS LOG ASCII STANDARD - VERSION 2.0
 WRAP              .         NO                            : ONE LINE PER DEPTH STEP
 DLM               .         SPACE                         : DELIMITING CHARACTER(SPACE TAB OR COMMA)
~Well Information
#_______________________________________________________________________________
#
#PARAMETER_NAME    .UNIT     VALUE                         : DESCRIPTION
#_______________________________________________________________________________
STRT               .м        101.4                         : First reference value
STOP               .м        1218.4                        : Last reference value
STEP               .м        0.2                           : Step increment
NULL               .         -9999                         : Missing value
COMP               .                                       : Company
WELL               .         4534                          : Well name
FLD                .         УЗЕНЬ                         : Field
LOC                .                                       : Location
CNTY               .                                       : County
STAT               .                                       : State
CTRY               .                                       : Country
SRVC               .         AO"UPGF"                      : Service Company
DATE               .         27.04/01.05/2014              : Date
UWI                .                                       : Unique Well ID
Block              .         4                             : 
Category           .         Нагнетательная                : 
Condition          .         В работе                      : 
Date               .         26.05.2014                    : 
EREF               .m        225.4                         : 100.8
GRP                .                                       : Group name
Gorizont           .         14                            : 14
ISS                .                                       : Well surveys
Interpretator      .         Ким С.В.                      : 
Kupol              .         основной                      : osnovnoi
Mud                .         0                             : 
Mud_density        .         0                             : 
Mud_resistivity    .         0                             : 
NGDU               .         НГДУ-1                        : 
ORIGINALWELLNAME   .         4534                          : 
Spud_date          .         2014                          : 1961
TIME               .                                       : LOG TIME
Viscosity          .         0                             : 
X                  .m        54002.4                       : 46154
Y                  .m        81965.1                       : 85761.93
YEAR               .         2019                          : 
~Parameter Information Block
#_______________________________________________________________________________
#
#PARAMETER_NAME    .UNIT     VALUE                         : DESCRIPTION
#_______________________________________________________________________________
SET                .         LQC_KAZNIPI_Petrel            : 
TLFamily_CALI      .         Caliper                       : 
TLFamily_COLL      .         Net Reservoir Flag            : 
TLFamily_CSAT      .         Fluid Code                    : 
TLFamily_DEPT      .         Measured Depth                : 
TLFamily_DT        .         Compressional Slowness        : 
TLFamily_GR        .         Russian Gamma Ray             : 
TLFamily_GZ3       .         Gradient 225                  : 
TLFamily_IK1       .         Resistivity 05                : 
TLFamily_IK2       .         Resistivity 07                : 
TLFamily_IK3       .         Resistivity 10                : 
TLFamily_IK4       .         Resistivity 14                : 
TLFamily_IK5       .         Resistivity 20                : 
TLFamily_LLS       .         Lateral Log Resistivity       : 
TLFamily_MBK       .         Micro Lateral Log Resistivity : 
TLFamily_MINV      .         Micro Gradient Resistivity    : 
TLFamily_MNOR      .         Micro Resistivity             : 
TLFamily_NNKTB_1   .         Neutron Far                   : 
TLFamily_NNKTM_1   .         Neutron Near                  : 
TLFamily_NPHI      .         Neutron Porosity              : 
TLFamily_OGZ       .         Gradient Inverted 225         : 
TLFamily_PHIE      .         Effective Porosity            : 
TLFamily_PHIED     .         Effective Porosity            : 
TLFamily_PHIEN     .         Effective Porosity            : 
TLFamily_PHIES     .         Effective Porosity            : 
TLFamily_PHIT      .         Porosity                      : 
TLFamily_PRMB      .         Permeability                  : 
TLFamily_PRMB_DGR  .         Permeability                  : 
TLFamily_RHOB      .         Bulk Density                  : 
TLFamily_RT        .         Formation Resistivity         : 
TLFamily_SOIL_ARCHIE .         Oil Saturation                : 
TLFamily_SOIL_DW   .         Oil Saturation                : 
TLFamily_SP        .         Spontaneous Potential         : 
TLFamily_VSH_FIN   .         Shale Volume                  : 
TLFamily_VSH_GR    .         Shale Volume                  : 
TLFamily_VSH_SP    .         Shale Volume                  : 
~Curve Information
#_______________________________________________________________________________
#
#LOGNAME           .UNIT     LOG_ID                        : DESCRIPTION
#_______________________________________________________________________________
DEPT               .м                                      : Колонка глубины 
CALI               .м                                      : Каверномер 
COLL               .unitless                               : Описание 
CSAT               .unitless                               : Описание 
DT                 .мкс/м                                  : Интервальное время пробега продольной волны 
GR                 .uR/h                                   : Гамма каротаж 
GZ3                .Ohmm                                   : Градиент-зонд  длиной 2.25м 
IK1                .Ohmm                                   : И0.10И0.40 
IK2                .Ohmm                                   : И0.14И0.56 
IK3                .Ohmm                                   : И0.20И0.80 
IK4                .Ohmm                                   : И0.28И1.12 
IK5                .Ohmm                                   : И0.40И1.60 
LLS                .Ohmm                                   : Боковой каротаж 
MBK                .Ohmm                                   : Микробоковой каротаж 
MINV               .Ohmm                                   : Микро-градиент зонд 
MNOR               .Ohmm                                   : Микро-потенциал зонд 
NNKTB_1            .у.е.                                   : Показания большого зонда 2ННКт аппаратуры СРК 
NNKTM_1            .у.е.                                   : Показания малого зонда 2ННКт аппаратуры СРК 
NPHI               .v/v                                    : Total porosity 
OGZ                .Ohmm                                   :  
PHIE               .v/v                                    : Описание 
PHIED              .v/v                                    :  
PHIEN              .v/v                                    :  
PHIES              .v/v                                    :  
PHIT               .v/v                                    : Описание 
PRMB               .mD                                     :  
PRMB_DGR           .mD                                     :  
RHOB               .g/cm3                                  : Плотность по ГГКп 
RT                 .ohmm                                   : Удельное электрическое сопротивление 
SOIL_ARCHIE        .v/v                                    :  
SOIL_DW            .v/v                                    :  
SP                 .мВ                                     : Потенциал самополяризации 
VSH_FIN            .v/v                                    : Описание 
VSH_GR             .v/v                                    : Shale volume 
VSH_SP             .v/v                                    : Shale Volume 
~Ascii
# ...
1050.6     0.268      -9999      -9999      393.457    4.408      2.369      1.75       1.72       1.83       1.98       1.92       1.6        1.98       0.46       0.65       2.307      1.29       -9999      2.537      0.05190486 -0.1268165 -9999      0.2306262  0.1162138  0.02561899 6.307126   2.73       1.92       0          0          452.4      0.4102255  0.3058555  0.5145956 
1050.8     0.246      -9999      -9999      396.686    4.32       2.401      1.73       1.67       1.81       1.97       1.89       1.58       2.21       0.46       0.68       2.317      1.247      -9999      2.457      0.0610649  -0.1167022 -9999      0.238832   0.1224542  0.03786414 7.609959   2.72       1.89       0          0          452.182    0.3916018  0.2832803  0.4999234 
1051       0.245      -9999      -9999      401.007    4.379      2.37       1.37       1.39       1.52       1.68       1.74       1.37       1.99       0.37       0.54       2.086      1.211      -9999      2.427      0.08232434 -0.0758232 -9999      0.2404719  0.1444475  0.09375719 6.709749   2.65       1.74       0          0          452.091    0.3962828  0.2982239  0.4943418 
1051.2     0.275      -9999      -9999      373.872    4.434      2.359      1.46       1.48       1.62       1.69       1.7        1.44       1.84       0.41       0.54       1.927      1.221      -9999      2.411      0.03848387 -0.14215   -9999      0.2191177  0.1009315  0.01445349 5.966738   2.76       1.7        0          0          451.927    0.3983525  0.3128635  0.4838415 
1051.4     0.265      -9999      -9999      368.662    4.582      2.385      1.42       1.42       1.58       1.71       1.73       1.52       1.89       0.4        0.48       1.96       1.218      -9999      2.432      0.02853413 -0.1521076 -9999      0.2091759  0.09379052 0.009455387 4.350943   2.77       1.73       0          0          451.809    0.4162696  0.3559256  0.4766136 
1051.6     0.271      -9999      -9999      373.151    4.528      2.467      1.25       1.28       1.45       1.66       1.72       1.47       1.75       0.37       0.4        2.051      1.18       -9999      2.395      0.04656    -0.1211827 -9999      0.2143027  0.1111195  0.02039681 4.882317   2.72       1.72       0          0          451.909    0.4118243  0.3395668  0.4840818 
1051.8     0.28       -9999      -9999      363.465    4.446      2.379      1.35       1.37       1.53       1.73       1.73       1.51       1.48       0.47       0.46       1.929      1.168      -9999      2.274      0.07544971 -0.05878945 -9999      0.2096889  0.1382311  0.06993099 5.815892   2.62       1.73       0          0          451.909    0.4004818  0.3161519  0.4848117 
1052       0.283      -9999      -9999      365.499    4.207      2.354      1.55       1.54       1.63       1.76       1.73       1.48       1.39       0.41       0.55       1.801      1.13       -9999      2.165      0.1727557  0.1257485  -9999      0.219763   0.2313759  4.436226   9.68504    2.46       1.73       0.2020641  0.3138591  451.991    0.373937   0.2567178  0.4911562 
1052.2     0.291      -9999      -9999      379.812    4.382      2.219      1.41       1.39       1.46       1.58       1.6        1.31       1.27       0.39       0.54       1.733      1.13       -9999      2.117      0.1410425  0.05658399 -9999      0.2255011  0.2026912  1.147118   6.666936   2.43       1.6        0.01234816 0.1614732  451.927    0.3932559  0.2990044  0.4875073 
1052.4     0.258      -9999      -9999      378.989    4.486      2.246      0.91       1.03       1.2        1.38       1.47       1.16       1.22       0.46       0.55       1.872      1.154      -9999      2.248      0.1189414  0.01750075 -9999      0.2203821  0.1828225  0.4469324  5.340082   2.49       1.47       0          0.003080532 451.918    0.4074966  0.3273649  0.4876283 
1052.6     0.256      -9999      -9999      375.077    4.378      2.377      1.38       1.54       1.65       1.7        1.62       1.41       1.37       0.5        0.57       2.116      1.212      -9999      2.402      0.09855838 -0.02263561 -9999      0.2197524  0.1611802  0.1873693  6.724086   2.56       1.62       0          0          452.1      0.3994636  0.2979641  0.5009632 
1052.8     0.261      -9999      -9999      364.243    4.194      2.484      1.95       1.97       2.05       2.08       1.91       1.59       1.71       0.55       0.65       2.276      1.241      -9999      2.441      0.1116851  0.005987972 -9999      0.2173823  0.170956   0.3279725  9.957466   2.66       1.91       0          0.06628753 452.109    0.378088   0.2538263  0.5023496 
1053       0.26       -9999      -9999      357.276    4.363      2.567      1.56       1.6        1.72       1.91       1.93       1.61       1.93       0.61       0.8        2.321      1.25       -9999      2.405      0.04276783 -0.1186826 -9999      0.2042182  0.1055584  0.0173509  6.942788   2.72       1.93       0          0          452.164    0.4005402  0.2940951  0.5069853 
1053.2     0.255      -9999      -9999      371.828    4.223      2.523      1.72       1.72       1.8        1.93       1.88       1.73       1.81       0.62       0.8        2.161      1.246      -9999      2.305      0.1129867  0          -9999      0.2259734  0.1711654  0.3466934  9.359957   2.71       1.88       0          0.06397288 451.791    0.3711215  0.2603219  0.481921  
1053.4     0.268      -9999      -9999      398.555    4.373      2.407      1.36       1.33       1.49       1.67       1.7        1.39       1.62       0.42       0.68       1.825      1.135      -9999      2.251      0.09617513 -0.04959188 -9999      0.2419422  0.1566856  0.1692602  6.796206   2.61       1.7        0          0          451.682    0.3859954  0.2966689  0.475322  
1053.6     0.294      -9999      -9999      422.815    4.567      2.352      0.63       0.73       0.93       1.19       1.41       1.23       1.15       0.4        0.63       1.727      1.103      -9999      2.272      0.1788779  0.1033008  -9999      0.254455   0.2413667  5.759849   4.492458   2.35       1.41       0.1479231  0.2691757  451.218    0.3986148  0.3513041  0.4459255 
1053.8     0.252      -9999      -9999      414.999    4.528      2.449      0.98       1.19       1.32       1.47       1.49       1.44       0.98       0.47       0.63       2.024      1.161      -9999      2.369      0.2058174  0.1592976  -9999      0.2523373  0.2668172  18.17173   4.882317   2.26       1.49       0.2652007  0.3675279  451.091    0.3891163  0.3395668  0.4386658 
1054       0.279      -9999      -9999      411.891    4.439      2.464      3.1        3.23       2.57       2.24       1.87       1.52       1.14       0.5        0.57       1.823      1.136      -9999      2.485      0.1287033  0.005074916 -9999      0.2523317  0.1886658  0.6777279  5.903414   2.52       1.87       0.005845018 0.1598924  451.273    0.3824998  0.3142295  0.4507701 
1054.2     0.286      -9999      -9999      392.829    4.704      2.406      0.86       0.99       1.15       1.51       1.6        1.14       1.17       0.39       0.53       1.662      1.058      -9999      2.466      0.1407418  0.05571096 -9999      0.2257727  0.2072451  1.1325     3.353699   2.42       1.6        0.01051044 0.1716645  451.291    0.4242233  0.395845   0.4526015 
1054.4     0.289      -9999      -9999      393.534    4.635      2.142      0.82       0.93       1.06       1.19       1.26       1.13       1.04       0.42       0.56       1.648      1.051      -9999      2.353      0.1965538  0.1648692  -9999      0.2282384  0.262085   12.24082   3.88568    2.24       1.26       0.1725187  0.2915232  451.446    0.4180229  0.3727478  0.463298  
1054.6     0.279      -9999      -9999      385.477    4.622      2.099      0.65       0.83       1.01       1.15       1.2        1          1.12       0.46       0.58       1.512      1.073      -9999      2.463      0.1855584  0.1477537  -9999      0.2233631  0.2504892  7.65861    3.994978   2.27       1.2        0.1098237  0.2365191  451.382    0.414193   0.3685494  0.4598366 
