~Version
 VERS              .         2.0                           : CWLS LOG ASCII STANDARD - VERSION 2.0
 WRAP              .         NO                            : ONE LINE PER DEPTH STEP
 DLM               .         SPACE                         : DELIMITING CHARACTER(SPACE TAB OR COMMA)
~Well Information
#_______________________________________________________________________________
#
#PARAMETER_NAME    .UNIT     VALUE                         : DESCRIPTION
#_______________________________________________________________________________
STRT               .м        101.4                         : First reference value
STOP               .м        1218.4                        : Last reference value
STEP               .м        0.2                           : Step increment
NULL               .         -9999                         : Missing value
COMP               .                                       : Company
WELL               .         4534                          : Well name
FLD                .         УЗЕНЬ                         : Field
LOC                .                                       : Location
CNTY               .                                       : County
STAT               .                                       : State
CTRY               .                                       : Country
SRVC               .         AO"UPGF"                      : Service Company
DATE               .         27.04/01.05/2014              : Date
UWI                .                                       : Unique Well ID
Block              .         4                             : 
Category           .         Нагнетательная                : 
Condition          .         В работе                      : 
Date               .         26.05.2014                    : 
EREF               .m        225.4                         : 100.8
GRP                .                                       : Group name
Gorizont           .         14                            : 14
ISS                .                                       : Well surveys
Interpretator      .         Ким С.В.                      : 
Kupol              .         основной                      : osnovnoi
Mud                .         0                             : 
Mud_density        .         0                             : 
Mud_resistivity    .         0                             : 
NGDU               .         НГДУ-1                        : 
ORIGINALWELLNAME   .         4534                          : 
Spud_date          .         2014                          : 1961
TIME               .                                       : LOG TIME
Viscosity          .         0                             : 
X                  .m        54002.4                       : 46154
Y                  .m        81965.1                       : 85761.93
YEAR               .         2019                          : 
~Parameter Information Block
#_______________________________________________________________________________
#
#PARAMETER_NAME    .UNIT     VALUE                         : DESCRIPTION
#_______________________________________________________________________________
SET                .         LQC_KAZNIPI_Petrel            : 
TLFamily_CALI      .         Caliper                       : 
TLFamily_COLL      .         Net Reservoir Flag            : 
TLFamily_CSAT      .         Fluid Code                    : 
TLFamily_DEPT      .         Measured Depth                : 
TLFamily_DT        .         Compressional Slowness        : 
TLFamily_GR        .         Russian Gamma Ray             : 
TLFamily_GZ3       .         Gradient 225                  : 
TLFamily_IK1       .         Resistivity 05                : 
TLFamily_IK2       .         Resistivity 07                : 
TLFamily_IK3       .         Resistivity 10                : 
TLFamily_IK4       .         Resistivity 14                : 
TLFamily_IK5       .         Resistivity 20                : 
TLFamily_LLS       .         Lateral Log Resistivity       : 
TLFamily_MBK       .         Micro Lateral Log Resistivity : 
TLFamily_MINV      .         Micro Gradient Resistivity    : 
TLFamily_MNOR      .         Micro Resistivity             : 
TLFamily_NNKTB_1   .         Neutron Far                   : 
TLFamily_NNKTM_1   .         Neutron Near                  : 
TLFamily_NPHI      .         Neutron Porosity              : 
TLFamily_OGZ       .         Gradient Inverted 225         : 
TLFamily_PHIE      .         Effective Porosity            : 
TLFamily_PHIED     .         Effective Porosity            : 
TLFamily_PHIEN     .         Effective Porosity            : 
TLFamily_PHIES     .         Effective Porosity            : 
TLFamily_PHIT      .         Porosity                      : 
TLFamily_PRMB      .         Permeability                  : 
TLFamily_PRMB_DGR  .         Permeability                  : 
TLFamily_RHOB      .         Bulk Density                  : 
TLFamily_RT        .         Formation Resistivity         : 
TLFamily_SOIL_ARCHIE .         Oil Saturation                : 
TLFamily_SOIL_DW   .         Oil Saturation                : 
TLFamily_SP        .         Spontaneous Potential         : 
TLFamily_VSH_FIN   .         Shale Volume                  : 
TLFamily_VSH_GR    .         Shale Volume                  : 
TLFamily_VSH_SP    .         Shale Volume                  : 
~Curve Information
#_______________________________________________________________________________
#
#LOGNAME           .UNIT     LOG_ID                        : DESCRIPTION
#_______________________________________________________________________________
DEPT               .м                                      : Колонка глубины 
CALI               .м                                      : Каверномер 
COLL               .unitless                               : Описание 
CSAT               .unitless                               : Описание 
DT                 .мкс/м                                  : Интервальное время пробега продольной волны 
GR                 .uR/h                                   : Гамма каротаж 
GZ3                .Ohmm                                   : Градиент-зонд  длиной 2.25м 
IK1                .Ohmm                                   : И0.10И0.40 
IK2                .Ohmm                                   : И0.14И0.56 
IK3                .Ohmm                                   : И0.20И0.80 
IK4                .Ohmm                                   : И0.28И1.12 
IK5                .Ohmm                                   : И0.40И1.60 
LLS                .Ohmm                                   : Боковой каротаж 
MBK                .Ohmm                                   : Микробоковой каротаж 
MINV               .Ohmm                                   : Микро-градиент зонд 
MNOR               .Ohmm                                   : Микро-потенциал зонд 
NNKTB_1            .у.е.                                   : Показания большого зонда 2ННКт аппаратуры СРК 
NNKTM_1            .у.е.                                   : Показания малого зонда 2ННКт аппаратуры СРК 
NPHI               .v/v                                    : Total porosity 
OGZ                .Ohmm                                   :  
PHIE               .v/v                                    : Описание 
PHIED              .v/v                                    :  
PHIEN              .v/v                                    :  
PHIES              .v/v                                    :  
PHIT               .v/v                                    : Описание 
PRMB               .mD                                     :  
PRMB_DGR           .mD                                     :  
RHOB               .g/cm3                                  : Плотность по ГГКп 
RT                 .ohmm                                   : Удельное электрическое сопротивление 
SOIL_ARCHIE        .v/v                                    :  
SOIL_DW            .v/v                                    :  
SP                 .мВ                                     : Потенциал самополяризации 
VSH_FIN            .v/v                                    : Описание 
VSH_GR             .v/v                                    : Shale volume 
VSH_SP             .v/v                                    : Shale Volume 
~Ascii
# ...
979.2000000000001 0.29       -9999      -9999      281.83     5.46       3.829      7.91       7.900001   6.130001   4.91       4.07       3.33       1.56       0.57       0.57       2.017      1.24       -9999      5.239      -9999      -9999      -9999      -9999      -9999      -9999      -9999      2.52       4.07       -9999      -9999      437.082    -9999      0.04166158 0.8       
979.4      0.332      -9999      -9999      276.691    5.539      4.408      1.78       1.74       2.23       2.94       3.51       2.66       2.36       0.75       0.78       1.886      1.21       -9999      5.412      -9999      -9999      -9999      -9999      -9999      -9999      -9999      2.46       3.51       -9999      -9999      437.082    -9999      0.04392071 0.8       
979.6      0.248      -9999      -9999      268.349    5.347      5.066      2.34       2.84       3.15       3.28       3.31       2.94       1.73       0.51       0.6        1.987      1.233      -9999      5.54       -9999      -9999      -9999      -9999      -9999      -9999      -9999      2.36       3.31       -9999      -9999      436.718    -9999      0.03863065 0.8       
979.8      0.3        -9999      -9999      250.763    5.461      5.379      6.530001   6.05       6.39       5.590001   4.27       3.82       1.85       0.5        0.62       2.056      1.267      -9999      5.485      -9999      -9999      -9999      -9999      -9999      -9999      -9999      2.55       4.27       -9999      -9999      436.682    -9999      0.04168944 0.8       
980        0.252      -9999      -9999      246.867    5.506      5.232      2.79       2.85       3.2        3.7        3.98       3.35       2.12       0.58       0.74       2.188      1.242      -9999      5.299      -9999      -9999      -9999      -9999      -9999      -9999      -9999      2.53       3.98       -9999      -9999      436.318    -9999      0.0429625  0.8       
980.2000000000001 0.249      -9999      -9999      264.709    5.568      4.924      3.84       3.56       3.76       3.89       3.58       3.88       3.16       0.64       0.79       2.209      1.246      -9999      4.919      -9999      -9999      -9999      -9999      -9999      -9999      -9999      2.63       3.58       -9999      -9999      436.482    -9999      0.0447804  0.8       
980.4      0.298      -9999      -9999      283.542    5.805      4.623      2.01       1.87       2.43       2.95       3.19       2.81       2.48       0.87       0.85       1.986      1.155      -9999      4.538      -9999      -9999      -9999      -9999      -9999      -9999      -9999      2.58       3.19       -9999      -9999      436.409    -9999      0.05246731 0.8       
980.6      0.268      -9999      -9999      267.774    5.286      4.38       1.31       1.45       1.84       2.41       2.73       2.33       1.42       0.55       0.52       2.002      1.131      -9999      4.435      -9999      -9999      -9999      -9999      -9999      -9999      -9999      2.37       2.73       -9999      -9999      436.4      -9999      0.03708717 0.8       
980.8      0.233      -9999      -9999      265.264    5.185      4.364      3.45       3.38       3.7        3.54       3.11       3.04       1.38       0.57       0.48       1.824      1.148      -9999      4.406      -9999      -9999      -9999      -9999      -9999      -9999      -9999      2.4        3.11       -9999      -9999      436.273    -9999      0.03466599 0.8       
981        0.292      -9999      -9999      295.448    5.259      4.123      1.59       1.67       2.34       2.82       2.89       2.28       1.47       0.82       0.56       1.649      1.075      -9999      4.047      -9999      -9999      -9999      -9999      -9999      -9999      -9999      2.5        2.89       -9999      -9999      436.009    -9999      0.03642383 0.8       
981.2000000000001 0.418      -9999      -9999      341.254    5.682      3.548      1.36       1.39       1.5        1.82       2.21       1.8        1.15       0.51       0.37       1.51       1.009      -9999      3.594      -9999      -9999      -9999      -9999      -9999      -9999      -9999      2.25       2.21       -9999      -9999      436.109    -9999      0.04832614 0.8       
981.4      0.403      -9999      -9999      349.497    5.821      3.544      1.22       1.41       1.77       2.13       2.24       1.73       1.08       0.38       0.35       1.497      1.011      -9999      3.685      -9999      -9999      -9999      -9999      -9999      -9999      -9999      2.24       2.24       -9999      -9999      436.182    -9999      0.05303146 0.8       
981.6      0.403      -9999      -9999      393.392    6.025      3.786      2.35       2.54       2.89       2.83       2.65       2.06       1.12       0.39       0.37       1.539      1.041      -9999      3.909      -9999      -9999      -9999      -9999      -9999      -9999      -9999      2.28       2.65       -9999      -9999      436.255    -9999      0.06077914 0.8       
981.8      0.408      -9999      -9999      404.062    6.287      3.918      0.95       1.05       1.44       2          2.37       1.87       1.14       0.38       0.41       1.541      1.059      -9999      4.055      -9999      -9999      -9999      -9999      -9999      -9999      -9999      2.3        2.37       -9999      -9999      436.273    -9999      0.07241238 0.8       
982        0.392      -9999      -9999      368.207    6.259      4.133      0.96       1.15       1.48       1.86       2.12       1.75       1.08       0.38       0.42       1.396      1.051      -9999      4.165      -9999      -9999      -9999      -9999      -9999      -9999      -9999      2.3        2.12       -9999      -9999      436.473    -9999      0.07106968 0.8       
982.2000000000001 0.346      -9999      -9999      357.807    6.173      4.331      1.94       2.43       2.64       2.67       2.5        1.96       1.11       0.4        0.44       1.468      1.061      -9999      4.489      -9999      -9999      -9999      -9999      -9999      -9999      -9999      2.32       2.5        -9999      -9999      436.3      -9999      0.06709941 0.8       
982.4      0.299      -9999      -9999      369.077    6.152      4.381      1.25       1.68       1.98       2.36       2.59       1.92       1.19       0.47       0.51       1.653      1.081      -9999      4.853      -9999      -9999      -9999      -9999      -9999      -9999      -9999      2.41       2.59       -9999      -9999      436.027    -9999      0.06616411 0.8       
982.6      0.273      -9999      -9999      383.919    5.963      4.366      1.55       1.78       2.17       2.39       2.49       2.02       1.08       0.52       0.53       1.734      1.102      -9999      5.343      -9999      -9999      -9999      -9999      -9999      -9999      -9999      2.48       2.49       -9999      -9999      436.2      -9999      0.05831173 0.8       
982.8      0.228      -9999      -9999      346.69     6.181      4.37       1.92       2.11       2.54       2.81       2.72       2.06       1.09       0.63       0.62       1.855      1.161      -9999      6.076      -9999      -9999      -9999      -9999      -9999      -9999      -9999      2.62       2.72       -9999      -9999      436.127    -9999      0.0674592  0.8       
983        0.232      -9999      -9999      290.99     6.694      4.412      3.06       3.26       3.31       3.3        2.97       2.54       1.18       0.72       0.77       2.069      1.189      -9999      6.836      -9999      -9999      -9999      -9999      -9999      -9999      -9999      2.66       2.97       -9999      -9999      436.382    -9999      0.09505266 0.8       
983.2000000000001 0.236      -9999      -9999      299.264    6.822      4.347      2.04       2.01       2.35       2.7        2.73       2.52       1.45       0.82       0.91       1.991      1.156      -9999      7.251      -9999      -9999      -9999      -9999      -9999      -9999      -9999      2.68       2.73       -9999      -9999      436.291    -9999      0.1035434  0.8       
