~Version
 VERS              .         2.0                           : CWLS LOG ASCII STANDARD - VERSION 2.0
 WRAP              .         NO                            : ONE LINE PER DEPTH STEP
 DLM               .         SPACE                         : DELIMITING CHARACTER(SPACE TAB OR COMMA)
~Well Information
#_______________________________________________________________________________
#
#PARAMETER_NAME    .UNIT     VALUE                         : DESCRIPTION
#_______________________________________________________________________________
STRT               .м        101.4                         : First reference value
STOP               .м        1218.4                        : Last reference value
STEP               .м        0.2                           : Step increment
NULL               .         -9999                         : Missing value
COMP               .                                       : Company
WELL               .         4534                          : Well name
FLD                .         УЗЕНЬ                         : Field
LOC                .                                       : Location
CNTY               .                                       : County
STAT               .                                       : State
CTRY               .                                       : Country
SRVC               .         AO"UPGF"                      : Service Company
DATE               .         27.04/01.05/2014              : Date
UWI                .                                       : Unique Well ID
Block              .         4                             : 
Category           .         Нагнетательная                : 
Condition          .         В работе                      : 
Date               .         26.05.2014                    : 
EREF               .m        225.4                         : 100.8
GRP                .                                       : Group name
Gorizont           .         14                            : 14
ISS                .                                       : Well surveys
Interpretator      .         Ким С.В.                      : 
Kupol              .         основной                      : osnovnoi
Mud                .         0                             : 
Mud_density        .         0                             : 
Mud_resistivity    .         0                             : 
NGDU               .         НГДУ-1                        : 
ORIGINALWELLNAME   .         4534                          : 
Spud_date          .         2014                          : 1961
TIME               .                                       : LOG TIME
Viscosity          .         0                             : 
X                  .m        54002.4                       : 46154
Y                  .m        81965.1                       : 85761.93
YEAR               .         2019                          : 
~Parameter Information Block
#_______________________________________________________________________________
#
#PARAMETER_NAME    .UNIT     VALUE                         : DESCRIPTION
#_______________________________________________________________________________
SET                .         LQC_KAZNIPI_Petrel            : 
TLFamily_CALI      .         Caliper                       : 
TLFamily_COLL      .         Net Reservoir Flag            : 
TLFamily_CSAT      .         Fluid Code                    : 
TLFamily_DEPT      .         Measured Depth                : 
TLFamily_DT        .         Compressional Slowness        : 
TLFamily_GR        .         Russian Gamma Ray             : 
TLFamily_GZ3       .         Gradient 225                  : 
TLFamily_IK1       .         Resistivity 05                : 
TLFamily_IK2       .         Resistivity 07                : 
TLFamily_IK3       .         Resistivity 10                : 
TLFamily_IK4       .         Resistivity 14                : 
TLFamily_IK5       .         Resistivity 20                : 
TLFamily_LLS       .         Lateral Log Resistivity       : 
TLFamily_MBK       .         Micro Lateral Log Resistivity : 
TLFamily_MINV      .         Micro Gradient Resistivity    : 
TLFamily_MNOR      .         Micro Resistivity             : 
TLFamily_NNKTB_1   .         Neutron Far                   : 
TLFamily_NNKTM_1   .         Neutron Near                  : 
TLFamily_NPHI      .         Neutron Porosity              : 
TLFamily_OGZ       .         Gradient Inverted 225         : 
TLFamily_PHIE      .         Effective Porosity            : 
TLFamily_PHIED     .         Effective Porosity            : 
TLFamily_PHIEN     .         Effective Porosity            : 
TLFamily_PHIES     .         Effective Porosity            : 
TLFamily_PHIT      .         Porosity                      : 
TLFamily_PRMB      .         Permeability                  : 
TLFamily_PRMB_DGR  .         Permeability                  : 
TLFamily_RHOB      .         Bulk Density                  : 
TLFamily_RT        .         Formation Resistivity         : 
TLFamily_SOIL_ARCHIE .         Oil Saturation                : 
TLFamily_SOIL_DW   .         Oil Saturation                : 
TLFamily_SP        .         Spontaneous Potential         : 
TLFamily_VSH_FIN   .         Shale Volume                  : 
TLFamily_VSH_GR    .         Shale Volume                  : 
TLFamily_VSH_SP    .         Shale Volume                  : 
~Curve Information
#_______________________________________________________________________________
#
#LOGNAME           .UNIT     LOG_ID                        : DESCRIPTION
#_______________________________________________________________________________
DEPT               .м                                      : Колонка глубины 
CALI               .м                                      : Каверномер 
COLL               .unitless                               : Описание 
CSAT               .unitless                               : Описание 
DT                 .мкс/м                                  : Интервальное время пробега продольной волны 
GR                 .uR/h                                   : Гамма каротаж 
GZ3                .Ohmm                                   : Градиент-зонд  длиной 2.25м 
IK1                .Ohmm                                   : И0.10И0.40 
IK2                .Ohmm                                   : И0.14И0.56 
IK3                .Ohmm                                   : И0.20И0.80 
IK4                .Ohmm                                   : И0.28И1.12 
IK5                .Ohmm                                   : И0.40И1.60 
LLS                .Ohmm                                   : Боковой каротаж 
MBK                .Ohmm                                   : Микробоковой каротаж 
MINV               .Ohmm                                   : Микро-градиент зонд 
MNOR               .Ohmm                                   : Микро-потенциал зонд 
NNKTB_1            .у.е.                                   : Показания большого зонда 2ННКт аппаратуры СРК 
NNKTM_1            .у.е.                                   : Показания малого зонда 2ННКт аппаратуры СРК 
NPHI               .v/v                                    : Total porosity 
OGZ                .Ohmm                                   :  
PHIE               .v/v                                    : Описание 
PHIED              .v/v                                    :  
PHIEN              .v/v                                    :  
PHIES              .v/v                                    :  
PHIT               .v/v                                    : Описание 
PRMB               .mD                                     :  
PRMB_DGR           .mD                                     :  
RHOB               .g/cm3                                  : Плотность по ГГКп 
RT                 .ohmm                                   : Удельное электрическое сопротивление 
SOIL_ARCHIE        .v/v                                    :  
SOIL_DW            .v/v                                    :  
SP                 .мВ                                     : Потенциал самополяризации 
VSH_FIN            .v/v                                    : Описание 
VSH_GR             .v/v                                    : Shale volume 
VSH_SP             .v/v                                    : Shale Volume 
~Ascii
# ...
1122       0.233      -9999      -9999      273.139    6.333      2.269      1.67       1.77       1.85       1.94       1.88       1.66       2.53       1.52       1.12       1.799      1.092      -9999      2.603      0.05979061 0          -9999      0.1195812  0.1155828  0.03586124 2.538393   2.69       1.88       0          0          446.918    0.3558978  0.4435262  0.2682693 
1122.2     0.22       -9999      -9999      236.878    6.316      2.255      2.13       2.06       2.12       2.11       2.02       2.02       2.44       1.21       1.32       1.766      1.117      -9999      2.583      0.02637211 0          -9999      0.05274421 0.08352549 0.008622505 2.605473   2.68       2.02       0          0          447.491    0.3645807  0.4388275  0.2903339 
1122.4     0.234      -9999      -9999      257.741    6.531      2.088      1.87       1.84       1.97       2.03       1.98       1.89       2.19       1.34       1.16       1.685      1.035      -9999      2.387      0.01       -0.1374079 -9999      0.07948522 0.03436786 0.004289259 1.873382   2.75       1.98       0          0          447.864    0.403976   0.5021018  0.3058502 
1122.6     0.267      -9999      -9999      316.202    6.811      2.042      1.01       1.15       1.33       1.53       1.63       1.31       1.69       0.74       0.78       1.417      0.959      -9999      2.209      0.01       -0.1289639 -9999      0.1480755  0.07962102 0.004289259 1.219144   2.72       1.63       0          0          447.618    0.4469451  0.5983771  0.2955132 
1122.8     0.286      -9999      -9999      348.923    6.635      2.091      0.97       1.13       1.25       1.37       1.44       1.3        1.45       0.58       0.57       1.478      0.941      -9999      2.205      0.0653635  -0.06171051 -9999      0.1924375  0.1302117  0.04548296 1.597086   2.62       1.44       0          0          447.518    0.413666   0.5359058  0.2914263 
1123       0.261      -9999      -9999      331.82     6.402      2.143      1.13       1.28       1.4        1.49       1.46       1.31       1.6        0.4        0.51       1.534      0.959      -9999      2.243      0.1034408  0.01796401 -9999      0.1889176  0.1615994  0.2307454  2.283403   2.64       1.46       0          0          447.2      0.3709927  0.4631194  0.278866  
1123.2     0.253      -9999      -9999      329.001    6.464      2.191      0.88       1.17       1.37       1.48       1.49       1.36       1.5        0.5        0.65       1.602      0.94       -9999      2.313      0.1251499  0.0658683  -9999      0.1844315  0.1840745  0.5824218  2.076205   2.56       1.49       0          0.03403834 446.973    0.3758793  0.4814622  0.2702963 
1123.4     0.295      -9999      -9999      351.096    6.332      2.266      1          1.22       1.37       1.46       1.44       1.22       1.38       0.54       0.59       1.626      0.951      -9999      2.434      0.1485887  0.08383235 -9999      0.213345   0.2039978  1.582635   2.542291   2.53       1.44       0.008342553 0.1381857  446.791    0.353454   0.4432483  0.2636596 
1123.6     0.325      -9999      -9999      357.499    6.173      2.425      0.92       1.18       1.32       1.45       1.47       1.31       1.27       0.44       0.45       1.767      0.995      -9999      2.594      0.1725066  0.1197605  -9999      0.2252528  0.2248798  4.389341   3.244675   2.47       1.47       0.1376089  0.2427342  446.882    0.3340876  0.4012231  0.2669522 
1123.8     0.245      -9999      -9999      342.278    6.549      2.591      1.64       1.97       1.98       1.92       1.73       1.68       1.48       0.57       0.53       2.053      1.071      -9999      2.91       0.07112581 -0.05079445 -9999      0.1930461  0.1324872  0.05815414 1.822353   2.61       1.73       0          0          447.1      0.3914233  0.5077959  0.2750506 
1124       0.247      -9999      -9999      310.803    6.4        2.749      1.74       2.05       2.23       2.19       2.02       1.92       2.18       1.05       0.77       1.912      1.08       -9999      2.959      0.08271134 0          -9999      0.1654227  0.1409606  0.09531751 2.29042    2.7        2.02       0          0          447.245    0.3715713  0.4625395  0.2806031 
1124.2     0.255      -9999      -9999      276.611    6.276      2.728      1.75       1.86       2.04       2.07       1.99       1.64       2.66       1.1        0.89       1.696      1.058      -9999      2.77       0.06123676 0          -9999      0.1224735  0.1182114  0.03814269 2.770381   2.75       1.99       0          0          447.7      0.3634405  0.4279672  0.2989137 
1124.4     0.3        -9999      -9999      263.357    6.288      2.625      1.5        1.64       1.81       1.9        1.86       1.68       2.41       0.76       0.79       1.638      1.06       -9999      2.583      0.05063538 0          -9999      0.1012708  0.1078043  0.02426879 2.719842   2.7        1.86       0          0          447.682    0.36468    0.4311968  0.2981632 
1124.6     0.29       -9999      -9999      265.943    6.084      2.506      1.6        1.81       1.94       1.96       1.82       1.81       1.89       0.58       0.73       1.65       1.048      -9999      2.459      0.06452164 0.01197599 -9999      0.1170673  0.1159043  0.04387886 3.71941    2.65       1.82       0          0          447.127    0.3277694  0.379464   0.2760748 
1124.8     0.301      -9999      -9999      296.433    6.165      2.355      1.64       1.71       1.79       1.83       1.77       1.47       1.89       0.41       0.63       1.666      1.041      -9999      2.385      0.07913486 0          -9999      0.1582697  0.132039   0.08183284 3.284746   2.67       1.77       0          0          447.118    0.337475   0.3992172  0.2757329 
1125       0.277      -9999      -9999      290.356    6.278      2.265      1.36       1.46       1.61       1.73       1.75       1.58       1.75       0.37       0.51       1.765      1.082      -9999      2.335      0.102136   0.05988028 -9999      0.1443917  0.1579406  0.2182552  2.761894   2.57       1.75       0          0          447.318    0.3559767  0.4285038  0.2834496 
1125.2     0.253      -9999      -9999      265.388    6.172      2.367      1.91       2.09       2.19       2.2        1.99       2.13       1.75       0.42       0.58       1.866      1.119      -9999      2.462      0.09423098 0.07784434 -9999      0.1106176  0.1483887  0.1557917  3.249657   2.54       1.99       0          0          447.482    0.3454713  0.4009718  0.2899708 
1125.4     0.241      -9999      -9999      257.447    6.335      2.369      2.96       2.7        2.59       2.42       2.14       1.76       2.62       0.58       0.74       1.892      1.068      -9999      2.455      0.04565063 0          -9999      0.09130127 0.1028183  0.01962088 2.530617   2.72       2.14       0          0          447.364    0.364672   0.4440823  0.2852618 
1125.6     0.263      -9999      -9999      281.346    6.529      2.332      1.43       1.54       1.63       1.79       1.83       1.47       2.12       0.52       0.82       1.748      1.048      -9999      2.357      0.01317713 -0.09687993 -9999      0.1232342  0.07325166 0.004911683 1.87914    2.69       1.83       0          0          446.827    0.3832147  0.5014729  0.2649564 
1125.8     0.279      -9999      -9999      285.74     6.453      2.198      1.19       1.34       1.46       1.56       1.62       1.4        1.84       0.5        0.71       1.778      1.052      -9999      2.527      0.09382297 0.05389212 -9999      0.1337538  0.1517641  0.1531042  2.111542   2.58       1.62       0          0          446.718    0.3696055  0.4781556  0.2610554 
1126       0.246      -9999      -9999      254.778    6.128      2.456      1.22       1.42       1.59       1.72       1.75       1.68       1.82       0.75       0.91       1.784      1.123      -9999      2.671      0.07322726 0.0479041  -9999      0.09855042 0.1244429  0.06360696 3.476609   2.59       1.75       0          0          446.782    0.3267037  0.3900696  0.2633378 
