~Version
 VERS              .         2.0                           : CWLS LOG ASCII STANDARD - VERSION 2.0
 WRAP              .         NO                            : ONE LINE PER DEPTH STEP
 DLM               .         SPACE                         : DELIMITING CHARACTER(SPACE TAB OR COMMA)
~Well Information
#_______________________________________________________________________________
#
#PARAMETER_NAME    .UNIT     VALUE                         : DESCRIPTION
#_______________________________________________________________________________
STRT               .м        101.4                         : First reference value
STOP               .м        1218.4                        : Last reference value
STEP               .м        0.2                           : Step increment
NULL               .         -9999                         : Missing value
COMP               .                                       : Company
WELL               .         4534                          : Well name
FLD                .         УЗЕНЬ                         : Field
LOC                .                                       : Location
CNTY               .                                       : County
STAT               .                                       : State
CTRY               .                                       : Country
SRVC               .         AO"UPGF"                      : Service Company
DATE               .         27.04/01.05/2014              : Date
UWI                .                                       : Unique Well ID
Block              .         4                             : 
Category           .         Нагнетательная                : 
Condition          .         В работе                      : 
Date               .         26.05.2014                    : 
EREF               .m        225.4                         : 100.8
GRP                .                                       : Group name
Gorizont           .         14                            : 14
ISS                .                                       : Well surveys
Interpretator      .         Ким С.В.                      : 
Kupol              .         основной                      : osnovnoi
Mud                .         0                             : 
Mud_density        .         0                             : 
Mud_resistivity    .         0                             : 
NGDU               .         НГДУ-1                        : 
ORIGINALWELLNAME   .         4534                          : 
Spud_date          .         2014                          : 1961
TIME               .                                       : LOG TIME
Viscosity          .         0                             : 
X                  .m        54002.4                       : 46154
Y                  .m        81965.1                       : 85761.93
YEAR               .         2019                          : 
~Parameter Information Block
#_______________________________________________________________________________
#
#PARAMETER_NAME    .UNIT     VALUE                         : DESCRIPTION
#_______________________________________________________________________________
SET                .         LQC_KAZNIPI_Petrel            : 
TLFamily_CALI      .         Caliper                       : 
TLFamily_COLL      .         Net Reservoir Flag            : 
TLFamily_CSAT      .         Fluid Code                    : 
TLFamily_DEPT      .         Measured Depth                : 
TLFamily_DT        .         Compressional Slowness        : 
TLFamily_GR        .         Russian Gamma Ray             : 
TLFamily_GZ3       .         Gradient 225                  : 
TLFamily_IK1       .         Resistivity 05                : 
TLFamily_IK2       .         Resistivity 07                : 
TLFamily_IK3       .         Resistivity 10                : 
TLFamily_IK4       .         Resistivity 14                : 
TLFamily_IK5       .         Resistivity 20                : 
TLFamily_LLS       .         Lateral Log Resistivity       : 
TLFamily_MBK       .         Micro Lateral Log Resistivity : 
TLFamily_MINV      .         Micro Gradient Resistivity    : 
TLFamily_MNOR      .         Micro Resistivity             : 
TLFamily_NNKTB_1   .         Neutron Far                   : 
TLFamily_NNKTM_1   .         Neutron Near                  : 
TLFamily_NPHI      .         Neutron Porosity              : 
TLFamily_OGZ       .         Gradient Inverted 225         : 
TLFamily_PHIE      .         Effective Porosity            : 
TLFamily_PHIED     .         Effective Porosity            : 
TLFamily_PHIEN     .         Effective Porosity            : 
TLFamily_PHIES     .         Effective Porosity            : 
TLFamily_PHIT      .         Porosity                      : 
TLFamily_PRMB      .         Permeability                  : 
TLFamily_PRMB_DGR  .         Permeability                  : 
TLFamily_RHOB      .         Bulk Density                  : 
TLFamily_RT        .         Formation Resistivity         : 
TLFamily_SOIL_ARCHIE .         Oil Saturation                : 
TLFamily_SOIL_DW   .         Oil Saturation                : 
TLFamily_SP        .         Spontaneous Potential         : 
TLFamily_VSH_FIN   .         Shale Volume                  : 
TLFamily_VSH_GR    .         Shale Volume                  : 
TLFamily_VSH_SP    .         Shale Volume                  : 
~Curve Information
#_______________________________________________________________________________
#
#LOGNAME           .UNIT     LOG_ID                        : DESCRIPTION
#_______________________________________________________________________________
DEPT               .м                                      : Колонка глубины 
CALI               .м                                      : Каверномер 
COLL               .unitless                               : Описание 
CSAT               .unitless                               : Описание 
DT                 .мкс/м                                  : Интервальное время пробега продольной волны 
GR                 .uR/h                                   : Гамма каротаж 
GZ3                .Ohmm                                   : Градиент-зонд  длиной 2.25м 
IK1                .Ohmm                                   : И0.10И0.40 
IK2                .Ohmm                                   : И0.14И0.56 
IK3                .Ohmm                                   : И0.20И0.80 
IK4                .Ohmm                                   : И0.28И1.12 
IK5                .Ohmm                                   : И0.40И1.60 
LLS                .Ohmm                                   : Боковой каротаж 
MBK                .Ohmm                                   : Микробоковой каротаж 
MINV               .Ohmm                                   : Микро-градиент зонд 
MNOR               .Ohmm                                   : Микро-потенциал зонд 
NNKTB_1            .у.е.                                   : Показания большого зонда 2ННКт аппаратуры СРК 
NNKTM_1            .у.е.                                   : Показания малого зонда 2ННКт аппаратуры СРК 
NPHI               .v/v                                    : Total porosity 
OGZ                .Ohmm                                   :  
PHIE               .v/v                                    : Описание 
PHIED              .v/v                                    :  
PHIEN              .v/v                                    :  
PHIES              .v/v                                    :  
PHIT               .v/v                                    : Описание 
PRMB               .mD                                     :  
PRMB_DGR           .mD                                     :  
RHOB               .g/cm3                                  : Плотность по ГГКп 
RT                 .ohmm                                   : Удельное электрическое сопротивление 
SOIL_ARCHIE        .v/v                                    :  
SOIL_DW            .v/v                                    :  
SP                 .мВ                                     : Потенциал самополяризации 
VSH_FIN            .v/v                                    : Описание 
VSH_GR             .v/v                                    : Shale volume 
VSH_SP             .v/v                                    : Shale Volume 
~Ascii
# ...
1210.2     0.213      -9999      -9999      279.709    -9999      2.693      3.34       2.57       2.06       2.03       2.11       2.14       2.98       0.88       1.11       -9999      -9999      0.176      2.448      0.1634108  0.1197605  0.1402745  0.2070611  0.180382   2.977985   -9999      2.47       2.11       0.2475952  0.2763391  394.754    0.108259   -9999      0.108259  
1210.4     0.22       -9999      -9999      278.657    -9999      2.919      3.02       2.5        2.04       2.06       2.2        2.16       3.17       0.92       1.16       -9999      -9999      0.173      2.469      0.15535    0.1017964  0.1408388  0.2089035  0.1706279  2.111622   -9999      2.5        2.2        0.2289661  0.2523966  392.636    0.097458   -9999      0.09745835
1210.6     0.216      -9999      -9999      273.419    -9999      3.059      3          2.62       2.19       2.24       2.41       2.47       3.45       0.87       1.15       -9999      -9999      0.168      2.491      0.1526617  0.08982037 0.1510631  0.215503   0.1607075  1.882881   -9999      2.52       2.41       0.2499399  0.2554092  388.869    0.051324   -9999      0.05132444
1210.8     0.215      -9999      -9999      284.745    -9999      3.041      3.16       2.98       2.61       2.62       2.74       2.98       3.82       0.93       1.22       -9999      -9999      0.185      2.461      0.1509963  0.07784434 0.1596458  0.2241482  0.1630407  1.753782   -9999      2.54       2.74       0.2869969  0.3040738  390.127    0.076831   -9999      0.07683108
1211       0.232      -9999      -9999      303.701    -9999      3.039      2.6        2.75       2.66       2.68       2.82       3.1        3.95       1          1.23       -9999      -9999      0.247      2.492      0.2207992  0.1796407  0.2350474  0.2619577  0.2264772  34.42661   -9999      2.37       2.82       0.4947667  0.517037   387.839    0.03622    -9999      0.03622044
1211.2     0.267      -9999      -9999      325.054    -9999      3.038      2          2.12       2.17       2.2        2.4        2.61       3.11       0.93       1.06       -9999      -9999      0.3        -9999      0.3165526  0.3413174  0.2934     0.2917879  0.3196879  2044       -9999      2.1        2.4        0.6018021  0.631623   383.208    0.02       -9999      0.02      
1211.4     0.319      -9999      -9999      342.899    -9999      3.017      1.21       1.31       1.48       1.63       1.87       1.46       1.78       0.75       0.86       -9999      -9999      0.299      -9999      0.3257104  0.3413174  0.2924     0.3101035  0.3288457  3020.687   -9999      2.1        1.87       0.5633179  0.5943429  385.627    0.02       -9999      0.02      
1211.6     0.312      -9999      -9999      346.342    -9999      3.037      1.2        1.52       1.66       1.67       1.7        1.4        1.14       0.55       0.67       -9999      -9999      0.297      -9999      -9999      -9999      -9999      -9999      -9999      -9999      -9999      2.25       1.7        -9999      -9999      -9999      -9999      -9999      -9999     
1211.8     0.308      -9999      -9999      319.266    -9999      3.056      1.72       2.04       2.08       1.91       1.8        1.4        1.39       0.65       0.86       -9999      -9999      0.242      -9999      -9999      -9999      -9999      -9999      -9999      -9999      -9999      2.34       1.8        -9999      -9999      -9999      -9999      -9999      -9999     
1212       0.258      -9999      -9999      286.324    -9999      3.052      1.3        1.54       1.69       1.73       1.72       1.44       1.72       0.84       1.07       -9999      -9999      0.199      -9999      -9999      -9999      -9999      -9999      -9999      -9999      -9999      2.39       1.72       -9999      -9999      -9999      -9999      -9999      -9999     
1212.2     0.312      -9999      -9999      307.373    -9999      3.019      0.88       1.02       1.19       1.41       1.56       1.31       1.26       0.69       0.93       -9999      -9999      0.251      -9999      -9999      -9999      -9999      -9999      -9999      -9999      -9999      2.27       1.56       -9999      -9999      -9999      -9999      -9999      -9999     
1212.4     0.372      -9999      -9999      352.374    -9999      3.059      0.7        0.85       1.12       1.44       1.64       1.26       0.97       0.5        0.51       -9999      -9999      0.325      -9999      -9999      -9999      -9999      -9999      -9999      -9999      -9999      2.16       1.64       -9999      -9999      -9999      -9999      -9999      -9999     
1212.6     0.212      1          2          353.849    -9999      3.071      2.21       3.61       3.39       3.24       2.61       1.6        1.1        0.42       0.46       -9999      -9999      0.328      -9999      -9999      -9999      -9999      -9999      -9999      -9999      -9999      2.18       2.61       -9999      -9999      -9999      -9999      -9999      -9999     
1212.8     0.206      1          2          284.425    -9999      3.033      8.54       11.61      8.950001   5.989999   4.02       2.41       2.71       0.7        0.89       -9999      -9999      0.209      -9999      -9999      -9999      -9999      -9999      -9999      -9999      -9999      2.2        4.02       -9999      -9999      -9999      -9999      -9999      -9999     
1213       0.225      1          2          252.46     -9999      3.062      2.83       3.08       3.17       3.09       2.99       3.19       3.52       0.98       1.25       -9999      -9999      0.167      -9999      -9999      -9999      -9999      -9999      -9999      -9999      -9999      2.26       2.99       -9999      -9999      -9999      -9999      -9999      -9999     
1213.2     0.255      1          2          254.93     -9999      3.14       1.61       1.71       1.99       2          2.04       2.05       2.69       0.91       1.15       -9999      -9999      0.158      -9999      -9999      -9999      -9999      -9999      -9999      -9999      -9999      2.43       2.04       -9999      -9999      -9999      -9999      -9999      -9999     
1213.4     0.268      -9999      -9999      266.228    -9999      3.116      1.63       1.66       1.77       1.84       1.74       1.78       2.32       0.7        1.06       -9999      -9999      0.167      -9999      -9999      -9999      -9999      -9999      -9999      -9999      -9999      2.54       1.74       -9999      -9999      -9999      -9999      -9999      -9999     
1213.6     0.221      -9999      -9999      -9999      -9999      3.101      1.54       1.59       1.72       1.81       1.73       1.75       1.86       0.53       0.95       -9999      -9999      0.19       -9999      -9999      -9999      -9999      -9999      -9999      -9999      -9999      2.5        1.73       -9999      -9999      -9999      -9999      -9999      -9999     
1213.8     0.211      -9999      -9999      -9999      -9999      3.078      2.64       2.35       2.33       2.19       2.01       1.76       1.99       0.51       0.85       -9999      -9999      0.245      -9999      -9999      -9999      -9999      -9999      -9999      -9999      -9999      2.33       2.01       -9999      -9999      -9999      -9999      -9999      -9999     
1214       0.199      -9999      -9999      -9999      -9999      3.032      3.92       3.18       2.87       2.61       2.31       1.76       3.13       0.71       0.98       -9999      -9999      0.197      -9999      -9999      -9999      -9999      -9999      -9999      -9999      -9999      2.19       2.31       -9999      -9999      -9999      -9999      -9999      -9999     
1214.2     0.2        -9999      -9999      -9999      -9999      3.014      3.16       2.59       2.49       2.46       2.31       1.75       3.51       0.85       1.1        -9999      -9999      0.173      -9999      -9999      -9999      -9999      -9999      -9999      -9999      -9999      2.39       2.31       -9999      -9999      -9999      -9999      -9999      -9999     
