~Version
 VERS              .         2.0                           : CWLS LOG ASCII STANDARD - VERSION 2.0
 WRAP              .         NO                            : ONE LINE PER DEPTH STEP
 DLM               .         SPACE                         : DELIMITING CHARACTER(SPACE TAB OR COMMA)
~Well Information
#_______________________________________________________________________________
#
#PARAMETER_NAME    .UNIT     VALUE                         : DESCRIPTION
#_______________________________________________________________________________
STRT               .м        101.4                         : First reference value
STOP               .м        1218.4                        : Last reference value
STEP               .м        0.2                           : Step increment
NULL               .         -9999                         : Missing value
COMP               .                                       : Company
WELL               .         4534                          : Well name
FLD                .         УЗЕНЬ                         : Field
LOC                .                                       : Location
CNTY               .                                       : County
STAT               .                                       : State
CTRY               .                                       : Country
SRVC               .         AO"UPGF"                      : Service Company
DATE               .         27.04/01.05/2014              : Date
UWI                .                                       : Unique Well ID
Block              .         4                             : 
Category           .         Нагнетательная                : 
Condition          .         В работе                      : 
Date               .         26.05.2014                    : 
EREF               .m        225.4                         : 100.8
GRP                .                                       : Group name
Gorizont           .         14                            : 14
ISS                .                                       : Well surveys
Interpretator      .         Ким С.В.                      : 
Kupol              .         основной                      : osnovnoi
Mud                .         0                             : 
Mud_density        .         0                             : 
Mud_resistivity    .         0                             : 
NGDU               .         НГДУ-1                        : 
ORIGINALWELLNAME   .         4534                          : 
Spud_date          .         2014                          : 1961
TIME               .                                       : LOG TIME
Viscosity          .         0                             : 
X                  .m        54002.4                       : 46154
Y                  .m        81965.1                       : 85761.93
YEAR               .         2019                          : 
~Parameter Information Block
#_______________________________________________________________________________
#
#PARAMETER_NAME    .UNIT     VALUE                         : DESCRIPTION
#_______________________________________________________________________________
SET                .         LQC_KAZNIPI_Petrel            : 
TLFamily_CALI      .         Caliper                       : 
TLFamily_COLL      .         Net Reservoir Flag            : 
TLFamily_CSAT      .         Fluid Code                    : 
TLFamily_DEPT      .         Measured Depth                : 
TLFamily_DT        .         Compressional Slowness        : 
TLFamily_GR        .         Russian Gamma Ray             : 
TLFamily_GZ3       .         Gradient 225                  : 
TLFamily_IK1       .         Resistivity 05                : 
TLFamily_IK2       .         Resistivity 07                : 
TLFamily_IK3       .         Resistivity 10                : 
TLFamily_IK4       .         Resistivity 14                : 
TLFamily_IK5       .         Resistivity 20                : 
TLFamily_LLS       .         Lateral Log Resistivity       : 
TLFamily_MBK       .         Micro Lateral Log Resistivity : 
TLFamily_MINV      .         Micro Gradient Resistivity    : 
TLFamily_MNOR      .         Micro Resistivity             : 
TLFamily_NNKTB_1   .         Neutron Far                   : 
TLFamily_NNKTM_1   .         Neutron Near                  : 
TLFamily_NPHI      .         Neutron Porosity              : 
TLFamily_OGZ       .         Gradient Inverted 225         : 
TLFamily_PHIE      .         Effective Porosity            : 
TLFamily_PHIED     .         Effective Porosity            : 
TLFamily_PHIEN     .         Effective Porosity            : 
TLFamily_PHIES     .         Effective Porosity            : 
TLFamily_PHIT      .         Porosity                      : 
TLFamily_PRMB      .         Permeability                  : 
TLFamily_PRMB_DGR  .         Permeability                  : 
TLFamily_RHOB      .         Bulk Density                  : 
TLFamily_RT        .         Formation Resistivity         : 
TLFamily_SOIL_ARCHIE .         Oil Saturation                : 
TLFamily_SOIL_DW   .         Oil Saturation                : 
TLFamily_SP        .         Spontaneous Potential         : 
TLFamily_VSH_FIN   .         Shale Volume                  : 
TLFamily_VSH_GR    .         Shale Volume                  : 
TLFamily_VSH_SP    .         Shale Volume                  : 
~Curve Information
#_______________________________________________________________________________
#
#LOGNAME           .UNIT     LOG_ID                        : DESCRIPTION
#_______________________________________________________________________________
DEPT               .м                                      : Колонка глубины 
CALI               .м                                      : Каверномер 
COLL               .unitless                               : Описание 
CSAT               .unitless                               : Описание 
DT                 .мкс/м                                  : Интервальное время пробега продольной волны 
GR                 .uR/h                                   : Гамма каротаж 
GZ3                .Ohmm                                   : Градиент-зонд  длиной 2.25м 
IK1                .Ohmm                                   : И0.10И0.40 
IK2                .Ohmm                                   : И0.14И0.56 
IK3                .Ohmm                                   : И0.20И0.80 
IK4                .Ohmm                                   : И0.28И1.12 
IK5                .Ohmm                                   : И0.40И1.60 
LLS                .Ohmm                                   : Боковой каротаж 
MBK                .Ohmm                                   : Микробоковой каротаж 
MINV               .Ohmm                                   : Микро-градиент зонд 
MNOR               .Ohmm                                   : Микро-потенциал зонд 
NNKTB_1            .у.е.                                   : Показания большого зонда 2ННКт аппаратуры СРК 
NNKTM_1            .у.е.                                   : Показания малого зонда 2ННКт аппаратуры СРК 
NPHI               .v/v                                    : Total porosity 
OGZ                .Ohmm                                   :  
PHIE               .v/v                                    : Описание 
PHIED              .v/v                                    :  
PHIEN              .v/v                                    :  
PHIES              .v/v                                    :  
PHIT               .v/v                                    : Описание 
PRMB               .mD                                     :  
PRMB_DGR           .mD                                     :  
RHOB               .g/cm3                                  : Плотность по ГГКп 
RT                 .ohmm                                   : Удельное электрическое сопротивление 
SOIL_ARCHIE        .v/v                                    :  
SOIL_DW            .v/v                                    :  
SP                 .мВ                                     : Потенциал самополяризации 
VSH_FIN            .v/v                                    : Описание 
VSH_GR             .v/v                                    : Shale volume 
VSH_SP             .v/v                                    : Shale Volume 
~Ascii
# ...
958.2000000000001 0.37       -9999      -9999      314.28     5.553      2.097      0.71       0.74       0.88       1.13       1.39       1.21       1.16       0.62       0.45       1.641      1.05       -9999      3.705      -9999      -9999      -9999      -9999      -9999      -9999      -9999      2.32       1.39       -9999      -9999      436.491    -9999      0.04433365 0.8       
958.4      0.295      -9999      -9999      417.974    4.913      2.308      1.22       1.3        1.53       1.64       1.71       1.51       0.95       0.43       0.31       1.645      1.072      -9999      3.711      -9999      -9999      -9999      -9999      -9999      -9999      -9999      2.17       1.71       -9999      -9999      436.509    -9999      0.02890296 0.8       
958.6      0.29       -9999      -9999      467.171    5.246      2.626      2.99       3.77       3.59       3.19       2.53       2.16       1.11       0.65       0.53       1.725      1.086      -9999      3.595      -9999      -9999      -9999      -9999      -9999      -9999      -9999      2.35       2.53       -9999      -9999      436.764    -9999      0.03610869 0.8       
958.8      0.318      -9999      -9999      462.192    5.729      2.638      1.24       1.57       1.93       2.35       2.42       1.82       1.06       1.04       0.79       1.586      1.03       -9999      3.173      -9999      -9999      -9999      -9999      -9999      -9999      -9999      2.29       2.42       -9999      -9999      436.5      -9999      0.04986848 0.8       
959        0.374      -9999      -9999      411.171    5.475      2.572      1.07       1.08       1.37       1.77       1.96       1.64       0.91       0.42       0.41       1.612      1.03       -9999      2.94       -9999      -9999      -9999      -9999      -9999      -9999      -9999      2.14       1.96       -9999      -9999      436.509    -9999      0.0420814  0.8       
959.2000000000001 0.354      -9999      -9999      446.059    4.808      2.66       1.69       2.22       2.67       2.58       2.39       1.95       0.89       0.4        0.37       1.634      1.052      -9999      2.685      -9999      -9999      -9999      -9999      -9999      -9999      -9999      2.18       2.39       -9999      -9999      436.309    -9999      0.02694394 0.8       
959.4      0.471      -9999      -9999      513.771    4.3        2.614      1.87       2.24       2.55       2.68       2.41       1.85       0.95       0.43       0.39       1.529      1.037      -9999      2.351      -9999      -9999      -9999      -9999      -9999      -9999      -9999      2.27       2.41       -9999      -9999      436.045    -9999      0.02       0.8       
959.6      0.576      -9999      -9999      549.064    4.441      2.477      0.56       0.59       0.68       0.96       1.49       1.34       0.9        0.46       0.42       1.422      1.011      -9999      2.004      -9999      -9999      -9999      -9999      -9999      -9999      -9999      2.13       1.49       -9999      -9999      436.191    -9999      0.02108246 0.8       
959.8      0.295      -9999      -9999      515.177    4.523      2.706      0.39       0.52       0.8        1.19       1.49       1.24       0.84       0.43       0.29       1.299      1.044      -9999      2.118      -9999      -9999      -9999      -9999      -9999      -9999      -9999      2.16       1.49       -9999      -9999      436.164    -9999      0.02227029 0.8       
960        0.242      -9999      -9999      424.65     5.302      3.529      0.42       1.86       3.69       3.8        3.14       1.47       0.9        0.42       0.26       1.714      1.134      -9999      2.655      -9999      -9999      -9999      -9999      -9999      -9999      -9999      2.27       3.14       -9999      -9999      436.073    -9999      0.03748595 0.8       
960.2000000000001 0.222      -9999      -9999      349.777    5.828      4.414      1.04       6.02       26.92      14.58      7.159999   2.12       1.16       0.53       0.4        2.077      1.264      -9999      3.205      -9999      -9999      -9999      -9999      -9999      -9999      -9999      2.49       7.16       -9999      -9999      435.918    -9999      0.05328018 0.8       
960.4      0.214      -9999      -9999      320.854    6.303      4.705      2.35       2.64       5.34       6.579999   5.57       2.08       1.76       0.9        0.77       2.235      1.329      -9999      3.387      -9999      -9999      -9999      -9999      -9999      -9999      -9999      2.6        5.57       -9999      -9999      435.991    -9999      0.07319097 0.8       
960.6      0.213      -9999      -9999      320.859    6.151      4.498      2.36       2.02       2.49       3.09       3.37       1.97       2.35       0.95       0.95       2.158      1.331      -9999      3.325      -9999      -9999      -9999      -9999      -9999      -9999      -9999      2.66       3.37       -9999      -9999      435.609    -9999      0.06611989 0.8       
960.8      0.213      -9999      -9999      315.316    5.963      4.332      2.56       2.4        2.39       2.99       2.99       2.31       2.34       0.91       1.06       2.438      1.348      -9999      3.198      -9999      -9999      -9999      -9999      -9999      -9999      -9999      2.62       2.99       -9999      -9999      435.3      -9999      0.05831173 0.8       
961        0.216      -9999      -9999      324.382    5.669      4.091      1.97       2.12       2.33       2.61       2.86       1.86       2.47       0.97       1.15       2.354      1.298      -9999      2.986      -9999      -9999      -9999      -9999      -9999      -9999      -9999      2.54       2.86       -9999      -9999      435.018    -9999      0.04790802 0.8       
961.2000000000001 0.216      -9999      -9999      328.202    6.095      3.56       2.19       2.2        2.43       2.32       2.65       1.85       2.11       0.94       1.08       2.142      1.269      -9999      2.687      -9999      -9999      -9999      -9999      -9999      -9999      -9999      2.5        2.65       -9999      -9999      434.954    -9999      0.0636906  0.8       
961.4      0.226      -9999      -9999      331.493    6.473      3.259      2.07       2.05       2.25       2.29       2.45       1.78       2.07       0.91       1.03       2.047      1.271      -9999      2.515      -9999      -9999      -9999      -9999      -9999      -9999      -9999      2.6        2.45       -9999      -9999      435.4      -9999      0.08199896 0.8       
961.6      0.214      -9999      -9999      330.742    6.671      3.004      2.05       2.02       2.19       2.28       2.23       1.71       1.97       0.91       0.98       2.069      1.25       -9999      2.453      -9999      -9999      -9999      -9999      -9999      -9999      -9999      2.61       2.23       -9999      -9999      435.263    -9999      0.0936025  0.8       
961.8      0.213      -9999      -9999      337.572    6.247      2.706      2.24       1.95       2.09       2.19       2.05       1.72       1.89       0.83       0.94       1.878      1.26       -9999      2.529      -9999      -9999      -9999      -9999      -9999      -9999      -9999      2.56       2.05       -9999      -9999      435.609    -9999      0.07050191 0.8       
962        0.213      -9999      -9999      337.13     6.02       2.471      2.07       1.79       1.86       2          1.9        1.64       2.03       0.91       1.05       1.954      1.28       -9999      2.672      -9999      -9999      -9999      -9999      -9999      -9999      -9999      2.51       1.9        -9999      -9999      435.827    -9999      0.06057634 0.8       
962.2000000000001 0.214      -9999      -9999      329.982    5.498      2.334      2          1.76       1.74       1.86       1.79       1.61       1.99       0.92       1.07       1.966      1.226      -9999      2.853      -9999      -9999      -9999      -9999      -9999      -9999      -9999      2.43       1.79       -9999      -9999      436.191    -9999      0.04273337 0.8       
