~Version
 VERS              .         2.0                           : CWLS LOG ASCII STANDARD - VERSION 2.0
 WRAP              .         NO                            : ONE LINE PER DEPTH STEP
 DLM               .         SPACE                         : DELIMITING CHARACTER(SPACE TAB OR COMMA)
~Well Information
#_______________________________________________________________________________
#
#PARAMETER_NAME    .UNIT     VALUE                         : DESCRIPTION
#_______________________________________________________________________________
STRT               .м        101.4                         : First reference value
STOP               .м        1218.4                        : Last reference value
STEP               .м        0.2                           : Step increment
NULL               .         -9999                         : Missing value
COMP               .                                       : Company
WELL               .         4534                          : Well name
FLD                .         УЗЕНЬ                         : Field
LOC                .                                       : Location
CNTY               .                                       : County
STAT               .                                       : State
CTRY               .                                       : Country
SRVC               .         AO"UPGF"                      : Service Company
DATE               .         27.04/01.05/2014              : Date
UWI                .                                       : Unique Well ID
Block              .         4                             : 
Category           .         Нагнетательная                : 
Condition          .         В работе                      : 
Date               .         26.05.2014                    : 
EREF               .m        225.4                         : 100.8
GRP                .                                       : Group name
Gorizont           .         14                            : 14
ISS                .                                       : Well surveys
Interpretator      .         Ким С.В.                      : 
Kupol              .         основной                      : osnovnoi
Mud                .         0                             : 
Mud_density        .         0                             : 
Mud_resistivity    .         0                             : 
NGDU               .         НГДУ-1                        : 
ORIGINALWELLNAME   .         4534                          : 
Spud_date          .         2014                          : 1961
TIME               .                                       : LOG TIME
Viscosity          .         0                             : 
X                  .m        54002.4                       : 46154
Y                  .m        81965.1                       : 85761.93
YEAR               .         2019                          : 
~Parameter Information Block
#_______________________________________________________________________________
#
#PARAMETER_NAME    .UNIT     VALUE                         : DESCRIPTION
#_______________________________________________________________________________
SET                .         LQC_KAZNIPI_Petrel            : 
TLFamily_CALI      .         Caliper                       : 
TLFamily_COLL      .         Net Reservoir Flag            : 
TLFamily_CSAT      .         Fluid Code                    : 
TLFamily_DEPT      .         Measured Depth                : 
TLFamily_DT        .         Compressional Slowness        : 
TLFamily_GR        .         Russian Gamma Ray             : 
TLFamily_GZ3       .         Gradient 225                  : 
TLFamily_IK1       .         Resistivity 05                : 
TLFamily_IK2       .         Resistivity 07                : 
TLFamily_IK3       .         Resistivity 10                : 
TLFamily_IK4       .         Resistivity 14                : 
TLFamily_IK5       .         Resistivity 20                : 
TLFamily_LLS       .         Lateral Log Resistivity       : 
TLFamily_MBK       .         Micro Lateral Log Resistivity : 
TLFamily_MINV      .         Micro Gradient Resistivity    : 
TLFamily_MNOR      .         Micro Resistivity             : 
TLFamily_NNKTB_1   .         Neutron Far                   : 
TLFamily_NNKTM_1   .         Neutron Near                  : 
TLFamily_NPHI      .         Neutron Porosity              : 
TLFamily_OGZ       .         Gradient Inverted 225         : 
TLFamily_PHIE      .         Effective Porosity            : 
TLFamily_PHIED     .         Effective Porosity            : 
TLFamily_PHIEN     .         Effective Porosity            : 
TLFamily_PHIES     .         Effective Porosity            : 
TLFamily_PHIT      .         Porosity                      : 
TLFamily_PRMB      .         Permeability                  : 
TLFamily_PRMB_DGR  .         Permeability                  : 
TLFamily_RHOB      .         Bulk Density                  : 
TLFamily_RT        .         Formation Resistivity         : 
TLFamily_SOIL_ARCHIE .         Oil Saturation                : 
TLFamily_SOIL_DW   .         Oil Saturation                : 
TLFamily_SP        .         Spontaneous Potential         : 
TLFamily_VSH_FIN   .         Shale Volume                  : 
TLFamily_VSH_GR    .         Shale Volume                  : 
TLFamily_VSH_SP    .         Shale Volume                  : 
~Curve Information
#_______________________________________________________________________________
#
#LOGNAME           .UNIT     LOG_ID                        : DESCRIPTION
#_______________________________________________________________________________
DEPT               .м                                      : Колонка глубины 
CALI               .м                                      : Каверномер 
COLL               .unitless                               : Описание 
CSAT               .unitless                               : Описание 
DT                 .мкс/м                                  : Интервальное время пробега продольной волны 
GR                 .uR/h                                   : Гамма каротаж 
GZ3                .Ohmm                                   : Градиент-зонд  длиной 2.25м 
IK1                .Ohmm                                   : И0.10И0.40 
IK2                .Ohmm                                   : И0.14И0.56 
IK3                .Ohmm                                   : И0.20И0.80 
IK4                .Ohmm                                   : И0.28И1.12 
IK5                .Ohmm                                   : И0.40И1.60 
LLS                .Ohmm                                   : Боковой каротаж 
MBK                .Ohmm                                   : Микробоковой каротаж 
MINV               .Ohmm                                   : Микро-градиент зонд 
MNOR               .Ohmm                                   : Микро-потенциал зонд 
NNKTB_1            .у.е.                                   : Показания большого зонда 2ННКт аппаратуры СРК 
NNKTM_1            .у.е.                                   : Показания малого зонда 2ННКт аппаратуры СРК 
NPHI               .v/v                                    : Total porosity 
OGZ                .Ohmm                                   :  
PHIE               .v/v                                    : Описание 
PHIED              .v/v                                    :  
PHIEN              .v/v                                    :  
PHIES              .v/v                                    :  
PHIT               .v/v                                    : Описание 
PRMB               .mD                                     :  
PRMB_DGR           .mD                                     :  
RHOB               .g/cm3                                  : Плотность по ГГКп 
RT                 .ohmm                                   : Удельное электрическое сопротивление 
SOIL_ARCHIE        .v/v                                    :  
SOIL_DW            .v/v                                    :  
SP                 .мВ                                     : Потенциал самополяризации 
VSH_FIN            .v/v                                    : Описание 
VSH_GR             .v/v                                    : Shale volume 
VSH_SP             .v/v                                    : Shale Volume 
~Ascii
# ...
996        0.212      1          3          273.169    1.434      2.077      1.53       1.36       1.32       1.35       1.32       1.2        1.65       0.96       0.94       2.871      1.466      -9999      1.622      0.150678   0.08982037 -9999      0.2115357  0.160516   1.730139   4124.793   2.52       1.32       0          0          434.873    0.06275629 0.0216683  0.1038443 
996.2000000000001 0.212      1          3          267.644    1.433      2.033      1.64       1.49       1.44       1.42       1.37       1.25       1.72       0.97       0.96       2.469      1.39       -9999      1.658      0.1494264  0.09580839 -9999      0.2030444  0.1591875  1.640204   4132.299   2.51       1.37       0          0          434.709    0.06226569 0.02165222 0.1028792 
996.4      0.212      1          3          268.716    1.665      2.004      1.65       1.49       1.44       1.41       1.35       1.18       1.73       1.01       1.01       2.467      1.392      -9999      1.658      0.1409823  0.07784434 -9999      0.2041202  0.151058   1.144173   2710.261   2.54       1.35       0          0          434.7      0.06427322 0.02572179 0.1028246 
996.6      0.212      1          3          271.763    1.772      1.897      1.61       1.44       1.39       1.37       1.33       1.25       1.75       1          1.01       2.588      1.421      -9999      1.663      0.1432022  0.07784434 -9999      0.2085601  0.1534446  1.257796   2231.141   2.54       1.33       0          0          434.7      0.06533648 0.02784832 0.1028246 
996.8      0.212      1          3          272.085    1.807      1.866      1.7        1.49       1.44       1.4        1.32       1.21       1.74       0.99       1          2.599      1.41       -9999      1.735      0.1494302  0.08982037 -9999      0.20904    0.1596818  1.640468   2093.591   2.52       1.32       0          0          434.6      0.06539471 0.02858138 0.102208  
997        0.211      1          3          271.086    1.776      1.82       1.65       1.45       1.39       1.37       1.32       1.17       1.74       1          1.01       2.681      1.419      -9999      1.775      0.1428539  0.07784434 -9999      0.2078634  0.152919   1.239247   2214.974   2.54       1.32       0          0          434.336    0.06420549 0.02793114 0.1004798 
997.2000000000001 0.211      1          3          270.353    1.628      1.845      1.7        1.51       1.44       1.39       1.32       1.21       1.77       1.01       1.01       2.735      1.42       -9999      1.769      0.1544329  0.1017964  -9999      0.2070694  0.164323   2.030628   2898.847   2.5        1.32       0.00114521 0          434.436    0.06308845 0.02502489 0.101152  
997.4      0.212      1          3          270.982    1.789      1.761      1.61       1.43       1.38       1.35       1.31       1.12       1.82       1.03       1.03       2.826      1.423      -9999      1.862      0.1365841  0.0658683  -9999      0.2072999  0.14685    0.948478   2163.238   2.56       1.31       0          0          434.691    0.06548598 0.028202   0.10277   
997.6      0.213      1          3          259.576    1.51       1.73       1.57       1.4        1.34       1.33       1.31       1.11       1.77       1.03       1          2.938      1.441      -9999      1.962      0.1397788  0.08982037 -9999      0.1897373  0.1495508  1.086928   3592.483   2.52       1.31       0          0          434.527    0.06233548 0.02292598 0.101745  
997.8      0.212      1          3          239.485    1.551      1.795      1.74       1.53       1.48       1.47       1.45       1.23       1.8        1.02       1.04       2.852      1.47       -9999      2.172      0.1063273  0.05988028 -9999      0.1527743  0.1160943  0.260974   3334.435   2.57       1.45       0          0          434.409    0.06230357 0.02363452 0.1009726 
998        0.211      1          3          228.526    1.549      1.834      2.07       1.85       1.79       1.77       1.69       1.46       1.99       1.07       1.14       2.789      1.481      -9999      2.159      0.08605875 0.04191608 -9999      0.1302014  0.09565829 0.1099449  3346.582   2.6        1.69       0          0          434.109    0.06123541 0.02359945 0.09887136
998.2000000000001 0.213      1          3          225.817    1.384      1.909      2.42       2.13       2.05       1.99       1.89       1.61       2.28       1.15       1.25       3.04       1.489      -9999      2.172      0.07118171 0.01796401 -9999      0.1243994  0.08067955 0.05829294 4517.319   2.64       1.89       0          0          434.309    0.06058665 0.02087875 0.1002946 
998.4      0.211      1          3          235.331    1.497      1.918      2.06       1.92       1.92       1.9        1.86       1.52       2.5        1.18       1.28       3.158      1.491      -9999      2.136      0.07800276 0.01197599 -9999      0.1440295  0.08792609 0.07797553 3678.402   2.65       1.86       0          0          434.882    0.06330078 0.02270579 0.1038958 
998.6      0.211      1          3          235.238    1.486      1.838      1.85       1.81       1.84       1.81       1.75       1.33       2.46       1.13       1.21       3.021      1.501      -9999      2.039      0.0928712  0.04191608 -9999      0.1438263  0.1028001  0.1470138  3752.706   2.6        1.75       0          0          434.927    0.06333601 0.02252113 0.1041509 
998.8      0.211      1          3          236.613    1.368      1.802      1.97       1.85       1.86       1.8        1.72       1.38       2.15       1.09       1.16       3.02       1.5        -9999      2.079      0.1003052  0.05389212 -9999      0.1467184  0.1102011  0.2018619  4650.653   2.58       1.72       0          0          435.2      0.06312561 0.02063222 0.105619  
999        0.21       1          3          246.043    1.41       1.827      1.99       1.82       1.84       1.8        1.71       1.36       2.14       1.12       1.21       2.922      1.468      -9999      2.028      0.09754688 0.02994005 -9999      0.1651537  0.1074903  0.179458   4308.756   2.62       1.71       0          0          435.191    0.06342918 0.02128566 0.1055727 
999.2000000000001 0.211      1          3          251.596    1.375      1.767      1.87       1.73       1.72       1.74       1.68       1.32       2.24       1.09       1.17       2.885      1.449      -9999      1.999      0.1266765  0.07784434 -9999      0.1755087  0.1365736  0.6216053  4591.842   2.54       1.68       0          0          435.182    0.06313298 0.02073972 0.1055262 
999.4      0.212      1          3          250.23     1.321      1.692      1.78       1.67       1.67       1.72       1.68       1.28       2.12       1.03       1.1        2.788      1.451      -9999      2.036      0.1226192  0.07185631 -9999      0.173382   0.1323384  0.5228328  5065.517   2.55       1.68       0          0          434.9      0.06199914 0.02       0.1039983 
999.6      0.212      1          3          247.406    1.462      1.759      2.1        1.92       1.83       1.81       1.73       1.37       2          1          1.08       2.85       1.451      -9999      2          0.1019205  0.03592806 -9999      0.167913   0.1117651  0.2162585  3920.073   2.61       1.73       0          0          434.809    0.06279863 0.02212342 0.1034738 
999.8      0.212      1          3          252.185    1.593      1.713      1.97       1.81       1.75       1.73       1.69       1.29       2.2        1.03       1.15       2.745      1.448      -9999      2.026      0.1120201  0.0479041  -9999      0.1761361  0.1221344  0.332692   3089.301   2.59       1.69       0          0          435.018    0.06451911 0.02438304 0.1046552 
1000       0.212      1          3          259.744    1.491      1.692      1.78       1.63       1.58       1.57       1.56       1.23       2.02       0.99       1.1        2.619      1.422      -9999      2.027      0.1246692  0.05988028 -9999      0.1894581  0.1347233  0.5706029  3718.746   2.57       1.56       0          0          435.209    0.06413502 0.02260488 0.1056652 
