~Version
 VERS              .         2.0                           : CWLS LOG ASCII STANDARD - VERSION 2.0
 WRAP              .         NO                            : ONE LINE PER DEPTH STEP
 DLM               .         SPACE                         : DELIMITING CHARACTER(SPACE TAB OR COMMA)
~Well Information
#_______________________________________________________________________________
#
#PARAMETER_NAME    .UNIT     VALUE                         : DESCRIPTION
#_______________________________________________________________________________
STRT               .м        101.4                         : First reference value
STOP               .м        1218.4                        : Last reference value
STEP               .м        0.2                           : Step increment
NULL               .         -9999                         : Missing value
COMP               .                                       : Company
WELL               .         4534                          : Well name
FLD                .         УЗЕНЬ                         : Field
LOC                .                                       : Location
CNTY               .                                       : County
STAT               .                                       : State
CTRY               .                                       : Country
SRVC               .         AO"UPGF"                      : Service Company
DATE               .         27.04/01.05/2014              : Date
UWI                .                                       : Unique Well ID
Block              .         4                             : 
Category           .         Нагнетательная                : 
Condition          .         В работе                      : 
Date               .         26.05.2014                    : 
EREF               .m        225.4                         : 100.8
GRP                .                                       : Group name
Gorizont           .         14                            : 14
ISS                .                                       : Well surveys
Interpretator      .         Ким С.В.                      : 
Kupol              .         основной                      : osnovnoi
Mud                .         0                             : 
Mud_density        .         0                             : 
Mud_resistivity    .         0                             : 
NGDU               .         НГДУ-1                        : 
ORIGINALWELLNAME   .         4534                          : 
Spud_date          .         2014                          : 1961
TIME               .                                       : LOG TIME
Viscosity          .         0                             : 
X                  .m        54002.4                       : 46154
Y                  .m        81965.1                       : 85761.93
YEAR               .         2019                          : 
~Parameter Information Block
#_______________________________________________________________________________
#
#PARAMETER_NAME    .UNIT     VALUE                         : DESCRIPTION
#_______________________________________________________________________________
SET                .         LQC_KAZNIPI_Petrel            : 
TLFamily_CALI      .         Caliper                       : 
TLFamily_COLL      .         Net Reservoir Flag            : 
TLFamily_CSAT      .         Fluid Code                    : 
TLFamily_DEPT      .         Measured Depth                : 
TLFamily_DT        .         Compressional Slowness        : 
TLFamily_GR        .         Russian Gamma Ray             : 
TLFamily_GZ3       .         Gradient 225                  : 
TLFamily_IK1       .         Resistivity 05                : 
TLFamily_IK2       .         Resistivity 07                : 
TLFamily_IK3       .         Resistivity 10                : 
TLFamily_IK4       .         Resistivity 14                : 
TLFamily_IK5       .         Resistivity 20                : 
TLFamily_LLS       .         Lateral Log Resistivity       : 
TLFamily_MBK       .         Micro Lateral Log Resistivity : 
TLFamily_MINV      .         Micro Gradient Resistivity    : 
TLFamily_MNOR      .         Micro Resistivity             : 
TLFamily_NNKTB_1   .         Neutron Far                   : 
TLFamily_NNKTM_1   .         Neutron Near                  : 
TLFamily_NPHI      .         Neutron Porosity              : 
TLFamily_OGZ       .         Gradient Inverted 225         : 
TLFamily_PHIE      .         Effective Porosity            : 
TLFamily_PHIED     .         Effective Porosity            : 
TLFamily_PHIEN     .         Effective Porosity            : 
TLFamily_PHIES     .         Effective Porosity            : 
TLFamily_PHIT      .         Porosity                      : 
TLFamily_PRMB      .         Permeability                  : 
TLFamily_PRMB_DGR  .         Permeability                  : 
TLFamily_RHOB      .         Bulk Density                  : 
TLFamily_RT        .         Formation Resistivity         : 
TLFamily_SOIL_ARCHIE .         Oil Saturation                : 
TLFamily_SOIL_DW   .         Oil Saturation                : 
TLFamily_SP        .         Spontaneous Potential         : 
TLFamily_VSH_FIN   .         Shale Volume                  : 
TLFamily_VSH_GR    .         Shale Volume                  : 
TLFamily_VSH_SP    .         Shale Volume                  : 
~Curve Information
#_______________________________________________________________________________
#
#LOGNAME           .UNIT     LOG_ID                        : DESCRIPTION
#_______________________________________________________________________________
DEPT               .м                                      : Колонка глубины 
CALI               .м                                      : Каверномер 
COLL               .unitless                               : Описание 
CSAT               .unitless                               : Описание 
DT                 .мкс/м                                  : Интервальное время пробега продольной волны 
GR                 .uR/h                                   : Гамма каротаж 
GZ3                .Ohmm                                   : Градиент-зонд  длиной 2.25м 
IK1                .Ohmm                                   : И0.10И0.40 
IK2                .Ohmm                                   : И0.14И0.56 
IK3                .Ohmm                                   : И0.20И0.80 
IK4                .Ohmm                                   : И0.28И1.12 
IK5                .Ohmm                                   : И0.40И1.60 
LLS                .Ohmm                                   : Боковой каротаж 
MBK                .Ohmm                                   : Микробоковой каротаж 
MINV               .Ohmm                                   : Микро-градиент зонд 
MNOR               .Ohmm                                   : Микро-потенциал зонд 
NNKTB_1            .у.е.                                   : Показания большого зонда 2ННКт аппаратуры СРК 
NNKTM_1            .у.е.                                   : Показания малого зонда 2ННКт аппаратуры СРК 
NPHI               .v/v                                    : Total porosity 
OGZ                .Ohmm                                   :  
PHIE               .v/v                                    : Описание 
PHIED              .v/v                                    :  
PHIEN              .v/v                                    :  
PHIES              .v/v                                    :  
PHIT               .v/v                                    : Описание 
PRMB               .mD                                     :  
PRMB_DGR           .mD                                     :  
RHOB               .g/cm3                                  : Плотность по ГГКп 
RT                 .ohmm                                   : Удельное электрическое сопротивление 
SOIL_ARCHIE        .v/v                                    :  
SOIL_DW            .v/v                                    :  
SP                 .мВ                                     : Потенциал самополяризации 
VSH_FIN            .v/v                                    : Описание 
VSH_GR             .v/v                                    : Shale volume 
VSH_SP             .v/v                                    : Shale Volume 
~Ascii
# ...
1138.8     0.23       -9999      -9999      230.014    5.899      4.172      2.45       2.47       2.59       2.73       2.74       2.46       2.29       0.83       0.98       1.879      1.096      0.083      2.78       0.03516749 0.04661989 0          0.02371508 0.09962944 0.01254715 4.940197   2.44       2.74       0          0          451.118    0.411202   0.3379366  0.4844674 
1139       0.252      -9999      -9999      258.404    5.838      4.035      1.71       1.79       1.94       2.09       2.27       2.03       1.84       0.66       0.72       1.758      1.008      0.138      2.634      0.07594004 0.07530192 0.0004295239 0.07657817 0.1412922  0.07140882 5.424885   2.39       2.27       0          0          451.464    0.4168802  0.3252655  0.508495  
1139.2     0.32       -9999      -9999      301.536    5.906      3.937      0.98       1.11       1.34       1.57       1.83       1.61       1.38       0.4        0.46       1.53       0.98       0.224      2.766      0.1440202  0.1475629  0.08703219 0.1404775  0.209086   1.302452   4.887424   2.27       1.83       0.08939758 0.2367348  451.209    0.415054   0.3394218  0.4906862 
1139.4     0.34       -9999      -9999      314.417    5.691      3.949      0.84       1.05       1.31       1.55       1.8        1.54       1.06       0.38       0.4        1.759      1.004      0.252      3.175      0.1815483  0.2002739  0.1221919  0.1628227  0.243213   6.454654   6.797359   2.19       1.8        0.2499212  0.3600047  451.2      0.393358   0.2966483  0.4900678 
1139.6     0.349      -9999      -9999      295.018    5.59       4.534      1.3        1.82       2.13       2.36       2.37       1.84       1.07       0.49       0.43       1.964      1.094      0.218      3.758      0.1613465  0.1829249  0.08910785 0.139768   0.222576   2.727004   7.936683   2.22       2.37       0.2694288  0.3830795  451.382    0.3905823  0.2784591  0.5027053 
1139.8     0.298      -9999      -9999      244.766    5.631      5.561      2.7        3.71       4.17       4.04       3.37       2.47       1.56       0.54       0.6        2.502      1.205      0.128      4.238      0.09240423 0.1237105  0.0000995  0.06109798 0.1531627  0.1441148  7.452806   2.32       3.37       0          0.1898036  451.191    0.3875772  0.2857043  0.4894501 
1140       0.232      -9999      -9999      223.699    5.649      6.047      4.93       5.66       5.110001   4.469999   3.92       4.53       2.07       0.92       0.93       2.471      1.246      0.091      4.358      0.1182592  0.2155689  0          0.02094945 0.1770837  0.4341151  7.249796   2.31       3.92       0.2438226  0.3764012  450.773    0.375241   0.2889445  0.4615375 
1140.2     0.238      -9999      -9999      234.989    5.958      5.571      2.82       2.95       3.22       3.31       3.09       2.88       4.29       1.37       1.54       1.963      1.134      0.107      3.785      0.1145002  0.1886553  0          0.04034509 0.175912   0.3698103  4.512644   2.21       3.09       0.1303792  0.2855207  450.318    0.3917451  0.3506615  0.4328287 
1140.4     0.277      -9999      -9999      272.478    7.31       4.465      1.35       1.53       1.75       1.95       2.13       1.67       2.04       0.81       0.92       1.593      1.069      0.137      3.093      0.09005231 0.1476928  0          0.03241177 0.1889212  0.1303603  0.5669678  2.19       2.13       0          0.0942047  450.618    0.6306835  0.8        0.461367  
1140.6     0.32       -9999      -9999      291.038    7.275      3.427      1.55       1.63       1.77       1.88       1.83       1.58       1.84       0.46       0.69       1.583      1.078      0.173      2.704      0.1088687  0.1627147  0          0.05502275 0.2098194  0.2908511  0.5982456  2.16       1.83       0          0.1483     450.864    0.6439633  0.8        0.4879266 
1140.8     0.35       -9999      -9999      303.596    7.527      2.876      1.37       1.48       1.67       1.79       1.78       1.49       1.74       0.48       0.7        1.637      1.06       0.195      2.655      0.1299881  0.1875063  0          0.07246993 0.2303449  0.7159021  0.406411   2.12       1.78       0          0.2387933  450.6      0.6401744  0.8        0.4803489 
1141       0.266      -9999      -9999      295.826    7.297      2.592      1.24       1.37       1.53       1.69       1.7        1.48       1.52       0.61       0.73       1.829      1.028      0.186      2.718      0.1206532  0.178611   0          0.06269545 0.2209486  0.4807824  0.5783896  2.135      1.7        0          0.1773938  450.436    0.6397828  0.8        0.4795656 
1141.2     0.323      -9999      -9999      293.084    6.954      2.355      1.22       1.35       1.48       1.66       1.68       1.49       1.39       0.6        0.76       1.774      1.011      0.196      2.794      0.1360071  0.1910695  0.007887645 0.08094474 0.2253689  0.925422   0.9789724  2.14       1.68       0.003650815 0.2202451  450.373    0.5700374  0.6544597  0.4856152 
1141.4     0.354      -9999      -9999      291.676    6.862      2.171      1.18       1.36       1.48       1.65       1.71       1.49       1.33       0.45       0.58       1.803      1.032      0.2        2.974      0.1436981  0.1982187  0.02253615 0.0891775  0.2280014  1.284682   1.127385   2.14       1.71       0.05811507 0.2492487  449.8      0.5377693  0.6178048  0.4577338 
1141.6     0.314      -9999      -9999      290.172    7.16       2.175      1.35       1.53       1.64       1.74       1.76       1.55       1.29       0.62       0.63       1.892      1.049      0.185      3.254      0.1299735  0.1912036  0          0.06874342 0.2234773  0.7154559  0.7136862  2.13       1.76       0          0.2203223  449.5      0.5964597  0.7446154  0.4483041 
1141.8     0.302      -9999      -9999      287.051    6.945      2.311      1.48       1.64       1.73       1.77       1.8        1.64       1.43       0.54       0.67       1.758      1.04       0.188      3.486      0.1485061  0.2153429  0.009284959 0.08166933 0.2334037  1.577072   0.9925839  2.11       1.8        0.1064978  0.2879314  449.091    0.5415607  0.65078    0.4323414 
1142       0.318      -9999      -9999      290.062    6.827      2.393      1.31       1.47       1.61       1.71       1.75       1.58       1.41       0.54       0.77       1.73       1.029      0.2        3.666      0.154975   0.2102153  0.03594495 0.09973465 0.2329084  2.078119   1.18958    2.135      1.75       0.1276131  0.2893313  448.209    0.4971365  0.6044055  0.3898676 
1142.2     0.33       -9999      -9999      311.496    7.177      2.491      1.2        1.37       1.54       1.66       1.68       1.6        1.3        0.44       0.59       1.624      1.009      0.219      3.856      0.1601678  0.2120503  0.03538074 0.1082854  0.2473952  2.593314   0.695312   2.11       1.68       0.135904   0.3095013  447.5      0.556422   0.7525883  0.3602557 
1142.4     0.343      -9999      -9999      326.691    6.835      2.652      1.09       1.27       1.46       1.6        1.62       1.52       1.2        0.49       0.5        1.621      0.989      0.255      4.176      0.1830752  0.21693    0.09648674 0.1492203  0.258376   6.888968   1.175069   2.13       1.62       0.2176316  0.3511194  447.209    0.4803432  0.6074423  0.3532441 
1142.6     0.345      -9999      -9999      335.943    7.158      2.575      1.23       1.42       1.56       1.66       1.62       1.52       1.22       0.69       0.49       1.542      1.01       0.262      4.552      0.1711935  0.2066061  0.07919077 0.135781   0.2580361  4.150283   0.7158793  2.12       1.62       0.1705454  0.3325005  447.273    0.5539674  0.743683   0.3642517 
1142.8     0.356      -9999      -9999      340.441    7.12       2.53       1.4        1.57       1.67       1.74       1.65       1.48       1.23       0.76       0.46       1.428      1.007      0.264      5.092      0.1809433  0.2163257  0.08674877 0.1455608  0.2651455  6.290223   0.7588577  2.11       1.65       0.2163857  0.363708   446.8      0.5371249  0.7261873  0.3480625 
