~Version
 VERS              .         2.0                           : CWLS LOG ASCII STANDARD - VERSION 2.0
 WRAP              .         NO                            : ONE LINE PER DEPTH STEP
 DLM               .         SPACE                         : DELIMITING CHARACTER(SPACE TAB OR COMMA)
~Well Information
#_______________________________________________________________________________
#
#PARAMETER_NAME    .UNIT     VALUE                         : DESCRIPTION
#_______________________________________________________________________________
STRT               .м        101.4                         : First reference value
STOP               .м        1218.4                        : Last reference value
STEP               .м        0.2                           : Step increment
NULL               .         -9999                         : Missing value
COMP               .                                       : Company
WELL               .         4534                          : Well name
FLD                .         УЗЕНЬ                         : Field
LOC                .                                       : Location
CNTY               .                                       : County
STAT               .                                       : State
CTRY               .                                       : Country
SRVC               .         AO"UPGF"                      : Service Company
DATE               .         27.04/01.05/2014              : Date
UWI                .                                       : Unique Well ID
Block              .         4                             : 
Category           .         Нагнетательная                : 
Condition          .         В работе                      : 
Date               .         26.05.2014                    : 
EREF               .m        225.4                         : 100.8
GRP                .                                       : Group name
Gorizont           .         14                            : 14
ISS                .                                       : Well surveys
Interpretator      .         Ким С.В.                      : 
Kupol              .         основной                      : osnovnoi
Mud                .         0                             : 
Mud_density        .         0                             : 
Mud_resistivity    .         0                             : 
NGDU               .         НГДУ-1                        : 
ORIGINALWELLNAME   .         4534                          : 
Spud_date          .         2014                          : 1961
TIME               .                                       : LOG TIME
Viscosity          .         0                             : 
X                  .m        54002.4                       : 46154
Y                  .m        81965.1                       : 85761.93
YEAR               .         2019                          : 
~Parameter Information Block
#_______________________________________________________________________________
#
#PARAMETER_NAME    .UNIT     VALUE                         : DESCRIPTION
#_______________________________________________________________________________
SET                .         LQC_KAZNIPI_Petrel            : 
TLFamily_CALI      .         Caliper                       : 
TLFamily_COLL      .         Net Reservoir Flag            : 
TLFamily_CSAT      .         Fluid Code                    : 
TLFamily_DEPT      .         Measured Depth                : 
TLFamily_DT        .         Compressional Slowness        : 
TLFamily_GR        .         Russian Gamma Ray             : 
TLFamily_GZ3       .         Gradient 225                  : 
TLFamily_IK1       .         Resistivity 05                : 
TLFamily_IK2       .         Resistivity 07                : 
TLFamily_IK3       .         Resistivity 10                : 
TLFamily_IK4       .         Resistivity 14                : 
TLFamily_IK5       .         Resistivity 20                : 
TLFamily_LLS       .         Lateral Log Resistivity       : 
TLFamily_MBK       .         Micro Lateral Log Resistivity : 
TLFamily_MINV      .         Micro Gradient Resistivity    : 
TLFamily_MNOR      .         Micro Resistivity             : 
TLFamily_NNKTB_1   .         Neutron Far                   : 
TLFamily_NNKTM_1   .         Neutron Near                  : 
TLFamily_NPHI      .         Neutron Porosity              : 
TLFamily_OGZ       .         Gradient Inverted 225         : 
TLFamily_PHIE      .         Effective Porosity            : 
TLFamily_PHIED     .         Effective Porosity            : 
TLFamily_PHIEN     .         Effective Porosity            : 
TLFamily_PHIES     .         Effective Porosity            : 
TLFamily_PHIT      .         Porosity                      : 
TLFamily_PRMB      .         Permeability                  : 
TLFamily_PRMB_DGR  .         Permeability                  : 
TLFamily_RHOB      .         Bulk Density                  : 
TLFamily_RT        .         Formation Resistivity         : 
TLFamily_SOIL_ARCHIE .         Oil Saturation                : 
TLFamily_SOIL_DW   .         Oil Saturation                : 
TLFamily_SP        .         Spontaneous Potential         : 
TLFamily_VSH_FIN   .         Shale Volume                  : 
TLFamily_VSH_GR    .         Shale Volume                  : 
TLFamily_VSH_SP    .         Shale Volume                  : 
~Curve Information
#_______________________________________________________________________________
#
#LOGNAME           .UNIT     LOG_ID                        : DESCRIPTION
#_______________________________________________________________________________
DEPT               .м                                      : Колонка глубины 
CALI               .м                                      : Каверномер 
COLL               .unitless                               : Описание 
CSAT               .unitless                               : Описание 
DT                 .мкс/м                                  : Интервальное время пробега продольной волны 
GR                 .uR/h                                   : Гамма каротаж 
GZ3                .Ohmm                                   : Градиент-зонд  длиной 2.25м 
IK1                .Ohmm                                   : И0.10И0.40 
IK2                .Ohmm                                   : И0.14И0.56 
IK3                .Ohmm                                   : И0.20И0.80 
IK4                .Ohmm                                   : И0.28И1.12 
IK5                .Ohmm                                   : И0.40И1.60 
LLS                .Ohmm                                   : Боковой каротаж 
MBK                .Ohmm                                   : Микробоковой каротаж 
MINV               .Ohmm                                   : Микро-градиент зонд 
MNOR               .Ohmm                                   : Микро-потенциал зонд 
NNKTB_1            .у.е.                                   : Показания большого зонда 2ННКт аппаратуры СРК 
NNKTM_1            .у.е.                                   : Показания малого зонда 2ННКт аппаратуры СРК 
NPHI               .v/v                                    : Total porosity 
OGZ                .Ohmm                                   :  
PHIE               .v/v                                    : Описание 
PHIED              .v/v                                    :  
PHIEN              .v/v                                    :  
PHIES              .v/v                                    :  
PHIT               .v/v                                    : Описание 
PRMB               .mD                                     :  
PRMB_DGR           .mD                                     :  
RHOB               .g/cm3                                  : Плотность по ГГКп 
RT                 .ohmm                                   : Удельное электрическое сопротивление 
SOIL_ARCHIE        .v/v                                    :  
SOIL_DW            .v/v                                    :  
SP                 .мВ                                     : Потенциал самополяризации 
VSH_FIN            .v/v                                    : Описание 
VSH_GR             .v/v                                    : Shale volume 
VSH_SP             .v/v                                    : Shale Volume 
~Ascii
# ...
941.4      0.41       -9999      -9999      370.751    5.964      3.571      1.36       1.52       1.76       1.98       2.11       1.65       -9999      -9999      -9999      1.561      1.059      -9999      3.492      -9999      -9999      -9999      -9999      -9999      -9999      -9999      -9999      2.11       -9999      -9999      436.327    -9999      0.05835074 0.8       
941.6      0.257      -9999      -9999      359.399    5.738      3.591      1.49       1.62       1.9        2.09       2.15       1.69       -9999      -9999      -9999      1.698      1.051      -9999      3.549      -9999      -9999      -9999      -9999      -9999      -9999      -9999      -9999      2.15       -9999      -9999      436.127    -9999      0.05016938 0.8       
941.8      0.229      -9999      -9999      349.918    5.617      3.666      1.49       1.64       1.94       2.14       2.22       1.75       -9999      -9999      -9999      1.766      1.071      -9999      3.696      -9999      -9999      -9999      -9999      -9999      -9999      -9999      -9999      2.22       -9999      -9999      436.009    -9999      0.0462714  0.8       
942        0.224      -9999      -9999      364.527    5.692      3.692      1.9        1.98       2.05       2.16       2.21       1.94       -9999      -9999      -9999      1.614      1.099      -9999      3.783      -9999      -9999      -9999      -9999      -9999      -9999      -9999      -9999      2.21       -9999      -9999      436.2      -9999      0.04865024 0.8       
942.2000000000001 0.221      -9999      -9999      361.733    5.679      3.667      1.46       1.55       1.76       2          2.18       1.83       -9999      -9999      -9999      1.534      1.079      -9999      3.805      -9999      -9999      -9999      -9999      -9999      -9999      -9999      -9999      2.18       -9999      -9999      436.3      -9999      0.04822932 0.8       
942.4      0.226      -9999      -9999      345.318    6.047      3.612      1.65       1.76       2.01       2.15       2.22       1.89       1.41       1.08       1.02       1.54       1.07       -9999      3.783      -9999      -9999      -9999      -9999      -9999      -9999      -9999      -9999      2.22       -9999      -9999      436.136    -9999      0.06167953 0.8       
942.6      0.245      -9999      -9999      340.793    6.07       3.481      1.68       1.76       2.02       2.16       2.24       1.91       1.45       1.05       0.98       1.506      1.07       -9999      3.792      -9999      -9999      -9999      -9999      -9999      -9999      -9999      -9999      2.24       -9999      -9999      436.473    -9999      0.06263513 0.8       
942.8      0.294      -9999      -9999      355.31     5.874      3.321      1.47       1.53       1.78       1.98       2.1        1.73       1.36       1.04       0.96       1.393      1.048      -9999      3.652      -9999      -9999      -9999      -9999      -9999      -9999      -9999      -9999      2.1        -9999      -9999      436.682    -9999      0.05494389 0.8       
943        0.359      -9999      -9999      356.032    5.581      3.207      1.56       1.56       1.79       1.97       2.02       1.57       1.08       1.06       0.94       1.334      1.02       -9999      3.539      -9999      -9999      -9999      -9999      -9999      -9999      -9999      -9999      2.02       -9999      -9999      436.627    -9999      0.04517122 0.8       
943.2000000000001 0.438      -9999      -9999      358.844    6.022      3.179      1.14       1.28       1.54       1.79       1.95       1.64       0.95       0.87       0.75       1.302      1.018      -9999      3.502      -9999      -9999      -9999      -9999      -9999      -9999      -9999      -9999      1.95       -9999      -9999      436.7      -9999      0.06065737 0.8       
943.4      0.463      -9999      -9999      370.558    5.515      3.17       1.11       1.2        1.41       1.65       1.85       1.53       0.93       0.57       0.46       1.37       0.99       -9999      3.413      -9999      -9999      -9999      -9999      -9999      -9999      -9999      -9999      1.85       -9999      -9999      437.064    -9999      0.04322173 0.8       
943.6      0.45       -9999      -9999      375.441    5.295      3.197      1.22       1.48       1.74       1.94       2.05       1.67       0.9        0.47       0.39       1.43       1.001      -9999      3.482      -9999      -9999      -9999      -9999      -9999      -9999      -9999      -9999      2.05       -9999      -9999      436.927    -9999      0.03731097 0.8       
943.8      0.454      -9999      -9999      342.379    5.532      3.192      1.43       1.61       1.99       2.28       2.25       1.64       0.87       0.43       0.36       1.346      1.01       -9999      3.518      -9999      -9999      -9999      -9999      -9999      -9999      -9999      -9999      2.25       -9999      -9999      437.1      -9999      0.04371568 0.8       
944        0.431      -9999      -9999      330.014    5.51       3.245      1.36       1.65       1.86       2.1        2.27       1.68       0.9        0.48       0.37       1.42       1.031      -9999      3.487      -9999      -9999      -9999      -9999      -9999      -9999      -9999      -9999      2.27       -9999      -9999      437.018    -9999      0.04307752 0.8       
944.2000000000001 0.439      -9999      -9999      352.484    5.332      3.305      1.68       1.8        2.12       2.34       2.28       1.72       0.91       0.41       0.32       1.512      1.039      -9999      3.456      -9999      -9999      -9999      -9999      -9999      -9999      -9999      -9999      2.28       -9999      -9999      436.827    -9999      0.03824525 0.8       
944.4      0.455      -9999      -9999      370.516    5.654      3.415      1.45       1.56       1.71       1.94       2.11       1.63       0.91       0.45       0.39       1.374      1.029      -9999      3.413      -9999      -9999      -9999      -9999      -9999      -9999      -9999      -9999      2.11       -9999      -9999      437.109    -9999      0.04743006 0.8       
944.6      0.442      -9999      -9999      351.059    5.637      3.456      1.42       1.55       1.67       1.89       2.06       1.65       0.88       0.47       0.44       1.41       1.009      -9999      3.442      -9999      -9999      -9999      -9999      -9999      -9999      -9999      -9999      2.06       -9999      -9999      437.473    -9999      0.04689415 0.8       
944.8      0.429      -9999      -9999      344.098    5.468      3.583      1.54       1.71       1.89       2.09       2.17       1.79       0.89       0.48       0.48       1.391      1.012      -9999      3.534      -9999      -9999      -9999      -9999      -9999      -9999      -9999      -9999      2.17       -9999      -9999      437.209    -9999      0.04188496 0.8       
945        0.399      -9999      -9999      338.901    5.431      3.644      1.44       1.55       1.76       1.97       2.16       1.74       0.92       0.53       0.54       1.479      1.018      -9999      3.601      -9999      -9999      -9999      -9999      -9999      -9999      -9999      -9999      2.16       -9999      -9999      437.373    -9999      0.04086177 0.8       
945.2000000000001 0.308      -9999      -9999      354.172    5.238      3.568      1.22       1.33       1.53       1.8        2.05       1.71       0.95       0.59       0.54       1.542      0.98       -9999      3.674      -9999      -9999      -9999      -9999      -9999      -9999      -9999      -9999      2.05       -9999      -9999      437.382    -9999      0.03591612 0.8       
945.4      0.313      -9999      -9999      359.84     5.487      3.538      1.49       1.64       1.84       2.01       2.12       1.77       1.06       0.58       0.48       1.519      0.981      -9999      3.78       -9999      -9999      -9999      -9999      -9999      -9999      -9999      -9999      2.12       -9999      -9999      437.109    -9999      0.04242031 0.8       
