~Version
 VERS              .         2.0                           : CWLS LOG ASCII STANDARD - VERSION 2.0
 WRAP              .         NO                            : ONE LINE PER DEPTH STEP
 DLM               .         SPACE                         : DELIMITING CHARACTER(SPACE TAB OR COMMA)
~Well Information
#_______________________________________________________________________________
#
#PARAMETER_NAME    .UNIT     VALUE                         : DESCRIPTION
#_______________________________________________________________________________
STRT               .м        101.4                         : First reference value
STOP               .м        1218.4                        : Last reference value
STEP               .м        0.2                           : Step increment
NULL               .         -9999                         : Missing value
COMP               .                                       : Company
WELL               .         4534                          : Well name
FLD                .         УЗЕНЬ                         : Field
LOC                .                                       : Location
CNTY               .                                       : County
STAT               .                                       : State
CTRY               .                                       : Country
SRVC               .         AO"UPGF"                      : Service Company
DATE               .         27.04/01.05/2014              : Date
UWI                .                                       : Unique Well ID
Block              .         4                             : 
Category           .         Нагнетательная                : 
Condition          .         В работе                      : 
Date               .         26.05.2014                    : 
EREF               .m        225.4                         : 100.8
GRP                .                                       : Group name
Gorizont           .         14                            : 14
ISS                .                                       : Well surveys
Interpretator      .         Ким С.В.                      : 
Kupol              .         основной                      : osnovnoi
Mud                .         0                             : 
Mud_density        .         0                             : 
Mud_resistivity    .         0                             : 
NGDU               .         НГДУ-1                        : 
ORIGINALWELLNAME   .         4534                          : 
Spud_date          .         2014                          : 1961
TIME               .                                       : LOG TIME
Viscosity          .         0                             : 
X                  .m        54002.4                       : 46154
Y                  .m        81965.1                       : 85761.93
YEAR               .         2019                          : 
~Parameter Information Block
#_______________________________________________________________________________
#
#PARAMETER_NAME    .UNIT     VALUE                         : DESCRIPTION
#_______________________________________________________________________________
SET                .         LQC_KAZNIPI_Petrel            : 
TLFamily_CALI      .         Caliper                       : 
TLFamily_COLL      .         Net Reservoir Flag            : 
TLFamily_CSAT      .         Fluid Code                    : 
TLFamily_DEPT      .         Measured Depth                : 
TLFamily_DT        .         Compressional Slowness        : 
TLFamily_GR        .         Russian Gamma Ray             : 
TLFamily_GZ3       .         Gradient 225                  : 
TLFamily_IK1       .         Resistivity 05                : 
TLFamily_IK2       .         Resistivity 07                : 
TLFamily_IK3       .         Resistivity 10                : 
TLFamily_IK4       .         Resistivity 14                : 
TLFamily_IK5       .         Resistivity 20                : 
TLFamily_LLS       .         Lateral Log Resistivity       : 
TLFamily_MBK       .         Micro Lateral Log Resistivity : 
TLFamily_MINV      .         Micro Gradient Resistivity    : 
TLFamily_MNOR      .         Micro Resistivity             : 
TLFamily_NNKTB_1   .         Neutron Far                   : 
TLFamily_NNKTM_1   .         Neutron Near                  : 
TLFamily_NPHI      .         Neutron Porosity              : 
TLFamily_OGZ       .         Gradient Inverted 225         : 
TLFamily_PHIE      .         Effective Porosity            : 
TLFamily_PHIED     .         Effective Porosity            : 
TLFamily_PHIEN     .         Effective Porosity            : 
TLFamily_PHIES     .         Effective Porosity            : 
TLFamily_PHIT      .         Porosity                      : 
TLFamily_PRMB      .         Permeability                  : 
TLFamily_PRMB_DGR  .         Permeability                  : 
TLFamily_RHOB      .         Bulk Density                  : 
TLFamily_RT        .         Formation Resistivity         : 
TLFamily_SOIL_ARCHIE .         Oil Saturation                : 
TLFamily_SOIL_DW   .         Oil Saturation                : 
TLFamily_SP        .         Spontaneous Potential         : 
TLFamily_VSH_FIN   .         Shale Volume                  : 
TLFamily_VSH_GR    .         Shale Volume                  : 
TLFamily_VSH_SP    .         Shale Volume                  : 
~Curve Information
#_______________________________________________________________________________
#
#LOGNAME           .UNIT     LOG_ID                        : DESCRIPTION
#_______________________________________________________________________________
DEPT               .м                                      : Колонка глубины 
CALI               .м                                      : Каверномер 
COLL               .unitless                               : Описание 
CSAT               .unitless                               : Описание 
DT                 .мкс/м                                  : Интервальное время пробега продольной волны 
GR                 .uR/h                                   : Гамма каротаж 
GZ3                .Ohmm                                   : Градиент-зонд  длиной 2.25м 
IK1                .Ohmm                                   : И0.10И0.40 
IK2                .Ohmm                                   : И0.14И0.56 
IK3                .Ohmm                                   : И0.20И0.80 
IK4                .Ohmm                                   : И0.28И1.12 
IK5                .Ohmm                                   : И0.40И1.60 
LLS                .Ohmm                                   : Боковой каротаж 
MBK                .Ohmm                                   : Микробоковой каротаж 
MINV               .Ohmm                                   : Микро-градиент зонд 
MNOR               .Ohmm                                   : Микро-потенциал зонд 
NNKTB_1            .у.е.                                   : Показания большого зонда 2ННКт аппаратуры СРК 
NNKTM_1            .у.е.                                   : Показания малого зонда 2ННКт аппаратуры СРК 
NPHI               .v/v                                    : Total porosity 
OGZ                .Ohmm                                   :  
PHIE               .v/v                                    : Описание 
PHIED              .v/v                                    :  
PHIEN              .v/v                                    :  
PHIES              .v/v                                    :  
PHIT               .v/v                                    : Описание 
PRMB               .mD                                     :  
PRMB_DGR           .mD                                     :  
RHOB               .g/cm3                                  : Плотность по ГГКп 
RT                 .ohmm                                   : Удельное электрическое сопротивление 
SOIL_ARCHIE        .v/v                                    :  
SOIL_DW            .v/v                                    :  
SP                 .мВ                                     : Потенциал самополяризации 
VSH_FIN            .v/v                                    : Описание 
VSH_GR             .v/v                                    : Shale volume 
VSH_SP             .v/v                                    : Shale Volume 
~Ascii
# ...
1155.6     0.271      -9999      -9999      289.078    7.412      2.054      1.27       1.43       1.58       1.71       1.76       1.37       1.8        0.78       1.16       1.886      1.01       0.159      2.185      0.07124908 0.0203885  0.0199084  0.1221097  0.1373238  0.05846067 14.43492   2.48       1.76       0          0          443.5      0.4214897  0.2181156  0.6248638 
1155.8     0.273      -9999      -9999      282.616    7.494      2.05       1.35       1.52       1.65       1.72       1.71       1.48       1.7        0.64       0.89       1.677      1          0.144      2.142      0.05372002 -0.004415466 0.003639536 0.1118555  0.1203975  0.02768109 12.36388   2.52       1.71       0          0          443.309    0.4253347  0.2323544  0.618315  
1156       0.271      -9999      -9999      271.745    7.308      2.022      1.29       1.48       1.66       1.78       1.77       1.45       1.71       0.65       0.86       1.685      1.01       0.137      2.12       0.05353846 0.005647809 0.002709466 0.1014291  0.1173324  0.02746757 17.56788   2.51       1.77       0          0          443.127    0.406941   0.2013046  0.6125774 
1156.2     0.266      -9999      -9999      269.955    7.501      2.113      1.33       1.53       1.7        1.86       1.84       1.54       1.77       0.71       0.93       1.621      1.021      0.128      2.193      0.06185671 0.02772662 0          0.09598679 0.1269761  0.03916465 12.2015    2.47       1.84       0          0          442.827    0.415396   0.2336122  0.5971798 
1156.4     0.268      -9999      -9999      273.271    7.456      2.072      1.41       1.66       1.79       1.91       1.86       1.45       1.93       0.79       1.21       1.582      1.018      0.132      2.124      0.07083002 0.04004563 0          0.1016144  0.1357068  0.05742512 13.28385   2.45       1.86       0          0          442.773    0.413848   0.2256439  0.6020521 
1156.6     0.275      -9999      -9999      272.487    7.52       2.064      1.27       1.5        1.6        1.72       1.71       1.29       1.88       0.89       1.26       1.556      0.983      0.128      2.133      0.05627851 0.01445949 0          0.09809754 0.1223115  0.03087256 11.77141   2.49       1.71       0          0          442.7      0.4212234  0.2370605  0.6053863 
1156.8     0.27       -9999      -9999      262.669    7.693      2.013      1.16       1.33       1.46       1.52       1.54       1.21       1.78       0.79       1.07       1.645      1.019      0.097      2.088      0.04212811 0.009238943 0          0.07501727 0.1118549  0.0168839  8.490376   2.49       1.54       0          0          442.746    0.4447864  0.2708958  0.6186769 
1157       0.274      -9999      -9999      263.319    7.538      2.006      1.13       1.29       1.37       1.44       1.45       1.19       1.51       0.74       1.02       1.733      1.012      0.111      2.188      0.04847635 0.007033614 0          0.08991908 0.1112898  0.02213388 11.37795   2.51       1.45       0          0          441.918    0.4006861  0.2403743  0.560998  
1157.2     0.284      -9999      -9999      283.413    7.895      1.95       1.06       1.24       1.33       1.41       1.41       1.17       1.4        0.78       1.01       1.586      1.029      0.113      2.281      0.06983725 0.02600329 0          0.1136712  0.136176   0.05504442 5.797463   2.47       1.41       0          0          441.391    0.4231743  0.3165618  0.5297866 
1157.4     0.257      -9999      -9999      333.212    7.438      2.011      1.11       1.27       1.34       1.4        1.39       1.23       1.34       1.01       1          1.634      1.019      0.235      2.39       0.1539301  0.1137724  0.1164983  0.1940878  0.2102237  1.987549   13.7432    2.48       1.39       0.02230104 0.1506528  440.8      0.3590961  0.2225332  0.4956591 
1157.6     0.272      -9999      -9999      334.003    7.835      2.03       1.12       1.27       1.34       1.42       1.43       1.3        1.47       0.72       0.85       1.84       1          0.184      2.442      0.1115862  0.03526104 0.05814153 0.1879113  0.1713746  0.3265915  6.493106   2.47       1.43       0          0          440.163    0.3813893  0.3022475  0.4605311 
1157.8     0.277      -9999      -9999      314.115    8.034      2.002      1.11       1.33       1.44       1.51       1.53       1.35       1.54       0.48       0.72       1.705      0.99       0.163      2.416      0.07579046 -0.006454535 0.02852134 0.1580355  0.1396738  0.07095473 4.458865   2.53       1.53       0          0          440.082    0.4075111  0.3523824  0.4626397 
1158       0.274      -9999      -9999      313.071    7.971      2.041      1.15       1.35       1.49       1.58       1.6        1.42       1.53       0.58       0.78       1.691      0.99       0.169      2.483      0.06872491 -0.01882004 0.03394125 0.1562698  0.1328838  0.05249405 5.022265   2.55       1.6        0          0          440.273    0.4092689  0.3356707  0.4828672 
1158.2     0.276      -9999      -9999      330.531    8.068      2.031      1.16       1.39       1.51       1.6        1.58       1.37       1.71       0.69       0.78       1.756      0.979      0.179      2.388      0.09523257 0.01969942 0.03888205 0.1707657  0.1617948  0.1625909  4.181543   2.48       1.58       0          0          440.227    0.4245999  0.3617443  0.4874554 
1158.4     0.303      -9999      -9999      326.432    8.135      1.997      1.18       1.4        1.47       1.53       1.48       1.23       1.81       1.09       0.83       1.522      0.958      0.187      2.113      0.09602873 0.03268415 0.03946556 0.1593733  0.1661142  0.1682066  3.684513   2.45       1.48       0          0          440.482    0.4470741  0.3809274  0.5132207 
1158.6     0.327      -9999      -9999      332.93     8.011      1.978      0.98       1.16       1.26       1.34       1.34       1.11       1.62       0.98       0.74       1.593      0.953      0.201      1.688      0.09164506 0.01218727 0.05861192 0.1711029  0.1592857  0.1395234  4.65683    2.49       1.34       0          0          440.418    0.431479   0.3461868  0.5167713 
1158.8     0.309      -9999      -9999      341.816    8.19       1.905      0.88       1.13       1.22       1.28       1.28       1.08       1.42       0.54       0.62       1.69       1.011      0.178      1.408      0.09504474 0.01481254 0.03060323 0.175277   0.1650648  0.1612936  3.320989   2.48       1.28       0          0          440.009    0.4466569  0.3974324  0.4958813 
1159       0.28       -9999      -9999      332.304    8.425      1.883      1.18       1.4        1.43       1.43       1.38       1.2        1.62       0.5        0.61       1.656      1.05       0.152      1.316      0.07752163 -0.002749173 0          0.1577924  0.1514939  0.07639179 2.130641   2.5        1.38       0          0          439.473    0.4718679  0.4764008  0.467335  
1159.2     0.259      -9999      -9999      321.416    7.915      1.883      1.09       1.35       1.45       1.54       1.55       1.43       1.82       0.54       0.75       1.563      1.059      0.176      1.258      0.1247777  0.07185631 0.05351058 0.1776991  0.1829656  0.5732498  5.582559   2.55       1.55       0          0.04837389 438.618    0.3711801  0.3214824  0.4208777 
1159.4     0.249      -9999      -9999      320.302    8.27       1.965      1.36       1.55       1.68       1.78       1.77       1.63       2.01       0.58       0.93       1.654      1.051      0.155      1.303      0.06879763 -0.02919279 0.02232928 0.1667881  0.1318222  0.05265712 2.855272   2.57       1.77       0          0          437.809    0.4020325  0.4227252  0.3813398 
1159.6     0.221      -9999      -9999      302.632    8.498      2.126      1.64       1.82       1.96       2.09       2.06       1.84       1.97       0.7        0.97       1.676      1.069      0.114      1.482      0.03891917 -0.04880961 0          0.1266479  0.1115868  0.01472433 1.856628   2.58       2.06       0          0          436.545    0.4635456  0.5039469  0.4231443 
