~Version
 VERS              .         2.0                           : CWLS LOG ASCII STANDARD - VERSION 2.0
 WRAP              .         NO                            : ONE LINE PER DEPTH STEP
 DLM               .         SPACE                         : DELIMITING CHARACTER(SPACE TAB OR COMMA)
~Well Information
#_______________________________________________________________________________
#
#PARAMETER_NAME    .UNIT     VALUE                         : DESCRIPTION
#_______________________________________________________________________________
STRT               .м        101.4                         : First reference value
STOP               .м        1218.4                        : Last reference value
STEP               .м        0.2                           : Step increment
NULL               .         -9999                         : Missing value
COMP               .                                       : Company
WELL               .         4534                          : Well name
FLD                .         УЗЕНЬ                         : Field
LOC                .                                       : Location
CNTY               .                                       : County
STAT               .                                       : State
CTRY               .                                       : Country
SRVC               .         AO"UPGF"                      : Service Company
DATE               .         27.04/01.05/2014              : Date
UWI                .                                       : Unique Well ID
Block              .         4                             : 
Category           .         Нагнетательная                : 
Condition          .         В работе                      : 
Date               .         26.05.2014                    : 
EREF               .m        225.4                         : 100.8
GRP                .                                       : Group name
Gorizont           .         14                            : 14
ISS                .                                       : Well surveys
Interpretator      .         Ким С.В.                      : 
Kupol              .         основной                      : osnovnoi
Mud                .         0                             : 
Mud_density        .         0                             : 
Mud_resistivity    .         0                             : 
NGDU               .         НГДУ-1                        : 
ORIGINALWELLNAME   .         4534                          : 
Spud_date          .         2014                          : 1961
TIME               .                                       : LOG TIME
Viscosity          .         0                             : 
X                  .m        54002.4                       : 46154
Y                  .m        81965.1                       : 85761.93
YEAR               .         2019                          : 
~Parameter Information Block
#_______________________________________________________________________________
#
#PARAMETER_NAME    .UNIT     VALUE                         : DESCRIPTION
#_______________________________________________________________________________
SET                .         LQC_KAZNIPI_Petrel            : 
TLFamily_CALI      .         Caliper                       : 
TLFamily_COLL      .         Net Reservoir Flag            : 
TLFamily_CSAT      .         Fluid Code                    : 
TLFamily_DEPT      .         Measured Depth                : 
TLFamily_DT        .         Compressional Slowness        : 
TLFamily_GR        .         Russian Gamma Ray             : 
TLFamily_GZ3       .         Gradient 225                  : 
TLFamily_IK1       .         Resistivity 05                : 
TLFamily_IK2       .         Resistivity 07                : 
TLFamily_IK3       .         Resistivity 10                : 
TLFamily_IK4       .         Resistivity 14                : 
TLFamily_IK5       .         Resistivity 20                : 
TLFamily_LLS       .         Lateral Log Resistivity       : 
TLFamily_MBK       .         Micro Lateral Log Resistivity : 
TLFamily_MINV      .         Micro Gradient Resistivity    : 
TLFamily_MNOR      .         Micro Resistivity             : 
TLFamily_NNKTB_1   .         Neutron Far                   : 
TLFamily_NNKTM_1   .         Neutron Near                  : 
TLFamily_NPHI      .         Neutron Porosity              : 
TLFamily_OGZ       .         Gradient Inverted 225         : 
TLFamily_PHIE      .         Effective Porosity            : 
TLFamily_PHIED     .         Effective Porosity            : 
TLFamily_PHIEN     .         Effective Porosity            : 
TLFamily_PHIES     .         Effective Porosity            : 
TLFamily_PHIT      .         Porosity                      : 
TLFamily_PRMB      .         Permeability                  : 
TLFamily_PRMB_DGR  .         Permeability                  : 
TLFamily_RHOB      .         Bulk Density                  : 
TLFamily_RT        .         Formation Resistivity         : 
TLFamily_SOIL_ARCHIE .         Oil Saturation                : 
TLFamily_SOIL_DW   .         Oil Saturation                : 
TLFamily_SP        .         Spontaneous Potential         : 
TLFamily_VSH_FIN   .         Shale Volume                  : 
TLFamily_VSH_GR    .         Shale Volume                  : 
TLFamily_VSH_SP    .         Shale Volume                  : 
~Curve Information
#_______________________________________________________________________________
#
#LOGNAME           .UNIT     LOG_ID                        : DESCRIPTION
#_______________________________________________________________________________
DEPT               .м                                      : Колонка глубины 
CALI               .м                                      : Каверномер 
COLL               .unitless                               : Описание 
CSAT               .unitless                               : Описание 
DT                 .мкс/м                                  : Интервальное время пробега продольной волны 
GR                 .uR/h                                   : Гамма каротаж 
GZ3                .Ohmm                                   : Градиент-зонд  длиной 2.25м 
IK1                .Ohmm                                   : И0.10И0.40 
IK2                .Ohmm                                   : И0.14И0.56 
IK3                .Ohmm                                   : И0.20И0.80 
IK4                .Ohmm                                   : И0.28И1.12 
IK5                .Ohmm                                   : И0.40И1.60 
LLS                .Ohmm                                   : Боковой каротаж 
MBK                .Ohmm                                   : Микробоковой каротаж 
MINV               .Ohmm                                   : Микро-градиент зонд 
MNOR               .Ohmm                                   : Микро-потенциал зонд 
NNKTB_1            .у.е.                                   : Показания большого зонда 2ННКт аппаратуры СРК 
NNKTM_1            .у.е.                                   : Показания малого зонда 2ННКт аппаратуры СРК 
NPHI               .v/v                                    : Total porosity 
OGZ                .Ohmm                                   :  
PHIE               .v/v                                    : Описание 
PHIED              .v/v                                    :  
PHIEN              .v/v                                    :  
PHIES              .v/v                                    :  
PHIT               .v/v                                    : Описание 
PRMB               .mD                                     :  
PRMB_DGR           .mD                                     :  
RHOB               .g/cm3                                  : Плотность по ГГКп 
RT                 .ohmm                                   : Удельное электрическое сопротивление 
SOIL_ARCHIE        .v/v                                    :  
SOIL_DW            .v/v                                    :  
SP                 .мВ                                     : Потенциал самополяризации 
VSH_FIN            .v/v                                    : Описание 
VSH_GR             .v/v                                    : Shale volume 
VSH_SP             .v/v                                    : Shale Volume 
~Ascii
# ...
1012.8     0.212      1          3          249.036    1.622      1.481      1.68       1.56       1.51       1.49       1.4        1.13       1.87       1          1.04       2.512      1.391      -9999      2.007      0.1178988  0.0658683  -9999      0.1699293  0.1282485  0.427494   2930.642   2.56       1.4        0          0          435.509    0.06602035 0.02491367 0.107127  
1013       0.213      1          3          248.986    1.509      1.444      1.61       1.52       1.48       1.49       1.41       1.24       1.81       1          1.05       2.543      1.391      -9999      2.126      0.112025   0.05389212 -9999      0.1701579  0.1222143  0.3327614  3599.021   2.58       1.41       0          0          435.5      0.06499711 0.02290897 0.1070853 
1013.2     0.212      1          3          248.846    1.677      1.545      1.75       1.62       1.58       1.56       1.46       1.27       1.9        1.03       1.08       2.643      1.39       -9999      2.256      0.1175779  0.0658683  -9999      0.1692875  0.1280731  0.4216828  2651.772   2.56       1.46       0          0          435.691    0.06694875 0.02595196 0.1079455 
1013.4     0.212      1          3          248.902    1.681      1.633      1.67       1.57       1.58       1.6        1.53       1.37       1.98       1.07       1.11       2.473      1.399      -9999      2.398      0.1175371  0.0658683  -9999      0.1692058  0.1281248  0.4209492  2632.558   2.56       1.53       0          0          435.955    0.06753914 0.02602914 0.1090491 
1013.6     0.213      1          3          248.801    1.765      1.695      1.71       1.63       1.67       1.69       1.6        1.35       2.06       1.11       1.15       2.471      1.401      -9999      2.589      0.09643779 0.02395203 -9999      0.1689236  0.1070734  0.1711669  2259.717   2.63       1.6        0          0          435.7      0.06784437 0.02770397 0.1079848 
1013.8     0.214      1          3          246.417    1.727      1.79       1.52       1.57       1.71       1.77       1.69       1.53       2.11       1.13       1.17       2.56       1.421      -9999      2.809      0.08236193 0          -9999      0.1647239  0.09287316 0.09390761 2421.351   2.67       1.69       0          0          435.518    0.06705103 0.02693336 0.1071687 
1014       0.214      1          3          242.651    1.494      1.933      1.83       1.91       2.04       2.03       1.84       1.59       2.23       1.14       1.21       2.535      1.41       -9999      2.956      0.08807009 0.01796401 -9999      0.1581762  0.0982525  0.1197925  3698.52    2.64       1.84       0          0          435.536    0.06495345 0.02265528 0.1072516 
1014.2     0.213      1          3          241.519    1.53       1.983      1.9        1.95       2.1        2.12       1.94       1.61       2.39       1.17       1.29       2.709      1.409      -9999      3.029      0.08970941 0.02395203 -9999      0.1554668  0.1001416  0.1284677  3464.203   2.63       1.94       0          0          436.155    0.06654707 0.02326891 0.1098252 
1014.4     0.212      1          3          243.424    1.23       2.021      2.05       2.07       2.17       2.17       1.96       1.69       2.46       1.19       1.31       2.626      1.411      -9999      3.003      0.0857918  0.01197599 -9999      0.1596076  0.09600705 0.1087002  5976.883   2.65       1.96       0          0          436.291    0.06516294 0.02       0.1103259 
1014.6     0.213      1          3          246.081    1.425      1.907      2.09       1.99       2.07       2.11       1.93       1.54       2.47       1.22       1.36       2.651      1.408      -9999      3.044      0.0941187  0.02395203 -9999      0.1642854  0.1045322  0.1550475  4192.841   2.63       1.93       0          0          436.582    0.06642768 0.02152401 0.1113313 
1014.8     0.213      1          3          250.708    1.419      1.886      1.83       1.77       1.87       1.98       1.88       1.55       2.26       1.21       1.34       2.466      1.379      -9999      3.032      0.1073298  0.04191608 -9999      0.1727436  0.1178042  0.2723747  4238.827   2.6        1.88       0          0          436.855    0.06681572 0.02142835 0.1122031 
1015       0.213      1          3          254.208    1.595      1.846      1.87       1.85       1.94       2          1.86       1.49       2.18       1.21       1.3        2.519      1.349      -9999      3.064      0.09836037 0.01796401 -9999      0.1787567  0.1089694  0.1857936  3078.089   2.64       1.86       0          0          436.463    0.06767489 0.02441927 0.1109305 
1015.2     0.213      1          3          257.391    1.678      1.781      1.86       1.81       1.83       1.88       1.77       1.35       2.09       1.2        1.26       2.379      1.361      -9999      3.05       0.09200092 0          -9999      0.1840018  0.10277    0.1416571  2646.956   2.67       1.77       0          0          436.609    0.06869585 0.02597123 0.1114205 
1015.4     0.213      1          3          265.024    1.718      1.728      1.6        1.55       1.56       1.63       1.61       1.25       1.93       1.15       1.18       2.346      1.372      -9999      3.09       0.1192389  0.04191608 -9999      0.1965617  0.1301285  0.452639   2461.296   2.6        1.61       0          0          436.846    0.06946466 0.02675401 0.1121753 
1015.6     0.213      1          3          268.833    1.581      1.746      1.57       1.49       1.48       1.54       1.53       1.26       1.81       1.06       1.08       2.468      1.39       -9999      3.17       0.134487   0.0658683  -9999      0.2031058  0.1451627  0.8673302  3157.441   2.56       1.53       0          0          436.8      0.06809958 0.02416679 0.1120324 
1015.8     0.213      1          3          257.304    1.502      1.683      1.54       1.46       1.47       1.55       1.56       1.32       1.87       1.08       1.08       2.713      1.392      -9999      3.388      0.1220651  0.05988028 -9999      0.1842499  0.132635   0.510622   3645.116   2.57       1.56       0          0          436.809    0.06742535 0.02279023 0.1120605 
1016       0.213      1          3          249.73     1.321      1.764      1.63       1.55       1.59       1.65       1.64       1.43       1.95       1.08       1.1        2.606      1.409      -9999      3.607      0.1035413  0.03592806 -9999      0.1711546  0.1139167  0.2317365  5065.517   2.61       1.64       0          0          436.909    0.06618415 0.02       0.1123683 
1016.2     0.214      1          3          259.299    1.491      1.796      1.73       1.67       1.7        1.74       1.7        1.46       2          1.08       1.12       2.704      1.398      -9999      3.806      0.1266968  0.0658683  -9999      0.1875254  0.1373394  0.6221436  3718.746   2.56       1.7        0          0          437.182    0.0678888  0.02260488 0.1131727 
1016.4     0.213      1          3          268.763    1.541      1.775      1.7        1.67       1.7        1.72       1.67       1.39       1.96       1.04       1.08       2.77       1.372      -9999      4.21       0.1194053  0.03592806 -9999      0.2028826  0.1301371  0.4558634  3395.612   2.61       1.67       0          0          437.282    0.0684578  0.02345971 0.1134559 
1016.6     0.213      1          3          260.169    1.529      1.804      1.67       1.7        1.67       1.65       1.6        1.36       1.85       1.02       1.06       2.642      1.392      -9999      4.655      0.1183677  0.0479041  -9999      0.1888313  0.129095   0.4361289  3470.506   2.59       1.6        0          0          437.336    0.0684291  0.02325165 0.1136065 
1016.8     0.213      1          3          247.283    1.548      1.913      1.77       1.7        1.57       1.59       1.55       1.36       1.86       1.02       1.07       2.61       1.422      -9999      5.126      0.09786583 0.02994005 -9999      0.1657916  0.1086561  0.1819159  3352.672   2.62       1.55       0          0          437.509    0.068831   0.02358194 0.1140801 
