~Version
 VERS              .         2.0                           : CWLS LOG ASCII STANDARD - VERSION 2.0
 WRAP              .         NO                            : ONE LINE PER DEPTH STEP
 DLM               .         SPACE                         : DELIMITING CHARACTER(SPACE TAB OR COMMA)
~Well Information
#_______________________________________________________________________________
#
#PARAMETER_NAME    .UNIT     VALUE                         : DESCRIPTION
#_______________________________________________________________________________
STRT               .м        101.4                         : First reference value
STOP               .м        1218.4                        : Last reference value
STEP               .м        0.2                           : Step increment
NULL               .         -9999                         : Missing value
COMP               .                                       : Company
WELL               .         4534                          : Well name
FLD                .         УЗЕНЬ                         : Field
LOC                .                                       : Location
CNTY               .                                       : County
STAT               .                                       : State
CTRY               .                                       : Country
SRVC               .         AO"UPGF"                      : Service Company
DATE               .         27.04/01.05/2014              : Date
UWI                .                                       : Unique Well ID
Block              .         4                             : 
Category           .         Нагнетательная                : 
Condition          .         В работе                      : 
Date               .         26.05.2014                    : 
EREF               .m        225.4                         : 100.8
GRP                .                                       : Group name
Gorizont           .         14                            : 14
ISS                .                                       : Well surveys
Interpretator      .         Ким С.В.                      : 
Kupol              .         основной                      : osnovnoi
Mud                .         0                             : 
Mud_density        .         0                             : 
Mud_resistivity    .         0                             : 
NGDU               .         НГДУ-1                        : 
ORIGINALWELLNAME   .         4534                          : 
Spud_date          .         2014                          : 1961
TIME               .                                       : LOG TIME
Viscosity          .         0                             : 
X                  .m        54002.4                       : 46154
Y                  .m        81965.1                       : 85761.93
YEAR               .         2019                          : 
~Parameter Information Block
#_______________________________________________________________________________
#
#PARAMETER_NAME    .UNIT     VALUE                         : DESCRIPTION
#_______________________________________________________________________________
SET                .         LQC_KAZNIPI_Petrel            : 
TLFamily_CALI      .         Caliper                       : 
TLFamily_COLL      .         Net Reservoir Flag            : 
TLFamily_CSAT      .         Fluid Code                    : 
TLFamily_DEPT      .         Measured Depth                : 
TLFamily_DT        .         Compressional Slowness        : 
TLFamily_GR        .         Russian Gamma Ray             : 
TLFamily_GZ3       .         Gradient 225                  : 
TLFamily_IK1       .         Resistivity 05                : 
TLFamily_IK2       .         Resistivity 07                : 
TLFamily_IK3       .         Resistivity 10                : 
TLFamily_IK4       .         Resistivity 14                : 
TLFamily_IK5       .         Resistivity 20                : 
TLFamily_LLS       .         Lateral Log Resistivity       : 
TLFamily_MBK       .         Micro Lateral Log Resistivity : 
TLFamily_MINV      .         Micro Gradient Resistivity    : 
TLFamily_MNOR      .         Micro Resistivity             : 
TLFamily_NNKTB_1   .         Neutron Far                   : 
TLFamily_NNKTM_1   .         Neutron Near                  : 
TLFamily_NPHI      .         Neutron Porosity              : 
TLFamily_OGZ       .         Gradient Inverted 225         : 
TLFamily_PHIE      .         Effective Porosity            : 
TLFamily_PHIED     .         Effective Porosity            : 
TLFamily_PHIEN     .         Effective Porosity            : 
TLFamily_PHIES     .         Effective Porosity            : 
TLFamily_PHIT      .         Porosity                      : 
TLFamily_PRMB      .         Permeability                  : 
TLFamily_PRMB_DGR  .         Permeability                  : 
TLFamily_RHOB      .         Bulk Density                  : 
TLFamily_RT        .         Formation Resistivity         : 
TLFamily_SOIL_ARCHIE .         Oil Saturation                : 
TLFamily_SOIL_DW   .         Oil Saturation                : 
TLFamily_SP        .         Spontaneous Potential         : 
TLFamily_VSH_FIN   .         Shale Volume                  : 
TLFamily_VSH_GR    .         Shale Volume                  : 
TLFamily_VSH_SP    .         Shale Volume                  : 
~Curve Information
#_______________________________________________________________________________
#
#LOGNAME           .UNIT     LOG_ID                        : DESCRIPTION
#_______________________________________________________________________________
DEPT               .м                                      : Колонка глубины 
CALI               .м                                      : Каверномер 
COLL               .unitless                               : Описание 
CSAT               .unitless                               : Описание 
DT                 .мкс/м                                  : Интервальное время пробега продольной волны 
GR                 .uR/h                                   : Гамма каротаж 
GZ3                .Ohmm                                   : Градиент-зонд  длиной 2.25м 
IK1                .Ohmm                                   : И0.10И0.40 
IK2                .Ohmm                                   : И0.14И0.56 
IK3                .Ohmm                                   : И0.20И0.80 
IK4                .Ohmm                                   : И0.28И1.12 
IK5                .Ohmm                                   : И0.40И1.60 
LLS                .Ohmm                                   : Боковой каротаж 
MBK                .Ohmm                                   : Микробоковой каротаж 
MINV               .Ohmm                                   : Микро-градиент зонд 
MNOR               .Ohmm                                   : Микро-потенциал зонд 
NNKTB_1            .у.е.                                   : Показания большого зонда 2ННКт аппаратуры СРК 
NNKTM_1            .у.е.                                   : Показания малого зонда 2ННКт аппаратуры СРК 
NPHI               .v/v                                    : Total porosity 
OGZ                .Ohmm                                   :  
PHIE               .v/v                                    : Описание 
PHIED              .v/v                                    :  
PHIEN              .v/v                                    :  
PHIES              .v/v                                    :  
PHIT               .v/v                                    : Описание 
PRMB               .mD                                     :  
PRMB_DGR           .mD                                     :  
RHOB               .g/cm3                                  : Плотность по ГГКп 
RT                 .ohmm                                   : Удельное электрическое сопротивление 
SOIL_ARCHIE        .v/v                                    :  
SOIL_DW            .v/v                                    :  
SP                 .мВ                                     : Потенциал самополяризации 
VSH_FIN            .v/v                                    : Описание 
VSH_GR             .v/v                                    : Shale volume 
VSH_SP             .v/v                                    : Shale Volume 
~Ascii
# ...
1029.6     0.312      -9999      -9999      303.263    4.949      2.948      1.61       1.67       1.87       2.07       2.03       1.82       1.71       0.45       0.52       1.718      1.139      -9999      2.607      0.01       -0.120084  -9999      0.1282578  0.07634284 0.004289259 1.988287   2.7        2.03       0          0          452.282    0.4609196  0.4900442  0.4317949 
1029.8     0.327      -9999      -9999      292.32     4.989      2.885      1.46       1.55       1.69       1.87       1.91       1.68       1.67       0.44       0.57       1.715      1.129      -9999      2.489      0.01       -0.09906002 -9999      0.1099926  0.07979402 0.004289259 1.82562    2.66       1.91       0          0          452.418    0.4741355  0.5074247  0.4408464 
1030       0.33       -9999      -9999      291.532    4.844      2.744      1.7        1.73       1.83       1.92       1.84       1.66       1.44       0.45       0.53       1.923      1.139      -9999      2.469      0.01       -0.112412  -9999      0.1154614  0.07258911 0.004289259 2.487619   2.69       1.84       0          0          452.7      0.453319   0.4472005  0.4594374 
1030.2     0.298      -9999      -9999      297.313    4.819      2.532      1.34       1.36       1.52       1.7        1.73       1.55       1.28       0.49       0.57       1.543      1.129      -9999      2.433      0.03134919 -0.06280412 -9999      0.1255025  0.1012081  0.01066157 2.623929   2.61       1.73       0          0          452.6      0.445629   0.4375645  0.4536936 
1030.4     0.31       -9999      -9999      316.483    5.263      2.417      1.11       1.17       1.33       1.5        1.56       1.41       1.24       0.48       0.6        1.522      1.108      -9999      2.503      0.01       -0.1105082 -9999      0.1151974  0.08900948 0.004289259 1.017396   2.65       1.56       0          0          452.709    0.5528342  0.6442517  0.4614165 
1030.6     0.324      -9999      -9999      326.771    5.021      2.351      1.12       1.16       1.3        1.47       1.53       1.32       1.23       0.47       0.58       1.608      1.093      -9999      2.565      0.04827376 -0.04560798 -9999      0.1421555  0.1271499  0.02194346 1.705122   2.56       1.53       0          0          453.046    0.5031497  0.5217718  0.4845275 
1030.8     0.325      -9999      -9999      326.519    4.873      2.364      1.27       1.35       1.45       1.62       1.63       1.36       1.37       0.41       0.56       1.71       1.151      -9999      2.606      0.07729454 -0.000411743 -9999      0.1550008  0.1496129  0.0756555  2.338347   2.5        1.63       0          0          452.727    0.4613179  0.4586446  0.4639911 
1031       0.326      -9999      -9999      321.002    4.991      2.43       1.69       1.77       1.78       1.85       1.8        1.47       1.38       0.42       0.54       1.845      1.139      -9999      2.704      0.08008467 0.02193525 -9999      0.1382341  0.1577756  0.08521584 1.817844   2.45       1.8        0          0          453        0.4955894  0.5083098  0.4828691 
1031.2     0.287      -9999      -9999      300.263    5.117      2.533      1.85       1.82       1.86       1.96       1.91       1.52       1.42       0.46       0.54       1.861      1.153      -9999      2.793      0.03517172 -0.03313479 -9999      0.1034782  0.1179329  0.01254942 1.389283   2.53       1.91       0          0          453.073    0.5279328  0.5672937  0.4885718 
1031.4     0.287      -9999      -9999      310.348    5.526      2.62       1.86       1.77       1.8        1.9        1.89       1.6        1.63       0.49       0.52       1.911      1.2        -9999      2.816      0.01       -0.0922876 -9999      0.08299357 0.09454697 0.004289259 0.5804493  2.59       1.89       0          0          452.718    0.6327571  0.8        0.4655142 
1031.6     0.289      -9999      -9999      312.503    5.487      2.566      1.37       1.35       1.49       1.69       1.75       1.51       1.89       0.55       0.55       2.101      1.197      -9999      2.769      0.01       -0.1560363 -9999      0.08853487 0.0639436  0.004289259 0.6308212  2.7        1.75       0          0          452.673    0.6231908  0.7831034  0.4632781 
1031.8     0.291      -9999      -9999      305.204    5.017      2.511      1.35       1.39       1.51       1.68       1.71       1.46       1.75       0.5        0.56       1.959      1.172      -9999      2.764      0.01669923 -0.09308974 -9999      0.1264882  0.0910395  0.005707794 1.719737   2.65       1.71       0          0          452.109    0.4742156  0.5199566  0.4284746 
1032       0.29       -9999      -9999      304.413    5.042      2.551      1.45       1.45       1.65       1.79       1.76       1.53       1.57       0.5        0.58       2.131      1.189      -9999      2.837      0.01       -0.1227496 -9999      0.1259108  0.07572259 0.004289259 1.630401   2.7        1.76       0          0          451.864    0.4729506  0.5314069  0.4144943 
1032.2     0.291      -9999      -9999      312.701    4.834      2.517      1.41       1.45       1.63       1.78       1.77       1.58       1.42       0.52       0.63       2.079      1.19       -9999      2.724      0.03676679 -0.08019242 -9999      0.153726   0.1019814  0.01343285 2.54127    2.65       1.77       0          0          451.4      0.4160034  0.443321   0.3886857 
1032.4     0.308      -9999      -9999      315.856    5.4        2.485      1.71       1.63       1.71       1.78       1.73       1.49       1.42       0.59       0.66       1.844      1.178      -9999      2.619      0.01       -0.1159678 -9999      0.1152277  0.08592093 0.004289259 0.7595044  2.66       1.73       0          0          451.136    0.5504488  0.7259348  0.3749629 
1032.6     0.28       -9999      -9999      297.923    4.933      2.385      1.07       1.12       1.31       1.55       1.63       1.3        1.44       0.53       0.61       1.902      1.172      -9999      2.588      0.03341126 -0.06493133 -9999      0.1317538  0.1005384  0.01164168 2.05734    2.62       1.63       0          0          451.091    0.4282033  0.4832599  0.3731466 
1032.8     0.284      -9999      -9999      304.05     4.815      2.357      1.85       1.89       1.79       1.81       1.72       1.7        1.44       0.44       0.51       2.083      1.2        -9999      2.601      0.04285349 -0.06382465 -9999      0.1495316  0.1049607  0.0174144  2.646418   2.63       1.72       0          0          450.755    0.3961812  0.4360422  0.3563202 
1033       0.295      -9999      -9999      315.38     4.758      2.458      1.32       1.31       1.51       1.78       1.8        1.41       1.66       0.53       0.56       2.072      1.18       -9999      2.592      0.09087108 0.01197599 -9999      0.1697662  0.1496195  0.1349929  2.988694   2.65       1.8        0          0          450.3      0.3747553  0.4149151  0.3345956 
1033.2     0.27       -9999      -9999      294.282    4.831      2.457      1.1        1.15       1.32       1.59       1.75       1.49       1.44       0.49       0.5        2.119      1.214      -9999      2.598      0.04270396 -0.05526873 -9999      0.1406767  0.1029943  0.0173037  2.557592   2.62       1.75       0          0          450.127    0.384591   0.4421636  0.3270183 
1033.4     0.253      -9999      -9999      264.312    4.799      2.61       2.16       2.12       2.18       2.24       2.09       2.09       1.4        0.48       0.54       2.298      1.302      -9999      2.691      0.01       -0.1084786 -9999      0.0975631  0.05434978 0.004289259 2.738333   2.71       2.09       0          0          450.245    0.3815116  0.4300054  0.3330178 
1033.6     0.248      -9999      -9999      233.539    4.752      2.782      2.21       2.14       2.39       2.59       2.45       2.21       1.79       0.68       0.7        2.293      1.318      -9999      2.714      0.02051389 0          -9999      0.04102778 0.08007303 0.006716222 3.027204   2.74       2.45       0          0          450.527    0.379927   0.4127516  0.3471024 
