~Version
 VERS              .         2.0                           : CWLS LOG ASCII STANDARD - VERSION 2.0
 WRAP              .         NO                            : ONE LINE PER DEPTH STEP
 DLM               .         SPACE                         : DELIMITING CHARACTER(SPACE TAB OR COMMA)
~Well Information
#_______________________________________________________________________________
#
#PARAMETER_NAME    .UNIT     VALUE                         : DESCRIPTION
#_______________________________________________________________________________
STRT               .м        101.4                         : First reference value
STOP               .м        1218.4                        : Last reference value
STEP               .м        0.2                           : Step increment
NULL               .         -9999                         : Missing value
COMP               .                                       : Company
WELL               .         4534                          : Well name
FLD                .         УЗЕНЬ                         : Field
LOC                .                                       : Location
CNTY               .                                       : County
STAT               .                                       : State
CTRY               .                                       : Country
SRVC               .         AO"UPGF"                      : Service Company
DATE               .         27.04/01.05/2014              : Date
UWI                .                                       : Unique Well ID
Block              .         4                             : 
Category           .         Нагнетательная                : 
Condition          .         В работе                      : 
Date               .         26.05.2014                    : 
EREF               .m        225.4                         : 100.8
GRP                .                                       : Group name
Gorizont           .         14                            : 14
ISS                .                                       : Well surveys
Interpretator      .         Ким С.В.                      : 
Kupol              .         основной                      : osnovnoi
Mud                .         0                             : 
Mud_density        .         0                             : 
Mud_resistivity    .         0                             : 
NGDU               .         НГДУ-1                        : 
ORIGINALWELLNAME   .         4534                          : 
Spud_date          .         2014                          : 1961
TIME               .                                       : LOG TIME
Viscosity          .         0                             : 
X                  .m        54002.4                       : 46154
Y                  .m        81965.1                       : 85761.93
YEAR               .         2019                          : 
~Parameter Information Block
#_______________________________________________________________________________
#
#PARAMETER_NAME    .UNIT     VALUE                         : DESCRIPTION
#_______________________________________________________________________________
SET                .         LQC_KAZNIPI_Petrel            : 
TLFamily_CALI      .         Caliper                       : 
TLFamily_COLL      .         Net Reservoir Flag            : 
TLFamily_CSAT      .         Fluid Code                    : 
TLFamily_DEPT      .         Measured Depth                : 
TLFamily_DT        .         Compressional Slowness        : 
TLFamily_GR        .         Russian Gamma Ray             : 
TLFamily_GZ3       .         Gradient 225                  : 
TLFamily_IK1       .         Resistivity 05                : 
TLFamily_IK2       .         Resistivity 07                : 
TLFamily_IK3       .         Resistivity 10                : 
TLFamily_IK4       .         Resistivity 14                : 
TLFamily_IK5       .         Resistivity 20                : 
TLFamily_LLS       .         Lateral Log Resistivity       : 
TLFamily_MBK       .         Micro Lateral Log Resistivity : 
TLFamily_MINV      .         Micro Gradient Resistivity    : 
TLFamily_MNOR      .         Micro Resistivity             : 
TLFamily_NNKTB_1   .         Neutron Far                   : 
TLFamily_NNKTM_1   .         Neutron Near                  : 
TLFamily_NPHI      .         Neutron Porosity              : 
TLFamily_OGZ       .         Gradient Inverted 225         : 
TLFamily_PHIE      .         Effective Porosity            : 
TLFamily_PHIED     .         Effective Porosity            : 
TLFamily_PHIEN     .         Effective Porosity            : 
TLFamily_PHIES     .         Effective Porosity            : 
TLFamily_PHIT      .         Porosity                      : 
TLFamily_PRMB      .         Permeability                  : 
TLFamily_PRMB_DGR  .         Permeability                  : 
TLFamily_RHOB      .         Bulk Density                  : 
TLFamily_RT        .         Formation Resistivity         : 
TLFamily_SOIL_ARCHIE .         Oil Saturation                : 
TLFamily_SOIL_DW   .         Oil Saturation                : 
TLFamily_SP        .         Spontaneous Potential         : 
TLFamily_VSH_FIN   .         Shale Volume                  : 
TLFamily_VSH_GR    .         Shale Volume                  : 
TLFamily_VSH_SP    .         Shale Volume                  : 
~Curve Information
#_______________________________________________________________________________
#
#LOGNAME           .UNIT     LOG_ID                        : DESCRIPTION
#_______________________________________________________________________________
DEPT               .м                                      : Колонка глубины 
CALI               .м                                      : Каверномер 
COLL               .unitless                               : Описание 
CSAT               .unitless                               : Описание 
DT                 .мкс/м                                  : Интервальное время пробега продольной волны 
GR                 .uR/h                                   : Гамма каротаж 
GZ3                .Ohmm                                   : Градиент-зонд  длиной 2.25м 
IK1                .Ohmm                                   : И0.10И0.40 
IK2                .Ohmm                                   : И0.14И0.56 
IK3                .Ohmm                                   : И0.20И0.80 
IK4                .Ohmm                                   : И0.28И1.12 
IK5                .Ohmm                                   : И0.40И1.60 
LLS                .Ohmm                                   : Боковой каротаж 
MBK                .Ohmm                                   : Микробоковой каротаж 
MINV               .Ohmm                                   : Микро-градиент зонд 
MNOR               .Ohmm                                   : Микро-потенциал зонд 
NNKTB_1            .у.е.                                   : Показания большого зонда 2ННКт аппаратуры СРК 
NNKTM_1            .у.е.                                   : Показания малого зонда 2ННКт аппаратуры СРК 
NPHI               .v/v                                    : Total porosity 
OGZ                .Ohmm                                   :  
PHIE               .v/v                                    : Описание 
PHIED              .v/v                                    :  
PHIEN              .v/v                                    :  
PHIES              .v/v                                    :  
PHIT               .v/v                                    : Описание 
PRMB               .mD                                     :  
PRMB_DGR           .mD                                     :  
RHOB               .g/cm3                                  : Плотность по ГГКп 
RT                 .ohmm                                   : Удельное электрическое сопротивление 
SOIL_ARCHIE        .v/v                                    :  
SOIL_DW            .v/v                                    :  
SP                 .мВ                                     : Потенциал самополяризации 
VSH_FIN            .v/v                                    : Описание 
VSH_GR             .v/v                                    : Shale volume 
VSH_SP             .v/v                                    : Shale Volume 
~Ascii
# ...
1172.4     0.222      6          6          271.44     6.53       2.143      1.9        1.93       1.94       2.16       2.03       1.97       3.37       2.06       2.06       2.333      1.226      0.152      2.348      0.01       -0.2404763 0.007874474 0.09161197 0.01       0.004289259 83.56458   2.91       2.03       0          0          431.336    0.436744   0.106485   0.4367439 
1172.6     0.221      6          6          306.623    7.184      2.161      2.02       2.11       1.98       1.99       1.95       1.38       2.77       2.15       2.15       2.139      1.128      0.204      1.922      0.01       -0.1768279 0.06548678 0.1453035  0.05003773 0.004289259 24.87176   2.81       1.95       0          0          431.018    0.419737   0.1746629  0.4197367 
1172.8     0.22       6          6          331.286    7.766      2.014      1.49       1.63       1.59       1.59       1.64       1.31       2.02       1.6        1.6        2.006      1.121      0.178      1.697      0.04293215 -0.09761934 0.05043784 0.1834836  0.1035298  0.01747292 8.459287   2.69       1.64       0          0          430.4      0.386552   0.2713019  0.3865518 
1173       0.22       -9999      -9999      331.612    7.673      1.859      1.62       1.85       1.74       1.6        1.54       1.62       2.08       1.04       1.3        1.926      1.129      0.189      1.497      0.1076672  0.01796401 0.07569681 0.1973704  0.1614913  0.2763222  10.05025   2.64       1.54       0          0          429.527    0.343343   0.2528669  0.3433429 
1173.2     0.225      -9999      -9999      356.405    7.747      1.726      1.58       1.69       1.64       1.54       1.46       1.24       2.38       1.35       1.58       1.901      1.109      0.195      1.464      0.1150462  0          0.09087872 0.2300924  0.1645084  0.3785231  8.762416   2.68       1.46       0          0          428.891    0.315519   0.2674295  0.3155192 
1173.4     0.225      -9999      -9999      359.583    7.931      1.595      1.35       1.35       1.34       1.32       1.29       1.22       2.07       1          1.34       1.98       1.091      0.175      1.547      0.1278956  0.01197599 0.08233666 0.2438153  0.1719149  0.6547802  6.230848   2.65       1.29       0          0          428.018    0.280798   0.3073789  0.2807983 
1173.6     0.225      -9999      -9999      359.001    8.133      1.55       1.3        1.28       1.24       1.26       1.22       1.27       2.05       1.09       1.4        2.052      1.111      0.142      1.784      0.1310022  0.01197599 0.05641913 0.2500285  0.171657   0.7475452  4.285336   2.65       1.22       0          0          427.4      0.259336   0.3581407  0.2593361 
1173.8     0.223      -9999      -9999      349.462    7.576      1.793      1.27       1.26       1.24       1.31       1.31       1.37       2.33       0.9        1.31       2.078      1.123      0.193      2.135      0.123707   0          0.1138224  0.2474139  0.1613198  0.5476601  12.02925   2.67       1.31       0          0          426.782    0.239932   0.2349723  0.2399323 
1174       0.215      -9999      -9999      321.87     7.965      2.123      1.62       1.6        1.54       1.57       1.56       1.93       2.63       0.81       1.12       2.281      1.151      0.254      2.517      0.1258778  0.02994005 0.1774163  0.2218156  0.1622585  0.6007874  5.850396   2.62       1.56       0          0          426.491    0.232072   0.3153892  0.2320718 
1174.2     0.217      -9999      -9999      296.549    7.971      2.55       2.17       2.07       1.88       1.86       1.87       1.81       3.43       1.07       1.37       2.191      1.181      0.238      2.885      0.1015875  0.01197599 0.1611334  0.1911989  0.1381025  0.2132084  5.785712   2.65       1.87       0          0          426.482    0.232929   0.3168243  0.2329292 
1174.4     0.217      -9999      -9999      283.267    7.825      3.086      1.93       1.88       1.81       1.91       2.02       1.95       3.3        1.29       1.49       2.361      1.213      0.222      3.14       0.08818756 0          0.1485694  0.1763751  0.1230704  0.1203942  7.5832     2.71       2.02       0          0          426.091    0.222517   0.283688   0.2225174 
1174.6     0.217      -9999      -9999      288.55     7.667      3.421      2.83       2.71       2.48       2.33       2.19       2.81       3.81       1.39       1.57       2.167      1.215      0.225      3.043      0.09725706 0.005987972 0.1565761  0.1885261  0.1297614  0.1772534  10.16261   2.66       2.19       0          0          425.491    0.207345   0.2517215  0.2073455 
1174.8     0.218      8          2          308.617    8.554      3.105      3.22       3.02       2.59       2.29       2.09       1.49       4.78       1.13       1.44       1.864      1.14       0.264      2.61       0.107931   0          0.1972146  0.2158619  0.139657   0.2794482  1.96417    2.73       2.09       0          0          425.255    0.20238    0.4924921  0.20238   
1175       0.218      8          2          305.632    8.642      2.382      2.15       2          1.77       1.66       1.64       1.43       2.88       1.05       1.3        1.883      1.138      0.269      2.046      0.1078806  0          0.2059192  0.2157612  0.1378468  0.2788488  1.668629   2.67       1.64       0          0          424.736    0.191154   0.5264016  0.1911543 
1175.2     0.218      8          2          313.725    9.059      1.874      1.92       1.78       1.57       1.49       1.43       1.47       2.85       1.03       1.32       2.059      1.109      0.282      1.869      0.1134135  0          0.2204032  0.226827   0.1426747  0.3530621  0.770501   2.67       1.43       0          0          424.491    0.186657   0.7216862  0.1866567 
1175.4     0.217      8          2          320.123    8.653      1.614      1.85       1.7        1.56       1.51       1.42       1.52       2.88       1.1        1.37       1.989      1.103      0.293      1.779      0.1187342  0          0.2349329  0.2374684  0.1463187  0.4429997  1.634961   2.72       1.42       0          0          423.918    0.175961   0.5308011  0.1759615 
1175.6     0.216      8          2          318.665    8.505      1.447      1.89       1.71       1.55       1.5        1.41       1.5        2.94       1.12       1.39       1.871      1.109      0.295      1.787      0.1232146  0.01197599 0.2354802  0.2344532  0.1514892  0.5362798  2.150862   2.65       1.41       0          0          424.109    0.180363   0.4745668  0.1803625 
1175.8     0.218      8          2          320.472    8.6        1.423      1.78       1.69       1.46       1.41       1.34       1.4        2.92       1.1        1.39       1.788      1.111      0.298      1.837      0.1171229  0          0.2361313  0.2342457  0.1465133  0.4135781  1.803681   2.67       1.34       0          0          424.418    0.187481   0.5099359  0.1874814 
1176       0.216      8          2          318.09     8.259      1.457      1.69       1.6        1.38       1.3        1.26       1.37       2.85       1.14       1.42       1.742      1.119      0.289      1.936      0.1128991  0          0.2210537  0.2257983  0.1451767  0.3454013  3.393008   2.7        1.26       0          0          425.173    0.205898   0.3939659  0.2058976 
1176.2     0.218      8          2          324.978    7.877      1.439      1.56       1.44       1.29       1.2        1.18       1.34       2.82       1.24       1.48       1.905      1.108      0.292      1.913      0.1146329  0          0.2196802  0.2292659  0.1489881  0.3719103  6.886601   2.7        1.18       0          0          425.636    0.219151   0.2950726  0.2191515 
1176.4     0.223      -9999      -9999      340.617    7.883      1.529      1.33       1.24       1.16       1.1        1.1        1.19       2.78       1.4        1.6        1.622      1.068      0.312      1.987      0.1190336  0          0.2319321  0.2380673  0.1570695  0.4486935  6.810456   2.69       1.1        0          0          426.382    0.24263    0.2964152  0.2426302 
