~Version
 VERS              .         2.0                           : CWLS LOG ASCII STANDARD - VERSION 2.0
 WRAP              .         NO                            : ONE LINE PER DEPTH STEP
 DLM               .         SPACE                         : DELIMITING CHARACTER(SPACE TAB OR COMMA)
~Well Information
#_______________________________________________________________________________
#
#PARAMETER_NAME    .UNIT     VALUE                         : DESCRIPTION
#_______________________________________________________________________________
STRT               .м        101.4                         : First reference value
STOP               .м        1218.4                        : Last reference value
STEP               .м        0.2                           : Step increment
NULL               .         -9999                         : Missing value
COMP               .                                       : Company
WELL               .         4534                          : Well name
FLD                .         УЗЕНЬ                         : Field
LOC                .                                       : Location
CNTY               .                                       : County
STAT               .                                       : State
CTRY               .                                       : Country
SRVC               .         AO"UPGF"                      : Service Company
DATE               .         27.04/01.05/2014              : Date
UWI                .                                       : Unique Well ID
Block              .         4                             : 
Category           .         Нагнетательная                : 
Condition          .         В работе                      : 
Date               .         26.05.2014                    : 
EREF               .m        225.4                         : 100.8
GRP                .                                       : Group name
Gorizont           .         14                            : 14
ISS                .                                       : Well surveys
Interpretator      .         Ким С.В.                      : 
Kupol              .         основной                      : osnovnoi
Mud                .         0                             : 
Mud_density        .         0                             : 
Mud_resistivity    .         0                             : 
NGDU               .         НГДУ-1                        : 
ORIGINALWELLNAME   .         4534                          : 
Spud_date          .         2014                          : 1961
TIME               .                                       : LOG TIME
Viscosity          .         0                             : 
X                  .m        54002.4                       : 46154
Y                  .m        81965.1                       : 85761.93
YEAR               .         2019                          : 
~Parameter Information Block
#_______________________________________________________________________________
#
#PARAMETER_NAME    .UNIT     VALUE                         : DESCRIPTION
#_______________________________________________________________________________
SET                .         LQC_KAZNIPI_Petrel            : 
TLFamily_CALI      .         Caliper                       : 
TLFamily_COLL      .         Net Reservoir Flag            : 
TLFamily_CSAT      .         Fluid Code                    : 
TLFamily_DEPT      .         Measured Depth                : 
TLFamily_DT        .         Compressional Slowness        : 
TLFamily_GR        .         Russian Gamma Ray             : 
TLFamily_GZ3       .         Gradient 225                  : 
TLFamily_IK1       .         Resistivity 05                : 
TLFamily_IK2       .         Resistivity 07                : 
TLFamily_IK3       .         Resistivity 10                : 
TLFamily_IK4       .         Resistivity 14                : 
TLFamily_IK5       .         Resistivity 20                : 
TLFamily_LLS       .         Lateral Log Resistivity       : 
TLFamily_MBK       .         Micro Lateral Log Resistivity : 
TLFamily_MINV      .         Micro Gradient Resistivity    : 
TLFamily_MNOR      .         Micro Resistivity             : 
TLFamily_NNKTB_1   .         Neutron Far                   : 
TLFamily_NNKTM_1   .         Neutron Near                  : 
TLFamily_NPHI      .         Neutron Porosity              : 
TLFamily_OGZ       .         Gradient Inverted 225         : 
TLFamily_PHIE      .         Effective Porosity            : 
TLFamily_PHIED     .         Effective Porosity            : 
TLFamily_PHIEN     .         Effective Porosity            : 
TLFamily_PHIES     .         Effective Porosity            : 
TLFamily_PHIT      .         Porosity                      : 
TLFamily_PRMB      .         Permeability                  : 
TLFamily_PRMB_DGR  .         Permeability                  : 
TLFamily_RHOB      .         Bulk Density                  : 
TLFamily_RT        .         Formation Resistivity         : 
TLFamily_SOIL_ARCHIE .         Oil Saturation                : 
TLFamily_SOIL_DW   .         Oil Saturation                : 
TLFamily_SP        .         Spontaneous Potential         : 
TLFamily_VSH_FIN   .         Shale Volume                  : 
TLFamily_VSH_GR    .         Shale Volume                  : 
TLFamily_VSH_SP    .         Shale Volume                  : 
~Curve Information
#_______________________________________________________________________________
#
#LOGNAME           .UNIT     LOG_ID                        : DESCRIPTION
#_______________________________________________________________________________
DEPT               .м                                      : Колонка глубины 
CALI               .м                                      : Каверномер 
COLL               .unitless                               : Описание 
CSAT               .unitless                               : Описание 
DT                 .мкс/м                                  : Интервальное время пробега продольной волны 
GR                 .uR/h                                   : Гамма каротаж 
GZ3                .Ohmm                                   : Градиент-зонд  длиной 2.25м 
IK1                .Ohmm                                   : И0.10И0.40 
IK2                .Ohmm                                   : И0.14И0.56 
IK3                .Ohmm                                   : И0.20И0.80 
IK4                .Ohmm                                   : И0.28И1.12 
IK5                .Ohmm                                   : И0.40И1.60 
LLS                .Ohmm                                   : Боковой каротаж 
MBK                .Ohmm                                   : Микробоковой каротаж 
MINV               .Ohmm                                   : Микро-градиент зонд 
MNOR               .Ohmm                                   : Микро-потенциал зонд 
NNKTB_1            .у.е.                                   : Показания большого зонда 2ННКт аппаратуры СРК 
NNKTM_1            .у.е.                                   : Показания малого зонда 2ННКт аппаратуры СРК 
NPHI               .v/v                                    : Total porosity 
OGZ                .Ohmm                                   :  
PHIE               .v/v                                    : Описание 
PHIED              .v/v                                    :  
PHIEN              .v/v                                    :  
PHIES              .v/v                                    :  
PHIT               .v/v                                    : Описание 
PRMB               .mD                                     :  
PRMB_DGR           .mD                                     :  
RHOB               .g/cm3                                  : Плотность по ГГКп 
RT                 .ohmm                                   : Удельное электрическое сопротивление 
SOIL_ARCHIE        .v/v                                    :  
SOIL_DW            .v/v                                    :  
SP                 .мВ                                     : Потенциал самополяризации 
VSH_FIN            .v/v                                    : Описание 
VSH_GR             .v/v                                    : Shale volume 
VSH_SP             .v/v                                    : Shale Volume 
~Ascii
# ...
1067.4     0.441      -9999      -9999      373.508    4.384      2.541      0.55       0.84       0.99       1.08       1.26       1.04       0.9        0.35       0.33       1.332      0.969      -9999      1.856      0.186137   0.1626964  -9999      0.2095775  0.2532056  7.849947   6.638544   2.24       1.26       0.132329   0.2605594  452.109    0.4278297  0.2995259  0.5561334 
1067.6     0.448      -9999      -9999      367.924    4.341      2.44       0.53       0.81       0.94       1.01       1.12       0.97       0.89       0.33       0.26       1.393      0.951      -9999      1.818      0.1912268  0.179362   -9999      0.2030916  0.2592141  9.753102   7.276483   2.21       1.12       0.1043158  0.235005   452.4      0.4336902  0.2885113  0.578869  
1067.8     0.471      -9999      -9999      325.662    4.299      2.187      0.51       0.78       0.88       1          1.02       0.96       0.88       0.32       0.2        1.253      0.969      -9999      1.788      0.1851166  0.2015354  -9999      0.1686977  0.2501255  7.515638   7.958728   2.18       1.02       0.03728246 0.1703635  452.045    0.4146912  0.2781439  0.5512384 
1068       0.515      -9999      -9999      310.23     4.588      2.033      0.44       0.67       0.84       0.98       1.01       0.94       0.86       0.32       0.2        1.197      0.951      -9999      1.827      0.1637453  0.1910729  -9999      0.1364177  0.2361571  3.020774   4.295594   2.18       1.01       0          0.09283542 452.237    0.4619141  0.3577912  0.5660369 
1068.2     0.516      -9999      -9999      314.467    4.506      1.907      0.43       0.76       0.96       1.09       1.1        0.97       0.86       0.33       0.23       1.149      0.96       -9999      1.82       0.1660703  0.1839238  -9999      0.1482169  0.2350668  3.33567    5.116978   2.2        1.1        0          0.133411   451.991    0.4401278  0.3331197  0.5471358 
1068.4     0.551      -9999      -9999      319.958    4.403      1.843      0.44       0.78       1          1.16       1.22       0.97       0.89       0.36       0.29       1.338      0.962      -9999      1.925      0.1612244  0.1667998  -9999      0.1556489  0.2296264  2.712842   6.374781   2.23       1.22       0.001658805 0.1554837  452.264    0.436336   0.3045258  0.568146  
1068.6     0.453      -9999      -9999      318.861    4.484      1.881      0.56       1.01       1.27       1.34       1.3        1.03       0.97       0.34       0.28       1.295      0.972      -9999      2.039      0.1269579  0.1003375  -9999      0.1535783  0.1957802  0.6291103  5.362917   2.34       1.3        0          0.008754236 452.045    0.4390167  0.326795   0.5512384 
1068.8     0.378      -9999      -9999      341.408    4.302      1.862      0.54       0.92       1.2        1.36       1.33       1.07       1.2        0.35       0.31       1.606      1.01       -9999      2.131      0.0756513  -0.02915091 -9999      0.1804535  0.1428831  0.07053485 7.907941   2.56       1.33       0          0          452.4      0.4288705  0.278872   0.578869  
1069       0.378      -9999      -9999      355.865    4.603      1.876      0.75       1.1        1.33       1.41       1.35       1.15       1.25       0.4        0.42       1.495      1.018      -9999      2.151      0.06615049 -0.0496725 -9999      0.1819735  0.1394286  0.04703549 4.160275   2.58       1.35       0          0          452.318    0.4674403  0.3624983  0.5723823 
1069.2     0.44       -9999      -9999      380.94     4.922      1.778      0.73       0.98       1.1        1.22       1.26       1.08       1.22       0.44       0.45       1.359      0.999      -9999      2.205      0.079441   -0.02637622 -9999      0.1852582  0.161657   0.0829083  2.106203   2.52       1.26       0          0          452.291    0.5244549  0.4786502  0.5702596 
1069.4     0.359      -9999      -9999      386.26     4.804      1.755      0.46       0.64       0.79       0.98       1.11       0.99       1          0.42       0.35       1.336      0.981      -9999      2.205      0.161696   0.124235   -9999      0.1991569  0.2390307  2.767958   2.709272   2.28       1.11       0          0.1363691  452.091    0.4933176  0.4318829  0.5547524 
1069.6     0.322      -9999      -9999      360.888    4.851      1.839      0.56       0.9        1.09       1.21       1.2        1.02       0.93       0.38       0.31       1.458      1.011      -9999      2.422      0.1535282  0.1296015  -9999      0.1774549  0.2313028  1.953768   2.450739   2.27       1.2        0          0.1349609  451.927    0.4961232  0.4499364  0.5423099 
1069.8     0.314      -9999      -9999      342.322    5.144      1.813      0.8        1.38       1.56       1.55       1.45       1.14       1.12       0.42       0.35       1.511      1.013      -9999      2.594      0.05409005 -0.02983344 -9999      0.1380135  0.1429891  0.0281214  1.311503   2.51       1.45       0          0          452.073    0.5670861  0.5807979  0.5533743 
1070       0.278      -9999      -9999      354.795    5.289      1.829      0.96       1.3        1.5        1.53       1.47       1.18       1.34       0.48       0.48       1.422      1.03       -9999      2.605      0.01       -0.1304852 -9999      0.1429082  0.09853755 0.004289259 0.9624888  2.67       1.47       0          0          451.609    0.5889465  0.6590134  0.5188797 
1070.2     0.256      -9999      -9999      367.872    5.347      1.808      1.01       1.17       1.32       1.42       1.39       1.21       1.47       0.45       0.5        1.447      1.038      -9999      2.51       0.01141342 -0.1274147 -9999      0.1502416  0.1058038  0.004555774 0.8504448  2.66       1.39       0          0          451.5      0.6021149  0.6931735  0.5110562 
1070.4     0.281      -9999      -9999      383.173    5.429      1.759      0.9        1.04       1.15       1.32       1.33       1.17       1.52       0.54       0.56       1.381      1.019      -9999      2.454      0.01       -0.1390899 -9999      0.1546116  0.1061752  0.004289259 0.7139302  2.67       1.33       0          0          451.5      0.6277838  0.7445114  0.5110562 
1070.6     0.278      -9999      -9999      378.655    5.386      1.767      0.9        1.1        1.19       1.31       1.33       1.18       1.46       0.64       0.6        1.427      1.01       -9999      2.338      0.01775145 -0.1188156 -9999      0.1543185  0.1145312  0.005969775 0.7825357  2.64       1.33       0          0          451.591    0.6173567  0.7171333  0.5175801 
1070.8     0.262      -9999      -9999      386.133    5.11       1.766      0.86       1.04       1.15       1.25       1.29       1.11       1.46       0.52       0.5        1.507      1.01       -9999      2.37       0.02929343 -0.1257147 -9999      0.1843016  0.1140072  0.009766598 1.41019    2.68       1.29       0          0          451.582    0.5403878  0.5638442  0.5169315 
1071       0.274      -9999      -9999      396.498    5.23       1.7        0.82       0.96       1.06       1.16       1.2        1.06       1.37       0.43       0.39       1.604      1.022      -9999      2.567      0.02650123 -0.1312338 -9999      0.1842363  0.1151201  0.008670121 1.091621   2.68       1.2        0          0          451.409    0.5652984  0.625991   0.5046057 
1071.2     0.251      -9999      -9999      369.44     5.478      1.635      0.76       0.94       1.03       1.11       1.12       1.08       1.28       0.55       0.46       1.514      1.03       -9999      2.936      0.01096068 -0.1178102 -9999      0.1397316  0.1112659  0.004468651 0.6430525  2.63       1.12       0          0          451.382    0.639846   0.7769865  0.5027053 
1071.4     0.275      -9999      -9999      372.931    5.176      1.583      0.69       0.88       0.96       1.03       1.07       1.03       1.18       0.9        0.73       1.459      1.05       -9999      3.43       0.07063247 -0.03450891 -9999      0.1757738  0.154366   0.05694332 1.224939   2.53       1.07       0          0          450.918    0.5341349  0.5972196  0.4710501 
