~Version
 VERS              .         2.0                           : CWLS LOG ASCII STANDARD - VERSION 2.0
 WRAP              .         NO                            : ONE LINE PER DEPTH STEP
 DLM               .         SPACE                         : DELIMITING CHARACTER(SPACE TAB OR COMMA)
~Well Information
#_______________________________________________________________________________
#
#PARAMETER_NAME    .UNIT     VALUE                         : DESCRIPTION
#_______________________________________________________________________________
STRT               .м        101.4                         : First reference value
STOP               .м        1218.4                        : Last reference value
STEP               .м        0.2                           : Step increment
NULL               .         -9999                         : Missing value
COMP               .                                       : Company
WELL               .         4534                          : Well name
FLD                .         УЗЕНЬ                         : Field
LOC                .                                       : Location
CNTY               .                                       : County
STAT               .                                       : State
CTRY               .                                       : Country
SRVC               .         AO"UPGF"                      : Service Company
DATE               .         27.04/01.05/2014              : Date
UWI                .                                       : Unique Well ID
Block              .         4                             : 
Category           .         Нагнетательная                : 
Condition          .         В работе                      : 
Date               .         26.05.2014                    : 
EREF               .m        225.4                         : 100.8
GRP                .                                       : Group name
Gorizont           .         14                            : 14
ISS                .                                       : Well surveys
Interpretator      .         Ким С.В.                      : 
Kupol              .         основной                      : osnovnoi
Mud                .         0                             : 
Mud_density        .         0                             : 
Mud_resistivity    .         0                             : 
NGDU               .         НГДУ-1                        : 
ORIGINALWELLNAME   .         4534                          : 
Spud_date          .         2014                          : 1961
TIME               .                                       : LOG TIME
Viscosity          .         0                             : 
X                  .m        54002.4                       : 46154
Y                  .m        81965.1                       : 85761.93
YEAR               .         2019                          : 
~Parameter Information Block
#_______________________________________________________________________________
#
#PARAMETER_NAME    .UNIT     VALUE                         : DESCRIPTION
#_______________________________________________________________________________
SET                .         LQC_KAZNIPI_Petrel            : 
TLFamily_CALI      .         Caliper                       : 
TLFamily_COLL      .         Net Reservoir Flag            : 
TLFamily_CSAT      .         Fluid Code                    : 
TLFamily_DEPT      .         Measured Depth                : 
TLFamily_DT        .         Compressional Slowness        : 
TLFamily_GR        .         Russian Gamma Ray             : 
TLFamily_GZ3       .         Gradient 225                  : 
TLFamily_IK1       .         Resistivity 05                : 
TLFamily_IK2       .         Resistivity 07                : 
TLFamily_IK3       .         Resistivity 10                : 
TLFamily_IK4       .         Resistivity 14                : 
TLFamily_IK5       .         Resistivity 20                : 
TLFamily_LLS       .         Lateral Log Resistivity       : 
TLFamily_MBK       .         Micro Lateral Log Resistivity : 
TLFamily_MINV      .         Micro Gradient Resistivity    : 
TLFamily_MNOR      .         Micro Resistivity             : 
TLFamily_NNKTB_1   .         Neutron Far                   : 
TLFamily_NNKTM_1   .         Neutron Near                  : 
TLFamily_NPHI      .         Neutron Porosity              : 
TLFamily_OGZ       .         Gradient Inverted 225         : 
TLFamily_PHIE      .         Effective Porosity            : 
TLFamily_PHIED     .         Effective Porosity            : 
TLFamily_PHIEN     .         Effective Porosity            : 
TLFamily_PHIES     .         Effective Porosity            : 
TLFamily_PHIT      .         Porosity                      : 
TLFamily_PRMB      .         Permeability                  : 
TLFamily_PRMB_DGR  .         Permeability                  : 
TLFamily_RHOB      .         Bulk Density                  : 
TLFamily_RT        .         Formation Resistivity         : 
TLFamily_SOIL_ARCHIE .         Oil Saturation                : 
TLFamily_SOIL_DW   .         Oil Saturation                : 
TLFamily_SP        .         Spontaneous Potential         : 
TLFamily_VSH_FIN   .         Shale Volume                  : 
TLFamily_VSH_GR    .         Shale Volume                  : 
TLFamily_VSH_SP    .         Shale Volume                  : 
~Curve Information
#_______________________________________________________________________________
#
#LOGNAME           .UNIT     LOG_ID                        : DESCRIPTION
#_______________________________________________________________________________
DEPT               .м                                      : Колонка глубины 
CALI               .м                                      : Каверномер 
COLL               .unitless                               : Описание 
CSAT               .unitless                               : Описание 
DT                 .мкс/м                                  : Интервальное время пробега продольной волны 
GR                 .uR/h                                   : Гамма каротаж 
GZ3                .Ohmm                                   : Градиент-зонд  длиной 2.25м 
IK1                .Ohmm                                   : И0.10И0.40 
IK2                .Ohmm                                   : И0.14И0.56 
IK3                .Ohmm                                   : И0.20И0.80 
IK4                .Ohmm                                   : И0.28И1.12 
IK5                .Ohmm                                   : И0.40И1.60 
LLS                .Ohmm                                   : Боковой каротаж 
MBK                .Ohmm                                   : Микробоковой каротаж 
MINV               .Ohmm                                   : Микро-градиент зонд 
MNOR               .Ohmm                                   : Микро-потенциал зонд 
NNKTB_1            .у.е.                                   : Показания большого зонда 2ННКт аппаратуры СРК 
NNKTM_1            .у.е.                                   : Показания малого зонда 2ННКт аппаратуры СРК 
NPHI               .v/v                                    : Total porosity 
OGZ                .Ohmm                                   :  
PHIE               .v/v                                    : Описание 
PHIED              .v/v                                    :  
PHIEN              .v/v                                    :  
PHIES              .v/v                                    :  
PHIT               .v/v                                    : Описание 
PRMB               .mD                                     :  
PRMB_DGR           .mD                                     :  
RHOB               .g/cm3                                  : Плотность по ГГКп 
RT                 .ohmm                                   : Удельное электрическое сопротивление 
SOIL_ARCHIE        .v/v                                    :  
SOIL_DW            .v/v                                    :  
SP                 .мВ                                     : Потенциал самополяризации 
VSH_FIN            .v/v                                    : Описание 
VSH_GR             .v/v                                    : Shale volume 
VSH_SP             .v/v                                    : Shale Volume 
~Ascii
# ...
1101       0.296      -9999      -9999      420.233    6.744      2.181      0.84       1.23       1.44       1.53       1.47       1.07       1.09       0.37       0.35       1.467      0.98       -9999      2.002      0.09783886 -0.04031048 -9999      0.2359882  0.1687298  0.1817068  1.351136   2.57       1.47       0          0          448.418    0.4522123  0.57378    0.3306446 
1101.2     0.292      -9999      -9999      370.846    7.066      2.337      0.81       1.14       1.44       1.56       1.52       1.18       1.24       0.46       0.49       1.683      1.012      -9999      2.214      0.07008864 -0.03775377 -9999      0.1779311  0.1518812  0.05563777 0.8244074  2.54       1.52       0          0          448.646    0.5217536  0.7020308  0.3414763 
1101.4     0.282      -9999      -9999      314.173    7.36       2.399      1.71       1.66       1.78       1.81       1.65       1.38       1.57       0.68       0.74       1.653      1.039      -9999      2.296      0.01868884 -0.07131241 -9999      0.1086901  0.1072785  0.006213278 0.5250999  2.58       1.65       0          0          448.409    0.5651123  0.8        0.3302246 
1101.6     0.294      -9999      -9999      279.316    7.312      2.386      1.13       1.24       1.35       1.57       1.56       1.36       2.05       0.81       0.76       1.716      1.018      -9999      2.206      0.01       -0.1032346 -9999      0.06044388 0.06859675 0.004289259 0.5652306  2.63       1.56       0          0          448.782    0.5740584  0.8        0.3481167 
1101.8     0.29       -9999      -9999      296.217    6.431      2.265      0.88       1.01       1.13       1.31       1.39       1.28       1.63       0.68       0.69       1.653      0.998      -9999      2.176      0.06397998 -0.007123429 -9999      0.1350834  0.1283366  0.04287681 2.184031   2.53       1.39       0          0          448.809    0.4105301  0.4716105  0.3494498 
1102       0.323      -9999      -9999      336.63     6.363      2.124      0.92       1.05       1.2        1.3        1.36       1.25       1.32       0.62       0.61       1.526      0.968      -9999      2.09       0.1180743  0.0535617  -9999      0.1825868  0.1818614  0.430705   2.424204   2.43       1.36       0          0          449.055    0.406897   0.451941   0.3618531 
1102.2     0.33       -9999      -9999      342.835    6.631      2.194      0.82       1.04       1.19       1.28       1.39       1.18       1.16       0.47       0.54       1.59       0.953      -9999      2.136      0.1425964  0.1099172  -9999      0.1752757  0.2131145  1.225717   1.606918   2.32       1.39       0          0.1305113  449.118    0.4498336  0.5345644  0.3651028 
1102.4     0.339      -9999      -9999      317.563    7.391      2.255      1.18       1.5        1.59       1.58       1.5        1.25       1.13       0.55       0.59       1.596      0.991      -9999      2.245      0.08599074 0.07052776 -9999      0.1014537  0.1801421  0.1096264  0.5007096  2.33       1.5        0          0          449.782    0.6005905  0.8        0.401181  
1102.6     0.307      -9999      -9999      304.975    7.178      2.203      1.12       1.46       1.6        1.65       1.58       1.28       1.22       0.56       0.6        1.696      1.022      -9999      2.329      0.05979653 0.02341495 -9999      0.09617811 0.1491511  0.03587029 0.6942459  2.42       1.58       0          0          449.527    0.5699918  0.7530599  0.3869237 
1102.8     0.303      -9999      -9999      328.759    7.072      2.074      1.12       1.41       1.55       1.6        1.55       1.35       1.3        0.54       0.63       1.662      1.04       -9999      2.331      0.05295781 -0.02506246 -9999      0.1309781  0.1384811  0.0267957  0.8168528  2.51       1.55       0          0          449.518    0.5455522  0.7046748  0.3864296 
1103       0.29       -9999      -9999      342.011    6.742      2.047      1.2        1.32       1.46       1.55       1.53       1.27       1.46       0.48       0.62       1.786      1.052      -9999      2.407      0.07357251 -0.01708249 -9999      0.1642275  0.1492127  0.06455047 1.355288   2.52       1.53       0          0          449.618    0.4825075  0.5730616  0.3919535 
1103.2     0.28       -9999      -9999      317.258    6.867      2.068      1.1        1.26       1.44       1.57       1.59       1.44       1.4        0.5        0.6        1.81       1.091      -9999      2.539      0.05720602 -0.01632129 -9999      0.1307333  0.1365445  0.03211828 1.118769   2.51       1.59       0          0          449.627    0.5060988  0.6197431  0.3924545 
1103.4     0.26       -9999      -9999      291.437    6.515      2.147      2.39       2.48       2.28       2.12       1.88       1.88       1.79       0.55       0.72       1.714      1.099      -9999      2.473      0.0161467  -0.0827072 -9999      0.1150006  0.08737758 0.005574861 1.91994    2.64       1.88       0          0          449.964    0.4543808  0.4970938  0.4116679 
1103.6     0.272      -9999      -9999      283.315    6.583      2.138      1.65       1.77       1.91       2.03       1.93       1.58       2.37       0.65       0.92       1.692      1.055      -9999      2.354      0.01       -0.1074924 -9999      0.1025685  0.06935841 0.004289259 1.729726   2.68       1.93       0          0          449.718    0.458141   0.5187285  0.3975535 
1103.8     0.309      -9999      -9999      312.699    6.475      2.074      1.14       1.25       1.41       1.54       1.61       1.35       1.66       0.6        0.8        1.623      0.989      -9999      2.233      0.05865083 -0.02698255 -9999      0.1442842  0.1285852  0.03415967 2.041459   2.55       1.61       0          0          449.891    0.4461105  0.4847915  0.4074296 
1104       0.313      -9999      -9999      330.741    6.258      1.997      1.03       1.18       1.34       1.45       1.48       1.29       1.3        0.54       0.66       1.725      0.98       -9999      2.14       0.09669895 0.02082276 -9999      0.1725751  0.1624664  0.1730841  2.847958   2.48       1.48       0          0          450.036    0.4195296  0.4231682  0.4158911 
1104.2     0.317      -9999      -9999      318.648    6.532      1.99       1.26       1.44       1.53       1.58       1.52       1.31       1.33       0.52       0.65       1.73       1          -9999      2.151      0.07091086 0.001393867 -9999      0.1404278  0.1461885  0.05762343 1.87051    2.49       1.52       0          0          450.718    0.4801952  0.5024164  0.457974  
1104.4     0.306      -9999      -9999      314.047    6.798      1.997      1.33       1.5        1.6        1.65       1.57       1.32       1.4        0.49       0.59       1.623      0.999      -9999      2.193      0.04065508 -0.03551807 -9999      0.1168282  0.1251026  0.01585582 1.243705   2.53       1.57       0          0          451.109    0.5386897  0.5935234  0.4838561 
1104.6     0.297      -9999      -9999      322.277    6.633      1.998      1.02       1.22       1.39       1.52       1.52       1.3        1.37       0.55       0.6        1.668      1.002      -9999      2.259      0.05837544 -0.02118672 -9999      0.1379376  0.1369196  0.03376081 1.601995   2.52       1.52       0          0          450.854    0.501032   0.5352346  0.4668294 
1104.8     0.309      -9999      -9999      326.594    6.601      2.025      1.2        1.34       1.45       1.52       1.5        1.29       1.35       0.52       0.67       1.525      1.03       -9999      2.245      0.06027243 -0.02155861 -9999      0.1421035  0.1390797  0.03660578 1.682611   2.52       1.5        0          0          451.064    0.5027105  0.5246111  0.48081   
1105       0.309      -9999      -9999      328.822    6.378      2.096      1.26       1.4        1.49       1.57       1.54       1.31       1.34       0.48       0.69       1.707      1.033      -9999      2.334      0.07252546 -0.01590302 -9999      0.160954   0.1430942  0.06173132 2.369051   2.53       1.54       0          0          450.5      0.450157   0.456208   0.4441059 
