~Version
 VERS              .         2.0                           : CWLS LOG ASCII STANDARD - VERSION 2.0
 WRAP              .         YES                            : ONE LINE PER DEPTH STEP
 DLM               .         SPACE                         : DELIMITING CHARACTER(SPACE TAB OR COMMA)
~Well Information
#_______________________________________________________________________________
#
#PARAMETER_NAME    .UNIT     VALUE                         : DESCRIPTION
#_______________________________________________________________________________
STRT               .M        870                           : First reference value
STOP               .M        1250                          : Last reference value
STEP               .M        0.1                           : Step increment
NULL               .         -9999                         : Missing value
COMP               .                                       : Company
WELL               .         1468                          : Well name
FLD                .         Узень                         : Field
LOC                .                                       : Location
CNTY               .                                       : County
STAT               .                                       : State
CTRY               .                                       : Country
SRVC               .         SCH                           : Service Company
DATE               .         03.01.1968                    : Date
UWI                .                                       : Unique Well ID
Block              .         7                             : 
Cartographic_reference_system .         GCS_WGS_1984                  : ESRI,PE_10_3_1- <?xml version="1.0" encoding="utf-16"?><ILateBoundCoordinateReferenceSystem name="GCS_WGS_1984"><AuthorityCode>EPSG,4326</AuthorityCode></ILateBoundCoordinateReferenceSystem>
Category           .         Нефтяная                      : 
Condition          .         В работе                      : 
EREF               .m        85.2                          : 100.8
Gorizont           .         15                            : 14
HZCS               .GCS_WGS_1984 WGS_1984_EASE-Grid_2.0_Global : ESRI,PE_10_3_1- <?xml version="1.0" encoding="utf-16"?><ILateBoundCoordinateReferenceSystem name="WGS_1984_EASE-Grid_2.0_Global"><AuthorityCode>EPSG,6933</AuthorityCode></ILateBoundCoordinateReferenceSystem>
Interpretator      .         Сагынбаева А.Н.               : 
Kupol              .         основной                      : osnovnoi
LATI               .dega     0.6587883963                  : GCS_WGS_1984
LONG               .dega     0.441086545                   : GCS_WGS_1984
Mud                .         глинистый                     : 
Mud_density        .         1,22                          : 
Mud_resistivity    .         0                             : 
NGDU               .         НГДУ-2                        : 
ORIGINALWELLNAME   .         1468                          : 
Spud_date          .         1967                          : 1961
Viscosity          .         40                            : 
X                  .m        42558.8                       : 46154
Y                  .m        84042                         : 85761.93
YEAR               .         2018                          : 
~Parameter Information Block
#_______________________________________________________________________________
#
#PARAMETER_NAME    .UNIT     VALUE                         : DESCRIPTION
#_______________________________________________________________________________
SET                .         LQC_KAZNIPI_Petrel            : 
PBBOTTOM           .M        1286.9                        : Глубина подошвы планшета
PBSCALE            .         1 _ 500                       : Вертикальный масштаб планшета
PBTOP              .M        900                           : Глубина кровли планшета
TLFamily_CALI      .         Caliper                       : 
TLFamily_COLL      .         Net Reservoir Flag            : 
TLFamily_CSAT      .         Fluid Code                    : 
TLFamily_DEPT      .         Measured Depth                : 
TLFamily_GR        .         Russian Gamma Ray             : 
TLFamily_LLS       .         Lateral Log Resistivity       : 
TLFamily_MINV      .         Micro Gradient Resistivity    : 
TLFamily_MNOR      .         Micro Resistivity             : 
TLFamily_NGLD      .         Neutron Gamma                 : 
TLFamily_PHIE      .         Effective Porosity            : 
TLFamily_PHIEN     .         Effective Porosity            : 
TLFamily_PHIT      .         Porosity                      : 
TLFamily_PRMB      .         Permeability                  : 
TLFamily_PRMB_DGR  .         Permeability                  : 
TLFamily_RT        .         Formation Resistivity         : 
TLFamily_SOIL_ARCHIE .         Oil Saturation                : 
TLFamily_SOIL_DW   .         Oil Saturation                : 
TLFamily_SP        .         Spontaneous Potential         : 
TLFamily_VSH_FIN   .         Shale Volume                  : 
TLFamily_VSH_GR    .         Shale Volume                  : 
TLFamily_VSH_SP    .         Shale Volume                  : 
~Curve Information
#_______________________________________________________________________________
#
#LOGNAME           .UNIT     LOG_ID                        : DESCRIPTION
#_______________________________________________________________________________
DEPT               .M                                      : Колонка глубины 
CALI               .м                                      : Каверномер 
COLL               .unitless                               : Описание 
CSAT               .unitless                               :  
GR                 .uR/h                                   : Гамма каротаж 
LLS                .Ohmm                                   : Боковой каротаж 
MINV               .Ohmm                                   : Микро-градиент зонд 
MNOR               .Ohmm                                   : Микро-потенциал зонд 
NGLD               .u.e.                                   : Показания зонда НГК-60 аппаратуры ДРСТ-3-90 
PHIE               .v/v                                    : Описание 
PHIEN              .v/v                                    :  
PHIT               .v/v                                    : Описание 
PRMB               .mD                                     :  
PRMB_DGR           .mD                                     :  
RT                 .ohmm                                   : УЭС пласта 
SOIL_ARCHIE        .v/v                                    :  
SOIL_DW            .v/v                                    :  
SP                 .мВ                                     : Потенциал самополяризации 
VSH_FIN            .v/v                                    : Описание 
VSH_GR             .v/v                                    : Shale volume 
VSH_SP             .v/v                                    : Shale Volume 
~Ascii
# ...
1219.8     
  0.258      -9999      -9999      6.619559   1.971      1.768      
  0.702      1.001017   0.06514768 0.06514768 0.2804407  0.04506621 
  1.304597   1.971      0          0.2052031  61.44455   0.652403   
  0.5820514  0.652403  
1219.9     
  0.258      -9999      -9999      6.579899   2.011      1.799      
  0.688      1.005997   0.06714733 0.06714733 0.2777018  0.0490783  
  1.394585   2.011      0          0.2153174  61.03257   0.6380439  
  0.566412   0.6380439 
1220       
  0.258      -9999      -9999      6.527359   2.039      1.809      
  0.679      1.012149   0.07059184 0.07059184 0.2743182  0.05684472 
  1.523429   2.039      0          0.2266776  60.42503   0.6173526  
  0.5463384  0.6173526 
1220.1     
  0.258      -9999      -9999      6.466519   2.065      1.795      
  0.681      1.019175   0.07564978 0.07564978 0.270454   0.07053027 
  1.687568   2.065      0          0.2416275  59.60468   0.5903158  
  0.5239813  0.5903158 
1220.2     
  0.257      -9999      -9999      6.401962   2.089      1.757      
  0.693      1.026636   0.08239886 0.08239886 0.26635    0.09405565 
  1.881117   2.089      0          0.260047   58.56231   0.5574277  
  0.5012577  0.5574277 
1220.3     
  0.257      -9999      -9999      6.337605   2.111      1.688      
  0.703      1.033996   0.09077485 0.09077485 0.2623023  0.13444    
  2.096156   2.111      0          0.2813092  57.30135   0.5197803  
  0.4795856  0.5197803 
1220.4     
  0.256      -9999      -9999      6.276264   2.133      1.58       
  0.708      1.040673   0.100544   0.100544   0.2586297  0.2039279  
  2.32396    2.133      0          0.304738   55.84228   0.4790477  
  0.4598019  0.4790477 
1220.5     
  0.255      -9999      -9999      6.219501   2.146      1.442      
  0.707      1.046118   0.1113233  0.1113233  0.2556351  0.3229503  
  2.556762   2.146      0          0.3277785  54.22475   0.4373086  
  0.4422223  0.4373086 
1220.6     
  0.254      -9999      -9999      6.167758   2.145      1.287      
  0.697      1.049884   0.1226465  0.1226465  0.253564   0.5234421  
  2.78923    2.145      0.0551334  0.3488421  52.50567   0.3967198  
  0.4267839  0.3967198 
1220.7     
  0.253      -9999      -9999      6.120682   2.118      1.122      
  0.678      1.051686   0.1340553  0.1340553  0.2525725  0.8515066  
  3.019052   2.118      0.1203537  0.365622   50.75268   0.359143   
  0.4132064  0.359143  
1220.8     
  0.251      -9999      -9999      6.077523   2.056      0.972      
  0.656      1.051434   0.145175   0.145175   0.2527114  1.368205   
  3.246349   2.056      0.1678124  0.3764671  49.03493   0.3258679  
  0.4011386  0.3258679 
1220.9     
  0.25       8          2          6.037499   1.966      0.864      
  0.636      1.049223   0.1557453  0.1557453  0.2539274  2.147528   
  3.472399   1.966      0.2006089  0.3819913  47.41413   0.2975217  
  0.3902627  0.2975217 
1221       
  0.248      8          2          6.000042   1.861      0.796      
  0.619      1.045301   0.1656116  0.1656116  0.2560844  3.271048   
  3.698188   1.861      0.2224795  0.3836398  45.93874   0.27416    
  0.3803517  0.27416   
1221.1     
  0.246      8          2          5.964875   1.747      0.762      
  0.608      1.040006   0.1746955  0.1746955  0.2589968  4.818833   
  3.923525   1.747      0.2354663  0.3818239  44.64244   0.2554584  
  0.3712755  0.2554584 
1221.2     
  0.245      8          2          5.931936   1.651      0.758      
  0.607      1.033698   0.182963   0.182963   0.2624661  6.856084   
  4.147017   1.651      0.2459069  0.3810296  43.54665   0.2409186  
  0.362971   0.2409186 
1221.3     
  0.244      8          2          5.901286   1.596      0.775      
  0.617      1.026702   0.1904048  0.1904048  0.2663139  9.417113   
  4.366399   1.596      0.2599698  0.386067   42.66481   0.2300273  
  0.3554107  0.2300273 
1221.4     
  0.243      8          2          5.873013   1.574      0.794      
  0.633      1.019275   0.197017   0.197017   0.2703986  12.48507   
  4.579039   1.574      0.2769544  0.3959323  42.00801   0.2223684  
  0.3485763  0.2223684 
1221.5     
  0.242      8          2          5.847251   1.579      0.813      
  0.655      1.011598   0.2027884  0.2027884  0.2746214  15.96951   
  4.781803   1.579      0.2959588  0.409488   41.5887    0.2176756  
  0.3424634  0.2176756 
1221.6     
  0.241      8          2          5.824346   1.606      0.833      
  0.68       1.00378    0.2076945  0.2076945  0.2789211  19.68634   
  4.969616   1.606      0.31593    0.4255241  41.42072   0.2158379  
  0.3371183  0.2158379 
1221.7     
  0.241      8          2          5.805077   1.641      0.853      
  0.703      0.9959025  0.2116715  0.2116715  0.2832536  23.32535   
  5.133306   1.641      0.3339106  0.4412124  41.51949   0.2169155  
  0.3326866  0.2169155 
1221.8     
  0.241      8          2          5.790805   1.669      0.87       
  0.726      0.988045   0.2145983  0.2145983  0.2875753  26.42642   
  5.258013   1.669      0.3470344  0.4539222  41.89977   0.2211424  
  0.3294418  0.2211424 
1221.9     
  0.242      8          2          5.783453   1.694      0.892      
  0.749      0.9803101  0.2162837  0.2162837  0.2918294  28.39598   
  5.323432   1.694      0.3559774  0.4643244  42.57238   0.2289265  
  0.3277826  0.2289265 
1222       
  0.243      8          2          5.785246   1.72       0.927      
  0.775      0.9728543  0.2164609  0.2164609  0.2959301  28.6114    
  5.307406   1.72       0.3610202  0.4728554  43.5386    0.2408159  
  0.3281863  0.2408159 
1222.1     
  0.245      8          2          5.798227   1.729      0.969      
  0.802      0.9658976  0.2148015  0.2148015  0.2997563  26.65655   
  5.192791   1.729      0.3582967  0.4764555  44.78533   0.2574388  
  0.3311251  0.2574388 
1222.2     
  0.248      8          2          5.823666   1.719      1.015      
  0.822      0.9597258  0.2109534  0.2109534  0.3031508  22.62181   
  4.975299   1.719      0.3463367  0.474422   46.28148   0.279386   
  0.336961   0.279386  
1222.3     
  0.25       8          2          5.861559   1.689      1.084      
  0.832      0.9546812  0.204608   0.204608   0.3059253  17.25814   
  4.668112   1.689      0.3231467  0.4658727  47.97597   0.3070223  
  0.345845   0.3070223 
1222.4     
  0.253      8          2          5.910315   1.638      1.183      
  0.831      0.951122   0.1955996  0.1955996  0.3078829  11.75271   
  4.300596   1.638      0.2858751  0.449551   49.79924   0.3402523  
  0.3576212  0.3402523 
1222.5     
  0.255      8          2          5.966742   1.57       1.293      
  0.814      0.9493758  0.1840024  0.1840024  0.3088433  7.166869   
  3.911226   1.57       0.2316939  0.4246542  51.66848   0.3783057  
  0.3717518  0.3783057 
1222.6     
  0.258      -9999      -9999      6.026408   1.486      1.416      
  0.793      0.9496791  0.1701997  0.1701997  0.3086765  3.978044   
  3.537778   1.486      0.1562082  0.389605   53.49552   0.4196267  
  0.3873015  0.4196267 
1222.7     
  0.26       -9999      -9999      6.084285   1.396      1.539      
  0.778      0.9521158  0.1548918  0.1548918  0.3073363  2.070757   
  3.209636   1.396      0.05677237 0.3446358  55.1962    0.4619532  
  0.4030058  0.4619532 
1222.8     
  0.261      -9999      -9999      6.135504   1.316      1.608      
  0.765      0.956579   0.1390222  0.1390222  0.3048815  1.052413   
  2.944721   1.316      0          0.2927243  56.69906   0.5026041  
  0.417434   0.5026041 
1222.9     
  0.262      -9999      -9999      6.176145   1.256      1.602      
  0.76       0.9627675  0.1236238  0.1236238  0.3014779  0.5457222  
  2.750164   1.256      0          0.2379198  57.95313   0.5389516  
  0.4292491  0.5389516 
1223       
  0.262      -9999      -9999      6.203849   1.222      1.597      
  0.755      0.9702243  0.1096238  0.1096238  0.2973767  0.30037    
  2.624959   1.222      0          0.1854863  58.93333   0.5689481  
  0.4374943  0.5689481 
