~Version
 VERS              .         2.0                           : CWLS LOG ASCII STANDARD - VERSION 2.0
 WRAP              .         YES                            : ONE LINE PER DEPTH STEP
 DLM               .         SPACE                         : DELIMITING CHARACTER(SPACE TAB OR COMMA)
~Well Information
#_______________________________________________________________________________
#
#PARAMETER_NAME    .UNIT     VALUE                         : DESCRIPTION
#_______________________________________________________________________________
STRT               .M        870                           : First reference value
STOP               .M        1250                          : Last reference value
STEP               .M        0.1                           : Step increment
NULL               .         -9999                         : Missing value
COMP               .                                       : Company
WELL               .         1468                          : Well name
FLD                .         Узень                         : Field
LOC                .                                       : Location
CNTY               .                                       : County
STAT               .                                       : State
CTRY               .                                       : Country
SRVC               .         SCH                           : Service Company
DATE               .         03.01.1968                    : Date
UWI                .                                       : Unique Well ID
Block              .         7                             : 
Cartographic_reference_system .         GCS_WGS_1984                  : ESRI,PE_10_3_1- <?xml version="1.0" encoding="utf-16"?><ILateBoundCoordinateReferenceSystem name="GCS_WGS_1984"><AuthorityCode>EPSG,4326</AuthorityCode></ILateBoundCoordinateReferenceSystem>
Category           .         Нефтяная                      : 
Condition          .         В работе                      : 
EREF               .m        85.2                          : 100.8
Gorizont           .         15                            : 14
HZCS               .GCS_WGS_1984 WGS_1984_EASE-Grid_2.0_Global : ESRI,PE_10_3_1- <?xml version="1.0" encoding="utf-16"?><ILateBoundCoordinateReferenceSystem name="WGS_1984_EASE-Grid_2.0_Global"><AuthorityCode>EPSG,6933</AuthorityCode></ILateBoundCoordinateReferenceSystem>
Interpretator      .         Сагынбаева А.Н.               : 
Kupol              .         основной                      : osnovnoi
LATI               .dega     0.6587883963                  : GCS_WGS_1984
LONG               .dega     0.441086545                   : GCS_WGS_1984
Mud                .         глинистый                     : 
Mud_density        .         1,22                          : 
Mud_resistivity    .         0                             : 
NGDU               .         НГДУ-2                        : 
ORIGINALWELLNAME   .         1468                          : 
Spud_date          .         1967                          : 1961
Viscosity          .         40                            : 
X                  .m        42558.8                       : 46154
Y                  .m        84042                         : 85761.93
YEAR               .         2018                          : 
~Parameter Information Block
#_______________________________________________________________________________
#
#PARAMETER_NAME    .UNIT     VALUE                         : DESCRIPTION
#_______________________________________________________________________________
SET                .         LQC_KAZNIPI_Petrel            : 
PBBOTTOM           .M        1286.9                        : Глубина подошвы планшета
PBSCALE            .         1 _ 500                       : Вертикальный масштаб планшета
PBTOP              .M        900                           : Глубина кровли планшета
TLFamily_CALI      .         Caliper                       : 
TLFamily_COLL      .         Net Reservoir Flag            : 
TLFamily_CSAT      .         Fluid Code                    : 
TLFamily_DEPT      .         Measured Depth                : 
TLFamily_GR        .         Russian Gamma Ray             : 
TLFamily_LLS       .         Lateral Log Resistivity       : 
TLFamily_MINV      .         Micro Gradient Resistivity    : 
TLFamily_MNOR      .         Micro Resistivity             : 
TLFamily_NGLD      .         Neutron Gamma                 : 
TLFamily_PHIE      .         Effective Porosity            : 
TLFamily_PHIEN     .         Effective Porosity            : 
TLFamily_PHIT      .         Porosity                      : 
TLFamily_PRMB      .         Permeability                  : 
TLFamily_PRMB_DGR  .         Permeability                  : 
TLFamily_RT        .         Formation Resistivity         : 
TLFamily_SOIL_ARCHIE .         Oil Saturation                : 
TLFamily_SOIL_DW   .         Oil Saturation                : 
TLFamily_SP        .         Spontaneous Potential         : 
TLFamily_VSH_FIN   .         Shale Volume                  : 
TLFamily_VSH_GR    .         Shale Volume                  : 
TLFamily_VSH_SP    .         Shale Volume                  : 
~Curve Information
#_______________________________________________________________________________
#
#LOGNAME           .UNIT     LOG_ID                        : DESCRIPTION
#_______________________________________________________________________________
DEPT               .M                                      : Колонка глубины 
CALI               .м                                      : Каверномер 
COLL               .unitless                               : Описание 
CSAT               .unitless                               :  
GR                 .uR/h                                   : Гамма каротаж 
LLS                .Ohmm                                   : Боковой каротаж 
MINV               .Ohmm                                   : Микро-градиент зонд 
MNOR               .Ohmm                                   : Микро-потенциал зонд 
NGLD               .u.e.                                   : Показания зонда НГК-60 аппаратуры ДРСТ-3-90 
PHIE               .v/v                                    : Описание 
PHIEN              .v/v                                    :  
PHIT               .v/v                                    : Описание 
PRMB               .mD                                     :  
PRMB_DGR           .mD                                     :  
RT                 .ohmm                                   : УЭС пласта 
SOIL_ARCHIE        .v/v                                    :  
SOIL_DW            .v/v                                    :  
SP                 .мВ                                     : Потенциал самополяризации 
VSH_FIN            .v/v                                    : Описание 
VSH_GR             .v/v                                    : Shale volume 
VSH_SP             .v/v                                    : Shale Volume 
~Ascii
# ...
1071.3     
  0.23       -9999      -9999      6.066731   1.596      0.609      
  0.933      1.005079   0.0598447  0.0598447  0.2782063  0.03594406 
  1.169074   1.596      0          0.06929052 61.92492   0.6617019  
  0.6087121  0.7146918 
1071.4     
  0.232      -9999      -9999      6.030489   1.569      0.694      
  1.027      1.013878   0.0555207  0.0555207  0.2733673  0.0298907  
  1.203877   1.569      0          0.02861027 62.03347   0.6601412  
  0.6014642  0.7188183 
1071.5     
  0.233      -9999      -9999      5.975448   1.559      0.81       
  1.137      1.023993   0.05111453 0.05111453 0.2678038  0.02476983 
  1.258724   1.559      0          0          62.13374   0.6566341  
  0.5906214  0.7226468 
1071.6     
  0.234      -9999      -9999      5.898824   1.586      0.93       
  1.239      1.035557   0.04660955 0.04660955 0.2614436  0.02043996 
  1.339262   1.586      0          0          62.2257    0.6510124  
  0.5758517  0.726173  
1071.7     
  0.234      -9999      -9999      5.801284   1.656      1.052      
  1.32       1.048692   0.04187481 0.04187481 0.2542197  0.01670248 
  1.449284   1.656      0          0          62.30838   0.6434693  
  0.5575833  0.7293552 
1071.8     
  0.234      -9999      -9999      5.686863   1.769      1.232      
  1.429      1.063446   0.03671465 0.03671465 0.2461047  0.01340301 
  1.58992    1.769      0          0          62.38049   0.6345152  
  0.5368907  0.7321398 
1071.9     
  0.234      -9999      -9999      5.562176   1.93       1.428      
  1.594      1.079717   0.03095516 0.03095516 0.2371559  0.0104839  
  1.758756   1.93       0          0          62.44108   0.6248507  
  0.5152149  0.7344865 
1072       
  0.234      -9999      -9999      5.435157   2.112      1.615      
  1.774      1.097174   0.02453702 0.02453702 0.2275541  0.007973392 
  1.9492     2.112      0          0          62.48969   0.6152032  
  0.4940332  0.7363732 
1072.1     
  0.234      -9999      -9999      5.31377    2.281      1.834      
  1.991      1.115231   0.01757347 0.01757347 0.2176229  0.005924631 
  2.150437   2.281      0          0          62.52678   0.6062103  
  0.4746051  0.7378154 
1072.2     
  0.235      -9999      -9999      5.205012   2.439      2.063      
  2.227      1.133066   0.01035693 0.01035693 0.2078138  0.004355053 
  2.348324   2.439      0          0          62.55361   0.5983542  
  0.4578479  0.7388604 
1072.3     
  0.235      -9999      -9999      5.114415   2.583      2.285      
  2.437      1.149709   0.01       0.003312473 0.1986599  0.004289259 
  2.526999   2.583      0          0          62.57213   0.591962   
  0.4443417  0.7395822 
1072.4     
  0.235      -9999      -9999      5.04598    2.694      2.459      
  2.564      1.164184   0.01       0          0.1906989  0.004289259 
  2.670925   2.694      0          0          62.58467   0.5872378  
  0.4344042  0.7400715 
1072.5     
  0.234      -9999      -9999      5.002317   2.775      2.562      
  2.617      1.17565    0.01       0          0.1843925  0.004289259 
  2.767008   2.775      0          0          62.59376   0.5843031  
  0.4281802  0.7404261 
1072.6     
  0.234      -9999      -9999      4.98481    2.834      2.597      
  2.621      1.183531   0.01       0          0.1800581  0.004289259 
  2.806495   2.834      0          0          62.60184   0.5832257  
  0.4257098  0.7407417 
1072.7     
  0.233      -9999      -9999      4.993699   2.864      2.576      
  2.58       1.187579   0.01       0          0.1778317  0.004289259 
  2.786377   2.864      0          0          62.61113   0.5840333  
  0.4269623  0.7411042 
1072.8     
  0.231      -9999      -9999      5.028057   2.874      2.485      
  2.494      1.187875   0.01       0          0.1776689  0.004289259 
  2.709956   2.874      0          0          62.62342   0.5867115  
  0.4318384  0.7415846 
1072.9     
  0.23       -9999      -9999      5.08579    2.879      2.325      
  2.381      1.184764   0.01       0          0.17938    0.004289259 
  2.586233   2.879      0          0          62.63997   0.5911945  
  0.4401576  0.7422314 
1073       
  0.228      -9999      -9999      5.163769   2.883      2.117      
  2.243      1.178766   0.01       0          0.1826786  0.004289259 
  2.428041   2.883      0          0          62.66142   0.5973599  
  0.4516492  0.7430706 
1073.1     
  0.227      -9999      -9999      5.25813    2.891      1.876      
  2.074      1.170471   0.01       0          0.1872412  0.004289259 
  2.2495     2.891      0          0          62.68782   0.6050308  
  0.4659569  0.7441048 
1073.2     
  0.225      -9999      -9999      5.364669   2.905      1.74       
  1.974      1.160446   0.01       0          0.1927545  0.004289259 
  2.063643   2.905      0          0          62.71851   0.6139824  
  0.4826567  0.7453081 
1073.3     
  0.224      -9999      -9999      5.479279   2.914      1.603      
  1.873      1.149185   0.01       0          0.1989485  0.004289259 
  1.880816   2.914      0          0          62.75202   0.6239572  
  0.5012904  0.746624  
1073.4     
  0.224      -9999      -9999      5.598313   2.914      1.348      
  1.671      1.137061   0.01       0          0.2056163  0.004289259 
  1.708059   2.914      0          0          62.78613   0.6346853  
  0.5214053  0.7479652 
1073.5     
  0.225      -9999      -9999      5.718835   2.909      1.156      
  1.494      1.124334   0.01       0          0.2126162  0.004289259 
  1.549303   2.909      0          0          62.81765   0.6459004  
  0.5425942  0.7492066 
1073.6     
  0.226      -9999      -9999      5.838822   2.901      1.014      
  1.331      1.111174   0.01       0.002925147 0.2198541  0.004289259 
  1.405911   2.901      0          0          62.84225   0.6573605  
  0.5645443  0.7501767 
1073.7     
  0.228      -9999      -9999      5.957255   2.859      0.915      
  1.186      1.097703   0.01       0.00653389 0.2272636  0.004289259 
  1.277396   2.859      0          0          62.85488   0.6688778  
  0.5870808  0.7506747 
1073.8     
  0.229      -9999      -9999      6.074128   2.758      0.863      
  1.074      1.084054   0.01025782 0.01025782 0.2347704  0.004336683 
  1.162096   2.758      0          0          62.84995   0.6803411  
  0.610202   0.7504801 
1073.9     
  0.231      -9999      -9999      6.190274   2.599      0.84       
  0.992      1.070423   0.01399787 0.01399787 0.2422673  0.005086658 
  1.057825   2.599      0          0          62.82178   0.6917255  
  0.6340818  0.7493693 
1074       
  0.232      -9999      -9999      6.306948   2.373      0.82       
  0.938      1.057087   0.01758989 0.01758989 0.2496023  0.005928781 
  0.9624978  2.373      0          0          62.76477   0.703068   
  0.6590109  0.7471251 
1074.1     
  0.234      -9999      -9999      6.425151   2.077      0.804      
  0.917      1.044398   0.02082654 0.02082654 0.256581   0.006806378 
  0.8746784  2.077      0          0          62.67362   0.7144074  
  0.6852663  0.7435486 
1074.2     
  0.235      -9999      -9999      6.544839   1.774      0.796      
  0.923      1.032745   0.0235113  0.0235113  0.2629902  0.007632105 
  0.7939173  1.774      0          0          62.54358   0.7256936  
  0.7129175  0.7384697 
1074.3     
  0.237      -9999      -9999      6.664248   1.526      0.797      
  0.945      1.022494   0.02552016 0.02552016 0.2686284  0.008314829 
  0.7207752  1.526      0          0          62.37085   0.7366916  
  0.7416162  0.731767  
1074.4     
  0.238      -9999      -9999      6.779643   1.348      0.808      
  0.971      1.013929   0.02685361 0.02685361 0.2733388  0.008801406 
  0.6565015  1.348      0          0          62.15347   0.7469248  
  0.7704473  0.7234021 
1074.5     
  0.239      -9999      -9999      6.885682   1.251      0.832      
  0.99       1.007212   0.02765237 0.02765237 0.2770333  0.009106407 
  0.6025045  1.251      0          0          61.89272   0.7556998  
  0.797928   0.7134716 
