~Version
 VERS              .         2.0                           : CWLS LOG ASCII STANDARD - VERSION 2.0
 WRAP              .         YES                            : ONE LINE PER DEPTH STEP
 DLM               .         SPACE                         : DELIMITING CHARACTER(SPACE TAB OR COMMA)
~Well Information
#_______________________________________________________________________________
#
#PARAMETER_NAME    .UNIT     VALUE                         : DESCRIPTION
#_______________________________________________________________________________
STRT               .M        870                           : First reference value
STOP               .M        1250                          : Last reference value
STEP               .M        0.1                           : Step increment
NULL               .         -9999                         : Missing value
COMP               .                                       : Company
WELL               .         1468                          : Well name
FLD                .         Узень                         : Field
LOC                .                                       : Location
CNTY               .                                       : County
STAT               .                                       : State
CTRY               .                                       : Country
SRVC               .         SCH                           : Service Company
DATE               .         03.01.1968                    : Date
UWI                .                                       : Unique Well ID
Block              .         7                             : 
Cartographic_reference_system .         GCS_WGS_1984                  : ESRI,PE_10_3_1- <?xml version="1.0" encoding="utf-16"?><ILateBoundCoordinateReferenceSystem name="GCS_WGS_1984"><AuthorityCode>EPSG,4326</AuthorityCode></ILateBoundCoordinateReferenceSystem>
Category           .         Нефтяная                      : 
Condition          .         В работе                      : 
EREF               .m        85.2                          : 100.8
Gorizont           .         15                            : 14
HZCS               .GCS_WGS_1984 WGS_1984_EASE-Grid_2.0_Global : ESRI,PE_10_3_1- <?xml version="1.0" encoding="utf-16"?><ILateBoundCoordinateReferenceSystem name="WGS_1984_EASE-Grid_2.0_Global"><AuthorityCode>EPSG,6933</AuthorityCode></ILateBoundCoordinateReferenceSystem>
Interpretator      .         Сагынбаева А.Н.               : 
Kupol              .         основной                      : osnovnoi
LATI               .dega     0.6587883963                  : GCS_WGS_1984
LONG               .dega     0.441086545                   : GCS_WGS_1984
Mud                .         глинистый                     : 
Mud_density        .         1,22                          : 
Mud_resistivity    .         0                             : 
NGDU               .         НГДУ-2                        : 
ORIGINALWELLNAME   .         1468                          : 
Spud_date          .         1967                          : 1961
Viscosity          .         40                            : 
X                  .m        42558.8                       : 46154
Y                  .m        84042                         : 85761.93
YEAR               .         2018                          : 
~Parameter Information Block
#_______________________________________________________________________________
#
#PARAMETER_NAME    .UNIT     VALUE                         : DESCRIPTION
#_______________________________________________________________________________
SET                .         LQC_KAZNIPI_Petrel            : 
PBBOTTOM           .M        1286.9                        : Глубина подошвы планшета
PBSCALE            .         1 _ 500                       : Вертикальный масштаб планшета
PBTOP              .M        900                           : Глубина кровли планшета
TLFamily_CALI      .         Caliper                       : 
TLFamily_COLL      .         Net Reservoir Flag            : 
TLFamily_CSAT      .         Fluid Code                    : 
TLFamily_DEPT      .         Measured Depth                : 
TLFamily_GR        .         Russian Gamma Ray             : 
TLFamily_LLS       .         Lateral Log Resistivity       : 
TLFamily_MINV      .         Micro Gradient Resistivity    : 
TLFamily_MNOR      .         Micro Resistivity             : 
TLFamily_NGLD      .         Neutron Gamma                 : 
TLFamily_PHIE      .         Effective Porosity            : 
TLFamily_PHIEN     .         Effective Porosity            : 
TLFamily_PHIT      .         Porosity                      : 
TLFamily_PRMB      .         Permeability                  : 
TLFamily_PRMB_DGR  .         Permeability                  : 
TLFamily_RT        .         Formation Resistivity         : 
TLFamily_SOIL_ARCHIE .         Oil Saturation                : 
TLFamily_SOIL_DW   .         Oil Saturation                : 
TLFamily_SP        .         Spontaneous Potential         : 
TLFamily_VSH_FIN   .         Shale Volume                  : 
TLFamily_VSH_GR    .         Shale Volume                  : 
TLFamily_VSH_SP    .         Shale Volume                  : 
~Curve Information
#_______________________________________________________________________________
#
#LOGNAME           .UNIT     LOG_ID                        : DESCRIPTION
#_______________________________________________________________________________
DEPT               .M                                      : Колонка глубины 
CALI               .м                                      : Каверномер 
COLL               .unitless                               : Описание 
CSAT               .unitless                               :  
GR                 .uR/h                                   : Гамма каротаж 
LLS                .Ohmm                                   : Боковой каротаж 
MINV               .Ohmm                                   : Микро-градиент зонд 
MNOR               .Ohmm                                   : Микро-потенциал зонд 
NGLD               .u.e.                                   : Показания зонда НГК-60 аппаратуры ДРСТ-3-90 
PHIE               .v/v                                    : Описание 
PHIEN              .v/v                                    :  
PHIT               .v/v                                    : Описание 
PRMB               .mD                                     :  
PRMB_DGR           .mD                                     :  
RT                 .ohmm                                   : УЭС пласта 
SOIL_ARCHIE        .v/v                                    :  
SOIL_DW            .v/v                                    :  
SP                 .мВ                                     : Потенциал самополяризации 
VSH_FIN            .v/v                                    : Описание 
VSH_GR             .v/v                                    : Shale volume 
VSH_SP             .v/v                                    : Shale Volume 
~Ascii
# ...
922.8      
  0.214      -9999      -9999      4.30939    1.633      3.261      
  1.867      0.9636946  0.110842   0.110842   0.300968   0.3163884  
  2.022914   1.633      0          0.2860153  61.81874   0.5761393  
  0.4866014  0.6656771 
922.9      
  0.214      -9999      -9999      4.298728   1.633      3.261      
  1.867      0.9665517  0.1088958  0.1088958  0.2993965  0.291187   
  2.042489   1.633      0          0.2790869  61.93533   0.5772751  
  0.4846917  0.6698586 
923        
  0.214      -9999      -9999      4.28954    1.633      3.261      
  1.867      0.9679508  0.1077626  0.1077626  0.298627   0.2774488  
  2.059512   1.633      0          0.2752126  62.04198   0.5783771  
  0.4830518  0.6737025 
923.1      
  0.214      -9999      -9999      4.281657   1.633      3.261      
  1.867      0.9679208  0.1074473  0.1074473  0.2986435  0.2737433  
  2.07423    1.633      0          0.2744891  62.13625   0.5793824  
  0.4816492  0.6771157 
923.2000000000001 
  0.214      -9999      -9999      4.27379    1.633      3.261      
  1.867      0.9667447  0.1078428  0.1078428  0.2992904  0.2783995  
  2.089024   1.633      0          0.2764426  62.21658   0.5801443  
  0.4802536  0.6800351 
923.3      
  0.214      -9999      -9999      4.264189   1.633      3.261      
  1.867      0.9649171  0.1087318  0.1087318  0.3002956  0.2891577  
  2.107219   1.633      0          0.2800998  62.28245   0.5804963  
  0.4785559  0.6824367 
923.4      
  0.214      -9999      -9999      4.251504   1.633      3.261      
  1.867      0.9630502  0.1098132  0.1098132  0.3013224  0.302806   
  2.131503   1.633      0          0.2841955  62.33451   0.580331   
  0.476322   0.6843399 
923.5      
  0.214      -9999      -9999      4.235574   1.633      3.261      
  1.867      0.9617397  0.110753   0.110753   0.3020431  0.3151904  
  2.162396   1.633      0          0.2874533  62.37444   0.579667   
  0.4735315  0.6858026 
923.6      
  0.214      -9999      -9999      4.217829   1.633      3.261      
  1.867      0.961441   0.1112446  0.1112446  0.3022074  0.3218682  
  2.197338   1.633      0          0.2888215  62.40458   0.5786752  
  0.4704421  0.6869083 
923.7000000000001 
  0.214      -9999      -9999      4.201189   1.633      3.261      
  1.867      0.9623737  0.1110674  0.1110674  0.3016945  0.3194442  
  2.230616   1.633      0          0.2876386  62.42756   0.5776579  
  0.4675636  0.6877522 
923.8      
  0.214      -9999      -9999      4.189563   1.633      3.261      
  1.867      0.9644808  0.1101275  0.1101275  0.3005356  0.3068925  
  2.254165   1.633      0          0.2837113  62.44587   0.5769942  
  0.4655628  0.6884257 
923.9      
  0.214      -9999      -9999      4.187008   1.633      3.261      
  1.867      0.9674492  0.1084712  0.1084712  0.298903   0.2859615  
  2.259373   1.633      0          0.2773201  62.46169   0.5770659  
  0.4651243  0.6890076 
924        
  0.214      -9999      -9999      4.19685    1.633      3.261      
  1.867      0.9707801  0.1062698  0.1062698  0.297071   0.2603355  
  2.239376   1.633      0          0.2691723  62.47655   0.5781852  
  0.4668159  0.6895546 
924.1      
  0.214      -9999      -9999      4.221028   1.633      3.261      
  1.867      0.9738823  0.1037833  0.1037833  0.2953647  0.2341405  
  2.190997   1.633      0          0.260313   62.49141   0.5805498  
  0.4709976  0.690102  
924.2000000000001 
  0.214      -9999      -9999      4.259822   1.633      3.261      
  1.867      0.9761741  0.1013095  0.1013095  0.2941043  0.210696   
  2.115547   1.633      0          0.2519784  62.50674   0.5842265  
  0.4777857  0.6906673 
924.3      
  0.215      -9999      -9999      4.311926   1.633      3.261      
  1.867      0.9771611  0.09913962 0.09913962 0.2935614  0.1920722  
  2.018285   1.633      0          0.2454281  62.52272   0.5891569  
  0.4870569  0.6912569 
924.4      
  0.215      -9999      -9999      4.374821   1.633      3.261      
  1.867      0.9764858  0.09752285 0.09752285 0.2939328  0.1792742  
  1.906815   1.633      0          0.2417643  62.53947   0.5951817  
  0.4984881  0.6918753 
924.5      
  0.215      -9999      -9999      4.445291   1.633      3.261      
  1.867      0.9739468  0.09664526 0.09664526 0.2953292  0.1726882  
  1.789217   1.633      0          0.2417716  62.55721   0.6020727  
  0.5116152  0.6925303 
924.6      
  0.215      -9999      -9999      4.519857   1.633      3.261      
  1.867      0.9695121  0.09661379 0.09661379 0.2977684  0.1724566  
  1.67267    1.633      0          0.2457796  62.57631   0.6095592  
  0.5258819  0.6932365 
924.7000000000001 
  0.215      -9999      -9999      4.595091   1.633      3.261      
  1.867      0.9633113  0.09745434 0.09745434 0.3011788  0.1787512  
  1.562773   1.633      0          0.2536258  62.59732   0.6173469  
  0.5406796  0.6940143 
924.8      
  0.215      -9999      -9999      4.667781   1.633      3.261      
  1.867      0.9556302  0.09911165 0.09911165 0.3054034  0.1918431  
  1.463455   1.633      0          0.2646872  62.62071   0.6251264  
  0.5553722  0.6948806 
924.9      
  0.216      -9999      -9999      4.734973   1.633      3.261      
  1.867      0.9468933  0.101458   0.101458   0.3102087  0.2120346  
  1.377272   1.633      0          0.2780031  62.64677   0.6325777  
  0.5693085  0.6958469 
925        
  0.216      -9999      -9999      4.794042   1.633      3.261      
  1.867      0.9376293  0.1043086  0.1043086  0.3153039  0.2394455  
  1.305711   1.633      0          0.2924473  62.67542   0.6393796  
  0.5818486  0.6969107 
925.1      
  0.217      -9999      -9999      4.842854   1.633      3.261      
  1.867      0.9284047  0.1074497  0.1074497  0.3203774  0.273771   
  1.24939    1.633      0          0.3069317  62.70611   0.6452354  
  0.5924192  0.6980516 
925.2000000000001 
  0.217      -9999      -9999      4.880012   1.633      3.261      
  1.867      0.9197457  0.1106678  0.1106678  0.3251399  0.3140468  
  1.208149   1.633      0          0.3205604  62.73792   0.6499153  
  0.6005948  0.6992359 
925.3      
  0.218      -9999      -9999      4.905184   1.633      3.261      
  1.867      0.9120571  0.1137773  0.1137773  0.3293686  0.3585832  
  1.180989   1.633      0          0.3327218  62.7696    0.6533069  
  0.6061971  0.7004167 
925.4      
  0.218      -9999      -9999      4.919389   1.633      3.261      
  1.867      0.9055648  0.1166372  0.1166372  0.3329394  0.4050996  
  1.165932   1.633      0          0.3431059  62.79971   0.6554611  
  0.6093816  0.7015406 
925.5      
  0.219      -9999      -9999      4.925086   1.633      3.261      
  1.867      0.900302   0.1191531  0.1191531  0.3358339  0.4509853  
  1.159947   1.633      0          0.3516562  62.82681   0.6566085  
  0.6106634  0.7025536 
925.6      
  0.219      -9999      -9999      4.925943   1.633      3.261      
  1.867      0.8961496  0.1212649  0.1212649  0.3381177  0.493489   
  1.159049   1.633      0          0.3584745  62.84952   0.6571298  
  0.6108565  0.7034032 
925.7000000000001 
  0.219      -9999      -9999      4.9263     1.633      3.261      
  1.867      0.8929072  0.122929   0.122929   0.339901   0.5297866  
  1.158676   1.633      0          0.3637212  62.86666   0.6574911  
  0.6109369  0.7040453 
925.8      
  0.219      -9999      -9999      4.930374   1.633      3.261      
  1.867      0.8903762  0.1241038  0.1241038  0.3412931  0.5570079  
  1.154419   1.633      0          0.36753    62.87728   0.6581494  
  0.6118557  0.7044431 
925.9      
  0.219      -9999      -9999      4.941416   1.633      3.261      
  1.867      0.888428   0.1247419  0.1247419  0.3423646  0.5723744  
  1.142962   1.633      0          0.369954   62.88074   0.6594627  
  0.6143528  0.7045728 
926        
  0.218      -9999      -9999      4.961044   1.633      3.261      
  1.867      0.8870236  0.1248025  0.1248025  0.343137   0.5738561  
  1.122875   1.633      0          0.370979   62.87674   0.6616197  
  0.6188169  0.7044227 
