~Version
 VERS              .         2.0                           : CWLS LOG ASCII STANDARD - VERSION 2.0
 WRAP              .         YES                            : ONE LINE PER DEPTH STEP
 DLM               .         SPACE                         : DELIMITING CHARACTER(SPACE TAB OR COMMA)
~Well Information
#_______________________________________________________________________________
#
#PARAMETER_NAME    .UNIT     VALUE                         : DESCRIPTION
#_______________________________________________________________________________
STRT               .M        870                           : First reference value
STOP               .M        1250                          : Last reference value
STEP               .M        0.1                           : Step increment
NULL               .         -9999                         : Missing value
COMP               .                                       : Company
WELL               .         1468                          : Well name
FLD                .         Узень                         : Field
LOC                .                                       : Location
CNTY               .                                       : County
STAT               .                                       : State
CTRY               .                                       : Country
SRVC               .         SCH                           : Service Company
DATE               .         03.01.1968                    : Date
UWI                .                                       : Unique Well ID
Block              .         7                             : 
Cartographic_reference_system .         GCS_WGS_1984                  : ESRI,PE_10_3_1- <?xml version="1.0" encoding="utf-16"?><ILateBoundCoordinateReferenceSystem name="GCS_WGS_1984"><AuthorityCode>EPSG,4326</AuthorityCode></ILateBoundCoordinateReferenceSystem>
Category           .         Нефтяная                      : 
Condition          .         В работе                      : 
EREF               .m        85.2                          : 100.8
Gorizont           .         15                            : 14
HZCS               .GCS_WGS_1984 WGS_1984_EASE-Grid_2.0_Global : ESRI,PE_10_3_1- <?xml version="1.0" encoding="utf-16"?><ILateBoundCoordinateReferenceSystem name="WGS_1984_EASE-Grid_2.0_Global"><AuthorityCode>EPSG,6933</AuthorityCode></ILateBoundCoordinateReferenceSystem>
Interpretator      .         Сагынбаева А.Н.               : 
Kupol              .         основной                      : osnovnoi
LATI               .dega     0.6587883963                  : GCS_WGS_1984
LONG               .dega     0.441086545                   : GCS_WGS_1984
Mud                .         глинистый                     : 
Mud_density        .         1,22                          : 
Mud_resistivity    .         0                             : 
NGDU               .         НГДУ-2                        : 
ORIGINALWELLNAME   .         1468                          : 
Spud_date          .         1967                          : 1961
Viscosity          .         40                            : 
X                  .m        42558.8                       : 46154
Y                  .m        84042                         : 85761.93
YEAR               .         2018                          : 
~Parameter Information Block
#_______________________________________________________________________________
#
#PARAMETER_NAME    .UNIT     VALUE                         : DESCRIPTION
#_______________________________________________________________________________
SET                .         LQC_KAZNIPI_Petrel            : 
PBBOTTOM           .M        1286.9                        : Глубина подошвы планшета
PBSCALE            .         1 _ 500                       : Вертикальный масштаб планшета
PBTOP              .M        900                           : Глубина кровли планшета
TLFamily_CALI      .         Caliper                       : 
TLFamily_COLL      .         Net Reservoir Flag            : 
TLFamily_CSAT      .         Fluid Code                    : 
TLFamily_DEPT      .         Measured Depth                : 
TLFamily_GR        .         Russian Gamma Ray             : 
TLFamily_LLS       .         Lateral Log Resistivity       : 
TLFamily_MINV      .         Micro Gradient Resistivity    : 
TLFamily_MNOR      .         Micro Resistivity             : 
TLFamily_NGLD      .         Neutron Gamma                 : 
TLFamily_PHIE      .         Effective Porosity            : 
TLFamily_PHIEN     .         Effective Porosity            : 
TLFamily_PHIT      .         Porosity                      : 
TLFamily_PRMB      .         Permeability                  : 
TLFamily_PRMB_DGR  .         Permeability                  : 
TLFamily_RT        .         Formation Resistivity         : 
TLFamily_SOIL_ARCHIE .         Oil Saturation                : 
TLFamily_SOIL_DW   .         Oil Saturation                : 
TLFamily_SP        .         Spontaneous Potential         : 
TLFamily_VSH_FIN   .         Shale Volume                  : 
TLFamily_VSH_GR    .         Shale Volume                  : 
TLFamily_VSH_SP    .         Shale Volume                  : 
~Curve Information
#_______________________________________________________________________________
#
#LOGNAME           .UNIT     LOG_ID                        : DESCRIPTION
#_______________________________________________________________________________
DEPT               .M                                      : Колонка глубины 
CALI               .м                                      : Каверномер 
COLL               .unitless                               : Описание 
CSAT               .unitless                               :  
GR                 .uR/h                                   : Гамма каротаж 
LLS                .Ohmm                                   : Боковой каротаж 
MINV               .Ohmm                                   : Микро-градиент зонд 
MNOR               .Ohmm                                   : Микро-потенциал зонд 
NGLD               .u.e.                                   : Показания зонда НГК-60 аппаратуры ДРСТ-3-90 
PHIE               .v/v                                    : Описание 
PHIEN              .v/v                                    :  
PHIT               .v/v                                    : Описание 
PRMB               .mD                                     :  
PRMB_DGR           .mD                                     :  
RT                 .ohmm                                   : УЭС пласта 
SOIL_ARCHIE        .v/v                                    :  
SOIL_DW            .v/v                                    :  
SP                 .мВ                                     : Потенциал самополяризации 
VSH_FIN            .v/v                                    : Описание 
VSH_GR             .v/v                                    : Shale volume 
VSH_SP             .v/v                                    : Shale Volume 
~Ascii
# ...
1120.8     
  0.253      -9999      -9999      6.499279   1.305      0.628      
  0.777      0.9311157  0.1792625  0.1792625  0.3188863  5.855099   
  3.031056   1.305      0.1180626  0.3568539  54.07692   0.4231026  
  0.4125373  0.4336678 
1120.9     
  0.25       1          2          6.415902   1.374      0.625      
  0.784      0.9375982  0.1867253  0.1867253  0.315321   8.049414   
  3.451289   1.374      0.1691751  0.3790695  52.12014   0.3896839  
  0.3912356  0.3881322 
1121       
  0.249      1          2          6.342401   1.481      0.632      
  0.788      0.9440001  0.1930043  0.1930043  0.3118     10.52123   
  3.869809   1.481      0.2206794  0.4058035  50.12577   0.3599867  
  0.3733712  0.3466022 
1121.1     
  0.247      1          2          6.281785   1.636      0.658      
  0.796      0.9499049  0.198017   0.198017   0.3085523  13.02906   
  4.25289    1.636      0.2726686  0.4369681  48.18573   0.3349555  
  0.3592539  0.3106571 
1121.2     
  0.245      1          2          6.234766   1.839      0.705      
  0.815      0.9548874  0.2019222  0.2019222  0.3058119  15.3903    
  4.575971   1.839      0.3231266  0.4703489  46.38338   0.3148174  
  0.3486718  0.280963  
1121.3     
  0.242      1          2          6.199791   2.081      0.76       
  0.852      0.9585366  0.2050559  0.2050559  0.3038048  17.59102   
  4.832103   2.081      0.3697869  0.5032836  44.78794   0.2992392  
  0.3410033  0.2574751 
1121.4     
  0.24       1          2          6.173523   2.334      0.812      
  0.906      0.9605063  0.2078368  0.2078368  0.3027215  19.80616   
  5.03386    2.334      0.4097862  0.5325722  43.45109   0.2875294  
  0.3353548  0.239704  
1121.5     
  0.237      1          2          6.151693   2.558      0.852      
  0.967      0.9605688  0.2106703  0.2106703  0.3026871  22.35025   
  5.207928   2.558      0.4412585  0.555953   42.4045    0.278839   
  0.3307318  0.2269463 
1121.6     
  0.235      1          2          6.130138   2.642      0.871      
  1.027      0.9586674  0.213857   0.213857   0.3037329  25.60405   
  5.3857     2.642      0.4568156  0.5666409  41.6609    0.2723513  
  0.3262298  0.2184728 
1121.7     
  0.232      1          2          6.105806   2.726      0.876      
  1.082      0.9549388  0.2175314  0.2175314  0.3057836  29.94802   
  5.593688   2.726      0.4726186  0.5780283  41.21695   0.2674309  
  0.3212211  0.2136408 
1121.8     
  0.229      1          2          6.077446   2.827      0.883      
  1.129      0.949699   0.2216414  0.2216414  0.3086655  35.68573   
  5.846257   2.827      0.489929   0.5910836  41.0568    0.2637095  
  0.3154804  0.2119386 
1121.9     
  0.228      1          2          6.045793   2.849      0.889      
  1.161      0.9433893  0.2259793  0.2259793  0.3121359  42.93819   
  6.141645   2.849      0.5002886  0.5985588  41.15378   0.2610804  
  0.3091941  0.2129668 
1122       
  0.226      1          2          6.013156   2.809      0.895      
  1.177      0.9364922  0.2302506  0.2302506  0.3159293  51.51792   
  6.461852   2.809      0.5050992  0.6016629  41.47427   0.2596323  
  0.3028435  0.2164211 
1122.1     
  0.226      1          2          5.982571   2.731      0.906      
  1.182      0.9294411  0.2341636  0.2341636  0.3198074  60.87447   
  6.777063   2.731      0.5058222  0.6016822  41.97936   0.2595268  
  0.2970107  0.2220428 
1122.2     
  0.227      1          2          5.95677    2.627      0.914      
  1.173      0.9225494  0.2375048  0.2375048  0.3235978  70.19787   
  7.054893   2.627      0.5029081  0.5990284  42.62884   0.2608879  
  0.2921778  0.229598  
1122.3     
  0.227      1          2          5.937289   2.499      0.912      
  1.15       0.9159822  0.2401863  0.2401863  0.3272098  78.70292   
  7.272194   2.499      0.49607    0.5934472  43.38226   0.2637076  
  0.2885808  0.2388344 
1122.4     
  0.229      1          2          5.924044   2.359      0.906      
  1.122      0.9097748  0.2422456  0.2422456  0.3306239  85.92809   
  7.423752   2.359      0.4860859  0.5855614  44.20107   0.2678128  
  0.2861604  0.2494652 
1122.5     
  0.232      1          2          5.915539   2.224      0.9        
  1.087      0.9038915  0.2437975  0.2437975  0.3338597  91.80783   
  7.522719   2.224      0.4746061  0.5767168  45.05384   0.2729156  
  0.2846171  0.2612141 
1122.6     
  0.234      1          2          5.909657   2.108      0.892      
  1.05       0.8982996  0.2449626  0.2449626  0.3369352  96.48518   
  7.591946   2.108      0.4634643  0.5684084  45.9185    0.2787048  
  0.2835546  0.2738551 
1122.7     
  0.236      1          2          5.90472    2.021      0.892      
  1.022      0.8930227  0.2457988  0.2457988  0.3398375  99.98799   
  7.650533   2.021      0.4543687  0.5620446  46.78394   0.2849658  
  0.2826658  0.2872658 
1122.8     
  0.238      1          2          5.900496   1.979      0.922      
  1.009      0.8881665  0.2462591  0.2462591  0.3425084  101.9705   
  7.701024   1.979      0.4498622  0.5597893  47.64718   0.2916645  
  0.2819077  0.3014213 
1122.9     
  0.24       -9999      -9999      5.898714   1.98       0.99       
  1.01       0.8838938  0.2461944  0.2461944  0.3448584  101.6894   
  7.722432   1.98       0.4498667  0.561615   48.51025   0.2989818  
  0.2815883  0.3163753 
1123       
  0.242      -9999      -9999      5.902902   1.986      1.066      
  1.014      0.8803721  0.2453943  0.2453943  0.3467954  98.27779   
  7.672232   1.986      0.4490875  0.5631289  49.37644   0.307276   
  0.2823392  0.3322128 
1123.1     
  0.247      -9999      -9999      5.917579   1.971      1.119      
  1.001      0.8777122  0.2436533  0.2436533  0.3482583  91.245     
  7.498866   1.971      0.443685   0.5612692  50.24657   0.3169846  
  0.2849865  0.3489828 
1123.2     
  0.253      -9999      -9999      5.947033   1.923      1.142      
  0.957      0.8759254  0.2408378  0.2408378  0.349241   80.92046   
  7.162684   1.923      0.4314854  0.5544407  51.11554   0.3284946  
  0.2903743  0.3666149 
1123.3     
  0.262      -9999      -9999      5.994148   1.836      1.103      
  0.88       0.8749167  0.2369228  0.2369228  0.3497958  68.47688   
  6.655986   1.836      0.4106461  0.5413634  51.97163   0.3420392  
  0.2992052  0.3848733 
1123.4     
  0.274      -9999      -9999      6.059629   1.729      0.98       
  0.776      0.8745134  0.2319938  0.2319938  0.3500176  55.49406   
  6.010731   1.729      0.3826013  0.5234891  52.7986    0.3576478  
  0.3119264  0.4033692 
1123.5     
  0.28       -9999      -9999      6.141857   1.636      0.83       
  0.67       0.8745278  0.2262155  0.2262155  0.3500097  43.37279   
  5.288313   1.636      0.3522998  0.5050767  53.57827   0.3751341  
  0.3286697  0.4215984 
1123.6     
  0.287      -9999      -9999      6.237339   1.576      0.711      
  0.593      0.874817   0.2197847  0.2197847  0.3498507  32.96881   
  4.557665   1.576      0.3240767  0.4896885  54.29448   0.3941393  
  0.3492429  0.4390357 
1123.7     
  0.298      -9999      -9999      6.341528   1.559      0.621      
  0.552      0.8753386  0.2128844  0.2128844  0.3495638  24.56369   
  3.875076   1.559      0.3014887  0.480034   54.93473   0.41418    
  0.373164   0.455196  
1123.8     
  0.307      -9999      -9999      6.449668   1.58       0.573      
  0.548      0.8761619  0.2056503  0.2056503  0.3491109  18.04266   
  3.274503   1.58       0.2846419  0.475908   55.49286   0.4347292  
  0.3997266  0.4697318 
1123.9     
  0.315      -9999      -9999      6.557415   1.621      0.578      
  0.573      0.8774518  0.198162   0.198162   0.3484015  13.1099    
  2.768703   1.621      0.2699836  0.4742609  55.96906   0.4552711  
  0.4280731  0.4824692 
1124       
  0.321      -9999      -9999      6.661074   1.644      0.608      
  0.607      0.8794088  0.1904695  0.1904695  0.3473251  9.443105   
  2.355983   1.644      0.2493503  0.4687507  56.36872   0.4753202  
  0.4572396  0.4934008 
