~Version
 VERS              .         2.0                           : CWLS LOG ASCII STANDARD - VERSION 2.0
 WRAP              .         YES                            : ONE LINE PER DEPTH STEP
 DLM               .         SPACE                         : DELIMITING CHARACTER(SPACE TAB OR COMMA)
~Well Information
#_______________________________________________________________________________
#
#PARAMETER_NAME    .UNIT     VALUE                         : DESCRIPTION
#_______________________________________________________________________________
STRT               .M        870                           : First reference value
STOP               .M        1250                          : Last reference value
STEP               .M        0.1                           : Step increment
NULL               .         -9999                         : Missing value
COMP               .                                       : Company
WELL               .         1468                          : Well name
FLD                .         Узень                         : Field
LOC                .                                       : Location
CNTY               .                                       : County
STAT               .                                       : State
CTRY               .                                       : Country
SRVC               .         SCH                           : Service Company
DATE               .         03.01.1968                    : Date
UWI                .                                       : Unique Well ID
Block              .         7                             : 
Cartographic_reference_system .         GCS_WGS_1984                  : ESRI,PE_10_3_1- <?xml version="1.0" encoding="utf-16"?><ILateBoundCoordinateReferenceSystem name="GCS_WGS_1984"><AuthorityCode>EPSG,4326</AuthorityCode></ILateBoundCoordinateReferenceSystem>
Category           .         Нефтяная                      : 
Condition          .         В работе                      : 
EREF               .m        85.2                          : 100.8
Gorizont           .         15                            : 14
HZCS               .GCS_WGS_1984 WGS_1984_EASE-Grid_2.0_Global : ESRI,PE_10_3_1- <?xml version="1.0" encoding="utf-16"?><ILateBoundCoordinateReferenceSystem name="WGS_1984_EASE-Grid_2.0_Global"><AuthorityCode>EPSG,6933</AuthorityCode></ILateBoundCoordinateReferenceSystem>
Interpretator      .         Сагынбаева А.Н.               : 
Kupol              .         основной                      : osnovnoi
LATI               .dega     0.6587883963                  : GCS_WGS_1984
LONG               .dega     0.441086545                   : GCS_WGS_1984
Mud                .         глинистый                     : 
Mud_density        .         1,22                          : 
Mud_resistivity    .         0                             : 
NGDU               .         НГДУ-2                        : 
ORIGINALWELLNAME   .         1468                          : 
Spud_date          .         1967                          : 1961
Viscosity          .         40                            : 
X                  .m        42558.8                       : 46154
Y                  .m        84042                         : 85761.93
YEAR               .         2018                          : 
~Parameter Information Block
#_______________________________________________________________________________
#
#PARAMETER_NAME    .UNIT     VALUE                         : DESCRIPTION
#_______________________________________________________________________________
SET                .         LQC_KAZNIPI_Petrel            : 
PBBOTTOM           .M        1286.9                        : Глубина подошвы планшета
PBSCALE            .         1 _ 500                       : Вертикальный масштаб планшета
PBTOP              .M        900                           : Глубина кровли планшета
TLFamily_CALI      .         Caliper                       : 
TLFamily_COLL      .         Net Reservoir Flag            : 
TLFamily_CSAT      .         Fluid Code                    : 
TLFamily_DEPT      .         Measured Depth                : 
TLFamily_GR        .         Russian Gamma Ray             : 
TLFamily_LLS       .         Lateral Log Resistivity       : 
TLFamily_MINV      .         Micro Gradient Resistivity    : 
TLFamily_MNOR      .         Micro Resistivity             : 
TLFamily_NGLD      .         Neutron Gamma                 : 
TLFamily_PHIE      .         Effective Porosity            : 
TLFamily_PHIEN     .         Effective Porosity            : 
TLFamily_PHIT      .         Porosity                      : 
TLFamily_PRMB      .         Permeability                  : 
TLFamily_PRMB_DGR  .         Permeability                  : 
TLFamily_RT        .         Formation Resistivity         : 
TLFamily_SOIL_ARCHIE .         Oil Saturation                : 
TLFamily_SOIL_DW   .         Oil Saturation                : 
TLFamily_SP        .         Spontaneous Potential         : 
TLFamily_VSH_FIN   .         Shale Volume                  : 
TLFamily_VSH_GR    .         Shale Volume                  : 
TLFamily_VSH_SP    .         Shale Volume                  : 
~Curve Information
#_______________________________________________________________________________
#
#LOGNAME           .UNIT     LOG_ID                        : DESCRIPTION
#_______________________________________________________________________________
DEPT               .M                                      : Колонка глубины 
CALI               .м                                      : Каверномер 
COLL               .unitless                               : Описание 
CSAT               .unitless                               :  
GR                 .uR/h                                   : Гамма каротаж 
LLS                .Ohmm                                   : Боковой каротаж 
MINV               .Ohmm                                   : Микро-градиент зонд 
MNOR               .Ohmm                                   : Микро-потенциал зонд 
NGLD               .u.e.                                   : Показания зонда НГК-60 аппаратуры ДРСТ-3-90 
PHIE               .v/v                                    : Описание 
PHIEN              .v/v                                    :  
PHIT               .v/v                                    : Описание 
PRMB               .mD                                     :  
PRMB_DGR           .mD                                     :  
RT                 .ohmm                                   : УЭС пласта 
SOIL_ARCHIE        .v/v                                    :  
SOIL_DW            .v/v                                    :  
SP                 .мВ                                     : Потенциал самополяризации 
VSH_FIN            .v/v                                    : Описание 
VSH_GR             .v/v                                    : Shale volume 
VSH_SP             .v/v                                    : Shale Volume 
~Ascii
# ...
1044.9     
  0.316      -9999      -9999      5.553423   1.434      0.896      
  0.883      0.8841328  0.1785518  0.1785518  0.3447269  5.680296   
  1.771262   1.434      0.1533006  0.4139889  55.14433   0.503561   
  0.5137265  0.4933955 
1045       
  0.309      -9999      -9999      5.653641   1.424      0.869      
  0.861      0.8817823  0.1769437  0.1769437  0.3460197  5.303771   
  1.633254   1.424      0.1437954  0.4112256  55.15446   0.5123516  
  0.5310277  0.4936755 
1045.1     
  0.301      -9999      -9999      5.745406   1.419      0.863      
  0.844      0.8803964  0.1749119  0.1749119  0.346782   4.863524   
  1.516338   1.419      0.1337109  0.408356   55.17547   0.5208184  
  0.5473803  0.4942564 
1045.2     
  0.291      -9999      -9999      5.822999   1.418      0.873      
  0.834      0.8801187  0.1725679  0.1725679  0.3469347  4.400836   
  1.424033   1.418      0.1231816  0.4052303  55.2084    0.5283841  
  0.5615997  0.4951685 
1045.3     
  0.284      -9999      -9999      5.88219    1.426      0.901      
  0.833      0.8810359  0.1700276  0.1700276  0.3464303  3.948948   
  1.357416   1.426      0.1141245  0.4029846  55.25323   0.5345536  
  0.5726945  0.4964125 
1045.4     
  0.28       -9999      -9999      5.920552   1.446      0.945      
  0.845      0.8831792  0.1673891  0.1673891  0.3452514  3.52867    
  1.315915   1.446      0.1078254  0.4023164  55.30854   0.5389767  
  0.5800021  0.4979513 
1045.5     
  0.278      -9999      -9999      5.937577   1.485      0.989      
  0.858      0.8865114  0.1647272  0.1647272  0.3434187  3.149961   
  1.297905   1.485      0.1065102  0.4046448  55.37136   0.5414895  
  0.5832749  0.499704  
1045.6     
  0.28       -9999      -9999      5.934581   1.554      1.043      
  0.879      0.890913   0.1620966  0.1620966  0.3409979  2.815656   
  1.301057   1.554      0.1130016  0.411866   55.4374    0.5421252  
  0.5826975  0.5015529 
1045.7     
  0.283      -9999      -9999      5.914487   1.648      1.127      
  0.913      0.896174   0.1595432  0.1595432  0.3381043  2.525135   
  1.32239    1.648      0.125098   0.4223877  55.50132   0.5410943  
  0.5788406  0.5033481 
1045.8     
  0.286      -9999      -9999      5.881508   1.699      1.254      
  0.969      0.901998   0.1571158  0.1571158  0.3349011  2.27679    
  1.358165   1.699      0.1259276  0.4244159  55.55719   0.5387435  
  0.5725654  0.5049216 
1045.9     
  0.289      -9999      -9999      5.840732   1.749      1.449      
  1.065      0.9080184  0.1548744  0.1548744  0.3315899  2.069226   
  1.403739   1.749      0.1268856  0.4260762  55.599     0.5355015  
  0.5649008  0.5061022 
1046       
  0.291      -9999      -9999      5.797616   1.849      1.7        
  1.195      0.9138301  0.1528928  0.1528928  0.3283934  1.901531   
  1.453593   1.849      0.1397776  0.4356982  55.62128   0.5318202  
  0.5569077  0.5067326 
1046.1     
  0.292      -9999      -9999      5.757367   1.927      1.953      
  1.325      0.9190227  0.1512586  0.1512586  0.3255375  1.773515   
  1.501728   1.927      0.148363   0.4419638  55.61967   0.5281178  
  0.5495485  0.506687  
1046.2     
  0.292      -9999      -9999      5.724279   1.969      2.155      
  1.447      0.9232221  0.150067   0.150067   0.3232278  1.685633   
  1.542491   1.969      0.1511088  0.443837   55.59142   0.5247298  
  0.5435714  0.5058881 
1046.3     
  0.291      -9999      -9999      5.701173   1.999      2.255      
  1.544      0.9261265  0.1494105  0.1494105  0.3216304  1.639093   
  1.571611   1.999      0.1538865  0.4454041  55.53588   0.5218785  
  0.539436   0.504321  
1046.4     
  0.289      -9999      -9999      5.689139   2.032      2.253      
  1.583      0.9275349  0.1493662  0.1493662  0.3208558  1.635997   
  1.586994   2.032      0.1601457  0.4490382  55.45463   0.5196654  
  0.5372947  0.5020362 
1046.5     
  0.287      -9999      -9999      5.687622   2.077      2.231      
  1.591      0.9273775  0.1499742  0.1499742  0.3209424  1.678976   
  1.588944   2.077      0.1716701  0.455967   55.35135   0.5180852  
  0.5370255  0.499145  
1046.6     
  0.284      -9999      -9999      5.694899   2.132      2.21       
  1.597      0.9257299  0.151219   0.151219   0.3218485  1.770517   
  1.579612   2.132      0.1876363  0.4656446  55.23117   0.5170593  
  0.5383185  0.4958001 
1046.7     
  0.282      -9999      -9999      5.708827   2.179      2.191      
  1.579      0.922807   0.1530157  0.1530157  0.3234561  1.911528   
  1.561905   2.179      0.2041363  0.4754256  55.09992   0.516486   
  0.5408023  0.4921698 
1046.8     
  0.281      -9999      -9999      5.727606   2.196      2.233      
  1.536      0.9189397  0.1552072  0.1552072  0.3255832  2.098802   
  1.538342   2.196      0.2167937  0.4823826  54.96315   0.516291   
  0.5441694  0.4884125 
1046.9     
  0.281      -9999      -9999      5.750321   2.174      2.28       
  1.49       0.9145303  0.1575746  0.1575746  0.3280083  2.321785   
  1.510317   2.174      0.2233915  0.4851302  54.82566   0.5164658  
  0.5482702  0.4846613 
1047       
  0.283      -9999      -9999      5.777109   2.111      2.226      
  1.433      0.9099911  0.1598676  0.1598676  0.3305049  2.560314   
  1.477922   2.111      0.2224457  0.4828053  54.69125   0.5170828  
  0.5531459  0.4810197 
1047.1     
  0.286      -9999      -9999      5.808874   2.028      2.137      
  1.373      0.9056841  0.1618423  0.1618423  0.3328737  2.785293   
  1.440407   2.028      0.2160981  0.4771086  54.56307   0.5182769  
  0.5589839  0.4775699 
1047.2     
  0.291      -9999      -9999      5.846644   1.959      2.084      
  1.34       0.9018722  0.163305   0.163305   0.3349703  2.964576   
  1.397037   1.959      0.2094791  0.4718581  54.44416   0.5201979  
  0.5660057  0.4743899 
1047.3     
  0.296      -9999      -9999      5.890759   1.913      2.028      
  1.334      0.8986975  0.164145   0.164145   0.3367164  3.072712   
  1.348034   1.913      0.2041794  0.4683036  54.33804   0.5229436  
  0.5743188  0.4715683 
1047.4     
  0.3        -9999      -9999      5.940222   1.884      2.003      
  1.345      0.8961813  0.1643562  0.1643562  0.3381003  3.100514   
  1.295129   1.884      0.1993514  0.4658459  54.24887   0.5264971  
  0.583785   0.4692092 
1047.5     
  0.303      -9999      -9999      5.992445   1.875      2.069      
  1.371      0.8942476  0.164037   0.164037   0.3391638  3.058596   
  1.241525   1.875      0.1961906  0.4652079  54.18118   0.5306872  
  0.5939487  0.4674257 
1047.6     
  0.304      -9999      -9999      6.043472   1.875      2.166      
  1.394      0.892763   0.163369   0.163369   0.3399804  2.972677   
  1.191292   1.875      0.1933285  0.4651721  54.13916   0.5351861  
  0.6040506  0.4663216 
1047.7     
  0.303      -9999      -9999      6.088656   1.863      2.243      
  1.404      0.8915773  0.1625804  0.1625804  0.3406325  2.874359   
  1.14851    1.863      0.1874773  0.4631014  54.12555   0.5395519  
  0.6131392  0.4659644 
1047.8     
  0.303      -9999      -9999      6.123608   1.832      2.302      
  1.403      0.8905538  0.161901   0.161901   0.3411954  2.792271   
  1.116474   1.832      0.178062   0.458271   54.14098   0.5433163  
  0.6202632  0.4663694 
1047.9     
  0.302      -9999      -9999      6.145071   1.785      2.307      
  1.382      0.8895964  0.1615154  0.1615154  0.341722   2.74673    
  1.097245   1.785      0.1662466  0.4512139  54.18333   0.5460804  
  0.6246788  0.4674821 
1048       
  0.301      -9999      -9999      6.151458   1.723      2.229      
  1.339      0.8886639  0.1615304  0.1615304  0.3422348  2.74848    
  1.091587   1.723      0.1523682  0.4419669  54.24776   0.5475894  
  0.6259989  0.4691798 
1048.1     
  0.3        -9999      -9999      6.14295    1.651      2.103      
  1.283      0.8877769  0.1619613  0.1619613  0.3427227  2.799457   
  1.099131   1.651      0.1372224  0.4310079  54.32727   0.547762   
  0.6242411  0.4712829 
