~Version
 VERS              .         2.0                           : CWLS LOG ASCII STANDARD - VERSION 2.0
 WRAP              .         YES                            : ONE LINE PER DEPTH STEP
 DLM               .         SPACE                         : DELIMITING CHARACTER(SPACE TAB OR COMMA)
~Well Information
#_______________________________________________________________________________
#
#PARAMETER_NAME    .UNIT     VALUE                         : DESCRIPTION
#_______________________________________________________________________________
STRT               .M        870                           : First reference value
STOP               .M        1250                          : Last reference value
STEP               .M        0.1                           : Step increment
NULL               .         -9999                         : Missing value
COMP               .                                       : Company
WELL               .         1468                          : Well name
FLD                .         Узень                         : Field
LOC                .                                       : Location
CNTY               .                                       : County
STAT               .                                       : State
CTRY               .                                       : Country
SRVC               .         SCH                           : Service Company
DATE               .         03.01.1968                    : Date
UWI                .                                       : Unique Well ID
Block              .         7                             : 
Cartographic_reference_system .         GCS_WGS_1984                  : ESRI,PE_10_3_1- <?xml version="1.0" encoding="utf-16"?><ILateBoundCoordinateReferenceSystem name="GCS_WGS_1984"><AuthorityCode>EPSG,4326</AuthorityCode></ILateBoundCoordinateReferenceSystem>
Category           .         Нефтяная                      : 
Condition          .         В работе                      : 
EREF               .m        85.2                          : 100.8
Gorizont           .         15                            : 14
HZCS               .GCS_WGS_1984 WGS_1984_EASE-Grid_2.0_Global : ESRI,PE_10_3_1- <?xml version="1.0" encoding="utf-16"?><ILateBoundCoordinateReferenceSystem name="WGS_1984_EASE-Grid_2.0_Global"><AuthorityCode>EPSG,6933</AuthorityCode></ILateBoundCoordinateReferenceSystem>
Interpretator      .         Сагынбаева А.Н.               : 
Kupol              .         основной                      : osnovnoi
LATI               .dega     0.6587883963                  : GCS_WGS_1984
LONG               .dega     0.441086545                   : GCS_WGS_1984
Mud                .         глинистый                     : 
Mud_density        .         1,22                          : 
Mud_resistivity    .         0                             : 
NGDU               .         НГДУ-2                        : 
ORIGINALWELLNAME   .         1468                          : 
Spud_date          .         1967                          : 1961
Viscosity          .         40                            : 
X                  .m        42558.8                       : 46154
Y                  .m        84042                         : 85761.93
YEAR               .         2018                          : 
~Parameter Information Block
#_______________________________________________________________________________
#
#PARAMETER_NAME    .UNIT     VALUE                         : DESCRIPTION
#_______________________________________________________________________________
SET                .         LQC_KAZNIPI_Petrel            : 
PBBOTTOM           .M        1286.9                        : Глубина подошвы планшета
PBSCALE            .         1 _ 500                       : Вертикальный масштаб планшета
PBTOP              .M        900                           : Глубина кровли планшета
TLFamily_CALI      .         Caliper                       : 
TLFamily_COLL      .         Net Reservoir Flag            : 
TLFamily_CSAT      .         Fluid Code                    : 
TLFamily_DEPT      .         Measured Depth                : 
TLFamily_GR        .         Russian Gamma Ray             : 
TLFamily_LLS       .         Lateral Log Resistivity       : 
TLFamily_MINV      .         Micro Gradient Resistivity    : 
TLFamily_MNOR      .         Micro Resistivity             : 
TLFamily_NGLD      .         Neutron Gamma                 : 
TLFamily_PHIE      .         Effective Porosity            : 
TLFamily_PHIEN     .         Effective Porosity            : 
TLFamily_PHIT      .         Porosity                      : 
TLFamily_PRMB      .         Permeability                  : 
TLFamily_PRMB_DGR  .         Permeability                  : 
TLFamily_RT        .         Formation Resistivity         : 
TLFamily_SOIL_ARCHIE .         Oil Saturation                : 
TLFamily_SOIL_DW   .         Oil Saturation                : 
TLFamily_SP        .         Spontaneous Potential         : 
TLFamily_VSH_FIN   .         Shale Volume                  : 
TLFamily_VSH_GR    .         Shale Volume                  : 
TLFamily_VSH_SP    .         Shale Volume                  : 
~Curve Information
#_______________________________________________________________________________
#
#LOGNAME           .UNIT     LOG_ID                        : DESCRIPTION
#_______________________________________________________________________________
DEPT               .M                                      : Колонка глубины 
CALI               .м                                      : Каверномер 
COLL               .unitless                               : Описание 
CSAT               .unitless                               :  
GR                 .uR/h                                   : Гамма каротаж 
LLS                .Ohmm                                   : Боковой каротаж 
MINV               .Ohmm                                   : Микро-градиент зонд 
MNOR               .Ohmm                                   : Микро-потенциал зонд 
NGLD               .u.e.                                   : Показания зонда НГК-60 аппаратуры ДРСТ-3-90 
PHIE               .v/v                                    : Описание 
PHIEN              .v/v                                    :  
PHIT               .v/v                                    : Описание 
PRMB               .mD                                     :  
PRMB_DGR           .mD                                     :  
RT                 .ohmm                                   : УЭС пласта 
SOIL_ARCHIE        .v/v                                    :  
SOIL_DW            .v/v                                    :  
SP                 .мВ                                     : Потенциал самополяризации 
VSH_FIN            .v/v                                    : Описание 
VSH_GR             .v/v                                    : Shale volume 
VSH_SP             .v/v                                    : Shale Volume 
~Ascii
# ...
873.3      
  0.312      -9999      -9999      5.937638   1.633      3.261      
  1.867      0.9599774  -9999      -9999      -9999      -9999      
  -9999      1.633      -9999      -9999      55.19735   -9999      
  0.0522573  0.8       
873.4      
  0.317      -9999      -9999      6.051249   1.633      3.261      
  1.867      0.9540339  -9999      -9999      -9999      -9999      
  -9999      1.633      -9999      -9999      55.22837   -9999      
  0.05882065 0.8       
873.5      
  0.319      -9999      -9999      6.169713   1.633      3.261      
  1.867      0.9500328  -9999      -9999      -9999      -9999      
  -9999      1.633      -9999      -9999      55.23586   -9999      
  0.06736906 0.8       
873.6      
  0.317      -9999      -9999      6.286292   1.633      3.261      
  1.867      0.948292   -9999      -9999      -9999      -9999      
  -9999      1.633      -9999      -9999      55.22459   -9999      
  0.07685097 0.8       
873.7000000000001 
  0.311      -9999      -9999      6.393765   1.633      3.261      
  1.867      0.9488125  -9999      -9999      -9999      -9999      
  -9999      1.633      -9999      -9999      55.1991    -9999      
  0.08575477 0.8       
873.8      
  0.303      -9999      -9999      6.485566   1.633      3.261      
  1.867      0.9512703  -9999      -9999      -9999      -9999      
  -9999      1.633      -9999      -9999      55.16355   -9999      
  0.09260677 0.8       
873.9      
  0.293      -9999      -9999      6.556643   1.633      3.261      
  1.867      0.9550609  -9999      -9999      -9999      -9999      
  -9999      1.633      -9999      -9999      55.12158   -9999      
  0.09652531 0.8       
874        
  0.285      -9999      -9999      6.603873   1.633      3.261      
  1.867      0.9593882  -9999      -9999      -9999      -9999      
  -9999      1.633      -9999      -9999      55.0763    -9999      
  0.09861223 0.8       
874.1      
  0.282      -9999      -9999      6.626154   1.633      3.261      
  1.867      0.9633684  -9999      -9999      -9999      -9999      
  -9999      1.633      -9999      -9999      55.0303    -9999      
  0.1000062  0.8       
874.2000000000001 
  0.282      -9999      -9999      6.624366   1.633      3.261      
  1.867      0.9661562  -9999      -9999      -9999      -9999      
  -9999      1.633      -9999      -9999      54.98561   -9999      
  0.10014    0.8       
874.3      
  0.286      -9999      -9999      6.60127    1.633      3.261      
  1.867      0.9670612  -9999      -9999      -9999      -9999      
  -9999      1.633      -9999      -9999      54.94383   -9999      
  0.0978898  0.8       
874.4      
  0.293      -9999      -9999      6.561429   1.633      3.261      
  1.867      0.9656592  -9999      -9999      -9999      -9999      
  -9999      1.633      -9999      -9999      54.90599   -9999      
  0.09335256 0.8       
874.5      
  0.3        -9999      -9999      6.511055   1.633      3.261      
  1.867      0.9618596  -9999      -9999      -9999      -9999      
  -9999      1.633      -9999      -9999      54.87268   -9999      
  0.0867928  0.8       
874.6      
  0.306      -9999      -9999      6.457551   1.633      3.261      
  1.867      0.9559225  -9999      -9999      -9999      -9999      
  -9999      1.633      -9999      -9999      54.84419   -9999      
  0.07951602 0.8       
874.7000000000001 
  0.312      -9999      -9999      6.408711   1.633      3.261      
  1.867      0.9484117  -9999      -9999      -9999      -9999      
  -9999      1.633      -9999      -9999      54.82063   -9999      
  0.07299554 0.8       
874.8      
  0.316      -9999      -9999      6.371688   1.633      3.261      
  1.867      0.9401132  -9999      -9999      -9999      -9999      
  -9999      1.633      -9999      -9999      54.80206   -9999      
  0.06850432 0.8       
874.9      
  0.317      -9999      -9999      6.351955   1.633      3.261      
  1.867      0.9319155  -9999      -9999      -9999      -9999      
  -9999      1.633      -9999      -9999      54.78857   -9999      
  0.06687554 0.8       
875        
  0.315      -9999      -9999      6.352487   1.633      3.261      
  1.867      0.924702   -9999      -9999      -9999      -9999      
  -9999      1.633      -9999      -9999      54.78026   -9999      
  0.0675043  0.8       
875.1      
  0.309      -9999      -9999      6.373392   1.633      3.261      
  1.867      0.9192397  -9999      -9999      -9999      -9999      
  -9999      1.633      -9999      -9999      54.77712   -9999      
  0.06998542 0.8       
875.2000000000001 
  0.299      -9999      -9999      6.412084   1.633      3.261      
  1.867      0.9160994  -9999      -9999      -9999      -9999      
  -9999      1.633      -9999      -9999      54.77901   -9999      
  0.07422561 0.8       
875.3      
  0.286      -9999      -9999      6.463897   1.633      3.261      
  1.867      0.915607   -9999      -9999      -9999      -9999      
  -9999      1.633      -9999      -9999      54.78552   -9999      
  0.07956918 0.8       
875.4      
  0.273      -9999      -9999      6.522918   1.633      3.261      
  1.867      0.9177997  -9999      -9999      -9999      -9999      
  -9999      1.633      -9999      -9999      54.79601   -9999      
  0.08518349 0.8       
875.5      
  0.264      -9999      -9999      6.582908   1.633      3.261      
  1.867      0.9224138  -9999      -9999      -9999      -9999      
  -9999      1.633      -9999      -9999      54.80959   -9999      
  0.0911939  0.8       
875.6      
  0.259      -9999      -9999      6.638198   1.633      3.261      
  1.867      0.9289107  -9999      -9999      -9999      -9999      
  -9999      1.633      -9999      -9999      54.82529   -9999      
  0.09723767 0.8       
875.7000000000001 
  0.258      -9999      -9999      6.684378   1.633      3.261      
  1.867      0.9365475  -9999      -9999      -9999      -9999      
  -9999      1.633      -9999      -9999      54.84203   -9999      
  0.1016915  0.8       
875.8      
  0.262      -9999      -9999      6.71873    1.633      3.261      
  1.867      0.9444775  -9999      -9999      -9999      -9999      
  -9999      1.633      -9999      -9999      54.85865   -9999      
  0.1039595  0.8       
875.9      
  0.267      -9999      -9999      6.74037    1.633      3.261      
  1.867      0.9518843  -9999      -9999      -9999      -9999      
  -9999      1.633      -9999      -9999      54.87396   -9999      
  0.104517   0.8       
876        
  0.272      -9999      -9999      6.750071   1.633      3.261      
  1.867      0.9581081  -9999      -9999      -9999      -9999      
  -9999      1.633      -9999      -9999      54.8866    -9999      
  0.103336   0.8       
876.1      
  0.277      -9999      -9999      6.749773   1.633      3.261      
  1.867      0.96275    -9999      -9999      -9999      -9999      
  -9999      1.633      -9999      -9999      54.89521   -9999      
  0.1005424  0.8       
876.2000000000001 
  0.279      -9999      -9999      6.741913   1.633      3.261      
  1.867      0.9657151  -9999      -9999      -9999      -9999      
  -9999      1.633      -9999      -9999      54.89834   -9999      
  0.09782439 0.8       
876.3      
  0.282      -9999      -9999      6.728771   1.633      3.261      
  1.867      0.967195   -9999      -9999      -9999      -9999      
  -9999      1.633      -9999      -9999      54.89454   -9999      
  0.09646081 0.8       
876.4      
  0.284      -9999      -9999      6.711982   1.633      3.261      
  1.867      0.9675912  -9999      -9999      -9999      -9999      
  -9999      1.633      -9999      -9999      54.88245   -9999      
  0.09581817 0.8       
876.5      
  0.287      -9999      -9999      6.692307   1.633      3.261      
  1.867      0.9673916  -9999      -9999      -9999      -9999      
  -9999      1.633      -9999      -9999      54.86098   -9999      
  0.09530716 0.8       
