~Version
 VERS              .         2.0                           : CWLS LOG ASCII STANDARD - VERSION 2.0
 WRAP              .         YES                            : ONE LINE PER DEPTH STEP
 DLM               .         SPACE                         : DELIMITING CHARACTER(SPACE TAB OR COMMA)
~Well Information
#_______________________________________________________________________________
#
#PARAMETER_NAME    .UNIT     VALUE                         : DESCRIPTION
#_______________________________________________________________________________
STRT               .M        870                           : First reference value
STOP               .M        1250                          : Last reference value
STEP               .M        0.1                           : Step increment
NULL               .         -9999                         : Missing value
COMP               .                                       : Company
WELL               .         1468                          : Well name
FLD                .         Узень                         : Field
LOC                .                                       : Location
CNTY               .                                       : County
STAT               .                                       : State
CTRY               .                                       : Country
SRVC               .         SCH                           : Service Company
DATE               .         03.01.1968                    : Date
UWI                .                                       : Unique Well ID
Block              .         7                             : 
Cartographic_reference_system .         GCS_WGS_1984                  : ESRI,PE_10_3_1- <?xml version="1.0" encoding="utf-16"?><ILateBoundCoordinateReferenceSystem name="GCS_WGS_1984"><AuthorityCode>EPSG,4326</AuthorityCode></ILateBoundCoordinateReferenceSystem>
Category           .         Нефтяная                      : 
Condition          .         В работе                      : 
EREF               .m        85.2                          : 100.8
Gorizont           .         15                            : 14
HZCS               .GCS_WGS_1984 WGS_1984_EASE-Grid_2.0_Global : ESRI,PE_10_3_1- <?xml version="1.0" encoding="utf-16"?><ILateBoundCoordinateReferenceSystem name="WGS_1984_EASE-Grid_2.0_Global"><AuthorityCode>EPSG,6933</AuthorityCode></ILateBoundCoordinateReferenceSystem>
Interpretator      .         Сагынбаева А.Н.               : 
Kupol              .         основной                      : osnovnoi
LATI               .dega     0.6587883963                  : GCS_WGS_1984
LONG               .dega     0.441086545                   : GCS_WGS_1984
Mud                .         глинистый                     : 
Mud_density        .         1,22                          : 
Mud_resistivity    .         0                             : 
NGDU               .         НГДУ-2                        : 
ORIGINALWELLNAME   .         1468                          : 
Spud_date          .         1967                          : 1961
Viscosity          .         40                            : 
X                  .m        42558.8                       : 46154
Y                  .m        84042                         : 85761.93
YEAR               .         2018                          : 
~Parameter Information Block
#_______________________________________________________________________________
#
#PARAMETER_NAME    .UNIT     VALUE                         : DESCRIPTION
#_______________________________________________________________________________
SET                .         LQC_KAZNIPI_Petrel            : 
PBBOTTOM           .M        1286.9                        : Глубина подошвы планшета
PBSCALE            .         1 _ 500                       : Вертикальный масштаб планшета
PBTOP              .M        900                           : Глубина кровли планшета
TLFamily_CALI      .         Caliper                       : 
TLFamily_COLL      .         Net Reservoir Flag            : 
TLFamily_CSAT      .         Fluid Code                    : 
TLFamily_DEPT      .         Measured Depth                : 
TLFamily_GR        .         Russian Gamma Ray             : 
TLFamily_LLS       .         Lateral Log Resistivity       : 
TLFamily_MINV      .         Micro Gradient Resistivity    : 
TLFamily_MNOR      .         Micro Resistivity             : 
TLFamily_NGLD      .         Neutron Gamma                 : 
TLFamily_PHIE      .         Effective Porosity            : 
TLFamily_PHIEN     .         Effective Porosity            : 
TLFamily_PHIT      .         Porosity                      : 
TLFamily_PRMB      .         Permeability                  : 
TLFamily_PRMB_DGR  .         Permeability                  : 
TLFamily_RT        .         Formation Resistivity         : 
TLFamily_SOIL_ARCHIE .         Oil Saturation                : 
TLFamily_SOIL_DW   .         Oil Saturation                : 
TLFamily_SP        .         Spontaneous Potential         : 
TLFamily_VSH_FIN   .         Shale Volume                  : 
TLFamily_VSH_GR    .         Shale Volume                  : 
TLFamily_VSH_SP    .         Shale Volume                  : 
~Curve Information
#_______________________________________________________________________________
#
#LOGNAME           .UNIT     LOG_ID                        : DESCRIPTION
#_______________________________________________________________________________
DEPT               .M                                      : Колонка глубины 
CALI               .м                                      : Каверномер 
COLL               .unitless                               : Описание 
CSAT               .unitless                               :  
GR                 .uR/h                                   : Гамма каротаж 
LLS                .Ohmm                                   : Боковой каротаж 
MINV               .Ohmm                                   : Микро-градиент зонд 
MNOR               .Ohmm                                   : Микро-потенциал зонд 
NGLD               .u.e.                                   : Показания зонда НГК-60 аппаратуры ДРСТ-3-90 
PHIE               .v/v                                    : Описание 
PHIEN              .v/v                                    :  
PHIT               .v/v                                    : Описание 
PRMB               .mD                                     :  
PRMB_DGR           .mD                                     :  
RT                 .ohmm                                   : УЭС пласта 
SOIL_ARCHIE        .v/v                                    :  
SOIL_DW            .v/v                                    :  
SP                 .мВ                                     : Потенциал самополяризации 
VSH_FIN            .v/v                                    : Описание 
VSH_GR             .v/v                                    : Shale volume 
VSH_SP             .v/v                                    : Shale Volume 
~Ascii
# ...
1242.9     
  0.218      1          3          5.736482   -9999      0.992      
  0.971      1.048646   0.2104589  0.2104589  0.2542444  22.14966   
  5.761038   -9999      -9999      -9999      28.36755   0.1326836  
  0.3173776  0.1326836 
1243       
  0.218      1          3          5.767316   -9999      0.985      
  0.969      1.053422   0.2081426  0.2081426  0.2516178  20.06617   
  5.469895   -9999      -9999      -9999      28.03751   0.1317431  
  0.3241699  0.1317431 
1243.1     
  0.218      1          3          5.794568   -9999      0.98       
  0.969      1.057132   0.2062972  0.2062972  0.2495775  18.54738   
  5.224846   -9999      -9999      -9999      27.82287   0.1311525  
  0.3302941  0.1311525 
1243.2     
  0.218      1          3          5.816578   -9999      0.977      
  0.971      1.060057   0.2047705  0.2047705  0.2479685  17.37817   
  5.034962   -9999      -9999      -9999      27.73039   0.1309031  
  0.3353248  0.1309031 
1243.3     
  0.218      1          3          5.831599   -9999      0.979      
  0.975      1.0625     0.2034107  0.2034107  0.2466247  16.39899   
  4.909359   -9999      -9999      -9999      27.7485    0.1309517  
  0.3388017  0.1309517 
1243.4     
  0.218      1          3          5.838106   -9999      0.986      
  0.981      1.064732   0.2020929  0.2020929  0.2453973  15.50278   
  4.855927   -9999      -9999      -9999      27.84966   0.1312253  
  0.3403191  0.1312253 
1243.5     
  0.218      1          3          5.835212   -9999      0.991      
  0.987      1.066953   0.2007397  0.2007397  0.2441761  14.63335   
  4.87962    -9999      -9999      -9999      27.99525   0.1316255  
  0.3396434  0.1316255 
1243.6     
  0.218      1          3          5.823072   -9999      0.992      
  0.988      1.06925    0.1993406  0.1993406  0.2429126  13.7857    
  4.980273   -9999      -9999      -9999      28.14203   0.1320366  
  0.3368236  0.1320366 
1243.7     
  0.218      1          3          5.803126   -9999      0.989      
  0.984      1.071571   0.1979638  0.1979638  0.2416359  12.99955   
  5.150175   -9999      -9999      -9999      28.24846   0.1323396  
  0.3322412  0.1323396 
1243.8     
  0.217      1          3          5.77804    -9999      0.982      
  0.975      1.07373    0.1967469  0.1967469  0.2404487  12.34205   
  5.372121   -9999      -9999      -9999      28.27989   0.1324299  
  0.3265662  0.1324299 
1243.9     
  0.217      1          3          5.751254   -9999      0.975      
  0.963      1.075429   0.1958754  0.1958754  0.239514   11.89174   
  5.619678   -9999      -9999      -9999      28.21301   0.1322382  
  0.3206137  0.1322382 
1244       
  0.217      1          3          5.726232   -9999      0.976      
  0.954      1.076312   0.1955535  0.1955535  0.2390283  11.72959   
  5.861216   -9999      -9999      -9999      28.03709   0.1317419  
  0.3151513  0.1317419 
1244.1     
  0.217      1          3          5.705659   -9999      0.983      
  0.95       1.076026   0.1959673  0.1959673  0.2391857  11.93843   
  6.067568   -9999      -9999      -9999      27.7534    0.1309649  
  0.31073    0.1309649 
1244.2     
  0.217      1          3          5.690874   -9999      0.992      
  0.951      1.074306   0.1972424  0.1972424  0.2401316  12.60566   
  6.220341   -9999      -9999      -9999      27.37321   0.1299674  
  0.3075908  0.1299674 
1244.3     
  0.217      1          3          5.681727   -9999      0.998      
  0.954      1.071047   0.1994104  0.1994104  0.2419239  13.82684   
  6.316778   -9999      -9999      -9999      26.91476   0.1288287  
  0.3056646  0.1288287 
1244.4     
  0.217      1          3          5.676947   -9999      0.991      
  0.952      1.066358   0.2023854  0.2023854  0.2445032  15.69739   
  6.367768   -9999      -9999      -9999      26.39998   0.1276297  
  0.3046628  0.1276297 
1244.5     
  0.217      1          3          5.674871   -9999      0.982      
  0.947      1.060567   0.205963   0.205963   0.2476879  18.28491   
  6.390037   -9999      -9999      -9999      25.85133   0.126439   
  0.3042288  0.126439  
1244.6     
  0.217      1          3          5.674227   -9999      0.976      
  0.942      1.054192   0.209843   0.209843   0.2511942  21.57543   
  6.396965   -9999      -9999      -9999      25.28955   0.1253068  
  0.3040942  0.1253068 
1244.7     
  0.218      1          3          5.674704   -9999      0.977      
  0.941      1.047852   0.2136741  0.2136741  0.2546813  25.40512   
  6.391829   -9999      -9999      -9999      24.73218   0.1242642  
  0.3041939  0.1242642 
1244.8     
  0.218      1          3          5.677069   -9999      0.983      
  0.945      1.042163   0.2171126  0.2171126  0.2578104  29.41784   
  6.36646    -9999      -9999      -9999      24.19327   0.1233266  
  0.3046883  0.1233266 
1244.9     
  0.218      1          3          5.682597   -9999      0.989      
  0.954      1.037632   0.2198775  0.2198775  0.2603023  33.09966   
  6.307543   -9999      -9999      -9999      23.68409   0.1224992  
  0.3058472  0.1224992 
1245       
  0.218      1          3          5.685081   -9999      0.99       
  0.963      1.034582   0.2217917  0.2217917  0.2619798  35.91516   
  6.281237   -9999      -9999      -9999      23.21457   0.1217823  
  0.3063696  0.1217823 
1245.1     
  0.218      1          3          -9999      -9999      0.986      
  0.971      1.033117   0.2227973  0.2227973  0.2627857  37.48909   
  -9999      -9999      -9999      -9999      22.7957    0.1211769  
  -9999      0.1211769 
1245.2     
  0.218      1          3          -9999      -9999      0.978      
  0.975      1.033149   0.2229412  0.2229412  0.2627681  37.71981   
  -9999      -9999      -9999      -9999      22.44116   0.1206875  
  -9999      0.1206875 
1245.3     
  0.218      1          3          -9999      -9999      0.967      
  0.977      1.034455   0.2223433  0.2223433  0.26205    36.77017   
  -9999      -9999      -9999      -9999      22.16758   0.1203232  
  -9999      0.1203232 
1245.4     
  0.219      1          3          -9999      -9999      0.957      
  0.979      1.036756   0.221151   0.221151   0.2607842  34.94709   
  -9999      -9999      -9999      -9999      21.99628   0.1201007  
  -9999      0.1201007 
1245.5     
  0.219      1          3          -9999      -9999      0.952      
  0.98       1.039786   0.2195023  0.2195023  0.2591175  32.57422   
  -9999      -9999      -9999      -9999      21.95364   0.120046   
  -9999      0.120046  
1245.6     
  0.219      1          3          -9999      -9999      0.949      
  0.981      1.04333    0.2175034  0.2175034  0.2571685  29.91219   
  -9999      -9999      -9999      -9999      22.07099   0.1201973  
  -9999      0.1201973 
1245.7     
  0.219      1          3          -9999      -9999      0.945      
  0.98       1.047213   0.2152313  0.2152313  0.2550327  27.14968   
  -9999      -9999      -9999      -9999      22.38374   0.1206101  
  -9999      0.1206101 
1245.8     
  0.22       1          3          -9999      -9999      0.941      
  0.978      1.051262   0.2127554  0.2127554  0.252806   24.42887   
  -9999      -9999      -9999      -9999      22.92863   0.1213657  
  -9999      0.1213657 
1245.9     
  0.221      1          3          -9999      -9999      0.937      
  0.977      1.055238   0.210166   0.210166   0.250619   21.87469   
  -9999      -9999      -9999      -9999      23.73834   0.1225848  
  -9999      0.1225848 
1246       
  0.222      1          3          -9999      -9999      0.933      
  0.98       1.058792   0.2075966  0.2075966  0.2486645  19.60431   
  -9999      -9999      -9999      -9999      24.83357   0.1244482  
  -9999      0.1244482 
1246.1     
  0.223      -9999      -9999      -9999      -9999      0.935      
  0.988      1.06145    0.2052213  0.2052213  0.2472028  17.71554   
  -9999      -9999      -9999      -9999      26.21413   0.1272166  
  -9999      0.1272166 
