~Version
 VERS              .         2.0                           : CWLS LOG ASCII STANDARD - VERSION 2.0
 WRAP              .         YES                            : ONE LINE PER DEPTH STEP
 DLM               .         SPACE                         : DELIMITING CHARACTER(SPACE TAB OR COMMA)
~Well Information
#_______________________________________________________________________________
#
#PARAMETER_NAME    .UNIT     VALUE                         : DESCRIPTION
#_______________________________________________________________________________
STRT               .M        870                           : First reference value
STOP               .M        1250                          : Last reference value
STEP               .M        0.1                           : Step increment
NULL               .         -9999                         : Missing value
COMP               .                                       : Company
WELL               .         1468                          : Well name
FLD                .         Узень                         : Field
LOC                .                                       : Location
CNTY               .                                       : County
STAT               .                                       : State
CTRY               .                                       : Country
SRVC               .         SCH                           : Service Company
DATE               .         03.01.1968                    : Date
UWI                .                                       : Unique Well ID
Block              .         7                             : 
Cartographic_reference_system .         GCS_WGS_1984                  : ESRI,PE_10_3_1- <?xml version="1.0" encoding="utf-16"?><ILateBoundCoordinateReferenceSystem name="GCS_WGS_1984"><AuthorityCode>EPSG,4326</AuthorityCode></ILateBoundCoordinateReferenceSystem>
Category           .         Нефтяная                      : 
Condition          .         В работе                      : 
EREF               .m        85.2                          : 100.8
Gorizont           .         15                            : 14
HZCS               .GCS_WGS_1984 WGS_1984_EASE-Grid_2.0_Global : ESRI,PE_10_3_1- <?xml version="1.0" encoding="utf-16"?><ILateBoundCoordinateReferenceSystem name="WGS_1984_EASE-Grid_2.0_Global"><AuthorityCode>EPSG,6933</AuthorityCode></ILateBoundCoordinateReferenceSystem>
Interpretator      .         Сагынбаева А.Н.               : 
Kupol              .         основной                      : osnovnoi
LATI               .dega     0.6587883963                  : GCS_WGS_1984
LONG               .dega     0.441086545                   : GCS_WGS_1984
Mud                .         глинистый                     : 
Mud_density        .         1,22                          : 
Mud_resistivity    .         0                             : 
NGDU               .         НГДУ-2                        : 
ORIGINALWELLNAME   .         1468                          : 
Spud_date          .         1967                          : 1961
Viscosity          .         40                            : 
X                  .m        42558.8                       : 46154
Y                  .m        84042                         : 85761.93
YEAR               .         2018                          : 
~Parameter Information Block
#_______________________________________________________________________________
#
#PARAMETER_NAME    .UNIT     VALUE                         : DESCRIPTION
#_______________________________________________________________________________
SET                .         LQC_KAZNIPI_Petrel            : 
PBBOTTOM           .M        1286.9                        : Глубина подошвы планшета
PBSCALE            .         1 _ 500                       : Вертикальный масштаб планшета
PBTOP              .M        900                           : Глубина кровли планшета
TLFamily_CALI      .         Caliper                       : 
TLFamily_COLL      .         Net Reservoir Flag            : 
TLFamily_CSAT      .         Fluid Code                    : 
TLFamily_DEPT      .         Measured Depth                : 
TLFamily_GR        .         Russian Gamma Ray             : 
TLFamily_LLS       .         Lateral Log Resistivity       : 
TLFamily_MINV      .         Micro Gradient Resistivity    : 
TLFamily_MNOR      .         Micro Resistivity             : 
TLFamily_NGLD      .         Neutron Gamma                 : 
TLFamily_PHIE      .         Effective Porosity            : 
TLFamily_PHIEN     .         Effective Porosity            : 
TLFamily_PHIT      .         Porosity                      : 
TLFamily_PRMB      .         Permeability                  : 
TLFamily_PRMB_DGR  .         Permeability                  : 
TLFamily_RT        .         Formation Resistivity         : 
TLFamily_SOIL_ARCHIE .         Oil Saturation                : 
TLFamily_SOIL_DW   .         Oil Saturation                : 
TLFamily_SP        .         Spontaneous Potential         : 
TLFamily_VSH_FIN   .         Shale Volume                  : 
TLFamily_VSH_GR    .         Shale Volume                  : 
TLFamily_VSH_SP    .         Shale Volume                  : 
~Curve Information
#_______________________________________________________________________________
#
#LOGNAME           .UNIT     LOG_ID                        : DESCRIPTION
#_______________________________________________________________________________
DEPT               .M                                      : Колонка глубины 
CALI               .м                                      : Каверномер 
COLL               .unitless                               : Описание 
CSAT               .unitless                               :  
GR                 .uR/h                                   : Гамма каротаж 
LLS                .Ohmm                                   : Боковой каротаж 
MINV               .Ohmm                                   : Микро-градиент зонд 
MNOR               .Ohmm                                   : Микро-потенциал зонд 
NGLD               .u.e.                                   : Показания зонда НГК-60 аппаратуры ДРСТ-3-90 
PHIE               .v/v                                    : Описание 
PHIEN              .v/v                                    :  
PHIT               .v/v                                    : Описание 
PRMB               .mD                                     :  
PRMB_DGR           .mD                                     :  
RT                 .ohmm                                   : УЭС пласта 
SOIL_ARCHIE        .v/v                                    :  
SOIL_DW            .v/v                                    :  
SP                 .мВ                                     : Потенциал самополяризации 
VSH_FIN            .v/v                                    : Описание 
VSH_GR             .v/v                                    : Shale volume 
VSH_SP             .v/v                                    : Shale Volume 
~Ascii
# ...
1094.4     
  0.212      -9999      -9999      6.734263   1.274      1.071      
  1.259      0.9629062  0.2085333  0.2085333  0.3014016  20.40333   
  2.624053   1.274      0.2181419  0.3665639  25.27669   0.2814189  
  0.437556   0.1252819 
1094.5     
  0.212      -9999      -9999      6.727368   1.264      1.073      
  1.258      0.963012   0.2087304  0.2087304  0.3013434  20.57559   
  2.651624   1.264      0.2158908  0.3642376  25.4382    0.2806453  
  0.4356925  0.1255982 
1094.6     
  0.212      -9999      -9999      6.711027   1.252      1.075      
  1.255      0.9639207  0.2089191  0.2089191  0.3008436  20.7418    
  2.718135   1.252      0.2129925  0.3608104  25.54504   0.2785592  
  0.4313073  0.1258112 
1094.7     
  0.212      -9999      -9999      6.685425   1.241      1.076      
  1.256      0.9660397  0.2088558  0.2088558  0.2996782  20.68586   
  2.825704   1.241      0.209518   0.3564344  25.59562   0.2752195  
  0.4245258  0.1259131 
1094.8     
  0.213      -9999      -9999      6.650921   1.236      1.079      
  1.263      0.9695269  0.2084194  0.2084194  0.2977602  20.30444   
  2.977443   1.236      0.206575   0.352135   25.59147   0.2707297  
  0.4155546  0.1259047 
1094.9     
  0.213      -9999      -9999      6.608318   1.249      1.082      
  1.277      0.9742496  0.2076247  0.2076247  0.2951627  19.6278    
  3.176086   1.249      0.2078297  0.3511653  25.53681   0.2652667  
  0.4047387  0.1257947 
1095       
  0.214      -9999      -9999      6.559007   1.291      1.085      
  1.299      0.979811   0.2066062  0.2066062  0.2921039  18.79341   
  3.422615   1.291      0.2166816  0.3565838  25.43794   0.2590842  
  0.3925708  0.1255977 
1095.1     
  0.215      1          2          6.504928   1.368      1.092      
  1.331      0.985631   0.2055815  0.2055815  0.288903   17.98976   
  3.715036   1.368      0.2343815  0.3696029  25.30273   0.2524894  
  0.3796464  0.1253324 
1095.2     
  0.216      1          2          6.448431   1.481      1.107      
  1.364      0.9910698  0.2047944  0.2047944  0.2859116  17.3959    
  4.047243   1.481      0.2599036  0.3894501  25.14089   0.2458098  
  0.3665985  0.1250211 
1095.3     
  0.216      1          2          6.392056   1.619      1.128      
  1.394      0.9955575  0.2044553  0.2044553  0.2834434  17.14614   
  4.408342   1.619      0.2891819  0.4126711  24.96466   0.2393578  
  0.3540259  0.1246897 
1095.4     
  0.217      1          2          6.33833    1.764      1.146      
  1.419      0.9986992  0.2046912  0.2046912  0.2817154  17.31954   
  4.782422   1.764      0.3179105  0.4355773  24.78949   0.2334066  
  0.3424453  0.1243679 
1095.5     
  0.218      1          2          6.289643   1.907      1.157      
  1.434      1.000326   0.2055202  0.2055202  0.2808208  17.94279   
  5.148761   1.907      0.3447196  0.4570501  24.63422   0.2281836  
  0.3322785  0.1240888 
1095.6     
  0.218      1          2          6.248231   2.041      1.167      
  1.436      1.00049    0.2068505  0.2068505  0.2807303  18.99023   
  5.482357   2.041      0.368829   0.4764808  24.52048   0.2238784  
  0.3238688  0.123888  
1095.7     
  0.219      1          2          6.216169   2.161      1.171      
  1.434      0.9993996  0.2085149  0.2085149  0.2813302  20.38731   
  5.755415   2.161      0.3897999  0.4935473  24.47058   0.2206525  
  0.3175042  0.1238008 
1095.8     
  0.22       1          2          6.195338   2.281      1.162      
  1.43       0.997333   0.2103126  0.2103126  0.2824668  22.01188   
  5.940065   2.281      0.4095115  0.5099612  24.5057    0.2186492  
  0.3134364  0.1238621 
1095.9     
  0.22       1          2          6.187281   2.406      1.145      
  1.425      0.9945545  0.2120581  0.2120581  0.283995   23.71309   
  6.013065   2.406      0.4282422  0.5259943  24.64298   0.2179907  
  0.311877   0.1241044 
1096       
  0.221      1          2          6.192968   2.522      1.136      
  1.422      0.9912624  0.2136128  0.2136128  0.2858057  25.3388    
  5.961448   2.522      0.4442842  0.5401385  24.89218   0.2187662  
  0.3129768  0.1245556 
1096.1     
  0.221      1          2          6.212586   2.609      1.13       
  1.419      0.9875702  0.2149     0.2149     0.2878364  26.76876   
  5.786762   2.609      0.4559127  0.5508602  25.25382   0.2210192  
  0.3168008  0.1252376 
1096.2     
  0.221      1          2          6.245391   2.643      1.119      
  1.41       0.9835421  0.2158904  0.2158904  0.2900518  27.92365   
  5.506011   2.643      0.4613698  0.556601   25.71841   0.2247317  
  0.3232999  0.1261634 
1096.3     
  0.221      1          2          6.289676   2.609      1.113      
  1.396      0.9792299  0.2165862  0.2165862  0.2924235  28.76471   
  5.148502   2.609      0.4596038  0.5564333  26.26783   0.2298101  
  0.3322853  0.1273349 
1096.4     
  0.221      1          2          6.342991   2.519      1.119      
  1.379      0.9747187  0.2169957  0.2169957  0.2949047  29.27144   
  4.74875    2.519      0.4515308  0.5511555  26.87833   0.236088   
  0.3434348  0.1287412 
1096.5     
  0.22       1          2          6.402494   2.399      1.121      
  1.363      0.9701512  0.2171147  0.2171147  0.2974168  29.42047   
  4.339135   2.399      0.4390914  0.542448   27.52455   0.2433396  
  0.3563208  0.1303585 
1096.6     
  0.219      1          2          6.465286   2.29       1.114      
  1.354      0.9657242  0.216923   0.216923   0.2998517  29.18085   
  3.945139   2.29       0.426276   0.533746   28.18369   0.2512991  
  0.3704436  0.1321547 
1096.7     
  0.219      1          2          6.528677   2.226      1.105      
  1.355      0.9616578  0.2163932  0.2163932  0.3020882  28.52895   
  3.583658   2.226      0.4173542  0.5286708  28.83801   0.2596817  
  0.385269   0.1340944 
1096.8     
  0.218      1          2          6.590378   2.214      1.096      
  1.363      0.9581625  0.2155028  0.2155028  0.3040106  27.46586   
  3.263651   2.214      0.4137729  0.5283501  29.47496   0.2682055  
  0.4002688  0.1361421 
1096.9     
  0.217      1          2          6.64846    2.232      1.081      
  1.369      0.9553994  0.2142553  0.2142553  0.3055303  26.04276   
  2.988574   2.232      0.4130358  0.5305091  30.08499   0.2765909  
  0.4149219  0.1382599 
1097       
  0.216      1          2          6.701197   2.255      1.063      
  1.369      0.9534682  0.2126929  0.2126929  0.3065925  24.36389   
  2.758945   2.255      0.4121172  0.5324575  30.65845   0.2845442  
  0.4286907  0.1403977 
1097.1     
  0.215      1          2          6.746935   2.249      1.048      
  1.36       0.9524143  0.2108971  0.2108971  0.3071721  22.56753   
  2.574123   2.249      0.4070188  0.5307246  31.18276   0.2917425  
  0.4410019  0.142483  
1097.2     
  0.215      -9999      -9999      6.784026   2.197      1.036      
  1.341      0.9522642  0.2089711  0.2089711  0.3072547  20.78783   
  2.433377   2.197      0.3956638  0.5234907  31.64134   0.2978291  
  0.4512445  0.1444136 
1097.3     
  0.215      -9999      -9999      6.810902   2.098      1.026      
  1.315      0.9530554  0.2070149  0.2070149  0.3068195  19.12388   
  2.336227   2.098      0.3773659  0.5100875  32.01481   0.3024382  
  0.4588145  0.146062  
1097.4     
  0.214      -9999      -9999      6.82631    1.974      1.017      
  1.291      0.9548554  0.2050963  0.2050963  0.3058295  17.62134   
  2.282288   1.974      0.3540919  0.4920394  32.28378   0.3052522  
  0.4632117  0.1472926 
1097.5     
  0.214      -9999      -9999      6.829613   1.851      1.013      
  1.27       0.9577473  0.2032345  0.2032345  0.304239   16.27621   
  2.270888   1.851      0.3289858  0.47185    32.43243   0.3060742  
  0.4641598  0.1479886 
1097.6     
  0.214      -9999      -9999      6.820999   1.749      1.017      
  1.257      0.9617752  0.2014115  0.2014115  0.3020236  15.05869   
  2.30074    1.749      0.3054692  0.452302   32.45162   0.3048853  
  0.4616912  0.1480793 
