~Version
 VERS              .         2.0                           : CWLS LOG ASCII STANDARD - VERSION 2.0
 WRAP              .         YES                            : ONE LINE PER DEPTH STEP
 DLM               .         SPACE                         : DELIMITING CHARACTER(SPACE TAB OR COMMA)
~Well Information
#_______________________________________________________________________________
#
#PARAMETER_NAME    .UNIT     VALUE                         : DESCRIPTION
#_______________________________________________________________________________
STRT               .M        870                           : First reference value
STOP               .M        1250                          : Last reference value
STEP               .M        0.1                           : Step increment
NULL               .         -9999                         : Missing value
COMP               .                                       : Company
WELL               .         1468                          : Well name
FLD                .         Узень                         : Field
LOC                .                                       : Location
CNTY               .                                       : County
STAT               .                                       : State
CTRY               .                                       : Country
SRVC               .         SCH                           : Service Company
DATE               .         03.01.1968                    : Date
UWI                .                                       : Unique Well ID
Block              .         7                             : 
Cartographic_reference_system .         GCS_WGS_1984                  : ESRI,PE_10_3_1- <?xml version="1.0" encoding="utf-16"?><ILateBoundCoordinateReferenceSystem name="GCS_WGS_1984"><AuthorityCode>EPSG,4326</AuthorityCode></ILateBoundCoordinateReferenceSystem>
Category           .         Нефтяная                      : 
Condition          .         В работе                      : 
EREF               .m        85.2                          : 100.8
Gorizont           .         15                            : 14
HZCS               .GCS_WGS_1984 WGS_1984_EASE-Grid_2.0_Global : ESRI,PE_10_3_1- <?xml version="1.0" encoding="utf-16"?><ILateBoundCoordinateReferenceSystem name="WGS_1984_EASE-Grid_2.0_Global"><AuthorityCode>EPSG,6933</AuthorityCode></ILateBoundCoordinateReferenceSystem>
Interpretator      .         Сагынбаева А.Н.               : 
Kupol              .         основной                      : osnovnoi
LATI               .dega     0.6587883963                  : GCS_WGS_1984
LONG               .dega     0.441086545                   : GCS_WGS_1984
Mud                .         глинистый                     : 
Mud_density        .         1,22                          : 
Mud_resistivity    .         0                             : 
NGDU               .         НГДУ-2                        : 
ORIGINALWELLNAME   .         1468                          : 
Spud_date          .         1967                          : 1961
Viscosity          .         40                            : 
X                  .m        42558.8                       : 46154
Y                  .m        84042                         : 85761.93
YEAR               .         2018                          : 
~Parameter Information Block
#_______________________________________________________________________________
#
#PARAMETER_NAME    .UNIT     VALUE                         : DESCRIPTION
#_______________________________________________________________________________
SET                .         LQC_KAZNIPI_Petrel            : 
PBBOTTOM           .M        1286.9                        : Глубина подошвы планшета
PBSCALE            .         1 _ 500                       : Вертикальный масштаб планшета
PBTOP              .M        900                           : Глубина кровли планшета
TLFamily_CALI      .         Caliper                       : 
TLFamily_COLL      .         Net Reservoir Flag            : 
TLFamily_CSAT      .         Fluid Code                    : 
TLFamily_DEPT      .         Measured Depth                : 
TLFamily_GR        .         Russian Gamma Ray             : 
TLFamily_LLS       .         Lateral Log Resistivity       : 
TLFamily_MINV      .         Micro Gradient Resistivity    : 
TLFamily_MNOR      .         Micro Resistivity             : 
TLFamily_NGLD      .         Neutron Gamma                 : 
TLFamily_PHIE      .         Effective Porosity            : 
TLFamily_PHIEN     .         Effective Porosity            : 
TLFamily_PHIT      .         Porosity                      : 
TLFamily_PRMB      .         Permeability                  : 
TLFamily_PRMB_DGR  .         Permeability                  : 
TLFamily_RT        .         Formation Resistivity         : 
TLFamily_SOIL_ARCHIE .         Oil Saturation                : 
TLFamily_SOIL_DW   .         Oil Saturation                : 
TLFamily_SP        .         Spontaneous Potential         : 
TLFamily_VSH_FIN   .         Shale Volume                  : 
TLFamily_VSH_GR    .         Shale Volume                  : 
TLFamily_VSH_SP    .         Shale Volume                  : 
~Curve Information
#_______________________________________________________________________________
#
#LOGNAME           .UNIT     LOG_ID                        : DESCRIPTION
#_______________________________________________________________________________
DEPT               .M                                      : Колонка глубины 
CALI               .м                                      : Каверномер 
COLL               .unitless                               : Описание 
CSAT               .unitless                               :  
GR                 .uR/h                                   : Гамма каротаж 
LLS                .Ohmm                                   : Боковой каротаж 
MINV               .Ohmm                                   : Микро-градиент зонд 
MNOR               .Ohmm                                   : Микро-потенциал зонд 
NGLD               .u.e.                                   : Показания зонда НГК-60 аппаратуры ДРСТ-3-90 
PHIE               .v/v                                    : Описание 
PHIEN              .v/v                                    :  
PHIT               .v/v                                    : Описание 
PRMB               .mD                                     :  
PRMB_DGR           .mD                                     :  
RT                 .ohmm                                   : УЭС пласта 
SOIL_ARCHIE        .v/v                                    :  
SOIL_DW            .v/v                                    :  
SP                 .мВ                                     : Потенциал самополяризации 
VSH_FIN            .v/v                                    : Описание 
VSH_GR             .v/v                                    : Shale volume 
VSH_SP             .v/v                                    : Shale Volume 
~Ascii
# ...
1021.8     
  0.276      -9999      -9999      6.46312    1.733      0.728      
  0.703      0.8574757  0.1570994  0.1570994  0.3593884  2.275201   
  0.8482058  1.733      0.1339385  0.4546467  56.49749   0.6129969  
  0.6939201  0.5320739 
1021.9     
  0.275      -9999      -9999      6.452697   1.79       0.754      
  0.707      0.862857   0.1536704  0.1536704  0.3564287  1.965655   
  0.8553922  1.79       0.1304374  0.4561647  56.67373   0.6144189  
  0.6915336  0.5373041 
1022       
  0.273      -9999      -9999      6.433078   1.826      0.825      
  0.726      0.8696332  0.1499088  0.1499088  0.3527018  1.674298   
  0.8690846  1.826      0.1197278  0.4529819  56.83015   0.6145241  
  0.6870639  0.5419842 
1022.1     
  0.273      -9999      -9999      6.406431   1.844      0.957      
  0.767      0.8771518  0.1460991  0.1460991  0.3485665  1.423207   
  0.8880326  1.844      0.1039036  0.4463612  56.96461   0.6135375  
  0.6810395  0.5460355 
1022.2     
  0.274      -9999      -9999      6.375731   1.848      1.156      
  0.83       0.8847061  0.1425262  0.1425262  0.3444116  1.222052   
  0.9103765  1.848      0.08530084 0.437658   57.0751    0.611774   
  0.674164   0.549384  
1022.3     
  0.275      -9999      -9999      6.344147   1.845      1.373      
  0.906      0.8916516  0.139434   0.139434   0.3405916  1.071062   
  0.9339495  1.845      0.06694745 0.4286377  57.16014   0.6095685  
  0.6671633  0.5519738 
1022.4     
  0.279      -9999      -9999      6.314343   1.844      1.567      
  0.983      0.8975018  0.1369963  0.1369963  0.337374   0.9652978  
  0.956754   1.844      0.05226239 0.4213129  57.21947   0.6072052  
  0.6606235  0.5537869 
1022.5     
  0.282      -9999      -9999      6.28783    1.85       1.729      
  1.046      0.9019996  0.1352976  0.1352976  0.3349002  0.8978364  
  0.9775081  1.85       0.04336658 0.4168976  57.25429   0.6048566  
  0.6548598  0.5548533 
1022.6     
  0.286      -9999      -9999      6.264695   1.859      1.839      
  1.081      0.9051387  0.134328   0.134328   0.3331737  0.8614675  
  0.995985   1.859      0.03954548 0.4148654  57.26735   0.6025627  
  0.6498716  0.5552536 
1022.7     
  0.29       -9999      -9999      6.243819   1.871      1.893      
  1.093      0.9071339  0.1339915  0.1339915  0.3320763  0.8491909  
  1.012958   1.871      0.04034675 0.4149859  57.2627    0.6002572  
  0.6454031  0.5551112 
1022.8     
  0.292      -9999      -9999      6.223464   1.884      1.924      
  1.094      0.9083515  0.1341245  0.1341245  0.3314067  0.8540218  
  1.029784   1.884      0.04428602 0.4164702  57.24517   0.5978248  
  0.6410758  0.5545737 
1022.9     
  0.294      -9999      -9999      6.202065   1.895      1.952      
  1.092      0.9092186  0.134521   0.134521   0.3309298  0.8685856  
  1.047777   1.895      0.04934044 0.4182604  57.21986   0.5951782  
  0.6365576  0.5537989 
1023       
  0.295      -9999      -9999      6.178928   1.902      1.968      
  1.097      0.9101152  0.1349707  0.1349707  0.3304366  0.8854083  
  1.067583   1.902      0.05373885 0.4194899  57.19156   0.5923209  
  0.6317084  0.5529333 
1023.1     
  0.294      -9999      -9999      6.154604   1.904      1.978      
  1.114      0.911292   0.135295   0.135295   0.3297894  0.8977377  
  1.088811   1.904      0.05617994 0.4195822  57.1644    0.589377   
  0.6266502  0.5521038 
1023.2     
  0.293      -9999      -9999      6.130754   1.898      1.981      
  1.139      0.9128209  0.1353807  0.1353807  0.3289485  0.9010249  
  1.110034   1.898      0.05530213 0.4178588  57.1416    0.5865692  
  0.62173    0.5514084 
1023.3     
  0.29       -9999      -9999      6.109601   1.878      1.96       
  1.162      0.9145892  0.1352048  0.1352048  0.3279759  0.8942915  
  1.129204   1.878      0.04951875 0.4133887  57.1253    0.5841549  
  0.6173984  0.5509115 
1023.4     
  0.286      -9999      -9999      6.093169   1.842      1.91       
  1.182      0.9163358  0.1348392  0.1348392  0.3270153  0.8804559  
  1.144323   1.842      0.03858186 0.4059932  57.11668   0.5823517  
  0.6140543  0.5506491 
1023.5     
  0.282      -9999      -9999      6.082596   1.795      1.853      
  1.199      0.9177163  0.1344363  0.1344363  0.326256   0.8654537  
  1.154158   1.795      0.02430979 0.3967187  57.11611   0.581272   
  0.6119124  0.5506317 
1023.6     
  0.277      -9999      -9999      6.077768   1.742      1.796      
  1.208      0.9183802  0.1341961  0.1341961  0.3258909  0.8566343  
  1.158677   1.742      0.008948234 0.3867739  57.12328   0.5808933  
  0.6109366  0.5508499 
1023.7     
  0.273      -9999      -9999      6.077371   1.714      1.739      
  1.21       0.918052   0.1343185  0.1343185  0.3260714  0.8611167  
  1.15905    1.714      0.002175997 0.3822085  57.13747   0.5810695  
  0.6108564  0.5512825 
1023.8     
  0.27       -9999      -9999      6.079392   1.687      1.692      
  1.204      0.916593   0.1349517  0.1349517  0.3268739  0.8846889  
  1.157154   1.687      0          0.3793238  57.15773   0.5815824  
  0.6112648  0.5519001 
1023.9     
  0.27       -9999      -9999      6.081838   1.64       1.65       
  1.188      0.9140522  0.1361408  0.1361408  0.3282713  0.9307143  
  1.154866   1.64       0          0.3742076  57.18287   0.5822135  
  0.6117591  0.5526678 
1024       
  0.271      -9999      -9999      6.083364   1.606      1.612      
  1.158      0.9106785  0.1378005  0.1378005  0.3301268  0.9989832  
  1.15344    1.606      0          0.3726673  57.21161   0.5828069  
  0.6120676  0.5535462 
1024.1     
  0.272      -9999      -9999      6.083597   1.587      1.586      
  1.121      0.9068908  0.1397202  0.1397202  0.3322101  1.084216   
  1.153223   1.587      0.0003926657 0.3746188  57.24244   0.5833025  
  0.6121148  0.5544901 
1024.2     
  0.274      -9999      -9999      6.083089   1.582      1.577      
  1.084      0.9032068  0.1416054  0.1416054  0.3342363  1.174987   
  1.153698   1.582      0.01052862 0.3791064  57.27369   0.58373    
  0.612012   0.5554481 
1024.3     
  0.274      -9999      -9999      6.082941   1.6        1.59       
  1.051      0.9001399  0.1431457  0.1431457  0.335923   1.254771   
  1.153836   1.6        0.02499882 0.3870198  57.30356   0.5841736  
  0.611982   0.5563652 
1024.4     
  0.272      -9999      -9999      6.084208   1.644      1.642      
  1.028      0.8980839  0.144099   0.144099   0.3370538  1.306839   
  1.152653   1.644      0.04288154 0.3980368  57.3302    0.5847115  
  0.6122385  0.5571844 
1024.5     
  0.269      -9999      -9999      6.08743    1.705      1.725      
  1.018      0.8972271  0.1443522  0.1443522  0.3375251  1.321023   
  1.149651   1.705      0.06054304 0.4098066  57.35197   0.5853725  
  0.6128907  0.5578543 
1024.6     
  0.266      -9999      -9999      6.092433   1.773      1.812      
  1.022      0.8975205  0.1439445  0.1439445  0.3373637  1.298256   
  1.145004   1.773      0.07535213 0.4204549  57.36748   0.5861186  
  0.613905   0.5583323 
1024.7     
  0.263      -9999      -9999      6.098446   1.844      1.895      
  1.037      0.8987177  0.1430418  0.1430418  0.3367053  1.249219   
  1.139445   1.844      0.08724508 0.4296971  57.3759    0.5868591  
  0.6151264  0.5585918 
1024.8     
  0.26       -9999      -9999      6.104456   1.893      1.982      
  1.076      0.9004649  0.1418733  0.1418733  0.3357443  1.18849    
  1.133916   1.893      0.09194546 0.4344014  57.37703   0.5874879  
  0.6163493  0.5586265 
1024.9     
  0.26       -9999      -9999      6.109674   1.901      2.071      
  1.147      0.9024177  0.140653   0.140653   0.3346702  1.128216   
  1.129137   1.901      0.08689642 0.4326464  57.37127   0.5879312  
  0.6174133  0.558449  
1025       
  0.261      -9999      -9999      6.113935   1.879      2.135      
  1.242      0.9043303  0.1395165  0.1395165  0.3336183  1.074837   
  1.125249   1.879      0.07538506 0.4264886  57.35966   0.5881873  
  0.6182834  0.5580912 
