~Version
 VERS              .         2.0                           : CWLS LOG ASCII STANDARD - VERSION 2.0
 WRAP              .         YES                            : ONE LINE PER DEPTH STEP
 DLM               .         SPACE                         : DELIMITING CHARACTER(SPACE TAB OR COMMA)
~Well Information
#_______________________________________________________________________________
#
#PARAMETER_NAME    .UNIT     VALUE                         : DESCRIPTION
#_______________________________________________________________________________
STRT               .M        870                           : First reference value
STOP               .M        1250                          : Last reference value
STEP               .M        0.1                           : Step increment
NULL               .         -9999                         : Missing value
COMP               .                                       : Company
WELL               .         1468                          : Well name
FLD                .         Узень                         : Field
LOC                .                                       : Location
CNTY               .                                       : County
STAT               .                                       : State
CTRY               .                                       : Country
SRVC               .         SCH                           : Service Company
DATE               .         03.01.1968                    : Date
UWI                .                                       : Unique Well ID
Block              .         7                             : 
Cartographic_reference_system .         GCS_WGS_1984                  : ESRI,PE_10_3_1- <?xml version="1.0" encoding="utf-16"?><ILateBoundCoordinateReferenceSystem name="GCS_WGS_1984"><AuthorityCode>EPSG,4326</AuthorityCode></ILateBoundCoordinateReferenceSystem>
Category           .         Нефтяная                      : 
Condition          .         В работе                      : 
EREF               .m        85.2                          : 100.8
Gorizont           .         15                            : 14
HZCS               .GCS_WGS_1984 WGS_1984_EASE-Grid_2.0_Global : ESRI,PE_10_3_1- <?xml version="1.0" encoding="utf-16"?><ILateBoundCoordinateReferenceSystem name="WGS_1984_EASE-Grid_2.0_Global"><AuthorityCode>EPSG,6933</AuthorityCode></ILateBoundCoordinateReferenceSystem>
Interpretator      .         Сагынбаева А.Н.               : 
Kupol              .         основной                      : osnovnoi
LATI               .dega     0.6587883963                  : GCS_WGS_1984
LONG               .dega     0.441086545                   : GCS_WGS_1984
Mud                .         глинистый                     : 
Mud_density        .         1,22                          : 
Mud_resistivity    .         0                             : 
NGDU               .         НГДУ-2                        : 
ORIGINALWELLNAME   .         1468                          : 
Spud_date          .         1967                          : 1961
Viscosity          .         40                            : 
X                  .m        42558.8                       : 46154
Y                  .m        84042                         : 85761.93
YEAR               .         2018                          : 
~Parameter Information Block
#_______________________________________________________________________________
#
#PARAMETER_NAME    .UNIT     VALUE                         : DESCRIPTION
#_______________________________________________________________________________
SET                .         LQC_KAZNIPI_Petrel            : 
PBBOTTOM           .M        1286.9                        : Глубина подошвы планшета
PBSCALE            .         1 _ 500                       : Вертикальный масштаб планшета
PBTOP              .M        900                           : Глубина кровли планшета
TLFamily_CALI      .         Caliper                       : 
TLFamily_COLL      .         Net Reservoir Flag            : 
TLFamily_CSAT      .         Fluid Code                    : 
TLFamily_DEPT      .         Measured Depth                : 
TLFamily_GR        .         Russian Gamma Ray             : 
TLFamily_LLS       .         Lateral Log Resistivity       : 
TLFamily_MINV      .         Micro Gradient Resistivity    : 
TLFamily_MNOR      .         Micro Resistivity             : 
TLFamily_NGLD      .         Neutron Gamma                 : 
TLFamily_PHIE      .         Effective Porosity            : 
TLFamily_PHIEN     .         Effective Porosity            : 
TLFamily_PHIT      .         Porosity                      : 
TLFamily_PRMB      .         Permeability                  : 
TLFamily_PRMB_DGR  .         Permeability                  : 
TLFamily_RT        .         Formation Resistivity         : 
TLFamily_SOIL_ARCHIE .         Oil Saturation                : 
TLFamily_SOIL_DW   .         Oil Saturation                : 
TLFamily_SP        .         Spontaneous Potential         : 
TLFamily_VSH_FIN   .         Shale Volume                  : 
TLFamily_VSH_GR    .         Shale Volume                  : 
TLFamily_VSH_SP    .         Shale Volume                  : 
~Curve Information
#_______________________________________________________________________________
#
#LOGNAME           .UNIT     LOG_ID                        : DESCRIPTION
#_______________________________________________________________________________
DEPT               .M                                      : Колонка глубины 
CALI               .м                                      : Каверномер 
COLL               .unitless                               : Описание 
CSAT               .unitless                               :  
GR                 .uR/h                                   : Гамма каротаж 
LLS                .Ohmm                                   : Боковой каротаж 
MINV               .Ohmm                                   : Микро-градиент зонд 
MNOR               .Ohmm                                   : Микро-потенциал зонд 
NGLD               .u.e.                                   : Показания зонда НГК-60 аппаратуры ДРСТ-3-90 
PHIE               .v/v                                    : Описание 
PHIEN              .v/v                                    :  
PHIT               .v/v                                    : Описание 
PRMB               .mD                                     :  
PRMB_DGR           .mD                                     :  
RT                 .ohmm                                   : УЭС пласта 
SOIL_ARCHIE        .v/v                                    :  
SOIL_DW            .v/v                                    :  
SP                 .мВ                                     : Потенциал самополяризации 
VSH_FIN            .v/v                                    : Описание 
VSH_GR             .v/v                                    : Shale volume 
VSH_SP             .v/v                                    : Shale Volume 
~Ascii
# ...
1170.3     
  0.231      -9999      -9999      5.988377   1.59       1.088      
  1.106      0.9365693  0.1977761  0.1977761  0.3158869  12.89591   
  6.716065   1.59       0.2723524  0.4443     53.41486   0.3579113  
  0.2981093  0.4177133 
1170.4     
  0.23       -9999      -9999      6.004591   1.645      1.127      
  1.104      0.933892   0.1995358  0.1995358  0.3173594  13.901     
  6.548613   1.645      0.2893757  0.4571317  53.20967   0.3570411  
  0.3011988  0.4128833 
1170.5     
  0.229      -9999      -9999      6.037302   1.699      1.143      
  1.102      0.9313529  0.2005499  0.2005499  0.3187559  14.51542   
  6.22339    1.699      0.3031489  0.4683153  53.03741   0.3581998  
  0.3075293  0.4088704 
1170.6     
  0.229      -9999      -9999      6.086183   1.728      1.119      
  1.107      0.9290169  0.2007556  0.2007556  0.3200407  14.6433    
  5.767254   1.728      0.3092784  0.4742727  52.90026   0.36147    
  0.3172379  0.4057021 
1170.7     
  0.23       -9999      -9999      6.149344   1.716      1.072      
  1.119      0.9269567  0.2001619  0.2001619  0.3211738  14.27717   
  5.227009   1.716      0.3052261  0.4729117  52.78978   0.3667029  
  0.3302383  0.4031675 
1170.8     
  0.231      -9999      -9999      6.223269   1.664      1.031      
  1.135      0.925255   0.1988572  0.1988572  0.3221098  13.50439   
  4.65863    1.664      0.2910944  0.4642478  52.68832   0.3734927  
  0.3461322  0.4008533 
1170.9     
  0.232      -9999      -9999      6.302984   1.579      1.009      
  1.156      0.9240051  0.1970141  0.1970141  0.3227972  12.48354   
  4.114788   1.579      0.2675194  0.4486432  52.57096   0.3811609  
  0.3641293  0.3981924 
1171       
  0.232      -9999      -9999      6.382433   1.487      1.017      
  1.181      0.9233124  0.1948852  0.1948852  0.3231782  11.40001   
  3.635934   1.487      0.2394288  0.4297493  52.4084    0.3887666  
  0.3829975  0.3945356 
1171.1     
  0.233      -9999      -9999      6.454967   1.41       1.053      
  1.201      0.9232911  0.1927922  0.1927922  0.3231899  10.42645   
  3.247592   1.41       0.2128447  0.4118478  52.16914   0.3951446  
  0.4010759  0.3892133 
1171.2     
  0.232      -9999      -9999      6.513922   1.353      1.099      
  1.21       0.9240557  0.1911015  0.1911015  0.3227694  9.701107   
  2.962722   1.353      0.1912731  0.3969888  51.82076   0.3989936  
  0.4163965  0.3815906 
1171.3     
  0.231      -9999      -9999      6.553201   1.319      1.138      
  1.213      0.9256858  0.1901936  0.1901936  0.3218728  9.332642   
  2.786932   1.319      0.1781549  0.3870781  51.33109   0.3990279  
  0.4269276  0.3711282 
1171.4     
  0.23       -9999      -9999      6.567771   1.314      1.158      
  1.213      0.9281865  0.1904231  0.1904231  0.3204974  9.424453   
  2.724412   1.314      0.1775533  0.3846352  50.66829   0.3941645  
  0.4309013  0.3574278 
1171.5     
  0.229      -9999      -9999      6.554122   1.34       1.161      
  1.208      0.9314454  0.1920754  0.1920754  0.3187051  10.11254   
  2.782937   1.34       0.1911896  0.3907095  49.80042   0.3837263  
  0.4271777  0.3402749 
1171.6     
  0.227      -9999      -9999      6.510675   1.402      1.147      
  1.201      0.9352152  0.1953143  0.1953143  0.3166316  11.61053   
  2.977737   1.402      0.2196241  0.4060349  48.69701   0.3676285  
  0.4155378  0.3197191 
1171.7     
  0.225      -9999      -9999      6.438013   1.513      1.118      
  1.193      0.9391219  0.2001451  0.2001451  0.314483   14.26694   
  3.334476   1.513      0.2628874  0.4315841  47.33323   0.3464784  
  0.3967752  0.2961816 
1171.8     
  0.223      1          2          6.338933   1.674      1.081      
  1.182      0.9427277  0.2063902  0.2063902  0.3124998  18.62112   
  3.890763   1.674      0.3156106  0.4643473  45.69656   0.3215441  
  0.3725489  0.2705392 
1171.9     
  0.221      1          2          6.218264   1.874      1.041      
  1.169      0.9456121  0.213703   0.213703   0.3109133  25.4364    
  4.695081   1.874      0.3703015  0.4994371  43.7955    0.2945768  
  0.3450324  0.2441213 
1172       
  0.219      1          2          6.082369   2.094      1          
  1.154      0.9474685  0.2216147  0.2216147  0.3098923  35.64507   
  5.801606   2.094      0.420891   0.5326375  41.66755   0.267508   
  0.3164695  0.2185465 
1172.1     
  0.218      1          2          5.938477   2.308      0.966      
  1.146      0.9481664  0.2296167  0.2296167  0.3095085  50.14371   
  7.258758   2.308      0.4635705  0.5610477  39.38226   0.2420963  
  0.2887988  0.1953937 
1172.2     
  0.217      1          2          5.793953   2.489      0.949      
  1.149      0.9477755  0.2372433  0.2372433  0.3097235  69.41917   
  9.09083    2.489      0.4967698  0.5832271  37.03724   0.2196369  
  0.2634417  0.1758322 
1172.3     
  0.217      1          2          5.65562    2.622      0.946      
  1.164      0.9465352  0.2441357  0.2441357  0.3104056  93.14148   
  11.27606   2.622      0.5210112  0.5993134  34.74606   0.2008181  
  0.2412588  0.1603775 
1172.4     
  0.217      1          2          5.529233   2.709      0.955      
  1.191      0.9447884  0.2500663  0.2500663  0.3113664  119.9478   
  13.72881   2.709      0.5380508  0.6104746  32.62085   0.1857579  
  0.2226285  0.1488874 
1172.5     
  0.217      1          2          5.419153   2.757      0.971      
  1.224      0.9429024  0.2549266  0.2549266  0.3124036  147.5766   
  16.29593   2.757      0.5494597  0.6177512  30.75379   0.1741728  
  0.2075782  0.1407674 
1172.6     
  0.217      1          2          5.328199   2.781      0.986      
  1.255      0.9411992  0.2586987  0.2586987  0.3133405  173.3345   
  18.77548   2.781      0.5569922  0.6224222  29.20328   0.1655812  
  0.1959136  0.1352488 
1172.7     
  0.217      1          2          5.257606   2.798      0.997      
  1.279      0.9399194  0.2614227  0.2614227  0.3140444  194.6886   
  20.95719   2.798      0.562269   0.6257275  27.98801   0.1594596  
  0.1873138  0.1316054 
1172.8     
  0.217      1          2          5.207125   2.814      1          
  1.293      0.939216   0.2631735  0.2631735  0.3144312  209.7827   
  22.67113   2.814      0.5659692  0.6281153  27.09014   0.1553265  
  0.1813967  0.1292562 
1172.9     
  0.217      1          2          5.175192   2.826      0.996      
  1.298      0.9391692  0.2640448  0.2640448  0.314457   217.7252   
  23.82699   2.826      0.5680803  0.6294454  26.46542   0.1527641  
  0.1777505  0.1277776 
1173       
  0.216      1          2          5.15923    2.834      0.991      
  1.294      0.9398091  0.2641382  0.2641382  0.314105   218.5943   
  24.42667   2.834      0.5687857  0.6297868  26.05612   0.1514144  
  0.1759555  0.1268733 
1173.1     
  0.216      1          2          5.156041   2.825      0.983      
  1.288      0.9411312  0.2635582  0.2635582  0.3133778  213.2532   
  24.5483    2.825      0.567314   0.628356   25.80288   0.1509685  
  0.175599   0.1263379 
1173.2     
  0.216      1          2          5.162237   2.79       0.972      
  1.282      0.9431026  0.2624103  0.2624103  0.3122936  203.0646   
  24.31257   2.79       0.5631176  0.62459    25.65336   0.1511613  
  0.1762923  0.1260303 
1173.3     
  0.216      1          2          5.174698   2.725      0.962      
  1.279      0.9456592  0.2608019  0.2608019  0.3108875  189.6019   
  23.84535   2.725      0.5558861  0.6181549  25.56636   0.1517743  
  0.1776946  0.1258541 
1173.4     
  0.216      1          2          5.190931   2.628      0.953      
  1.279      0.9487054  0.2588403  0.2588403  0.309212   174.3847   
  23.25012   2.628      0.5452875  0.6087072  25.51195   0.1526416  
  0.1795383  0.1257449 
1173.5     
  0.216      1          2          5.209256   2.501      0.945      
  1.282      0.9521189  0.2566295  0.2566295  0.3073346  158.6936   
  22.59604   2.501      0.5311046  0.5960174  25.46989   0.1536518  
  0.1816426  0.125661  
