~Version
 VERS              .         2.0                           : CWLS LOG ASCII STANDARD - VERSION 2.0
 WRAP              .         YES                            : ONE LINE PER DEPTH STEP
 DLM               .         SPACE                         : DELIMITING CHARACTER(SPACE TAB OR COMMA)
~Well Information
#_______________________________________________________________________________
#
#PARAMETER_NAME    .UNIT     VALUE                         : DESCRIPTION
#_______________________________________________________________________________
STRT               .M        870                           : First reference value
STOP               .M        1250                          : Last reference value
STEP               .M        0.1                           : Step increment
NULL               .         -9999                         : Missing value
COMP               .                                       : Company
WELL               .         1468                          : Well name
FLD                .         Узень                         : Field
LOC                .                                       : Location
CNTY               .                                       : County
STAT               .                                       : State
CTRY               .                                       : Country
SRVC               .         SCH                           : Service Company
DATE               .         03.01.1968                    : Date
UWI                .                                       : Unique Well ID
Block              .         7                             : 
Cartographic_reference_system .         GCS_WGS_1984                  : ESRI,PE_10_3_1- <?xml version="1.0" encoding="utf-16"?><ILateBoundCoordinateReferenceSystem name="GCS_WGS_1984"><AuthorityCode>EPSG,4326</AuthorityCode></ILateBoundCoordinateReferenceSystem>
Category           .         Нефтяная                      : 
Condition          .         В работе                      : 
EREF               .m        85.2                          : 100.8
Gorizont           .         15                            : 14
HZCS               .GCS_WGS_1984 WGS_1984_EASE-Grid_2.0_Global : ESRI,PE_10_3_1- <?xml version="1.0" encoding="utf-16"?><ILateBoundCoordinateReferenceSystem name="WGS_1984_EASE-Grid_2.0_Global"><AuthorityCode>EPSG,6933</AuthorityCode></ILateBoundCoordinateReferenceSystem>
Interpretator      .         Сагынбаева А.Н.               : 
Kupol              .         основной                      : osnovnoi
LATI               .dega     0.6587883963                  : GCS_WGS_1984
LONG               .dega     0.441086545                   : GCS_WGS_1984
Mud                .         глинистый                     : 
Mud_density        .         1,22                          : 
Mud_resistivity    .         0                             : 
NGDU               .         НГДУ-2                        : 
ORIGINALWELLNAME   .         1468                          : 
Spud_date          .         1967                          : 1961
Viscosity          .         40                            : 
X                  .m        42558.8                       : 46154
Y                  .m        84042                         : 85761.93
YEAR               .         2018                          : 
~Parameter Information Block
#_______________________________________________________________________________
#
#PARAMETER_NAME    .UNIT     VALUE                         : DESCRIPTION
#_______________________________________________________________________________
SET                .         LQC_KAZNIPI_Petrel            : 
PBBOTTOM           .M        1286.9                        : Глубина подошвы планшета
PBSCALE            .         1 _ 500                       : Вертикальный масштаб планшета
PBTOP              .M        900                           : Глубина кровли планшета
TLFamily_CALI      .         Caliper                       : 
TLFamily_COLL      .         Net Reservoir Flag            : 
TLFamily_CSAT      .         Fluid Code                    : 
TLFamily_DEPT      .         Measured Depth                : 
TLFamily_GR        .         Russian Gamma Ray             : 
TLFamily_LLS       .         Lateral Log Resistivity       : 
TLFamily_MINV      .         Micro Gradient Resistivity    : 
TLFamily_MNOR      .         Micro Resistivity             : 
TLFamily_NGLD      .         Neutron Gamma                 : 
TLFamily_PHIE      .         Effective Porosity            : 
TLFamily_PHIEN     .         Effective Porosity            : 
TLFamily_PHIT      .         Porosity                      : 
TLFamily_PRMB      .         Permeability                  : 
TLFamily_PRMB_DGR  .         Permeability                  : 
TLFamily_RT        .         Formation Resistivity         : 
TLFamily_SOIL_ARCHIE .         Oil Saturation                : 
TLFamily_SOIL_DW   .         Oil Saturation                : 
TLFamily_SP        .         Spontaneous Potential         : 
TLFamily_VSH_FIN   .         Shale Volume                  : 
TLFamily_VSH_GR    .         Shale Volume                  : 
TLFamily_VSH_SP    .         Shale Volume                  : 
~Curve Information
#_______________________________________________________________________________
#
#LOGNAME           .UNIT     LOG_ID                        : DESCRIPTION
#_______________________________________________________________________________
DEPT               .M                                      : Колонка глубины 
CALI               .м                                      : Каверномер 
COLL               .unitless                               : Описание 
CSAT               .unitless                               :  
GR                 .uR/h                                   : Гамма каротаж 
LLS                .Ohmm                                   : Боковой каротаж 
MINV               .Ohmm                                   : Микро-градиент зонд 
MNOR               .Ohmm                                   : Микро-потенциал зонд 
NGLD               .u.e.                                   : Показания зонда НГК-60 аппаратуры ДРСТ-3-90 
PHIE               .v/v                                    : Описание 
PHIEN              .v/v                                    :  
PHIT               .v/v                                    : Описание 
PRMB               .mD                                     :  
PRMB_DGR           .mD                                     :  
RT                 .ohmm                                   : УЭС пласта 
SOIL_ARCHIE        .v/v                                    :  
SOIL_DW            .v/v                                    :  
SP                 .мВ                                     : Потенциал самополяризации 
VSH_FIN            .v/v                                    : Описание 
VSH_GR             .v/v                                    : Shale volume 
VSH_SP             .v/v                                    : Shale Volume 
~Ascii
# ...
972.3      
  0.286      -9999      -9999      5.113488   1.633      3.261      
  1.867      0.8535795  0.1441856  0.1441856  0.3615313  1.311674   
  0.9784247  1.633      0.04036378 0.4223786  61.73359   0.6586231  
  0.6546093  0.6626369 
972.4      
  0.285      -9999      -9999      5.11258    1.633      3.261      
  1.867      0.8553938  0.1434072  0.1434072  0.3605334  1.268839   
  0.9792269  1.633      0.03582827 0.4202226  61.70242   0.6579584  
  0.6543901  0.6615267 
972.5      
  0.283      -9999      -9999      5.121485   1.633      3.261      
  1.867      0.8571352  0.1422975  0.1422975  0.3595757  1.210187   
  0.9713824  1.633      0.02928288 0.4176008  61.66776   0.6584187  
  0.6565429  0.6602945 
972.6      
  0.282      -9999      -9999      5.139263   1.633      3.261      
  1.867      0.8586366  0.1409833  0.1409833  0.3587499  1.144222   
  0.9559075  1.633      0.02140656 0.4147838  61.62948   0.6598989  
  0.6608623  0.6589355 
972.7000000000001 
  0.28       -9999      -9999      5.162875   1.633      3.261      
  1.867      0.8598408  0.1396125  0.1396125  0.3580876  1.079245   
  0.9357347  1.633      0.01304344 0.4120213  61.58752   0.6620458  
  0.6666432  0.6574484 
972.8      
  0.279      -9999      -9999      5.187756   1.633      3.261      
  1.867      0.8607671  0.1383557  0.1383557  0.3575781  1.022919   
  0.9149384  1.633      0.005239645 0.4095645  61.5418    0.6643104  
  0.6727894  0.6558313 
972.9      
  0.279      -9999      -9999      5.208812   1.633      3.261      
  1.867      0.861452   0.1374026  0.1374026  0.3572014  0.9821705  
  0.8977005  1.633      0          0.4076948  61.49215   0.666057   
  0.678035   0.654079  
973        
  0.278      -9999      -9999      5.221602   1.633      3.261      
  1.867      0.8619006  0.1369404  0.1369404  0.3569547  0.9629994  
  0.8873886  1.633      0          0.4067148  61.43818   0.66671    
  0.6812413  0.6521786 
973.1      
  0.278      -9999      -9999      5.22346    1.633      3.261      
  1.867      0.8620576  0.1371191  0.1371191  0.3568683  0.970368   
  0.8859005  1.633      0          0.4069007  61.37913   0.6659067  
  0.6817083  0.6501049 
973.2000000000001 
  0.278      -9999      -9999      5.214243   1.633      3.261      
  1.867      0.8618119  0.138013   0.138013   0.3570034  1.008077   
  0.8933073  1.633      0.003088772 0.4084285  61.31389   0.6636074  
  0.6793947  0.6478201 
973.3      
  0.278      -9999      -9999      5.196545   1.633      3.261      
  1.867      0.8610336  0.13959    0.13959    0.3574315  1.078211   
  0.9077034  1.633      0.01290506 0.4112976  61.24108   0.6601259  
  0.6749739  0.6452777 
973.4      
  0.278      -9999      -9999      5.175202   1.633      3.261      
  1.867      0.8596308  0.1417049  0.1417049  0.3582031  1.179985   
  0.9253732  1.633      0.02574829 0.4152953  61.1592    0.656055   
  0.6696812  0.6424289 
973.5      
  0.279      -9999      -9999      5.156273   1.633      3.261      
  1.867      0.8575972  0.1441199  0.1441199  0.3593215  1.308003   
  0.941332   1.633      0.0399827  0.4200235  61.0669    0.652126   
  0.6650217  0.6392303 
973.6      
  0.281      -9999      -9999      5.145728   1.633      3.261      
  1.867      0.8550532  0.1465351  0.1465351  0.3607207  1.449921   
  0.950341   1.633      0.05377863 0.4249464  60.96326   0.6490472  
  0.6624402  0.6356542 
973.7000000000001 
  0.282      -9999      -9999      5.148146   1.633      3.261      
  1.867      0.8522401  0.1486383  0.1486383  0.3622679  1.585988   
  0.9482675  1.633      0.06545009 0.4294845  60.8479    0.6473626  
  0.6630313  0.631694  
973.8      
  0.284      -9999      -9999      5.165711   1.633      3.261      
  1.867      0.8494857  0.150157   0.150157   0.3637829  1.692114   
  0.9333401  1.633      0.07368773 0.4331055  60.72101   0.6473512  
  0.667341   0.6273614 
973.9      
  0.286      -9999      -9999      5.197756   1.633      3.261      
  1.867      0.8471405  0.1509097  0.1509097  0.3650727  1.747315   
  0.9067113  1.633      0.07771295 0.4354108  60.58314   0.648979   
  0.6752755  0.6226825 
974        
  0.289      -9999      -9999      5.240952   1.633      3.261      
  1.867      0.8455012  0.1508459  0.1508459  0.3659743  1.742571   
  0.872013   1.633      0.0773735  0.4362051  60.43501   0.6519043  
  0.6861209  0.6176879 
974.1      
  0.29       -9999      -9999      5.290088   1.633      3.261      
  1.867      0.8447481  0.150061   0.150061   0.3663885  1.685202   
  0.834155   1.633      0.07317182 0.4355326  60.27726   0.6555379  
  0.6986693  0.6124065 
974.2000000000001 
  0.291      -9999      -9999      5.339198   1.633      3.261      
  1.867      0.8449045  0.1487821  0.1487821  0.3663025  1.595745   
  0.7979591  1.633      0.0662369  0.4336807  60.1105    0.6591528  
  0.7114407  0.606865  
974.3      
  0.291      -9999      -9999      5.38281    1.633      3.261      
  1.867      0.8458331  0.1473185  0.1473185  0.3657918  1.499179   
  0.7671347  1.633      0.05816213 0.4311323  59.93573   0.6620404  
  0.7229777  0.601103  
974.4      
  0.29       -9999      -9999      5.417047   1.633      3.261      
  1.867      0.8472595  0.1459935  0.1459935  0.3650073  1.41681    
  0.7437729  1.633      0.05072178 0.4284799  59.75492   0.6636781  
  0.7321656  0.5951906 
974.5      
  0.288      -9999      -9999      5.440243   1.633      3.261      
  1.867      0.8488141  0.145081   0.145081   0.3641523  1.362734   
  0.7283506  1.633      0.04552413 0.426321   59.57161   0.6638522  
  0.7384568  0.5892475 
974.6      
  0.287      -9999      -9999      5.452991   1.633      3.261      
  1.867      0.8500817  0.1447646  0.1447646  0.363455   1.344466   
  0.7200118  1.633      0.04370733 0.4251648  59.39156   0.6626983  
  0.7419372  0.5834594 
974.7000000000001 
  0.286      -9999      -9999      5.457604   1.633      3.261      
  1.867      0.8506542  0.14513    0.14513    0.3631402  1.365582   
  0.7170172  1.633      0.04580452 0.4253736  59.22263   0.6606369  
  0.7432009  0.578073  
974.8      
  0.285      -9999      -9999      5.457221   1.633      3.261      
  1.867      0.8501869  0.1461788  0.1461788  0.3633972  1.428052   
  0.7172654  1.633      0.05176997 0.427134   59.07431   0.6582375  
  0.7430958  0.5733792 
974.9      
  0.284      -9999      -9999      5.454735   1.633      3.261      
  1.867      0.8484506  0.147856   0.147856   0.3643522  1.533946   
  0.718878   1.633      0.0611451  0.4304612  58.95678   0.656049   
  0.7424148  0.5696831 
975        
  0.282      -9999      -9999      5.451931   1.633      3.261      
  1.867      0.8453783  0.1500713  0.1500713  0.366042   1.685944   
  0.7207018  1.633      0.07322729 0.4352078  58.87955   0.6544564  
  0.7416471  0.5672657 
975.1      
  0.281      -9999      -9999      5.449078   1.633      3.261      
  1.867      0.8410944  0.1527069  0.1527069  0.3683981  1.886517   
  0.7225614  1.633      0.0871741  0.4410755  58.8503    0.6536096  
  0.7408671  0.5663521 
975.2000000000001 
  0.279      -9999      -9999      5.44506    1.633      3.261      
  1.867      0.835915   0.155615   0.155615   0.3712468  2.135623   
  0.725188   1.633      0.1020491  0.447634   58.87391   0.6534297  
  0.7397701  0.5670894 
975.3      
  0.277      -9999      -9999      5.43794    1.633      3.261      
  1.867      0.8303087  0.1586161  0.1586161  0.3743302  2.427241   
  0.7298676  1.633      0.1168647  0.4543658  58.95185   0.6536792  
  0.7378297  0.5695286 
975.4      
  0.275      -9999      -9999      5.425762   1.633      3.261      
  1.867      0.8248254  0.161502   0.161502   0.377346   2.745151   
  0.7379407  1.633      0.1306249  0.460724   59.08204   0.6540729  
  0.734523   0.5736229 
975.5      
  0.274      -9999      -9999      5.407315   1.633      3.261      
  1.867      0.8200071  0.1640487  0.1640487  0.3799961  3.060121   
  0.7503406  1.633      0.1423917  0.4661974  59.25903   0.654386   
  0.729542   0.57923   
