~Version
 VERS              .         2.0                           : CWLS LOG ASCII STANDARD - VERSION 2.0
 WRAP              .         YES                            : ONE LINE PER DEPTH STEP
 DLM               .         SPACE                         : DELIMITING CHARACTER(SPACE TAB OR COMMA)
~Well Information
#_______________________________________________________________________________
#
#PARAMETER_NAME    .UNIT     VALUE                         : DESCRIPTION
#_______________________________________________________________________________
STRT               .M        870                           : First reference value
STOP               .M        1250                          : Last reference value
STEP               .M        0.1                           : Step increment
NULL               .         -9999                         : Missing value
COMP               .                                       : Company
WELL               .         1468                          : Well name
FLD                .         Узень                         : Field
LOC                .                                       : Location
CNTY               .                                       : County
STAT               .                                       : State
CTRY               .                                       : Country
SRVC               .         SCH                           : Service Company
DATE               .         03.01.1968                    : Date
UWI                .                                       : Unique Well ID
Block              .         7                             : 
Cartographic_reference_system .         GCS_WGS_1984                  : ESRI,PE_10_3_1- <?xml version="1.0" encoding="utf-16"?><ILateBoundCoordinateReferenceSystem name="GCS_WGS_1984"><AuthorityCode>EPSG,4326</AuthorityCode></ILateBoundCoordinateReferenceSystem>
Category           .         Нефтяная                      : 
Condition          .         В работе                      : 
EREF               .m        85.2                          : 100.8
Gorizont           .         15                            : 14
HZCS               .GCS_WGS_1984 WGS_1984_EASE-Grid_2.0_Global : ESRI,PE_10_3_1- <?xml version="1.0" encoding="utf-16"?><ILateBoundCoordinateReferenceSystem name="WGS_1984_EASE-Grid_2.0_Global"><AuthorityCode>EPSG,6933</AuthorityCode></ILateBoundCoordinateReferenceSystem>
Interpretator      .         Сагынбаева А.Н.               : 
Kupol              .         основной                      : osnovnoi
LATI               .dega     0.6587883963                  : GCS_WGS_1984
LONG               .dega     0.441086545                   : GCS_WGS_1984
Mud                .         глинистый                     : 
Mud_density        .         1,22                          : 
Mud_resistivity    .         0                             : 
NGDU               .         НГДУ-2                        : 
ORIGINALWELLNAME   .         1468                          : 
Spud_date          .         1967                          : 1961
Viscosity          .         40                            : 
X                  .m        42558.8                       : 46154
Y                  .m        84042                         : 85761.93
YEAR               .         2018                          : 
~Parameter Information Block
#_______________________________________________________________________________
#
#PARAMETER_NAME    .UNIT     VALUE                         : DESCRIPTION
#_______________________________________________________________________________
SET                .         LQC_KAZNIPI_Petrel            : 
PBBOTTOM           .M        1286.9                        : Глубина подошвы планшета
PBSCALE            .         1 _ 500                       : Вертикальный масштаб планшета
PBTOP              .M        900                           : Глубина кровли планшета
TLFamily_CALI      .         Caliper                       : 
TLFamily_COLL      .         Net Reservoir Flag            : 
TLFamily_CSAT      .         Fluid Code                    : 
TLFamily_DEPT      .         Measured Depth                : 
TLFamily_GR        .         Russian Gamma Ray             : 
TLFamily_LLS       .         Lateral Log Resistivity       : 
TLFamily_MINV      .         Micro Gradient Resistivity    : 
TLFamily_MNOR      .         Micro Resistivity             : 
TLFamily_NGLD      .         Neutron Gamma                 : 
TLFamily_PHIE      .         Effective Porosity            : 
TLFamily_PHIEN     .         Effective Porosity            : 
TLFamily_PHIT      .         Porosity                      : 
TLFamily_PRMB      .         Permeability                  : 
TLFamily_PRMB_DGR  .         Permeability                  : 
TLFamily_RT        .         Formation Resistivity         : 
TLFamily_SOIL_ARCHIE .         Oil Saturation                : 
TLFamily_SOIL_DW   .         Oil Saturation                : 
TLFamily_SP        .         Spontaneous Potential         : 
TLFamily_VSH_FIN   .         Shale Volume                  : 
TLFamily_VSH_GR    .         Shale Volume                  : 
TLFamily_VSH_SP    .         Shale Volume                  : 
~Curve Information
#_______________________________________________________________________________
#
#LOGNAME           .UNIT     LOG_ID                        : DESCRIPTION
#_______________________________________________________________________________
DEPT               .M                                      : Колонка глубины 
CALI               .м                                      : Каверномер 
COLL               .unitless                               : Описание 
CSAT               .unitless                               :  
GR                 .uR/h                                   : Гамма каротаж 
LLS                .Ohmm                                   : Боковой каротаж 
MINV               .Ohmm                                   : Микро-градиент зонд 
MNOR               .Ohmm                                   : Микро-потенциал зонд 
NGLD               .u.e.                                   : Показания зонда НГК-60 аппаратуры ДРСТ-3-90 
PHIE               .v/v                                    : Описание 
PHIEN              .v/v                                    :  
PHIT               .v/v                                    : Описание 
PRMB               .mD                                     :  
PRMB_DGR           .mD                                     :  
RT                 .ohmm                                   : УЭС пласта 
SOIL_ARCHIE        .v/v                                    :  
SOIL_DW            .v/v                                    :  
SP                 .мВ                                     : Потенциал самополяризации 
VSH_FIN            .v/v                                    : Описание 
VSH_GR             .v/v                                    : Shale volume 
VSH_SP             .v/v                                    : Shale Volume 
~Ascii
# ...
995.4      
  0.241      -9999      -9999      4.193186   1.997      2.848      
  2.205      1.001103   0.1172675  0.1172675  0.2803935  0.4161371  
  2.246799   1.997      0          0.3381099  57.39361   0.4943211  
  0.4661855  0.5224568 
995.5      
  0.241      -9999      -9999      4.184579   2.044      2.769      
  2.128      0.9995991  0.1187944  0.1187944  0.2812205  0.4441377  
  2.264335   2.044      0          0.3500833  57.29834   0.4922004  
  0.4647078  0.5196931 
995.6      
  0.241      -9999      -9999      4.193934   2.09       2.611      
  1.987      0.996614   0.1205655  0.1205655  0.2828623  0.4789867  
  2.245281   2.09       0.001167867 0.3631199  57.21558   0.4918084  
  0.4663141  0.5173028 
995.7000000000001 
  0.242      -9999      -9999      4.216878   2.129      2.409      
  1.853      0.9922972  0.1225736  0.1225736  0.2852366  0.5218171  
  2.199226   2.129      0.02394007 0.376119   57.15499   0.4929181  
  0.4702772  0.5155588 
995.8      
  0.242      -9999      -9999      4.247101   2.151      2.19       
  1.777      0.987026   0.1247527  0.1247527  0.2881357  0.5726393  
  2.139997   2.151      0.04343204 0.3872708  57.12336   0.4951     
  0.4755491  0.5146508 
995.9      
  0.241      -9999      -9999      4.27761    2.163      2.049      
  1.762      0.9814013  0.1269529  0.1269529  0.2912293  0.6289748  
  2.081826   2.163      0.06034306 0.396989   57.12451   0.4978073  
  0.4809308  0.5146837 
996        
  0.241      -9999      -9999      4.302003   2.156      2.023      
  1.801      0.976177   0.1289437  0.1289437  0.2941026  0.6847132  
  2.036456   2.156      0.07158034 0.4031879  57.1594    0.5004815  
  0.4852774  0.5156856 
996.1      
  0.24       -9999      -9999      4.315447   2.121      2.055      
  1.886      0.9721269  0.1304543  0.1304543  0.2963302  0.7302785  
  2.011874   2.121      0.07386479 0.4037187  57.22653   0.5026542  
  0.4876899  0.5176185 
996.2000000000001 
  0.239      -9999      -9999      4.315259   2.074      2.128      
  1.979      0.9698943  0.1312307  0.1312307  0.2975581  0.7548653  
  2.012217   2.074      0.06889914 0.399891   57.32237   0.5040225  
  0.4876559  0.520389  
996.3      
  0.239      -9999      -9999      4.301052   2.035      2.246      
  2.04       0.9698572  0.1310997  0.1310997  0.2975786  0.7506579  
  2.038207   2.035      0.05974986 0.3939684  57.44167   0.5044815  
  0.4851072  0.5238558 
996.4      
  0.238      -9999      -9999      4.27453    2.019      2.343      
  2.078      0.9720549  0.130014   0.130014   0.2963698  0.7166929  
  2.087627   2.019      0.04940075 0.3881233  57.57763   0.5041084  
  0.4803847  0.5278321 
996.5      
  0.238      -9999      -9999      4.238964   2.046      2.378      
  2.104      0.976196   0.1280669  0.1280669  0.2940922  0.6595808  
  2.155787   2.046      0.04281098 0.3857842  57.72223   0.503107   
  0.4741239  0.53209   
996.6      
  0.238      -9999      -9999      4.198477   2.119      2.392      
  2.103      0.9817378  0.1254721  0.1254721  0.2910442  0.5904803  
  2.236087   2.119      0.04149221 0.3878568  57.86661   0.5017337  
  0.4670961  0.5363714 
996.7000000000001 
  0.238      -9999      -9999      4.157201   2.215      2.408      
  2.074      0.9880112  0.1225209  0.1225209  0.2875938  0.5206455  
  2.321034   2.215      0.04155159 0.3914171  58.00166   0.500221   
  0.4600385  0.5404035 
996.8      
  0.238      -9999      -9999      4.118412   2.299      2.411      
  2.034      0.9943481  0.1195322  0.1195322  0.2841085  0.4583367  
  2.403799   2.299      0.03766984 0.392515   58.119     0.4987161  
  0.4535035  0.5439287 
996.9      
  0.239      -9999      -9999      4.083886   2.345      2.421      
  1.98       1.000174   0.1168129  0.1168129  0.2809044  0.4081462  
  2.479951   2.345      0.02727261 0.3890252  58.21175   0.4972469  
  0.4477648  0.546729  
997        
  0.239      -9999      -9999      4.053639   2.335      2.459      
  1.909      1.005068   0.1146227  0.1146227  0.2782124  0.3717487  
  2.548642   2.335      0.009119694 0.3796826  58.27531   0.4957263  
  0.442797   0.5486556 
997.1      
  0.24       -9999      -9999      4.026225   2.263      2.504      
  1.852      1.008781   0.1131533  0.1131533  0.2761706  0.3491655  
  2.612545   2.263      0          0.3639455  58.30776   0.4939917  
  0.4383421  0.5496414 
997.2000000000001 
  0.24       -9999      -9999      3.999559   2.157      2.534      
  1.841      1.011214   0.1125125  0.1125125  0.2748325  0.3397519  
  2.676239   2.157      0          0.3451355  58.30989   0.4918788  
  0.4340518  0.5497059 
997.3      
  0.24       -9999      -9999      3.972069   2.052      2.561      
  1.896      1.012385   0.1127165  0.1127165  0.274188   0.3427216  
  2.743526   2.052      0          0.3280352  58.28476   0.4893077  
  0.4296728  0.5489425 
997.4      
  0.24       -9999      -9999      3.943742   1.964      2.603      
  2.03       1.012381   0.1136931  0.1136931  0.2741905  0.3572975  
  2.814634   1.964      0          0.3153178  58.23736   0.4863557  
  0.4252068  0.5475047 
997.5      
  0.24       -9999      -9999      3.916658   1.901      2.669      
  2.223      1.011294   0.1153061  0.1153061  0.2747882  0.3827423  
  2.884344   1.901      0          0.3086112  58.17367   0.483279   
  0.4209802  0.5455779 
997.6      
  0.24       -9999      -9999      3.894786   1.865      2.774      
  2.418      1.009185   0.1173898  0.1173898  0.2759481  0.4183135  
  2.941897   1.865      0          0.308406   58.10017   0.4804796  
  0.4175975  0.5433617 
997.7000000000001 
  0.24       -9999      -9999      3.882993   1.834      2.915      
  2.561      1.006042   0.1197996  0.1197996  0.2776767  0.4635928  
  2.973405   1.834      0          0.3105276  58.0231    0.4784155  
  0.4157849  0.5410462 
997.8      
  0.241      -9999      -9999      3.885626   1.791      3.052      
  2.609      1.001792   0.122442   0.122442   0.2800143  0.5188972  
  2.966342   1.791      0          0.3115677  57.94787   0.4774917  
  0.4161889  0.5387946 
997.9      
  0.242      -9999      -9999      3.905172   1.734      3.15       
  2.533      0.9963472  0.1252798  0.1252798  0.283009   0.5856566  
  2.914426   1.734      0          0.3109062  57.87881   0.4779674  
  0.4192003  0.5367345 
998        
  0.244      -9999      -9999      3.941471   1.664      3.187      
  2.367      0.9896764  0.1283112  0.1283112  0.286678   0.6664883  
  2.820413   1.664      0          0.3084202  57.81873   0.4798994  
  0.4248508  0.5349481 
998.1      
  0.248      -9999      -9999      3.991712   1.596      3.185      
  2.17       0.98187    0.1315369  0.1315369  0.2909715  0.7647857  
  2.695275   1.596      0          0.3068531  57.76899   0.4831353  
  0.4327973  0.5334734 
998.2000000000001 
  0.254      -9999      -9999      4.051206   1.548      3.207      
  1.995      0.9731775  0.1349258  0.1349258  0.2957524  0.8837112  
  2.55425    1.548      0          0.3099389  57.72958   0.4873534  
  0.4423998  0.532307  
998.3      
  0.262      -9999      -9999      4.114571   1.537      3.241      
  1.862      0.9639947  0.1383985  0.1383985  0.3008029  1.024789   
  2.412155   1.537      0          0.3212715  57.69913   0.4921346  
  0.4528614  0.5314078 
998.4      
  0.27       -9999      -9999      4.176845   1.574      3.261      
  1.769      0.9548095  0.1418326  0.1418326  0.3058547  1.18643    
  2.28021    1.574      0.009556086 0.3423258  57.67479   0.4970368  
  0.463384   0.5306895 
998.5      
  0.278      -9999      -9999      4.234161   1.657      3.269      
  1.698      0.9461277  0.145084   0.145084   0.3106298  1.362907   
  2.165158   1.657      0.05205359 0.3705709  57.65215   0.5016537  
  0.4732848  0.5300227 
998.6      
  0.285      -9999      -9999      4.283829   1.769      3.167      
  1.619      0.9384132  0.1480132  0.1480132  0.3148727  1.544262   
  2.070165   1.769      0.09657171 0.4004897  57.62539   0.5056351  
  0.4820352  0.529235  
