~Version
 VERS              .         2.0                           : CWLS LOG ASCII STANDARD - VERSION 2.0
 WRAP              .         YES                            : ONE LINE PER DEPTH STEP
 DLM               .         SPACE                         : DELIMITING CHARACTER(SPACE TAB OR COMMA)
~Well Information
#_______________________________________________________________________________
#
#PARAMETER_NAME    .UNIT     VALUE                         : DESCRIPTION
#_______________________________________________________________________________
STRT               .M        870                           : First reference value
STOP               .M        1250                          : Last reference value
STEP               .M        0.1                           : Step increment
NULL               .         -9999                         : Missing value
COMP               .                                       : Company
WELL               .         1468                          : Well name
FLD                .         Узень                         : Field
LOC                .                                       : Location
CNTY               .                                       : County
STAT               .                                       : State
CTRY               .                                       : Country
SRVC               .         SCH                           : Service Company
DATE               .         03.01.1968                    : Date
UWI                .                                       : Unique Well ID
Block              .         7                             : 
Cartographic_reference_system .         GCS_WGS_1984                  : ESRI,PE_10_3_1- <?xml version="1.0" encoding="utf-16"?><ILateBoundCoordinateReferenceSystem name="GCS_WGS_1984"><AuthorityCode>EPSG,4326</AuthorityCode></ILateBoundCoordinateReferenceSystem>
Category           .         Нефтяная                      : 
Condition          .         В работе                      : 
EREF               .m        85.2                          : 100.8
Gorizont           .         15                            : 14
HZCS               .GCS_WGS_1984 WGS_1984_EASE-Grid_2.0_Global : ESRI,PE_10_3_1- <?xml version="1.0" encoding="utf-16"?><ILateBoundCoordinateReferenceSystem name="WGS_1984_EASE-Grid_2.0_Global"><AuthorityCode>EPSG,6933</AuthorityCode></ILateBoundCoordinateReferenceSystem>
Interpretator      .         Сагынбаева А.Н.               : 
Kupol              .         основной                      : osnovnoi
LATI               .dega     0.6587883963                  : GCS_WGS_1984
LONG               .dega     0.441086545                   : GCS_WGS_1984
Mud                .         глинистый                     : 
Mud_density        .         1,22                          : 
Mud_resistivity    .         0                             : 
NGDU               .         НГДУ-2                        : 
ORIGINALWELLNAME   .         1468                          : 
Spud_date          .         1967                          : 1961
Viscosity          .         40                            : 
X                  .m        42558.8                       : 46154
Y                  .m        84042                         : 85761.93
YEAR               .         2018                          : 
~Parameter Information Block
#_______________________________________________________________________________
#
#PARAMETER_NAME    .UNIT     VALUE                         : DESCRIPTION
#_______________________________________________________________________________
SET                .         LQC_KAZNIPI_Petrel            : 
PBBOTTOM           .M        1286.9                        : Глубина подошвы планшета
PBSCALE            .         1 _ 500                       : Вертикальный масштаб планшета
PBTOP              .M        900                           : Глубина кровли планшета
TLFamily_CALI      .         Caliper                       : 
TLFamily_COLL      .         Net Reservoir Flag            : 
TLFamily_CSAT      .         Fluid Code                    : 
TLFamily_DEPT      .         Measured Depth                : 
TLFamily_GR        .         Russian Gamma Ray             : 
TLFamily_LLS       .         Lateral Log Resistivity       : 
TLFamily_MINV      .         Micro Gradient Resistivity    : 
TLFamily_MNOR      .         Micro Resistivity             : 
TLFamily_NGLD      .         Neutron Gamma                 : 
TLFamily_PHIE      .         Effective Porosity            : 
TLFamily_PHIEN     .         Effective Porosity            : 
TLFamily_PHIT      .         Porosity                      : 
TLFamily_PRMB      .         Permeability                  : 
TLFamily_PRMB_DGR  .         Permeability                  : 
TLFamily_RT        .         Formation Resistivity         : 
TLFamily_SOIL_ARCHIE .         Oil Saturation                : 
TLFamily_SOIL_DW   .         Oil Saturation                : 
TLFamily_SP        .         Spontaneous Potential         : 
TLFamily_VSH_FIN   .         Shale Volume                  : 
TLFamily_VSH_GR    .         Shale Volume                  : 
TLFamily_VSH_SP    .         Shale Volume                  : 
~Curve Information
#_______________________________________________________________________________
#
#LOGNAME           .UNIT     LOG_ID                        : DESCRIPTION
#_______________________________________________________________________________
DEPT               .M                                      : Колонка глубины 
CALI               .м                                      : Каверномер 
COLL               .unitless                               : Описание 
CSAT               .unitless                               :  
GR                 .uR/h                                   : Гамма каротаж 
LLS                .Ohmm                                   : Боковой каротаж 
MINV               .Ohmm                                   : Микро-градиент зонд 
MNOR               .Ohmm                                   : Микро-потенциал зонд 
NGLD               .u.e.                                   : Показания зонда НГК-60 аппаратуры ДРСТ-3-90 
PHIE               .v/v                                    : Описание 
PHIEN              .v/v                                    :  
PHIT               .v/v                                    : Описание 
PRMB               .mD                                     :  
PRMB_DGR           .mD                                     :  
RT                 .ohmm                                   : УЭС пласта 
SOIL_ARCHIE        .v/v                                    :  
SOIL_DW            .v/v                                    :  
SP                 .мВ                                     : Потенциал самополяризации 
VSH_FIN            .v/v                                    : Описание 
VSH_GR             .v/v                                    : Shale volume 
VSH_SP             .v/v                                    : Shale Volume 
~Ascii
# ...
945.9      
  0.263      -9999      -9999      4.749675   1.633      3.261      
  1.867      0.8574615  0.1488251  0.1488251  0.3593962  1.598674   
  1.359102   1.633      0.06647182 0.4268636  62.8597    0.6380942  
  0.5724043  0.7037842 
946        
  0.264      -9999      -9999      4.734266   1.633      3.261      
  1.867      0.8551586  0.1506225  0.1506225  0.3606628  1.726043   
  1.378152   1.633      0.07618156 0.4306533  62.86042   0.6364858  
  0.5691602  0.7038115 
946.1      
  0.267      -9999      -9999      4.703681   1.633      3.261      
  1.867      0.8524756  0.1531471  0.1531471  0.3621384  1.92227    
  1.416757   1.633      0.08945977 0.4355852  62.86115   0.633307   
  0.5627754  0.7038385 
946.2000000000001 
  0.269      -9999      -9999      4.659449   1.633      3.261      
  1.867      0.8489931  0.1565609  0.1565609  0.3640538  2.223544   
  1.474512   1.633      0.1067763  0.4420242  62.86185   0.6287664  
  0.553668   0.7038648 
946.3      
  0.272      -9999      -9999      4.604827   1.633      3.261      
  1.867      0.8444224  0.1608925  0.1608925  0.3665677  2.67471    
  1.549089   1.633      0.1277572  0.4500352  62.86256   0.6232582  
  0.5426248  0.7038917 
946.4      
  0.273      -9999      -9999      4.544621   1.633      3.261      
  1.867      0.8386447  0.1660322  0.1660322  0.3697454  3.330254   
  1.635669   1.633      0.1513217  0.4593875  62.86327   0.6173127  
  0.5307074  0.703918  
946.5      
  0.273      -9999      -9999      4.48456    1.633      3.261      
  1.867      0.8317206  0.1717547  0.1717547  0.3735537  4.250814   
  1.726861   1.633      0.1760026  0.4696292  62.86397   0.611512   
  0.5190797  0.7039443 
946.6      
  0.271      -9999      -9999      4.43041    1.633      3.261      
  1.867      0.8238759  0.1777588  0.1777588  0.3778683  5.491379   
  1.81343    1.633      0.2002961  0.4801969  62.86466   0.6063924  
  0.5088148  0.7039701 
946.7000000000001 
  0.269      -9999      -9999      4.387061   1.633      3.261      
  1.867      0.8154793  0.1837044  0.1837044  0.3824864  7.07636    
  1.885848   1.633      0.2228864  0.4905047  62.86533   0.6023695  
  0.5007438  0.7039951 
946.8      
  0.267      -9999      -9999      4.357913   1.633      3.261      
  1.867      0.8070121  0.1892411  0.1892411  0.3871433  8.961108   
  1.936161   1.633      0.2427262  0.5000006  62.86596   0.5997039  
  0.4953891  0.7040187 
946.9      
  0.264      -9999      -9999      4.344696   1.633      3.261      
  1.867      0.7990324  0.194024   0.194024   0.3915322  10.98887   
  1.959417   1.633      0.259011   0.5081899  62.86651   0.5985097  
  0.4929797  0.7040396 
947        
  0.262      -9999      -9999      4.347731   1.633      3.261      
  1.867      0.7921316  0.1977261  0.1977261  0.3953276  12.86839   
  1.954051   1.633      0.271109   0.5146393  62.86688   0.5987926  
  0.493532   0.7040533 
947.1      
  0.259      -9999      -9999      4.366459   1.633      3.261      
  1.867      0.7868793  0.2000501  0.2000501  0.3982164  14.20928   
  1.921272   1.633      0.2784898  0.5189757  62.86691   0.6005037  
  0.4969531  0.7040544 
947.2000000000001 
  0.257      -9999      -9999      4.399991   1.633      3.261      
  1.867      0.7837524  0.2007527  0.2007527  0.3999362  14.64148   
  1.86395    1.633      0.2806894  0.5208961  62.86639   0.6035863  
  0.5031377  0.7040349 
947.3      
  0.256      -9999      -9999      4.447385   1.633      3.261      
  1.867      0.78306    0.1996781  0.1996781  0.400317   13.98561   
  1.785835   1.633      0.2773191  0.5201877  62.86499   0.6079966  
  0.5120106  0.7039825 
947.4      
  0.254      -9999      -9999      4.507556   1.633      3.261      
  1.867      0.7848787  0.1967981  0.1967981  0.3993167  12.36903   
  1.691361   1.633      0.2681164  0.5167615  62.86238   0.6136929  
  0.5235012  0.7038847 
947.5      
  0.252      -9999      -9999      4.578834   1.633      3.261      
  1.867      0.789013   0.192249   0.192249   0.3970428  10.18768   
  1.585892   1.633      0.2530559  0.5106989  62.85819   0.6205875  
  0.5374472  0.703728  
947.6      
  0.25       -9999      -9999      4.658463   1.633      3.261      
  1.867      0.7949967  0.1863521  0.1863521  0.3937518  7.922297   
  1.475825   1.633      0.2325116  0.5023053  62.85213   0.6284839  
  0.5534669  0.703501  
947.7000000000001 
  0.248      -9999      -9999      4.742267   1.633      3.261      
  1.867      0.8021477  0.1796017  0.1796017  0.3898187  5.940425   
  1.368228   1.633      0.2074479  0.492152   62.8441    0.6370213  
  0.5708422  0.7032004 
947.8      
  0.247      -9999      -9999      4.824759   1.633      3.261      
  1.867      0.8096697  0.1726157  0.1726157  0.3856817  4.409809   
  1.269979   1.633      0.1795833  0.4810825  62.83421   0.6456544  
  0.5884784  0.7028303 
947.9      
  0.246      -9999      -9999      4.899726   1.633      3.261      
  1.867      0.81679    0.1660471  0.1660471  0.3817655  3.332376   
  1.186825   1.633      0.1513882  0.4701411  62.82287   0.653692   
  0.6049779  0.7024062 
948        
  0.246      -9999      -9999      4.961104   1.633      3.261      
  1.867      0.8228891  0.1604818  0.1604818  0.378411   2.628273   
  1.122814   1.633      0.1258136  0.4604194  62.81073   0.6603914  
  0.6188306  0.7019523 
948.1      
  0.246      -9999      -9999      5.003897   1.633      3.261      
  1.867      0.827598   0.1563424  0.1563424  0.3758211  2.202924   
  1.08024    1.633      0.1056894  0.4528343  62.79857   0.6650869  
  0.6286757  0.701498  
948.2000000000001 
  0.246      -9999      -9999      5.024824   1.633      3.261      
  1.867      0.830833   0.1538293  0.1538293  0.3740419  1.979022   
  1.060012   1.633      0.09297775 0.4479168  62.78722   0.6673107  
  0.6335472  0.7010743 
948.3      
  0.247      -9999      -9999      5.022549   1.633      3.261      
  1.867      0.8327615  0.1529173  0.1529173  0.3729812  1.903518   
  1.062192   1.633      0.08826787 0.4457169  62.77731   0.6668602  
  0.6330159  0.7007045 
948.4      
  0.247      -9999      -9999      4.997491   1.633      3.261      
  1.867      0.833707   0.1534076  0.1534076  0.3724612  1.943745   
  1.086509   1.633      0.0908065  0.4458762  62.76929   0.6637986  
  0.627192   0.7004052 
948.5      
  0.246      -9999      -9999      4.951351   1.633      3.261      
  1.867      0.8340345  0.155011   0.155011   0.372281   2.081315   
  1.13275    1.633      0.09900276 0.4478161  62.76325   0.658394   
  0.6166082  0.7001798 
948.6      
  0.245      -9999      -9999      4.886609   1.633      3.261      
  1.867      0.8340588  0.1574245  0.1574245  0.3722677  2.306967   
  1.200971   1.633      0.1110454  0.4509346  62.75902   0.65104    
  0.602058   0.7000221 
948.7000000000001 
  0.244      -9999      -9999      4.806089   1.633      3.261      
  1.867      0.8340006  0.1603808  0.1603808  0.3722996  2.616978   
  1.291579   1.633      0.1253342  0.4547277  62.75619   0.6421782  
  0.5844398  0.6999167 
948.8      
  0.242      -9999      -9999      4.712709   1.633      3.261      
  1.867      0.833997   0.1636597  0.1636597  0.3723017  3.009771   
  1.405251   1.633      0.1406166  0.4588144  62.75424   0.6322483  
  0.5646526  0.699844  
948.9      
  0.239      -9999      -9999      4.609377   1.633      3.261      
  1.867      0.8341475  0.1670714  0.1670714  0.3722189  3.481174   
  1.542735   1.633      0.1559212  0.4628939  62.75258   0.6216591  
  0.5435362  0.699782  
949        
  0.237      -9999      -9999      4.498989   1.633      3.261      
  1.867      0.8345617  0.1704341  0.1704341  0.3719911  4.018013   
  1.7045     1.633      0.1704445  0.4666935  62.75058   0.6107786  
  0.5218496  0.6997076 
949.1      
  0.235      -9999      -9999      4.384441   1.633      3.261      
  1.867      0.8353747  0.1735671  0.1735671  0.3715439  4.59242    
  1.890316   1.633      0.1835014  0.4699494  62.74768   0.5999299  
  0.5002602  0.6995996 
