~Version
 VERS              .         2.0                           : CWLS LOG ASCII STANDARD - VERSION 2.0
 WRAP              .         YES                            : ONE LINE PER DEPTH STEP
 DLM               .         SPACE                         : DELIMITING CHARACTER(SPACE TAB OR COMMA)
~Well Information
#_______________________________________________________________________________
#
#PARAMETER_NAME    .UNIT     VALUE                         : DESCRIPTION
#_______________________________________________________________________________
STRT               .M        870                           : First reference value
STOP               .M        1250                          : Last reference value
STEP               .M        0.1                           : Step increment
NULL               .         -9999                         : Missing value
COMP               .                                       : Company
WELL               .         1468                          : Well name
FLD                .         Узень                         : Field
LOC                .                                       : Location
CNTY               .                                       : County
STAT               .                                       : State
CTRY               .                                       : Country
SRVC               .         SCH                           : Service Company
DATE               .         03.01.1968                    : Date
UWI                .                                       : Unique Well ID
Block              .         7                             : 
Cartographic_reference_system .         GCS_WGS_1984                  : ESRI,PE_10_3_1- <?xml version="1.0" encoding="utf-16"?><ILateBoundCoordinateReferenceSystem name="GCS_WGS_1984"><AuthorityCode>EPSG,4326</AuthorityCode></ILateBoundCoordinateReferenceSystem>
Category           .         Нефтяная                      : 
Condition          .         В работе                      : 
EREF               .m        85.2                          : 100.8
Gorizont           .         15                            : 14
HZCS               .GCS_WGS_1984 WGS_1984_EASE-Grid_2.0_Global : ESRI,PE_10_3_1- <?xml version="1.0" encoding="utf-16"?><ILateBoundCoordinateReferenceSystem name="WGS_1984_EASE-Grid_2.0_Global"><AuthorityCode>EPSG,6933</AuthorityCode></ILateBoundCoordinateReferenceSystem>
Interpretator      .         Сагынбаева А.Н.               : 
Kupol              .         основной                      : osnovnoi
LATI               .dega     0.6587883963                  : GCS_WGS_1984
LONG               .dega     0.441086545                   : GCS_WGS_1984
Mud                .         глинистый                     : 
Mud_density        .         1,22                          : 
Mud_resistivity    .         0                             : 
NGDU               .         НГДУ-2                        : 
ORIGINALWELLNAME   .         1468                          : 
Spud_date          .         1967                          : 1961
Viscosity          .         40                            : 
X                  .m        42558.8                       : 46154
Y                  .m        84042                         : 85761.93
YEAR               .         2018                          : 
~Parameter Information Block
#_______________________________________________________________________________
#
#PARAMETER_NAME    .UNIT     VALUE                         : DESCRIPTION
#_______________________________________________________________________________
SET                .         LQC_KAZNIPI_Petrel            : 
PBBOTTOM           .M        1286.9                        : Глубина подошвы планшета
PBSCALE            .         1 _ 500                       : Вертикальный масштаб планшета
PBTOP              .M        900                           : Глубина кровли планшета
TLFamily_CALI      .         Caliper                       : 
TLFamily_COLL      .         Net Reservoir Flag            : 
TLFamily_CSAT      .         Fluid Code                    : 
TLFamily_DEPT      .         Measured Depth                : 
TLFamily_GR        .         Russian Gamma Ray             : 
TLFamily_LLS       .         Lateral Log Resistivity       : 
TLFamily_MINV      .         Micro Gradient Resistivity    : 
TLFamily_MNOR      .         Micro Resistivity             : 
TLFamily_NGLD      .         Neutron Gamma                 : 
TLFamily_PHIE      .         Effective Porosity            : 
TLFamily_PHIEN     .         Effective Porosity            : 
TLFamily_PHIT      .         Porosity                      : 
TLFamily_PRMB      .         Permeability                  : 
TLFamily_PRMB_DGR  .         Permeability                  : 
TLFamily_RT        .         Formation Resistivity         : 
TLFamily_SOIL_ARCHIE .         Oil Saturation                : 
TLFamily_SOIL_DW   .         Oil Saturation                : 
TLFamily_SP        .         Spontaneous Potential         : 
TLFamily_VSH_FIN   .         Shale Volume                  : 
TLFamily_VSH_GR    .         Shale Volume                  : 
TLFamily_VSH_SP    .         Shale Volume                  : 
~Curve Information
#_______________________________________________________________________________
#
#LOGNAME           .UNIT     LOG_ID                        : DESCRIPTION
#_______________________________________________________________________________
DEPT               .M                                      : Колонка глубины 
CALI               .м                                      : Каверномер 
COLL               .unitless                               : Описание 
CSAT               .unitless                               :  
GR                 .uR/h                                   : Гамма каротаж 
LLS                .Ohmm                                   : Боковой каротаж 
MINV               .Ohmm                                   : Микро-градиент зонд 
MNOR               .Ohmm                                   : Микро-потенциал зонд 
NGLD               .u.e.                                   : Показания зонда НГК-60 аппаратуры ДРСТ-3-90 
PHIE               .v/v                                    : Описание 
PHIEN              .v/v                                    :  
PHIT               .v/v                                    : Описание 
PRMB               .mD                                     :  
PRMB_DGR           .mD                                     :  
RT                 .ohmm                                   : УЭС пласта 
SOIL_ARCHIE        .v/v                                    :  
SOIL_DW            .v/v                                    :  
SP                 .мВ                                     : Потенциал самополяризации 
VSH_FIN            .v/v                                    : Описание 
VSH_GR             .v/v                                    : Shale volume 
VSH_SP             .v/v                                    : Shale Volume 
~Ascii
# ...
1193.4     
  0.217      1          2          5.974809   2.131      1.02       
  1.075      0.9480643  0.2260413  0.2260413  0.3095646  43.05172   
  6.859478   2.131      0.4354402  0.5402271  40.93457   0.2531011  
  0.2955484  0.2106537 
1193.5     
  0.218      1          2          5.990516   2.096      1.015      
  1.092      0.9508902  0.2246435  0.2246435  0.3080104  40.56031   
  6.69373    2.096      0.4279537  0.5338376  40.55458   0.2526268  
  0.2985151  0.2067385 
1193.6     
  0.219      1          2          6.010622   2.056      1.001      
  1.108      0.9546107  0.2222772  0.2222772  0.3059641  36.66668   
  6.487403   2.056      0.4174094  0.5254015  40.36579   0.2535966  
  0.302356   0.2048373 
1193.7     
  0.22       1          2          6.032376   2.015      0.981      
  1.119      0.9592144  0.2189987  0.2189987  0.3034321  31.882     
  6.271312   2.015      0.4042155  0.5152768  40.39703   0.2558587  
  0.3065675  0.2051499 
1193.8     
  0.22       1          2          6.052612   1.98       0.962      
  1.128      0.9646358  0.21491    0.21491    0.3004503  26.78016   
  6.076775   1.98       0.3893549  0.5043128  40.66738   0.259213   
  0.3105376  0.2078883 
1193.9     
  0.22       1          2          6.068099   1.954      0.947      
  1.13       0.9707891  0.2101299  0.2101299  0.297066   21.84104   
  5.931975   1.954      0.3733992  0.4929965  41.18268   0.2634428  
  0.3136109  0.2132747 
1194       
  0.219      1          2          6.076069   1.939      0.94       
  1.129      0.977613   0.2047541  0.2047541  0.2933129  17.36606   
  5.858807   1.939      0.3567731  0.4816998  41.9328    0.2683598  
  0.3152042  0.2215154 
1194.1     
  0.218      1          2          6.074756   1.929      0.935      
  1.13       0.9850863  0.1988332  0.1988332  0.2892025  13.49059   
  5.8708     1.929      0.3385192  0.4696447  42.89087   0.2738466  
  0.3149411  0.2327521 
1194.2     
  0.218      1          2          6.063727   1.924      0.933      
  1.129      0.9932174  0.1923737  0.1923737  0.2847304  10.24204   
  5.972501   1.924      0.3183863  0.4567243  44.01524   0.2798688  
  0.3127402  0.2469973 
1194.3     
  0.218      -9999      -9999      6.043952   1.921      0.937      
  1.126      1.001999   0.1853696  0.1853696  0.2799003  7.59717    
  6.159282   1.921      0.2954934  0.4423605  45.25451   0.2864569  
  0.3088323  0.2640816 
1194.4     
  0.219      -9999      -9999      6.017601   1.922      0.946      
  1.125      1.011342   0.1778506  0.1778506  0.2747618  5.512933   
  6.41728    1.922      0.2698007  0.4267383  46.5548    0.2936703  
  0.3037007  0.2836399 
1194.5     
  0.22       -9999      -9999      5.987736   1.921      0.955      
  1.126      1.021008   0.1699273  0.1699273  0.2694453  3.932086   
  6.722776   1.921      0.2400489  0.4090414  47.86695   0.3015699  
  0.2979878  0.3051521 
1194.6     
  0.222      -9999      -9999      5.95802    1.918      0.97       
  1.129      1.030574   0.1618111  0.1618111  0.2641845  2.781586   
  7.041183   1.918      0.2063738  0.3896169  49.15236   0.3102224  
  0.29241    0.3280348 
1194.7     
  0.224      -9999      -9999      5.932493   1.911      0.995      
  1.136      1.039436   0.153803   0.153803   0.2593102  1.976799   
  7.326717   1.911      0.1690785  0.3688885  50.3852    0.3197188  
  0.287702   0.3517357 
1194.8     
  0.225      -9999      -9999      5.915371   1.894      1.024      
  1.148      1.046872   0.1462566  0.1462566  0.2552204  1.432797   
  7.524693   1.894      0.1282121  0.3469721  51.55146   0.3301936  
  0.2845867  0.3758005 
1194.9     
  0.227      -9999      -9999      5.910843   1.861      1.051      
  1.16       1.052137   0.1395207  0.1395207  0.2523248  1.075027   
  7.577932   1.861      0.08414348 0.3241166  52.64606   0.3418308  
  0.2837685  0.3998931 
1195       
  0.228      -9999      -9999      5.92276    1.819      1.078      
  1.171      1.054582   0.1338811  0.1338811  0.2509802  0.8452029  
  7.438613   1.819      0.04040859 0.3028894  53.66875   0.3548456  
  0.2859268  0.4237644 
1195.1     
  0.23       -9999      -9999      5.954235   1.774      1.101      
  1.181      1.053774   0.1295048  0.1295048  0.2514245  0.7012961  
  7.082807   1.774      0.000547193 0.2856296  54.62064   0.3694536  
  0.291707   0.4472001 
1195.2     
  0.231      -9999      -9999      6.007269   1.729      1.118      
  1.188      1.049592   0.1263951  0.1263951  0.2537244  0.6141894  
  6.521366   1.729      0          0.273584   55.50227   0.3858463  
  0.301712   0.4699806 
1195.3     
  0.233      -9999      -9999      6.082416   1.689      1.129      
  1.192      1.042277   0.1243718  0.1243718  0.2577477  0.5634103  
  5.801185   1.689      0          0.267558   56.31289   0.4041696  
  0.3164789  0.4918603 
1195.4     
  0.235      -9999      -9999      6.178628   1.657      1.14       
  1.197      1.032425   0.123079   0.123079   0.2631665  0.5331871  
  4.994001   1.657      0          0.2670276  57.05071   0.4245076  
  0.3364452  0.5125699 
1195.5     
  0.237      -9999      -9999      6.293265   1.636      1.158      
  1.202      1.020921   0.1220298  0.1220298  0.2694934  0.5098546  
  4.177535   1.636      0          0.2707563  57.71352   0.4468593  
  0.361886   0.5318326 
1195.6     
  0.239      -9999      -9999      6.422262   1.621      1.188      
  1.205      1.008817   0.1206864  0.1206864  0.2761507  0.481463   
  3.417275   1.621      0          0.2754299  58.29938   0.4711039  
  0.3928211  0.5493866 
1195.7     
  0.241      -9999      -9999      6.560445   1.615      1.229      
  1.205      0.9971629  0.1185652  0.1185652  0.2825604  0.4398174  
  2.75567    1.615      0          0.2796975  58.8073    0.4969553  
  0.4288987  0.5650119 
1195.8     
  0.242      -9999      -9999      6.701984   1.616      1.285      
  1.194      0.9868427  0.1153417  0.1153417  0.2882365  0.3833238  
  2.210572   1.616      0          0.2816293  59.23787   0.5239238  
  0.4692901  0.5785574 
1195.9     
  0.244      -9999      -9999      6.840832   1.626      1.351      
  1.167      0.9784535  0.1109263  0.1109263  0.2928506  0.3175281  
  1.780748   1.626      0          0.2808918  59.59379   0.5512857  
  0.5126074  0.589964  
1196       
  0.245      -9999      -9999      6.971159   1.644      1.408      
  1.125      0.9722362  0.1055     0.1055     0.2962701  0.2519268  
  1.45366    1.644      0          0.2772798  59.88029   0.5780911  
  0.5568972  0.599285  
1196.1     
  0.246      -9999      -9999      7.087703   1.665      1.445      
  1.068      0.9680887  0.09949189 0.09949189 0.2985512  0.1949797  
  1.212396   1.665      0          0.2705294  60.10507   0.6032101  
  0.599735   0.6066852 
1196.2     
  0.246      -9999      -9999      7.18598    1.687      1.458      
  1.003      0.9656564  0.09350163 0.09350163 0.299889   0.1510202  
  1.040351   1.687      0          0.2617939  60.27777   0.6254162  
  0.6384089  0.6124235 
1196.3     
  0.247      -9999      -9999      7.262435   1.709      1.436      
  0.943      0.9644552  0.08818762 0.08818762 0.3005496  0.1203945  
  0.9235774  1.709      0          0.2530142  60.40946   0.6435212  
  0.6702124  0.6168299 
1196.4     
  0.247      -9999      -9999      7.314618   1.725      1.387      
  0.893      0.9639983  0.0841409  0.0841409  0.3008009  0.1013098  
  0.8514955  1.725      0          0.2452332  60.51163   0.6565456  
  0.6928241  0.6202672 
1196.5     
  0.248      -9999      -9999      7.341432   1.736      1.326      
  0.856      0.963892   0.08176728 0.08176728 0.3008594  0.09155591 
  0.8166735  1.736      0          0.2406458  60.59527   0.6639155  
  0.704738   0.6230929 
1196.6     
  0.249      -9999      -9999      7.343462   1.744      1.261      
  0.836      0.9638883  0.08120131 0.08120131 0.3008614  0.08937237 
  0.8140963  1.744      0          0.240679   60.66996   0.6656368  
  0.7056482  0.6256254 
