~Version
 VERS              .         2.0                           : CWLS LOG ASCII STANDARD - VERSION 2.0
 WRAP              .         YES                            : ONE LINE PER DEPTH STEP
 DLM               .         SPACE                         : DELIMITING CHARACTER(SPACE TAB OR COMMA)
~Well Information
#_______________________________________________________________________________
#
#PARAMETER_NAME    .UNIT     VALUE                         : DESCRIPTION
#_______________________________________________________________________________
STRT               .M        870                           : First reference value
STOP               .M        1250                          : Last reference value
STEP               .M        0.1                           : Step increment
NULL               .         -9999                         : Missing value
COMP               .                                       : Company
WELL               .         1468                          : Well name
FLD                .         Узень                         : Field
LOC                .                                       : Location
CNTY               .                                       : County
STAT               .                                       : State
CTRY               .                                       : Country
SRVC               .         SCH                           : Service Company
DATE               .         03.01.1968                    : Date
UWI                .                                       : Unique Well ID
Block              .         7                             : 
Cartographic_reference_system .         GCS_WGS_1984                  : ESRI,PE_10_3_1- <?xml version="1.0" encoding="utf-16"?><ILateBoundCoordinateReferenceSystem name="GCS_WGS_1984"><AuthorityCode>EPSG,4326</AuthorityCode></ILateBoundCoordinateReferenceSystem>
Category           .         Нефтяная                      : 
Condition          .         В работе                      : 
EREF               .m        85.2                          : 100.8
Gorizont           .         15                            : 14
HZCS               .GCS_WGS_1984 WGS_1984_EASE-Grid_2.0_Global : ESRI,PE_10_3_1- <?xml version="1.0" encoding="utf-16"?><ILateBoundCoordinateReferenceSystem name="WGS_1984_EASE-Grid_2.0_Global"><AuthorityCode>EPSG,6933</AuthorityCode></ILateBoundCoordinateReferenceSystem>
Interpretator      .         Сагынбаева А.Н.               : 
Kupol              .         основной                      : osnovnoi
LATI               .dega     0.6587883963                  : GCS_WGS_1984
LONG               .dega     0.441086545                   : GCS_WGS_1984
Mud                .         глинистый                     : 
Mud_density        .         1,22                          : 
Mud_resistivity    .         0                             : 
NGDU               .         НГДУ-2                        : 
ORIGINALWELLNAME   .         1468                          : 
Spud_date          .         1967                          : 1961
Viscosity          .         40                            : 
X                  .m        42558.8                       : 46154
Y                  .m        84042                         : 85761.93
YEAR               .         2018                          : 
~Parameter Information Block
#_______________________________________________________________________________
#
#PARAMETER_NAME    .UNIT     VALUE                         : DESCRIPTION
#_______________________________________________________________________________
SET                .         LQC_KAZNIPI_Petrel            : 
PBBOTTOM           .M        1286.9                        : Глубина подошвы планшета
PBSCALE            .         1 _ 500                       : Вертикальный масштаб планшета
PBTOP              .M        900                           : Глубина кровли планшета
TLFamily_CALI      .         Caliper                       : 
TLFamily_COLL      .         Net Reservoir Flag            : 
TLFamily_CSAT      .         Fluid Code                    : 
TLFamily_DEPT      .         Measured Depth                : 
TLFamily_GR        .         Russian Gamma Ray             : 
TLFamily_LLS       .         Lateral Log Resistivity       : 
TLFamily_MINV      .         Micro Gradient Resistivity    : 
TLFamily_MNOR      .         Micro Resistivity             : 
TLFamily_NGLD      .         Neutron Gamma                 : 
TLFamily_PHIE      .         Effective Porosity            : 
TLFamily_PHIEN     .         Effective Porosity            : 
TLFamily_PHIT      .         Porosity                      : 
TLFamily_PRMB      .         Permeability                  : 
TLFamily_PRMB_DGR  .         Permeability                  : 
TLFamily_RT        .         Formation Resistivity         : 
TLFamily_SOIL_ARCHIE .         Oil Saturation                : 
TLFamily_SOIL_DW   .         Oil Saturation                : 
TLFamily_SP        .         Spontaneous Potential         : 
TLFamily_VSH_FIN   .         Shale Volume                  : 
TLFamily_VSH_GR    .         Shale Volume                  : 
TLFamily_VSH_SP    .         Shale Volume                  : 
~Curve Information
#_______________________________________________________________________________
#
#LOGNAME           .UNIT     LOG_ID                        : DESCRIPTION
#_______________________________________________________________________________
DEPT               .M                                      : Колонка глубины 
CALI               .м                                      : Каверномер 
COLL               .unitless                               : Описание 
CSAT               .unitless                               :  
GR                 .uR/h                                   : Гамма каротаж 
LLS                .Ohmm                                   : Боковой каротаж 
MINV               .Ohmm                                   : Микро-градиент зонд 
MNOR               .Ohmm                                   : Микро-потенциал зонд 
NGLD               .u.e.                                   : Показания зонда НГК-60 аппаратуры ДРСТ-3-90 
PHIE               .v/v                                    : Описание 
PHIEN              .v/v                                    :  
PHIT               .v/v                                    : Описание 
PRMB               .mD                                     :  
PRMB_DGR           .mD                                     :  
RT                 .ohmm                                   : УЭС пласта 
SOIL_ARCHIE        .v/v                                    :  
SOIL_DW            .v/v                                    :  
SP                 .мВ                                     : Потенциал самополяризации 
VSH_FIN            .v/v                                    : Описание 
VSH_GR             .v/v                                    : Shale volume 
VSH_SP             .v/v                                    : Shale Volume 
~Ascii
# ...
896.4      
  0.213      1          3          1.758534   1.633      3.261      
  1.867      1.033975   0.2344598  0.2344598  0.2623138  61.64841   
  473.6436   1.633      0.3716405  0.4226302  28.11866   0.08440619 
  0.05243702 0.1163754 
896.5      
  0.213      1          3          1.789831   1.633      3.261      
  1.867      1.031113   0.2358481  0.2358481  0.2638878  65.40906   
  449.3912   1.633      0.3748633  0.4260548  28.10896   0.08496875 
  0.05357463 0.1163629 
896.6      
  0.213      1          3          1.821014   1.633      3.261      
  1.867      1.026821   0.2380202  0.2380202  0.2662487  71.75792   
  426.4621   1.633      0.3798348  0.4312075  28.09824   0.08554086 
  0.05473263 0.1163491 
896.7000000000001 
  0.213      1          3          1.849516   1.633      3.261      
  1.867      1.021271   0.2408968  0.2408968  0.2693012  81.12432   
  406.5294   1.633      0.3862896  0.4378023  28.08738   0.08607404 
  0.05581294 0.1163351 
896.8      
  0.213      1          3          1.874185   1.633      3.261      
  1.867      1.014739   0.2443343  0.2443343  0.2728937  93.93382   
  390.0308   1.633      0.3938165  0.4454211  28.07738   0.08654374 
  0.05676519 0.1163223 
896.9      
  0.213      1          3          1.895381   1.633      3.261      
  1.867      1.007625   0.2481114  0.2481114  0.2768063  110.3527   
  376.3907   1.633      0.4018617  0.4535184  28.06931   0.08695413 
  0.05759634 0.1163119 
897        
  0.213      1          3          1.914666   1.633      3.261      
  1.867      1.00044    0.2519375  0.2519375  0.2807578  129.913    
  364.3958   1.633      0.4097811  0.4614703  28.06413   0.08733417 
  0.0583631  0.1163052 
897.1      
  0.213      1          3          1.934186   1.633      3.261      
  1.867      0.9937474  0.2554892  0.2554892  0.2844389  151.1604   
  352.6432   1.633      0.4169336  0.4686611  28.06249   0.08772639 
  0.05914965 0.1163031 
897.2000000000001 
  0.213      1          3          1.955918   1.633      3.261      
  1.867      0.9880767  0.2584611  0.2584611  0.2875578  171.587    
  340.0047   1.633      0.4227771  0.4745725  28.06464   0.08817183 
  0.06003776 0.1163059 
897.3      
  0.213      1          3          1.980942   1.633      3.261      
  1.867      0.983839   0.2606192  0.2606192  0.2898885  188.1297   
  326.0117   1.633      0.4269423  0.4788512  28.07036   0.08869509 
  0.06107694 0.1163133 
897.4      
  0.213      1          3          2.008945   1.633      3.261      
  1.867      0.9812665  0.2618368  0.2618368  0.2913034  198.1579   
  311.0349   1.633      0.429264   0.4813363  28.07891   0.08929269 
  0.06226114 0.1163242 
897.5      
  0.213      1          3          2.038067   1.633      3.261      
  1.867      0.9803951  0.2621067  0.2621067  0.2917827  200.452    
  296.1884   1.633      0.4297759  0.4820521  28.08921   0.08992729 
  0.06351708 0.1163375 
897.6      
  0.213      1          3          2.065176   1.633      3.261      
  1.867      0.9810822  0.2615299  0.2615299  0.2914048  195.5805   
  283.0057   1.633      0.4286807  0.4811789  28.09993   0.09053011 
  0.06470896 0.1163513 
897.7000000000001 
  0.213      1          3          2.086542   1.633      3.261      
  1.867      0.9830557  0.2602848  0.2602848  0.2903194  185.4657   
  273.0308   1.633      0.4263011  0.4790072  28.10967   0.09101393 
  0.06566406 0.1163638 
897.8      
  0.213      1          3          2.09877    1.633      3.261      
  1.867      0.9859613  0.2585939  0.2585939  0.2887213  172.5614   
  267.4811   1.633      0.4230352  0.4758995  28.11713   0.09129519 
  0.06621699 0.1163734 
897.9      
  0.213      1          3          2.099744   1.633      3.261      
  1.867      0.9894085  0.2566898  0.2566898  0.2868253  159.1018   
  267.0439   1.633      0.4193095  0.472254   28.12117   0.09131991 
  0.06626124 0.1163786 
898        
  0.213      1          3          2.089319   1.633      3.261      
  1.867      0.9929967  0.2547942  0.2547942  0.2848518  146.7454   
  271.7604   1.633      0.4155486  0.4684822  28.12091   0.09108374 
  0.06578922 0.1163783 
898.1      
  0.213      1          3          2.069549   1.633      3.261      
  1.867      0.9963431  0.2531009  0.2531009  0.2830113  136.5216   
  280.9349   1.633      0.4121447  0.4649831  28.11581   0.0906375  
  0.0649033  0.1163717 
898.2000000000001 
  0.213      1          3          2.044339   1.633      3.261      
  1.867      0.9991049  0.2517677  0.2517677  0.2814923  128.9751   
  293.0847   1.633      0.4094343  0.462119   28.10569   0.09007478 
  0.06379088 0.1163587 
898.3      
  0.213      1          3          2.018614   1.633      3.261      
  1.867      1.001018   0.2509027  0.2509027  0.2804402  124.3038   
  306.0248   1.633      0.4076614  0.4601711  28.09085   0.08950748 
  0.06267536 0.1163396 
898.4      
  0.213      1          3          1.997248   1.633      3.261      
  1.867      1.001941   0.2505495  0.2505495  0.2799326  122.4456   
  317.2053   1.633      0.4069343  0.4592856  28.0721    0.08903961 
  0.06176372 0.1163155 
898.5      
  0.213      1          3          1.984023   1.633      3.261      
  1.867      1.001894   0.2506717  0.2506717  0.2799583  123.0855   
  324.3293   1.633      0.4071862  0.4594268  28.05082   0.08874713 
  0.06120611 0.1162881 
898.6      
  0.213      1          3          1.980873   1.633      3.261      
  1.867      1.001078   0.251147   0.251147   0.2804071  125.6059   
  326.0494   1.633      0.4081633  0.4603596  28.0288    0.08866696 
  0.06107405 0.1162599 
898.7000000000001 
  0.213      1          3          1.987604   1.633      3.261      
  1.867      0.9998528  0.2517786  0.2517786  0.2810809  129.0353   
  322.3846   1.633      0.4094566  0.4616789  28.00819   0.08879501 
  0.0613566  0.1162334 
898.8      
  0.213      1          3          2.002104   1.633      3.261      
  1.867      0.998677   0.2523278  0.2523278  0.2817277  132.0932   
  314.6286   1.633      0.4105762  0.4628873  27.99115   0.08909065 
  0.06196977 0.1162115 
898.9      
  0.213      1          3          2.020944   1.633      3.261      
  1.867      0.998018   0.2525596  0.2525596  0.2820901  133.4059   
  304.8293   1.633      0.4110475  0.463493   27.97969   0.08948622 
  0.06277561 0.1161968 
899        
  0.213      1          3          2.040176   1.633      3.261      
  1.867      0.9982613  0.2522893  0.2522893  0.2819563  131.8765   
  295.1409   1.633      0.4104978  0.4631013  27.97534   0.08990014 
  0.06360903 0.1161912 
899.1      
  0.213      1          3          2.056158   1.633      3.261      
  1.867      0.9996263  0.2514221  0.2514221  0.2812055  127.0881   
  287.3249   1.633      0.4087273  0.4614888  27.97901   0.09025297 
  0.06430998 0.116196  
899.2000000000001 
  0.213      1          3          2.066226   1.633      3.261      
  1.867      1.002133   0.2499672  0.2499672  0.2798267  119.4419   
  282.5075   1.633      0.4057312  0.4586296  27.99096   0.09048341 
  0.06475554 0.1162113 
899.3      
  0.213      1          3          2.069112   1.633      3.261      
  1.867      1.005606   0.2480319  0.2480319  0.2779168  109.9792   
  281.1414   1.633      0.4016947  0.4546937  28.01079   0.09056029 
  0.06488383 0.1162367 
899.4      
  0.213      1          3          2.065038   1.633      3.261      
  1.867      1.009712   0.2457979  0.2457979  0.2756586  99.98418   
  283.0714   1.633      0.3969614  0.4500174  28.03766   0.09048704 
  0.06470283 0.1162712 
899.5      
  0.213      1          3          2.0555     1.633      3.261      
  1.867      1.01402    0.2434909  0.2434909  0.273289   90.61505   
  287.6425   1.633      0.3919882  0.4450596  28.07038   0.09029713 
  0.06428098 0.1163133 
899.6      
  0.213      1          3          2.042823   1.633      3.261      
  1.867      1.018054   0.2413561  0.2413561  0.2710703  82.72933   
  293.832    1.633      0.387307   0.4403608  28.10758   0.09004284 
  0.06372458 0.1163611 
