~Version
 VERS              .         2.0                           : CWLS LOG ASCII STANDARD - VERSION 2.0
 WRAP              .         YES                            : ONE LINE PER DEPTH STEP
 DLM               .         SPACE                         : DELIMITING CHARACTER(SPACE TAB OR COMMA)
~Well Information
#_______________________________________________________________________________
#
#PARAMETER_NAME    .UNIT     VALUE                         : DESCRIPTION
#_______________________________________________________________________________
STRT               .M        870                           : First reference value
STOP               .M        1250                          : Last reference value
STEP               .M        0.1                           : Step increment
NULL               .         -9999                         : Missing value
COMP               .                                       : Company
WELL               .         1468                          : Well name
FLD                .         Узень                         : Field
LOC                .                                       : Location
CNTY               .                                       : County
STAT               .                                       : State
CTRY               .                                       : Country
SRVC               .         SCH                           : Service Company
DATE               .         03.01.1968                    : Date
UWI                .                                       : Unique Well ID
Block              .         7                             : 
Cartographic_reference_system .         GCS_WGS_1984                  : ESRI,PE_10_3_1- <?xml version="1.0" encoding="utf-16"?><ILateBoundCoordinateReferenceSystem name="GCS_WGS_1984"><AuthorityCode>EPSG,4326</AuthorityCode></ILateBoundCoordinateReferenceSystem>
Category           .         Нефтяная                      : 
Condition          .         В работе                      : 
EREF               .m        85.2                          : 100.8
Gorizont           .         15                            : 14
HZCS               .GCS_WGS_1984 WGS_1984_EASE-Grid_2.0_Global : ESRI,PE_10_3_1- <?xml version="1.0" encoding="utf-16"?><ILateBoundCoordinateReferenceSystem name="WGS_1984_EASE-Grid_2.0_Global"><AuthorityCode>EPSG,6933</AuthorityCode></ILateBoundCoordinateReferenceSystem>
Interpretator      .         Сагынбаева А.Н.               : 
Kupol              .         основной                      : osnovnoi
LATI               .dega     0.6587883963                  : GCS_WGS_1984
LONG               .dega     0.441086545                   : GCS_WGS_1984
Mud                .         глинистый                     : 
Mud_density        .         1,22                          : 
Mud_resistivity    .         0                             : 
NGDU               .         НГДУ-2                        : 
ORIGINALWELLNAME   .         1468                          : 
Spud_date          .         1967                          : 1961
Viscosity          .         40                            : 
X                  .m        42558.8                       : 46154
Y                  .m        84042                         : 85761.93
YEAR               .         2018                          : 
~Parameter Information Block
#_______________________________________________________________________________
#
#PARAMETER_NAME    .UNIT     VALUE                         : DESCRIPTION
#_______________________________________________________________________________
SET                .         LQC_KAZNIPI_Petrel            : 
PBBOTTOM           .M        1286.9                        : Глубина подошвы планшета
PBSCALE            .         1 _ 500                       : Вертикальный масштаб планшета
PBTOP              .M        900                           : Глубина кровли планшета
TLFamily_CALI      .         Caliper                       : 
TLFamily_COLL      .         Net Reservoir Flag            : 
TLFamily_CSAT      .         Fluid Code                    : 
TLFamily_DEPT      .         Measured Depth                : 
TLFamily_GR        .         Russian Gamma Ray             : 
TLFamily_LLS       .         Lateral Log Resistivity       : 
TLFamily_MINV      .         Micro Gradient Resistivity    : 
TLFamily_MNOR      .         Micro Resistivity             : 
TLFamily_NGLD      .         Neutron Gamma                 : 
TLFamily_PHIE      .         Effective Porosity            : 
TLFamily_PHIEN     .         Effective Porosity            : 
TLFamily_PHIT      .         Porosity                      : 
TLFamily_PRMB      .         Permeability                  : 
TLFamily_PRMB_DGR  .         Permeability                  : 
TLFamily_RT        .         Formation Resistivity         : 
TLFamily_SOIL_ARCHIE .         Oil Saturation                : 
TLFamily_SOIL_DW   .         Oil Saturation                : 
TLFamily_SP        .         Spontaneous Potential         : 
TLFamily_VSH_FIN   .         Shale Volume                  : 
TLFamily_VSH_GR    .         Shale Volume                  : 
TLFamily_VSH_SP    .         Shale Volume                  : 
~Curve Information
#_______________________________________________________________________________
#
#LOGNAME           .UNIT     LOG_ID                        : DESCRIPTION
#_______________________________________________________________________________
DEPT               .M                                      : Колонка глубины 
CALI               .м                                      : Каверномер 
COLL               .unitless                               : Описание 
CSAT               .unitless                               :  
GR                 .uR/h                                   : Гамма каротаж 
LLS                .Ohmm                                   : Боковой каротаж 
MINV               .Ohmm                                   : Микро-градиент зонд 
MNOR               .Ohmm                                   : Микро-потенциал зонд 
NGLD               .u.e.                                   : Показания зонда НГК-60 аппаратуры ДРСТ-3-90 
PHIE               .v/v                                    : Описание 
PHIEN              .v/v                                    :  
PHIT               .v/v                                    : Описание 
PRMB               .mD                                     :  
PRMB_DGR           .mD                                     :  
RT                 .ohmm                                   : УЭС пласта 
SOIL_ARCHIE        .v/v                                    :  
SOIL_DW            .v/v                                    :  
SP                 .мВ                                     : Потенциал самополяризации 
VSH_FIN            .v/v                                    : Описание 
VSH_GR             .v/v                                    : Shale volume 
VSH_SP             .v/v                                    : Shale Volume 
~Ascii
# ...
1143.9     
  0.208      1          2          5.398958   2.721      0.865      
  1.2        1.037516   0.202228   0.202228   0.260366   15.59231   
  16.81655   2.721      0.4453647  0.5285912  32.31161   0.1761759  
  0.2049297  0.147422  
1144       
  0.209      1          2          5.338809   2.663      0.859      
  1.201      1.040651   0.2019719  0.2019719  0.2586417  15.42295   
  18.46784   2.663      0.4391099  0.5213941  32.04842   0.1717267  
  0.1972397  0.1462138 
1144.1     
  0.209      1          2          5.27754    2.629      0.853      
  1.198      1.042692   0.2022392  0.2022392  0.2575195  15.59977   
  20.31663   2.629      0.4363671  0.5173657  31.85069   0.1675161  
  0.1897032  0.145329  
1144.2     
  0.21       1          2          5.221221   2.621      0.847      
  1.193      1.043274   0.2031187  0.2031187  0.2571991  16.19606   
  22.17891   2.621      0.4376898  0.5171671  31.71434   0.1638801  
  0.1830298  0.1447304 
1144.3     
  0.21       1          2          5.176137   2.629      0.84       
  1.19       1.042143   0.2046484  0.2046484  0.2578215  17.28794   
  23.79194   2.629      0.4421507  0.5200982  31.63903   0.1611305  
  0.1778574  0.1444036 
1144.4     
  0.21       1          2          5.147515   2.643      0.838      
  1.19       1.039186   0.2068117  0.2068117  0.2594477  18.95883   
  24.87638   2.643      0.4486121  0.5252202  31.62816   0.1595032  
  0.1746496  0.1443567 
1144.5     
  0.21       1          2          5.138466   2.649      0.848      
  1.195      1.034466   0.2095298  0.2095298  0.2620437  21.28917   
  25.22941   2.649      0.455427   0.531072   31.68868   0.1591332  
  0.1736476  0.1446187 
1144.6     
  0.21       1          2          5.149446   2.631      0.862      
  1.201      1.02823    0.2126561  0.2126561  0.2654733  24.32567   
  24.80167   2.631      0.4606836  0.5359042  31.83049   0.160052   
  0.1748643  0.1452398 
1144.7     
  0.21       1          2          5.178274   2.596      0.877      
  1.207      1.020894   0.2159836  0.2159836  0.2695082  28.03485   
  23.71292   2.596      0.4645731  0.539867   32.06569   0.1621956  
  0.1780992  0.146292  
1144.8     
  0.21       1          2          5.220692   2.554      0.893      
  1.211      1.012993   0.2192651  0.2192651  0.2738537  32.24629   
  22.1972    2.554      0.4674987  0.5432832  32.40767   0.1654201  
  0.1829682  0.1478719 
1144.9     
  0.211      1          2          5.271307   2.511      0.908      
  1.216      1.005114   0.2222429  0.2222429  0.2781873  36.61305   
  20.51478   2.511      0.4695081  0.5461403  32.86991   0.1695285  
  0.1889529  0.1501042 
1145       
  0.211      1          2          5.324666   2.479      0.917      
  1.219      0.9978161  0.2246791  0.2246791  0.2822011  40.62183   
  18.87909   2.479      0.4713491  0.5490648  33.46456   0.1743093  
  0.1954738  0.1531447 
1145.1     
  0.212      1          2          5.376159   2.46       0.921      
  1.222      0.9915647  0.2263769  0.2263769  0.2856394  43.67251   
  17.42433   2.46       0.4729045  0.5519088  34.20135   0.1795833  
  0.2019802  0.1571863 
1145.2     
  0.212      1          2          5.422608   2.452      0.922      
  1.225      0.9866864  0.2271897  0.2271897  0.2883225  45.21295   
  16.20849   2.452      0.4737434  0.5542711  35.08719   0.1852508  
  0.2080348  0.1624668 
1145.3     
  0.213      1          2          5.462344   2.449      0.927      
  1.23       0.9833651  0.2270135  0.2270135  0.2901492  44.87447   
  15.23594   2.449      0.4730851  0.5554782  36.12668   0.1913202  
  0.2133581  0.1692822 
1145.4     
  0.213      1          2          5.494881   2.449      0.941      
  1.24       0.981674   0.2257679  0.2257679  0.2910793  42.55276   
  14.48321   2.449      0.4705541  0.5552707  37.32352   0.1979132  
  0.2178183  0.1780081 
1145.5     
  0.213      1          2          5.520316   2.446      0.954      
  1.254      0.9816245  0.2233741  0.2233741  0.2911065  38.42281   
  13.92078   2.446      0.4653084  0.5530221  38.68214   0.2052496  
  0.2213697  0.1891294 
1145.6     
  0.214      1          2          5.538742   2.439      0.956      
  1.271      0.9832168  0.2197344  0.2197344  0.2902308  32.89823   
  13.527     2.439      0.4568729  0.5484942  40.20814   0.2136253  
  0.2239787  0.2032718 
1145.7     
  0.214      1          2          5.549822   2.429      0.949      
  1.288      0.9864712  0.2147221  0.2147221  0.2884409  26.56634   
  13.29561   2.429      0.4447776  0.5415261  41.90649   0.2233903  
  0.2255623  0.2212182 
1145.8     
  0.216      1          2          5.552719   2.408      0.924      
  1.298      0.9914325  0.2081852  0.2081852  0.2857121  20.10263   
  13.23577   2.408      0.4272954  0.5309587  43.77706   0.2349301  
  0.2259782  0.243882  
1145.9     
  0.218      1          2          5.54637    2.376      0.868      
  1.296      0.9981343  0.199978   0.199978   0.2820261  14.16562   
  13.36728   2.376      0.4031425  0.5161902  45.80772   0.2486307  
  0.2250677  0.2721937 
1146       
  0.221      1          2          5.529973   2.304      0.802      
  1.288      1.006539   0.1900189  0.1900189  0.2774035  9.263357   
  13.713     2.304      0.3669116  0.4933093  47.96715   0.2648019  
  0.2227332  0.3068706 
1146.1     
  0.225      1          2          5.503557   2.166      0.761      
  1.292      1.016472   0.1783725  0.1783725  0.2719407  5.637016   
  14.28885   2.166      0.3113858  0.4573371  50.19968   0.28354    
  0.2190232  0.3480567 
1146.2     
  0.23       1          2          5.468466   1.962      0.747      
  1.328      1.027568   0.1653398  0.1653398  0.2658374  3.233346   
  15.0914    1.962      0.229392   0.403963   52.42405   0.3045382  
  0.2141902  0.3948862 
1146.3     
  0.235      1          2          5.427568   1.699      0.803      
  1.426      1.039263   0.1515273  0.1515273  0.2594056  1.793956   
  16.08378   1.699      0.1104663  0.3268066  54.53791   0.3269039  
  0.2086919  0.4451158 
1146.4     
  0.24       1          2          5.385134   1.393      0.979      
  1.604      1.050823   0.1378503  0.1378503  0.2530475  1.001104   
  17.1825    1.393      0          0.216415   56.42756   0.3490825  
  0.2031362  0.4950289 
1146.5     
  0.244      -9999      -9999      5.346334   1.109      1.241      
  1.833      1.061438   0.1254443  0.1254443  0.2472092  0.589782   
  18.25268   1.109      0          0.0757174  57.98093   0.3689844  
  0.1981857  0.539783  
1146.6     
  0.247      -9999      -9999      5.316457   0.913      1.529      
  2.059      1.070335   0.1154808  0.1154808  0.2423157  0.3856049  
  19.12195   0.913      0          0          59.1016    0.3843483  
  0.1944562  0.5742404 
1146.7     
  0.249      -9999      -9999      5.299984   0.816      1.805      
  2.235      1.076898   0.1089287  0.1089287  0.2387059  0.2915967  
  19.61884   0.816      0          0          59.72135   0.3932642  
  0.1924299  0.5940984 
1146.8     
  0.249      -9999      -9999      5.299734   0.839      1.962      
  2.303      1.080766   0.1063371  0.1063371  0.2365785  0.2610829  
  19.62648   0.839      0          0          59.80866   0.3946711  
  0.1923993  0.5969428 
1146.9     
  0.248      -9999      -9999      5.316305   0.979      1.923      
  2.224      1.081883   0.1077141  0.1077141  0.2359646  0.2768758  
  19.1265    0.979      0          0          59.37214   0.3886377  
  0.1944374  0.5828381 
1147       
  0.245      -9999      -9999      5.347958   1.194      1.744      
  2.044      1.080487   0.1125473  0.1125473  0.2367321  0.3402569  
  18.20659   1.194      0          0.04611211 58.45863   0.3763175  
  0.1983905  0.5542446 
1147.1     
  0.242      -9999      -9999      5.390978   1.436      1.492      
  1.82       1.077059   0.1199495  0.1199495  0.2386177  0.466567   
  17.02685   1.436      0          0.1554147  57.14627   0.3596005  
  0.2038924  0.5153086 
