~Version
 VERS              .         2.0                           : CWLS LOG ASCII STANDARD - VERSION 2.0
 WRAP              .         NO                            : ONE LINE PER DEPTH STEP
 DLM               .         SPACE                         : DELIMITING CHARACTER(SPACE TAB OR COMMA)
~Well Information
#_______________________________________________________________________________
#
#PARAMETER_NAME    .UNIT     VALUE                         : DESCRIPTION
#_______________________________________________________________________________
STRT               .M        880                           : First reference value
STOP               .M        1254                          : Last reference value
STEP               .M        0.2                           : Step increment
NULL               .         -9999                         : Missing value
COMP               .                                       : Company
WELL               .         2382                          : Well name
FLD                .         Узень                         : Field
LOC                .                                       : Location
CNTY               .                                       : County
STAT               .                                       : State
CTRY               .                                       : Country
SRVC               .                                       : Service Company
DATE               .                                       : Date
UWI                .                                       : Unique Well ID
123                .         1                             : 
4_кв_для_Заказчика .         1                             : 
Block              .         7                             : 
Category           .         Нефтяная                      : 
Condition          .         Ликвидированная               : 
Date               .         21.01.1977                    : 
EREF               .m        84.7                          : 100.8
Gor                .         15                            : 
Gorizont           .         15                            : 14
Interpretator      .         Кайсанов Е.К                  : 
KUST               .                                       : 
Kupol              .         Основной                      : osnovnoi
Mud                .                                       : 
Mud_density        .                                       : 
Mud_resistivity    .                                       : 
NGDU               .         НГДУ-2                        : 
ORIGINALWELLNAME   .         2382                          : 
Otmetka            .                                       : 
Spud_date          .         1976                          : 1961
Viscosity          .                                       : 
X                  .m        42915.7                       : 46154
Y                  .m        84473.9                       : 85761.93
YEAR               .         2018                          : 
~Parameter Information Block
#_______________________________________________________________________________
#
#PARAMETER_NAME    .UNIT     VALUE                         : DESCRIPTION
#_______________________________________________________________________________
SET                .         LQC_KAZNIPI_Petrel            : 
TLFamily_CALI      .         Caliper                       : 
TLFamily_CILD      .         Conductivity                  : 
TLFamily_COLL      .         Net Reservoir Flag            : 
TLFamily_CSAT      .         Fluid Code                    : 
TLFamily_DEPT      .         Measured Depth                : 
TLFamily_GR        .         Russian Gamma Ray             : 
TLFamily_GZ1       .         Gradient 045                  : 
TLFamily_GZ2       .         Gradient 105                  : 
TLFamily_GZ3       .         Gradient 225                  : 
TLFamily_GZ4       .         Gradient 425                  : 
TLFamily_GZ5       .         Gradient 850                  : 
TLFamily_MINV      .         Micro Gradient Resistivity    : 
TLFamily_MNOR      .         Micro Resistivity             : 
TLFamily_NGLD      .         Neutron Far                   : 
TLFamily_OGZ3      .         Gradient Inverted 225         : 
TLFamily_PHIE      .         Effective Porosity            : 
TLFamily_PHIEN     .         Effective Porosity            : 
TLFamily_PHIT      .         Porosity                      : 
TLFamily_PRMB      .         Permeability                  : 
TLFamily_PRMB_DGR  .         Permeability                  : 
TLFamily_RT        .         Formation Resistivity         : 
TLFamily_SOIL_ARCHIE .         Oil Saturation                : 
TLFamily_SOIL_DW   .         Oil Saturation                : 
TLFamily_SP        .         Spontaneous Potential         : 
TLFamily_VSH_FIN   .         Shale Volume                  : 
TLFamily_VSH_GR    .         Shale Volume                  : 
TLFamily_VSH_SP    .         Shale Volume                  : 
~Curve Information
#_______________________________________________________________________________
#
#LOGNAME           .UNIT     LOG_ID                        : DESCRIPTION
#_______________________________________________________________________________
DEPT               .M                                      : Колонка глубины 
CALI               .м                                      : Каверномер 
CILD               .мСм/м                                  : Индукционный каротаж 
COLL               .unitless                               :  
CSAT               .unitless                               :  
GR                 .uR/h                                   : Гамма каротаж 
GZ1                .Ohmm                                   : 2 
GZ2                .Ohmm                                   : 3 
GZ3                .Ohmm                                   : 2 
GZ4                .Ohmm                                   : 4 
GZ5                .Ohmm                                   : 5 
MINV               .Ohmm                                   : Микро-градиент зонд 
MNOR               .Ohmm                                   : Микро-потенциал зонд 
NGLD               .у.е.                                   : Показания зонда НГК-60 аппаратуры ДРСТ-3-90 
OGZ3               .Ohmm                                   : 3 
PHIE               .v/v                                    : Описание 
PHIEN              .v/v                                    :  
PHIT               .v/v                                    : Описание 
PRMB               .mD                                     :  
PRMB_DGR           .mD                                     :  
RT                 .ohmm                                   : УЭС пласта 
SOIL_ARCHIE        .v/v                                    :  
SOIL_DW            .v/v                                    :  
SP                 .мВ                                     : Потенциал самополяризации 
VSH_FIN            .v/v                                    : Описание 
VSH_GR             .v/v                                    : Shale volume 
VSH_SP             .v/v                                    : Shale Volume 
~Ascii
# ...
1101.4     0.211      0.502      -9999      -9999      6.910559   1.9914     2.6        3.0069     3.8853     2.2245     2.463      2.628      1.131      2.7996     0.1688552  0.1688552  0.2852641  3.756346   2.080372   2.899549   0.4353197  0.5856314  34.52      0.3527542  0.4810681  0.2244403 
1101.6     0.211      0.498      -9999      -9999      6.78795    1.9657     2.7282     3.1819     4.1759     2.3469     2.507      3.076      1.13       2.8693     0.1784991  0.1784991  0.285843   5.66755    2.629675   3.017525   0.4619188  0.5951925  33.895     0.3252844  0.4371737  0.213395  
1101.8     0.211      0.498      -9999      -9999      6.740448   2.1149     3.0205     3.3364     4.4003     2.4898     2.326      3.673      1.12       3.0344     0.1885955  0.1885955  0.291632   8.717754   2.879565   3.178242   0.496582   0.6165027  33.271     0.3122317  0.4212653  0.2031982 
1102       0.211      0.499      8          2          6.762976   2.1767     3.1897     3.4445     4.7521     2.5969     2.145      3.042      1.104      3.4266     0.1983414  0.1983414  0.3008944  13.2106    2.758225   3.435527   0.529736   0.6405894  32.583     0.3107666  0.4287364  0.1927969 
1102.2     0.21       0.5        8          2          6.814299   2.3208     3.2974     3.5526     5.0121     2.7704     1.965      2.412      1.117      3.5917     0.1863686  0.1863686  0.2933687  7.927883   2.50054    3.572043   0.5214181  0.6401529  33.118     0.3242427  0.4462556  0.2022298 
1102.4     0.21       0.499      8          2          6.843523   2.3825     3.2821     3.3776     4.9305     2.9133     2.122      2.416      1.123      3.7775     0.181063   0.181063   0.2898953  6.322422   2.364717   3.566375   0.5180951  0.6403937  33.118     0.3297949  0.4565493  0.2030404 
1102.6     0.21       0.492      8          2          6.818109   2.1921     3.0308     3.0738     4.5124     2.7959     2.088      2.421      1.108      3.8911     0.191091   0.191091   0.2985788  9.69678    2.4824     3.434497   0.5398248  0.6539765  33.118     0.3257204  0.4475843  0.2038566 
1102.8     0.21       0.488      8          2          6.731308   2.1895     3.0051     2.9914     4.2779     2.602      2.149      3.101      1.095      3.9117     0.2044088  0.2044088  0.3061045  17.11215   2.930306   3.390204   0.5583288  0.6619685  32.723     0.3081688  0.4182712  0.1980664 
1103       0.21       0.483      8          2          6.593569   2.187      3.0462     3.0069     3.8547     2.5255     2.365      2.387      1.108      3.9788     0.2048254  0.2048254  0.2985788  17.41893   3.812689   3.425241   0.5563979  0.6549968  32.328     0.2841012  0.3756453  0.192557  
1103.2     0.21       0.477      1          2          6.430704   2.187      3.0205     2.9811     3.7859     2.3929     2.193      2.869      1.103      4.1233     0.217259   0.217259   0.3014733  29.60204   5.204803   3.460382   0.5806407  0.6669091  31.384     0.2551948  0.3308129  0.1795768 
1103.4     0.21       0.47       1          2          6.279692   2.1046     2.9436     2.9296     3.717      2.3673     2.396      3.001      1.093      4.2471     0.2311484  0.2311484  0.3072623  53.52871   6.946061   3.467417   0.604545   0.6805705  30.352     0.2306482  0.2940385  0.1672578 
1103.6     0.21       0.465      1          2          6.166146   2.0995     2.9308     2.8781     3.5029     2.3163     2.514      2.613      1.098      4.5103     0.2340962  0.2340962  0.3043678  60.69981   8.629349   3.513912   0.609293   0.6808535  29.319     0.2129442  0.2691059  0.1567826 
1103.8     0.21       0.46       1          2          6.089497   2.2539     2.9179     2.8627     3.3703     2.4235     2.427      2.526      1.107      4.5722     0.2329664  0.2329664  0.2991577  57.84445   9.99065    3.520918   0.6100702  0.6791087  28.248     0.2005796  0.2534817  0.1476774 
1104       0.21       0.45       1          2          6.035353   2.2127     2.959      3.0789     3.2377     2.5306     3.013      2.668      1.115      4.5722     0.2305295  0.2305295  0.2945265  52.13422   11.0798    3.679823   0.6068458  0.6750771  27.84      0.1939304  0.2429948  0.144866  
1104.2     0.21       0.443      1          2          6.001024   2.2127     3.3949     3.3003     3.1052     2.8061     3.974      2.481      1.093      4.5929     0.24496    0.24496    0.3072623  96.47445   11.83106   3.840761   0.6347567  0.6977008  27.254     0.1887946  0.2365717  0.1410175 
1104.4     0.21       0.437      1          2          5.999844   2.1818     3.7795     3.4754     3.1663     3.2908     3.008      4.125      1.073      4.9094     0.2569351  0.2569351  0.3188403  160.7751   11.85776   4.069776   0.6565887  0.7161269  26.872     0.1875917  0.2363541  0.1388294 
1104.6     0.21       0.432      1          2          6.03881    2.5883     3.9949     3.7397     3.5029     3.7755     3.809      5.616      1.052      5.2259     0.2679708  0.2679708  0.3309972  257.4112   11.00682   4.359619   0.6777954  0.7348585  26.744     0.190989   0.2436513  0.1383267 
1104.8     0.21       0.429      1          2          6.102398   2.9177     4.456399   4.004      3.7221     4.2602     2.721      6.54       1.04       5.5424     0.2725787  0.2725787  0.337944   313.3121   9.747349   4.649243   0.6926615  0.7487239  26.974     0.1980767  0.2560465  0.1401068 
1105       0.21       0.426      1          2          6.159249   3.2213     4.641      4.2683     3.9312     4.7449     2.445      5.48       1.067      5.8589     0.2538406  0.2538406  0.3223137  140.8972   8.74384    4.938688   0.6827027  0.7422911  27.917     0.2074941  0.2676614  0.1473268 
1105.2     0.21       0.425      1          2          6.17968    3.3345     4.9077     4.5326     4.0382     5.2296     2.348      4.246      1.061      6.1755     0.2557897  0.2557897  0.3257871  153.1099   8.409018   5.228018   0.6936108  0.7522985  28.452     0.2121135  0.271963   0.1522639 
1105.4     0.21       0.428      1          2          6.155254   3.2058     5.6684     4.7969     4.1402     5.576499   2.251      6.068      1.037      6.492      0.2696224  0.2696224  0.3396807  276.1969   8.810852   5.517185   0.7150801  0.7701674  28.988     0.2122981  0.2668283  0.1577678 
1105.6     0.21       0.432      1          2          6.111989   3.6329     6.4291     5.0612     4.3391     5.7551     2.153      6.518      1.042      6.0399     0.2673679  0.2673679  0.3367862  250.8766   9.570325   5.507408   0.7201313  0.774349   29.421     0.2103584  0.2579699  0.1627468 
1105.8     0.21       0.435      1          2          6.097404   4.06       7.189701   4.6287     4.4461     5.949      2.056      5.019      1.063      5.5878     0.2547992  0.2547992  0.3246293  146.7765   9.84082    5.063231   0.7079156  0.7645796  29.855     0.2116065  0.2550506  0.1681625 
1106       0.21       0.436      1          2          6.137617   3.2985     5.8538     4.474299   4.4869     5.9388     1.925      3.52       1.077      5.135799   0.2435083  0.2435083  0.3165247  90.68223   9.112885   4.782283   0.6839358  0.7460695  30.696     0.2212618  0.2631811  0.1793426 
1106.2     0.21       0.436      1          2          6.213201   2.5883     4.5179     4.2014     4.374801   5.6071     1.697      2.021      1.084      4.6837     0.2364803  0.2364803  0.3124724  67.19645   7.887223   4.42946    0.666949   0.7334939  30.798     0.2302792  0.2791709  0.1813876 
1106.4     0.21       0.432      1          2          6.282732   2.2487     4.7333     4.3661     3.7527     5.3418     2.069      3.392      1.078      4.2317     0.2388258  0.2388258  0.3159458  74.26626   6.905823   4.29785    0.6576989  0.7259843  30.084     0.233697   0.2947369  0.1726572 
1106.6     0.21       0.426      1          2          6.318424   2.2333     5.041      4.7214     3.5182     5.2908     2.444      3.324      1.098      4.3452     0.2264924  0.2264924  0.3043678  43.88817   6.45049    4.525495   0.636413   0.7093478  29.727     0.2359859  0.3030613  0.1689104 
