~Version
 VERS              .         2.0                           : CWLS LOG ASCII STANDARD - VERSION 2.0
 WRAP              .         NO                            : ONE LINE PER DEPTH STEP
 DLM               .         SPACE                         : DELIMITING CHARACTER(SPACE TAB OR COMMA)
~Well Information
#_______________________________________________________________________________
#
#PARAMETER_NAME    .UNIT     VALUE                         : DESCRIPTION
#_______________________________________________________________________________
STRT               .M        880                           : First reference value
STOP               .M        1254                          : Last reference value
STEP               .M        0.2                           : Step increment
NULL               .         -9999                         : Missing value
COMP               .                                       : Company
WELL               .         2382                          : Well name
FLD                .         Узень                         : Field
LOC                .                                       : Location
CNTY               .                                       : County
STAT               .                                       : State
CTRY               .                                       : Country
SRVC               .                                       : Service Company
DATE               .                                       : Date
UWI                .                                       : Unique Well ID
123                .         1                             : 
4_кв_для_Заказчика .         1                             : 
Block              .         7                             : 
Category           .         Нефтяная                      : 
Condition          .         Ликвидированная               : 
Date               .         21.01.1977                    : 
EREF               .m        84.7                          : 100.8
Gor                .         15                            : 
Gorizont           .         15                            : 14
Interpretator      .         Кайсанов Е.К                  : 
KUST               .                                       : 
Kupol              .         Основной                      : osnovnoi
Mud                .                                       : 
Mud_density        .                                       : 
Mud_resistivity    .                                       : 
NGDU               .         НГДУ-2                        : 
ORIGINALWELLNAME   .         2382                          : 
Otmetka            .                                       : 
Spud_date          .         1976                          : 1961
Viscosity          .                                       : 
X                  .m        42915.7                       : 46154
Y                  .m        84473.9                       : 85761.93
YEAR               .         2018                          : 
~Parameter Information Block
#_______________________________________________________________________________
#
#PARAMETER_NAME    .UNIT     VALUE                         : DESCRIPTION
#_______________________________________________________________________________
SET                .         LQC_KAZNIPI_Petrel            : 
TLFamily_CALI      .         Caliper                       : 
TLFamily_CILD      .         Conductivity                  : 
TLFamily_COLL      .         Net Reservoir Flag            : 
TLFamily_CSAT      .         Fluid Code                    : 
TLFamily_DEPT      .         Measured Depth                : 
TLFamily_GR        .         Russian Gamma Ray             : 
TLFamily_GZ1       .         Gradient 045                  : 
TLFamily_GZ2       .         Gradient 105                  : 
TLFamily_GZ3       .         Gradient 225                  : 
TLFamily_GZ4       .         Gradient 425                  : 
TLFamily_GZ5       .         Gradient 850                  : 
TLFamily_MINV      .         Micro Gradient Resistivity    : 
TLFamily_MNOR      .         Micro Resistivity             : 
TLFamily_NGLD      .         Neutron Far                   : 
TLFamily_OGZ3      .         Gradient Inverted 225         : 
TLFamily_PHIE      .         Effective Porosity            : 
TLFamily_PHIEN     .         Effective Porosity            : 
TLFamily_PHIT      .         Porosity                      : 
TLFamily_PRMB      .         Permeability                  : 
TLFamily_PRMB_DGR  .         Permeability                  : 
TLFamily_RT        .         Formation Resistivity         : 
TLFamily_SOIL_ARCHIE .         Oil Saturation                : 
TLFamily_SOIL_DW   .         Oil Saturation                : 
TLFamily_SP        .         Spontaneous Potential         : 
TLFamily_VSH_FIN   .         Shale Volume                  : 
TLFamily_VSH_GR    .         Shale Volume                  : 
TLFamily_VSH_SP    .         Shale Volume                  : 
~Curve Information
#_______________________________________________________________________________
#
#LOGNAME           .UNIT     LOG_ID                        : DESCRIPTION
#_______________________________________________________________________________
DEPT               .M                                      : Колонка глубины 
CALI               .м                                      : Каверномер 
CILD               .мСм/м                                  : Индукционный каротаж 
COLL               .unitless                               :  
CSAT               .unitless                               :  
GR                 .uR/h                                   : Гамма каротаж 
GZ1                .Ohmm                                   : 2 
GZ2                .Ohmm                                   : 3 
GZ3                .Ohmm                                   : 2 
GZ4                .Ohmm                                   : 4 
GZ5                .Ohmm                                   : 5 
MINV               .Ohmm                                   : Микро-градиент зонд 
MNOR               .Ohmm                                   : Микро-потенциал зонд 
NGLD               .у.е.                                   : Показания зонда НГК-60 аппаратуры ДРСТ-3-90 
OGZ3               .Ohmm                                   : 3 
PHIE               .v/v                                    : Описание 
PHIEN              .v/v                                    :  
PHIT               .v/v                                    : Описание 
PRMB               .mD                                     :  
PRMB_DGR           .mD                                     :  
RT                 .ohmm                                   : УЭС пласта 
SOIL_ARCHIE        .v/v                                    :  
SOIL_DW            .v/v                                    :  
SP                 .мВ                                     : Потенциал самополяризации 
VSH_FIN            .v/v                                    : Описание 
VSH_GR             .v/v                                    : Shale volume 
VSH_SP             .v/v                                    : Shale Volume 
~Ascii
# ...
955.6      0.235      0.569      -9999      -9999      5.213902   1.1019     1.8908     2.088      1.7484     2.0508     1.764      0.999      1.014      2.2397     0.1372754  0.1372754  0.3329954  0.9768581  1.528175   2.161191   0.2454503  0.5417995  52.598     0.5930908  0.5456449  0.6405368 
955.8      0.239      0.565      -9999      -9999      5.242538   1.3069     2.0268     2.1086     1.8501     2.0355     1.602      0.759      1.033      2.4555     0.1234422  0.1234422  0.3219963  0.5415118  1.448645   2.268867   0.1595271  0.5054848  52.7       0.601679   0.5576838  0.6456742 
956        0.242      0.559      -9999      -9999      5.240487   1.4402     2.0165     2.1291     1.9111     2.0203     1.677      0.799      1.052      2.5171     0.1120627  0.1120627  0.3109972  0.3332966  1.454202   2.306899   0.1012705  0.4860931  52.769     0.6028318  0.5568126  0.6488509 
956.2      0.246      0.554      -9999      -9999      5.221774   1.5683     2.0165     2.1497     1.9314     2.0406     1.755      0.883      1.027      2.4658     0.1273199  0.1273199  0.3254697  0.6388984  1.505889   2.296926   0.1974619  0.5241673  52.837     0.600454   0.548928   0.65198   
956.4      0.236      0.55       -9999      -9999      5.191351   1.5888     2.1294     2.0109     1.8551     2.2132     1.68       0.927      1.017      2.4863     0.1346664  0.1346664  0.3312587  0.8739911  1.593868   2.223473   0.2256392  0.5324776  52.905     0.5957342  0.5363472  0.6551213 
956.6      0.232      0.542      -9999      -9999      5.121592   1.6965     2.268      2.0726     1.723      2.2462     1.342      1.171      1.02       2.5993     0.1361315  0.1361315  0.329522   0.9303453  1.815506   2.30626    0.2283113  0.5297887  53.058     0.5860318  0.508577   0.6634866 
956.8      0.229      0.538      -9999      -9999      4.990381   1.799      2.5143     2.0211     1.7179     2.2792     1.346      0.977      1          2.7123     0.1543001  0.1543001  0.3411     2.019161   2.319286   2.316233   0.3123073  0.5636421  53.211     0.5660602  0.46018    0.6719403 
957        0.229      0.533      -9999      -9999      4.81957    1.9117     2.4065     1.9389     1.7154     2.1599     1.484      0.844      0.999      2.6866     0.1636156  0.1636156  0.3416789  3.004116   3.190141   2.252318   0.3625474  0.5847725  53.279     0.5395856  0.4040096  0.6751616 
957.2      0.224      0.528      -9999      -9999      4.657024   1.7887     2.268      1.8874     1.7128     2.0406     1.656      1.225      1.009      2.7072     0.1650601  0.1650601  0.3358899  3.194999   4.320815   2.224163   0.3743065  0.5866246  53.347     0.5176663  0.3569369  0.6783956 
957.4      0.223      0.523      -9999      -9999      4.53587    1.658      2.2936     1.8874     1.6874     2.0279     1.843      1.731      1.015      2.7945     0.1662455  0.1662455  0.3324165  3.360683   5.417154   2.253077   0.3848205  0.5898172  53.415     0.5035486  0.325455   0.6816422 
957.6      0.224      0.516      -9999      -9999      4.462186   1.5273     2.4193     1.9749     1.662      2.0152     1.934      1.527      0.996      2.9795     0.1832173  0.1832173  0.3434156  6.930845   6.215801   2.375349   0.4409666  0.6173006  53.135     0.4854496  0.3076825  0.6632166 
957.8      0.226      0.51       -9999      -9999      4.42604    1.7938     2.545      2.0443     1.6264     2.0025     1.813      1.34       0.977      3          0.1970514  0.1970514  0.3544147  12.5034    6.64961    2.431616   0.4818703  0.6399845  53.007     0.4768585  0.2993222  0.6543947 
958        0.227      0.505      -9999      -9999      4.411798   1.8912     2.5604     2.1137     1.7078     1.9898     1.714      1.628      1.01       3.0205     0.1799203  0.1799203  0.335311   6.021703   6.828742   2.487021   0.4513443  0.6230614  52.879     0.4708808  0.2960909  0.6456707 
958.2      0.219      0.494      -9999      -9999      4.403982   1.8656     2.4168     2.1703     1.7255     2.0102     2.179      2.33       1.042      3.0822     0.1630993  0.1630993  0.3167862  2.93868    6.929088   2.547091   0.4130856  0.6022942  52.752     0.4657179  0.2943324  0.6371033 
958.4      0.217      0.49       -9999      -9999      4.395301   1.8554     2.5964     2.2269     1.7433     2.0279     2.145      2.288      1.075      3.1695     0.1481724  0.1481724  0.2976825  1.554787   7.042275   2.615877   0.3706157  0.5774528  52.369     0.4530607  0.2923915  0.61373   
958.6      0.217      0.485      -9999      -9999      4.385334   2.0091     2.7144     2.3811     1.6925     2.0457     2.19       2.351      1.108      3.2312     0.1303173  0.1303173  0.2785788  0.7260243  7.174494   2.741767   0.3064659  0.5448871  52.292     0.4492771  0.290179   0.6083753 
958.8      0.216      0.482      -9999      -9999      4.369634   2.0296     2.8221     2.4763     1.6925     2.2132     2.63       3.034      1.14       3.3545     0.1132391  0.1132391  0.260054   0.3504453  7.387849   2.849265   0.2206532  0.502215   52.215     0.4448938  0.2867274  0.6030601 
959        0.215      0.481      -9999      -9999      4.342539   2.1834     3.0325     2.5714     1.7738     2.2335     2.886      3.568      1.13       3.4161     0.1207352  0.1207352  0.265843   0.4824665  7.771063   2.934166   0.2571691  0.5166302  52.152     0.4397206  0.2808673  0.5985738 
959.2      0.215      0.478      -9999      -9999      4.3155     2.3884     3.248      2.7051     1.8043     2.2538     2.577      3.008      1.125      3.4366     0.1253197  0.1253197  0.2687375  0.5866557  8.173298   3.027288   0.2782951  0.5247536  52.088     0.4345993  0.2751388  0.5940599 
959.4      0.215      0.478      -9999      -9999      4.318363   2.5114     3.3712     2.7823     1.8348     2.2741     2.286      2.655      1.143      3.411      0.1138838  0.1138838  0.2583173  0.3602152  8.129743   3.064739   0.2114654  0.4922353  52.203     0.4376773  0.2757398  0.5996148 
959.6      0.214      0.481      -9999      -9999      4.37183    2.6754     3.638      2.8363     1.8755     2.3503     2.205      2.477      1.16       3.2158     0.1012264  0.1012264  0.248476   0.20995    7.357623   3.014152   0.1168181  0.4502597  52.318     0.4462111  0.2872079  0.6052143 
959.8      0.214      0.483      -9999      -9999      4.466506   2.7369     3.8586     2.8903     1.9161     2.3604     2.124      2.283      1.136      3.0976     0.1093098  0.1093098  0.2623696  0.2963749  6.165895   2.990362   0.1719095  0.4822486  52.573     0.4638174  0.308697   0.6189377 
960        0.214      0.485      -9999      -9999      4.57415    2.5268     3.9407     2.9571     1.9771     2.3706     2.043      2.248      1.112      2.9589     0.1165412  0.1165412  0.2762632  0.4034439  5.043612   2.958      0.2200683  0.5126823  52.828     0.4840062  0.3350898  0.6329226 
960.2      0.214      0.489      -9999      -9999      4.673251   2.2346     4.0177     2.9314     1.9975     2.3452     2.121      2.605      1.088      2.851      0.1252579  0.1252579  0.2901568  0.5851101  4.191918   2.890641   0.2823867  0.5498729  52.93      0.4996937  0.3613785  0.6380088 
960.4      0.214      0.491      -9999      -9999      4.758387   2.209      3.9664     2.9854     2.033      2.3198     2.42       2.773      1.064      2.774      0.1343095  0.1343095  0.3040504  0.8607873  3.576049   2.87582    0.3293913  0.5772542  53.032     0.5143663  0.3856036  0.6431291 
960.6      0.214      0.493      -9999      -9999      4.826535   2.332      3.7868     3.0394     2.0534     2.2944     2.181      2.416      1.083      2.774      0.1213276  0.1213276  0.2930513  0.4948116  3.148939   2.900642   0.2621822  0.5473947  52.905     0.5203749  0.40616    0.6345899 
960.8      0.214      0.497      -9999      -9999      4.867175   2.4448     3.8535     3.1937     2.2668     2.264      2.001      2.08       1.101      2.8818     0.112643   0.112643   0.2826311  0.3416479  2.918921   3.029744   0.2073793  0.5206017  52.522     0.5151157  0.4189366  0.6112947 
