~Version
 VERS              .         2.0                           : CWLS LOG ASCII STANDARD - VERSION 2.0
 WRAP              .         NO                            : ONE LINE PER DEPTH STEP
 DLM               .         SPACE                         : DELIMITING CHARACTER(SPACE TAB OR COMMA)
~Well Information
#_______________________________________________________________________________
#
#PARAMETER_NAME    .UNIT     VALUE                         : DESCRIPTION
#_______________________________________________________________________________
STRT               .M        880                           : First reference value
STOP               .M        1254                          : Last reference value
STEP               .M        0.2                           : Step increment
NULL               .         -9999                         : Missing value
COMP               .                                       : Company
WELL               .         2382                          : Well name
FLD                .         Узень                         : Field
LOC                .                                       : Location
CNTY               .                                       : County
STAT               .                                       : State
CTRY               .                                       : Country
SRVC               .                                       : Service Company
DATE               .                                       : Date
UWI                .                                       : Unique Well ID
123                .         1                             : 
4_кв_для_Заказчика .         1                             : 
Block              .         7                             : 
Category           .         Нефтяная                      : 
Condition          .         Ликвидированная               : 
Date               .         21.01.1977                    : 
EREF               .m        84.7                          : 100.8
Gor                .         15                            : 
Gorizont           .         15                            : 14
Interpretator      .         Кайсанов Е.К                  : 
KUST               .                                       : 
Kupol              .         Основной                      : osnovnoi
Mud                .                                       : 
Mud_density        .                                       : 
Mud_resistivity    .                                       : 
NGDU               .         НГДУ-2                        : 
ORIGINALWELLNAME   .         2382                          : 
Otmetka            .                                       : 
Spud_date          .         1976                          : 1961
Viscosity          .                                       : 
X                  .m        42915.7                       : 46154
Y                  .m        84473.9                       : 85761.93
YEAR               .         2018                          : 
~Parameter Information Block
#_______________________________________________________________________________
#
#PARAMETER_NAME    .UNIT     VALUE                         : DESCRIPTION
#_______________________________________________________________________________
SET                .         LQC_KAZNIPI_Petrel            : 
TLFamily_CALI      .         Caliper                       : 
TLFamily_CILD      .         Conductivity                  : 
TLFamily_COLL      .         Net Reservoir Flag            : 
TLFamily_CSAT      .         Fluid Code                    : 
TLFamily_DEPT      .         Measured Depth                : 
TLFamily_GR        .         Russian Gamma Ray             : 
TLFamily_GZ1       .         Gradient 045                  : 
TLFamily_GZ2       .         Gradient 105                  : 
TLFamily_GZ3       .         Gradient 225                  : 
TLFamily_GZ4       .         Gradient 425                  : 
TLFamily_GZ5       .         Gradient 850                  : 
TLFamily_MINV      .         Micro Gradient Resistivity    : 
TLFamily_MNOR      .         Micro Resistivity             : 
TLFamily_NGLD      .         Neutron Far                   : 
TLFamily_OGZ3      .         Gradient Inverted 225         : 
TLFamily_PHIE      .         Effective Porosity            : 
TLFamily_PHIEN     .         Effective Porosity            : 
TLFamily_PHIT      .         Porosity                      : 
TLFamily_PRMB      .         Permeability                  : 
TLFamily_PRMB_DGR  .         Permeability                  : 
TLFamily_RT        .         Formation Resistivity         : 
TLFamily_SOIL_ARCHIE .         Oil Saturation                : 
TLFamily_SOIL_DW   .         Oil Saturation                : 
TLFamily_SP        .         Spontaneous Potential         : 
TLFamily_VSH_FIN   .         Shale Volume                  : 
TLFamily_VSH_GR    .         Shale Volume                  : 
TLFamily_VSH_SP    .         Shale Volume                  : 
~Curve Information
#_______________________________________________________________________________
#
#LOGNAME           .UNIT     LOG_ID                        : DESCRIPTION
#_______________________________________________________________________________
DEPT               .M                                      : Колонка глубины 
CALI               .м                                      : Каверномер 
CILD               .мСм/м                                  : Индукционный каротаж 
COLL               .unitless                               :  
CSAT               .unitless                               :  
GR                 .uR/h                                   : Гамма каротаж 
GZ1                .Ohmm                                   : 2 
GZ2                .Ohmm                                   : 3 
GZ3                .Ohmm                                   : 2 
GZ4                .Ohmm                                   : 4 
GZ5                .Ohmm                                   : 5 
MINV               .Ohmm                                   : Микро-градиент зонд 
MNOR               .Ohmm                                   : Микро-потенциал зонд 
NGLD               .у.е.                                   : Показания зонда НГК-60 аппаратуры ДРСТ-3-90 
OGZ3               .Ohmm                                   : 3 
PHIE               .v/v                                    : Описание 
PHIEN              .v/v                                    :  
PHIT               .v/v                                    : Описание 
PRMB               .mD                                     :  
PRMB_DGR           .mD                                     :  
RT                 .ohmm                                   : УЭС пласта 
SOIL_ARCHIE        .v/v                                    :  
SOIL_DW            .v/v                                    :  
SP                 .мВ                                     : Потенциал самополяризации 
VSH_FIN            .v/v                                    : Описание 
VSH_GR             .v/v                                    : Shale volume 
VSH_SP             .v/v                                    : Shale Volume 
~Ascii
# ...
1074.4     0.234      0.568      -9999      -9999      6.464616   1.4521     2.0188     1.9874     1.6424     1.8701     1.495      1.731      0.979      2.3558     0.1528041  0.1528041  0.3532569  1.894349   1.585173   2.155976   0.3067799  0.5717821  48.602     0.6074329  0.5375466  0.6773192 
1074.6     0.234      0.562      -9999      -9999      6.406761   1.5086     2.0394     2.008      1.6296     1.8803     1.596      1.807      0.994      2.41       0.1456079  0.1456079  0.3445734  1.3937     1.719555   2.190711   0.2852183  0.5625217  48.738     0.6029258  0.5199792  0.6858724 
1074.8     0.232      0.556      -9999      -9999      6.398573   1.565      2.0599     2.0286     1.6041     1.8803     1.517      1.883      1.002      2.4745     0.1921148  0.1921148  0.3599422  10.12955   5.534414   2.229473   0.4400952  0.617874   48.874     0.508568   0.3226214  0.6945145 
1075       0.228      0.552      -9999      -9999      6.432845   1.6881     2.1062     2.0286     1.645      1.8803     1.527      1.688      1.007      2.539      0.1856109  0.1856109  0.3570477  7.675782   5.183551   2.255283   0.4245626  0.6118957  49.078     0.5195054  0.331366   0.7076448 
1075.2     0.227      0.548      -9999      -9999      6.475852   1.7292     2.1524     2.0286     1.6603     1.8038     1.599      1.746      1.006      2.6835     0.1837768  0.1837768  0.3576266  7.098232   4.774547   2.31054    0.4233784  0.6135114  49.129     0.5268175  0.3426758  0.7109591 
1075.4     0.225      0.545      -9999      -9999      6.492457   1.7702     2.1961     2.0157     1.6092     1.7529     1.62       1.676      1.025      2.7454     0.1714914  0.1714914  0.3466275  4.203348   4.625421   2.324632   0.3931696  0.5993229  49.18      0.5307154  0.3471449  0.7142859 
1075.6     0.225      0.541      -9999      -9999      6.461238   1.8164     2.2397     2.0029     1.5734     1.7274     1.558      1.771      1.033      2.8073     0.1682388  0.1682388  0.3419963  3.658879   4.909773   2.337841   0.3852538  0.5946185  49.18      0.526538   0.3387901  0.7142859 
1075.8     0.226      0.53       -9999      -9999      6.381811   1.8164     2.2808     2.0029     1.5377     1.7257     1.617      1.761      1.045      2.9054     0.1646516  0.1646516  0.3350495  3.139819   5.714572   2.371178   0.3631309  0.5786707  49.18      0.5163574  0.3184289  0.7142859 
1076       0.229      0.528      -9999      -9999      6.284616   1.8139     2.3014     2.0209     1.4866     1.724      1.685      1.936      1.024      3.0086     0.1850019  0.1850019  0.3472064  7.478959   6.881003   2.417767   0.4148073  0.5987858  48.963     0.4915289  0.2951705  0.6878873 
1076.2     0.227      0.527      -9999      -9999      6.219159   1.8113     2.3219     2.0389     1.4355     1.7223     1.789      2.112      1.018      3.0292     0.195123   0.195123   0.3506798  11.51619   7.797928   2.437298   0.4381969  0.6071051  48.746     0.4713843  0.2804719  0.6622968 
1076.4     0.228      0.526      -9999      -9999      6.218967   1.8113     2.4041     2.147      1.3844     1.8242     1.92       2.223      1.044      2.6009     0.1852838  0.1852838  0.3356284  7.56942    7.800777   2.352254   0.4056566  0.5832507  48.415     0.4555898  0.28043    0.6307496 
1076.6     0.23       0.524      -9999      -9999      6.280371   1.8934     2.5068     2.2088     1.3589     1.865      2.052      2.225      1.063      2.3326     0.1777254  0.1777254  0.3246293  5.483581   6.937051   2.269013   0.3746572  0.5609568  48.007     0.4451633  0.2941944  0.5961322 
1076.8     0.23       0.524      -9999      -9999      6.374874   1.9652     2.5993     2.2706     1.3972     1.9057     2.061      2.364      1.083      2.2139     0.167875   0.167875   0.3130513  3.602551   5.790835   2.241892   0.3389822  0.5381609  47.599     0.4399283  0.3167098  0.5631468 
1077       0.228      0.525      -9999      -9999      6.470278   2.0319     2.7329     2.2449     1.4355     1.972      1.882      2.086      1.102      2.1365     0.157012   0.157012   0.3020522  2.266742   4.825686   2.189359   0.3043356  0.5192009  47.31      0.4395156  0.3411883  0.5378429 
1077.2     0.224      0.528      -9999      -9999      6.538869   2.1345     2.8664     2.2191     1.4968     1.9669     1.704      1.998      1.082      2.0333     0.1695043  0.1695043  0.3136302  3.8618     4.232828   2.122141   0.4149581  0.5928485  47.021     0.436745   0.3599482  0.5135418 
1077.4     0.222      0.53       -9999      -9999      6.559386   2.2166     3.0565     2.1934     1.4662     1.9669     1.525      1.859      1.066      2.0075     0.181656   0.181656   0.3228926  6.48436    4.070073   2.096337   0.4950191  0.6451252  46.732     0.4279899  0.3657575  0.4902222 
1077.6     0.221      0.529      -9999      -9999      6.524735   1.8626     2.8151     2.1676     1.4151     1.9669     1.368      1.69       1.055      2.09       0.1938307  0.1938307  0.3292605  10.89867   4.348717   2.128093   0.5564323  0.6838238  46.375     0.4103933  0.356      0.4647866 
1077.8     0.226      0.526      -9999      -9999      6.452101   1.6727     2.661      2.7031     1.364      1.9669     1.779      1.914      1.044      2.6396     0.2074311  0.2074311  0.3356284  19.46637   4.996265   2.670973   0.6075135  0.7156399  46.018     0.3884767  0.3363829  0.4405705 
1078       0.227      0.523      -9999      -9999      6.386862   1.6214     2.4709     3.2386     1.364      2.0204     2.411      2.557      1.038      3.1892     0.2199845  0.2199845  0.3391018  33.25098   5.659674   3.21371    0.6078932  0.708843   45.279     0.3609616  0.3196865  0.4022366 
1078.2     0.229      0.517      -9999      -9999      6.382699   1.4778     2.4144     3.774      1.4457     2.0739     3.188      4.012      1.049      3.7388     0.2192717  0.2192717  0.3327339  32.25535   5.704878   3.756317   0.5837759  0.686744   44.591     0.3438248  0.3186497  0.369     
1078.4     0.232      0.521      -9999      -9999      6.463999   1.5188     2.4298     4.3095     1.833      2.8178     4.362      4.007      1.096      4.2884     0.1920288  0.1920288  0.3055256  10.09246   4.883938   4.298924   0.5011358  0.6270738  44.195     0.3439298  0.3395208  0.3483389 
1078.6     0.234      0.53       6          6          6.603065   2.4595     3.2414     3.9506     2.2202     3.0573     4.58       4.003      1.143      3.7775     0.1616036  0.1616036  0.2783173  2.757082   3.744128   3.862111   0.373355   0.5408985  43.8       0.3536777  0.378439   0.3289164 
1078.8     0.236      0.541      6          6          6.745041   3.4002     3.7449     3.5916     2.6074     3.2204     3.157      2.544      1.19       3.2666     0.129392   0.129392   0.251109   0.6979299  2.854403   3.421399   0.1938118  0.432569   43.545     0.3688393  0.4227777  0.3149009 
1079       0.223      0.547      6          6          6.848894   4.3409     4.5        3.2327     2.9946     3.4089     2.164      1.969      1.237      2.7557     0.09788032 0.09788032 0.2239007  0.1820283  2.340567   2.975203   0          0.2878196  43.418     0.38188    0.4584669  0.305293  
1079.2     0.217      0.551      6          6          6.899448   3.4225     5.2551     2.8737     3.3819     3.2611     1.578      1.486      1.23       2.2448     0.1021805  0.1021805  0.227953   0.2186699  2.125019   2.520614   0          0.2925203  42.908     0.3811287  0.476915   0.2853425 
1079.4     0.217      0.557      6          6          6.895768   2.8837     3.8219     2.5148     2.6616     2.9146     1.012      1.586      1.168      1.9971     0.1402638  0.1402638  0.2638448  1.109643   2.140016   2.226249   0.2773894  0.4882785  42.653     0.374488   0.4755475  0.2734285 
1079.6     0.216      0.559      1          2          6.842712   1.919      3.524      2.1559     1.7676     2.4408     0.764      1.457      1.105      1.8888     0.18126    0.18126    0.3003155  6.375764   2.368382   2.013531   0.4697235  0.6099139  42.526     0.3607743  0.4562606  0.265288  
