~Version
 VERS              .         2.0                           : CWLS LOG ASCII STANDARD - VERSION 2.0
 WRAP              .         NO                            : ONE LINE PER DEPTH STEP
 DLM               .         SPACE                         : DELIMITING CHARACTER(SPACE TAB OR COMMA)
~Well Information
#_______________________________________________________________________________
#
#PARAMETER_NAME    .UNIT     VALUE                         : DESCRIPTION
#_______________________________________________________________________________
STRT               .M        880                           : First reference value
STOP               .M        1254                          : Last reference value
STEP               .M        0.2                           : Step increment
NULL               .         -9999                         : Missing value
COMP               .                                       : Company
WELL               .         2382                          : Well name
FLD                .         Узень                         : Field
LOC                .                                       : Location
CNTY               .                                       : County
STAT               .                                       : State
CTRY               .                                       : Country
SRVC               .                                       : Service Company
DATE               .                                       : Date
UWI                .                                       : Unique Well ID
123                .         1                             : 
4_кв_для_Заказчика .         1                             : 
Block              .         7                             : 
Category           .         Нефтяная                      : 
Condition          .         Ликвидированная               : 
Date               .         21.01.1977                    : 
EREF               .m        84.7                          : 100.8
Gor                .         15                            : 
Gorizont           .         15                            : 14
Interpretator      .         Кайсанов Е.К                  : 
KUST               .                                       : 
Kupol              .         Основной                      : osnovnoi
Mud                .                                       : 
Mud_density        .                                       : 
Mud_resistivity    .                                       : 
NGDU               .         НГДУ-2                        : 
ORIGINALWELLNAME   .         2382                          : 
Otmetka            .                                       : 
Spud_date          .         1976                          : 1961
Viscosity          .                                       : 
X                  .m        42915.7                       : 46154
Y                  .m        84473.9                       : 85761.93
YEAR               .         2018                          : 
~Parameter Information Block
#_______________________________________________________________________________
#
#PARAMETER_NAME    .UNIT     VALUE                         : DESCRIPTION
#_______________________________________________________________________________
SET                .         LQC_KAZNIPI_Petrel            : 
TLFamily_CALI      .         Caliper                       : 
TLFamily_CILD      .         Conductivity                  : 
TLFamily_COLL      .         Net Reservoir Flag            : 
TLFamily_CSAT      .         Fluid Code                    : 
TLFamily_DEPT      .         Measured Depth                : 
TLFamily_GR        .         Russian Gamma Ray             : 
TLFamily_GZ1       .         Gradient 045                  : 
TLFamily_GZ2       .         Gradient 105                  : 
TLFamily_GZ3       .         Gradient 225                  : 
TLFamily_GZ4       .         Gradient 425                  : 
TLFamily_GZ5       .         Gradient 850                  : 
TLFamily_MINV      .         Micro Gradient Resistivity    : 
TLFamily_MNOR      .         Micro Resistivity             : 
TLFamily_NGLD      .         Neutron Far                   : 
TLFamily_OGZ3      .         Gradient Inverted 225         : 
TLFamily_PHIE      .         Effective Porosity            : 
TLFamily_PHIEN     .         Effective Porosity            : 
TLFamily_PHIT      .         Porosity                      : 
TLFamily_PRMB      .         Permeability                  : 
TLFamily_PRMB_DGR  .         Permeability                  : 
TLFamily_RT        .         Formation Resistivity         : 
TLFamily_SOIL_ARCHIE .         Oil Saturation                : 
TLFamily_SOIL_DW   .         Oil Saturation                : 
TLFamily_SP        .         Spontaneous Potential         : 
TLFamily_VSH_FIN   .         Shale Volume                  : 
TLFamily_VSH_GR    .         Shale Volume                  : 
TLFamily_VSH_SP    .         Shale Volume                  : 
~Curve Information
#_______________________________________________________________________________
#
#LOGNAME           .UNIT     LOG_ID                        : DESCRIPTION
#_______________________________________________________________________________
DEPT               .M                                      : Колонка глубины 
CALI               .м                                      : Каверномер 
CILD               .мСм/м                                  : Индукционный каротаж 
COLL               .unitless                               :  
CSAT               .unitless                               :  
GR                 .uR/h                                   : Гамма каротаж 
GZ1                .Ohmm                                   : 2 
GZ2                .Ohmm                                   : 3 
GZ3                .Ohmm                                   : 2 
GZ4                .Ohmm                                   : 4 
GZ5                .Ohmm                                   : 5 
MINV               .Ohmm                                   : Микро-градиент зонд 
MNOR               .Ohmm                                   : Микро-потенциал зонд 
NGLD               .у.е.                                   : Показания зонда НГК-60 аппаратуры ДРСТ-3-90 
OGZ3               .Ohmm                                   : 3 
PHIE               .v/v                                    : Описание 
PHIEN              .v/v                                    :  
PHIT               .v/v                                    : Описание 
PRMB               .mD                                     :  
PRMB_DGR           .mD                                     :  
RT                 .ohmm                                   : УЭС пласта 
SOIL_ARCHIE        .v/v                                    :  
SOIL_DW            .v/v                                    :  
SP                 .мВ                                     : Потенциал самополяризации 
VSH_FIN            .v/v                                    : Описание 
VSH_GR             .v/v                                    : Shale volume 
VSH_SP             .v/v                                    : Shale Volume 
~Ascii
# ...
1220.2     0.213      0.665      -9999      -9999      7.350514   1.2534     1.4906     1.4243     0.6531     1.6909     1.092      1.71       1.059      1.3434     0.1277895  0.1277895  0.3269449  0.6518216  1.113141   1.382668   0.1083211  0.4667526  30.847     0.6035013  0.6210209  0.5859818 
1220.4     0.213      0.665      -9999      -9999      7.346694   1.2534     1.4649     1.5825     0.7602     1.7114     1.225      1.928      1.084      1.4813     0.1136148  0.1136148  0.3124724  0.3561071  1.121105   1.530229   0.01693795 0.430249   30.847     0.6025987  0.6192155  0.5859818 
1220.6     0.213      0.668      -9999      -9999      7.386282   1.3356     1.6294     1.7561     0.8469     1.7676     1.318      2.114      1.095      1.5988     0.1041174  0.1041174  0.3061045  0.2375003  1.041255   1.673762   0          0.3663037  30.847     0.6120822  0.6381826  0.5859818 
1220.8     0.213      0.671      -9999      -9999      7.4793     1.5051     1.7167     1.8939     0.9694     1.9821     1.209      1.826      1.081      1.6856     0.102968   0.102968   0.3142091  0.2261388  0.8753054  1.783689   0          0.3377125  31.012     0.6401246  0.6850657  0.5951834 
1221       0.213      0.672      -9999      -9999      7.578779   1.6284     1.8915     1.7969     1.102      2.0383     1.011      1.526      1.072      1.8082     0.09772714 0.09772714 0.3194192  0.1808431  0.726984   1.802532   0          0.3178581  31.178     0.6717941  0.7390233  0.6045648 
1221.2     0.213      0.673      -9999      -9999      7.61765    1.613      1.7836     1.5162     1.0128     2.0945     0.967      1.607      1.095      1.6754     0.07821296 0.07821296 0.3061045  0.07867774 0.67611    1.591829   0          0.2299656  31.445     0.6905804  0.7612437  0.619917  
1221.4     0.213      0.673      -9999      -9999      7.574203   1.5103     1.6139     1.3579     0.9235     2.0281     1.007      1.589      1.107      1.4864     0.07276011 0.07276011 0.2991577  0.06235219 0.7332192  1.419247   0          0.1879074  31.713     0.6860533  0.7364506  0.6356561 
1221.6     0.213      0.672      -9999      -9999      7.486234   1.3767     1.5394     1.3069     0.7347     1.6654     1.065      1.554      1.119      1.4098     0.07105087 0.07105087 0.2922109  0.05796856 0.8640505  1.356401   0          0.1561495  31.98      0.670182   0.6886957  0.6516683 
1221.8     0.213      0.67       -9999      -9999      7.402681   1.3382     1.4649     1.2558     0.7092     1.5121     1.074      1.403      1.1        1.3587     0.08635289 0.08635289 0.30321    0.1113328  1.009869   1.305225   0          0.2271288  32.248     0.6571427  0.6462083  0.6680771 
1222       0.213      0.668      -9999      -9999      7.344848   1.2997     1.3878     1.2303     0.7755     1.4338     1.035      1.525      1.083      1.3076     0.1020918  0.1020918  0.3130513  0.2178443  1.124975   1.267773   0          0.2867619  32.12      0.6392713  0.6183448  0.6601977 
1222.2     0.213      0.666      -9999      -9999      7.317259   1.2971     1.4495     1.2303     0.8189     1.3555     0.985      1.331      1.068      1.231      0.1141754  0.1141754  0.3217348  0.3647233  1.184419   1.23065    0          0.3362899  31.993     0.6289679  0.6054795  0.6524565 
1222.4     0.214      0.664      -9999      -9999      7.322653   1.2945     1.5111     1.2303     0.8622     1.2771     0.979      1.434      1.059      1.231      0.1202487  0.1202487  0.3269449  0.4725587  1.172556   1.23065    0          0.3659546  31.865     0.6263521  0.6079734  0.6447307 
1222.6     0.214      0.662      -9999      -9999      7.352869   1.3305     1.5266     1.2711     0.8827     1.2516     1.005      1.363      1.053      1.2054     0.122008   0.122008   0.3304183  0.5093798  1.10826    1.237378   0          0.3774916  31.802     0.6315465  0.6221362  0.6409567 
1222.8     0.214      0.661      -9999      -9999      7.381155   1.3176     1.5009     1.3528     0.8316     1.2261     1.046      1.402      1.048      1.2054     0.1232951  0.1232951  0.3333128  0.538123   1.051268   1.274853   0          0.3902742  31.738     0.6364174  0.6356936  0.6371413 
1223       0.214      0.659      -9999      -9999      7.379478   1.3048     1.4752     1.4549     0.7806     1.2465     1.087      1.393      1.056      1.2054     0.1187978  0.1187978  0.3286816  0.4442025  1.054562   1.31845    0          0.3829319  31.738     0.6360116  0.6348819  0.6371413 
1223.2     0.214      0.657      -9999      -9999      7.341669   1.2791     1.4366     1.4983     0.75       1.2822     1.088      1.363      1.06       1.2054     0.1194577  0.1194577  0.326366   0.4568827  1.13167    1.335985   0          0.3845632  31.738     0.6269949  0.6168485  0.6371413 
1223.4     0.214      0.65       -9999      -9999      7.289725   1.2791     1.3981     1.5417     0.7704     1.3512     1.088      1.335      1.03       1.2259     0.138128   0.138128   0.343733   1.013033   1.246877   1.365783   0.06783798 0.4341809  32.005     0.6230456  0.5929064  0.6531847 
1223.6     0.214      0.644      -9999      -9999      7.257185   1.2791     1.3955     1.5825     0.8776     1.4202     1.104      1.147      1.024      1.2463     0.141285   0.141285   0.3472064  1.15904    1.32495    1.394421   0.08624024 0.4425721  32.273     0.6240042  0.5783836  0.6696249 
1223.8     0.214      0.643      -9999      -9999      7.266142   1.2971     1.3929     1.557      1.0102     1.4432     1.124      1.003      1.034      1.2872     0.1326151  0.1326151  0.3414174  0.8007769  1.302986   1.409303   0.03018025 0.4206825  32.489     0.6327342  0.5823451  0.6831233 
1224       0.215      0.642      -9999      -9999      7.312472   1.3151     1.4443     1.5315     1.0306     1.4662     1.141      1.21       1.044      1.2974     0.1210981  0.1210981  0.3356284  0.4899909  1.19505    1.404764   0          0.3895787  32.706     0.6500919  0.6032743  0.6969094 
1224.2     0.215      0.64       -9999      -9999      7.370169   1.3562     1.4957     1.5187     1.051      1.3819     1.156      1.371      1.023      1.3076     0.127154   0.127154   0.3477853  0.6343932  1.073047   1.405266   0          0.4085137  32.859     0.6685797  0.6303933  0.7067661 
1224.4     0.215      0.642      -9999      -9999      7.411706   1.3973     1.5394     1.506      1.0587     1.2976     1.16       1.398      1.009      1.2948     0.1302681  0.1302681  0.3558899  0.7245019  0.9930006  1.392437   0          0.4205635  33.012     0.6837025  0.6506684  0.7167364 
1224.6     0.216      0.643      -9999      -9999      7.422892   1.4178     1.5831     1.4677     1.0663     1.2848     1.144      1.236      1          1.2821     0.132906   0.132906   0.3611     0.8107738  0.9724845  1.368636   0.008312187 0.4269093  33.164     0.691497   0.656239   0.726755  
1224.8     0.216      0.646      -9999      -9999      7.401836   1.4384     1.5934     1.4294     1.1122     1.272      1.121      1.197      1.008      1.2693     0.1283156  0.1283156  0.3564688  0.6666145  1.011463   1.344601   0          0.4120897  33.317     0.6913732  0.6457924  0.7369542 
1225       0.216      0.649      -9999      -9999      7.354084   1.4366     1.6037     1.4294     1.1429     1.2465     1.099      1.166      1.006      1.2565     0.1334143  0.1334143  0.3576266  0.8285404  1.105749   1.337385   0.002571756 0.4185298  33.305     0.6794313  0.6227126  0.73615   
1225.2     0.216      0.653      -9999      -9999      7.296038   1.4349     1.5882     1.4294     1.1735     1.2209     1.077      1.195      0.999      1.231      0.1420564  0.1420564  0.3616789  1.197808   1.232272   1.322802   0.05720615 0.4366761  33.292     0.6655227  0.5957658  0.7352796 
1225.4     0.214      0.657      -9999      -9999      7.252912   1.4332     1.5728     1.4166     1.2347     1.2209     1.036      1.355      0.996      1.2182     0.148378   0.148378   0.3634156  1.568482   1.33556    1.30993    0.09379458 0.4482581  33.164     0.651629   0.5765029  0.726755  
