~Version
 VERS              .         2.0                           : CWLS LOG ASCII STANDARD - VERSION 2.0
 WRAP              .         NO                            : ONE LINE PER DEPTH STEP
 DLM               .         SPACE                         : DELIMITING CHARACTER(SPACE TAB OR COMMA)
~Well Information
#_______________________________________________________________________________
#
#PARAMETER_NAME    .UNIT     VALUE                         : DESCRIPTION
#_______________________________________________________________________________
STRT               .M        880                           : First reference value
STOP               .M        1254                          : Last reference value
STEP               .M        0.2                           : Step increment
NULL               .         -9999                         : Missing value
COMP               .                                       : Company
WELL               .         2382                          : Well name
FLD                .         Узень                         : Field
LOC                .                                       : Location
CNTY               .                                       : County
STAT               .                                       : State
CTRY               .                                       : Country
SRVC               .                                       : Service Company
DATE               .                                       : Date
UWI                .                                       : Unique Well ID
123                .         1                             : 
4_кв_для_Заказчика .         1                             : 
Block              .         7                             : 
Category           .         Нефтяная                      : 
Condition          .         Ликвидированная               : 
Date               .         21.01.1977                    : 
EREF               .m        84.7                          : 100.8
Gor                .         15                            : 
Gorizont           .         15                            : 14
Interpretator      .         Кайсанов Е.К                  : 
KUST               .                                       : 
Kupol              .         Основной                      : osnovnoi
Mud                .                                       : 
Mud_density        .                                       : 
Mud_resistivity    .                                       : 
NGDU               .         НГДУ-2                        : 
ORIGINALWELLNAME   .         2382                          : 
Otmetka            .                                       : 
Spud_date          .         1976                          : 1961
Viscosity          .                                       : 
X                  .m        42915.7                       : 46154
Y                  .m        84473.9                       : 85761.93
YEAR               .         2018                          : 
~Parameter Information Block
#_______________________________________________________________________________
#
#PARAMETER_NAME    .UNIT     VALUE                         : DESCRIPTION
#_______________________________________________________________________________
SET                .         LQC_KAZNIPI_Petrel            : 
TLFamily_CALI      .         Caliper                       : 
TLFamily_CILD      .         Conductivity                  : 
TLFamily_COLL      .         Net Reservoir Flag            : 
TLFamily_CSAT      .         Fluid Code                    : 
TLFamily_DEPT      .         Measured Depth                : 
TLFamily_GR        .         Russian Gamma Ray             : 
TLFamily_GZ1       .         Gradient 045                  : 
TLFamily_GZ2       .         Gradient 105                  : 
TLFamily_GZ3       .         Gradient 225                  : 
TLFamily_GZ4       .         Gradient 425                  : 
TLFamily_GZ5       .         Gradient 850                  : 
TLFamily_MINV      .         Micro Gradient Resistivity    : 
TLFamily_MNOR      .         Micro Resistivity             : 
TLFamily_NGLD      .         Neutron Far                   : 
TLFamily_OGZ3      .         Gradient Inverted 225         : 
TLFamily_PHIE      .         Effective Porosity            : 
TLFamily_PHIEN     .         Effective Porosity            : 
TLFamily_PHIT      .         Porosity                      : 
TLFamily_PRMB      .         Permeability                  : 
TLFamily_PRMB_DGR  .         Permeability                  : 
TLFamily_RT        .         Formation Resistivity         : 
TLFamily_SOIL_ARCHIE .         Oil Saturation                : 
TLFamily_SOIL_DW   .         Oil Saturation                : 
TLFamily_SP        .         Spontaneous Potential         : 
TLFamily_VSH_FIN   .         Shale Volume                  : 
TLFamily_VSH_GR    .         Shale Volume                  : 
TLFamily_VSH_SP    .         Shale Volume                  : 
~Curve Information
#_______________________________________________________________________________
#
#LOGNAME           .UNIT     LOG_ID                        : DESCRIPTION
#_______________________________________________________________________________
DEPT               .M                                      : Колонка глубины 
CALI               .м                                      : Каверномер 
CILD               .мСм/м                                  : Индукционный каротаж 
COLL               .unitless                               :  
CSAT               .unitless                               :  
GR                 .uR/h                                   : Гамма каротаж 
GZ1                .Ohmm                                   : 2 
GZ2                .Ohmm                                   : 3 
GZ3                .Ohmm                                   : 2 
GZ4                .Ohmm                                   : 4 
GZ5                .Ohmm                                   : 5 
MINV               .Ohmm                                   : Микро-градиент зонд 
MNOR               .Ohmm                                   : Микро-потенциал зонд 
NGLD               .у.е.                                   : Показания зонда НГК-60 аппаратуры ДРСТ-3-90 
OGZ3               .Ohmm                                   : 3 
PHIE               .v/v                                    : Описание 
PHIEN              .v/v                                    :  
PHIT               .v/v                                    : Описание 
PRMB               .mD                                     :  
PRMB_DGR           .mD                                     :  
RT                 .ohmm                                   : УЭС пласта 
SOIL_ARCHIE        .v/v                                    :  
SOIL_DW            .v/v                                    :  
SP                 .мВ                                     : Потенциал самополяризации 
VSH_FIN            .v/v                                    : Описание 
VSH_GR             .v/v                                    : Shale volume 
VSH_SP             .v/v                                    : Shale Volume 
~Ascii
# ...
977.2      0.23       0.54       -9999      -9999      3.975677   0.9994     1.3238     1.5737     1.4307     1.8782     2.348      3.813      1.06       2.1401     0.1888257  0.1888257  0.306366   8.803741   15.4117    1.813709   0.4649898  0.6024038  51.747     0.356183   0.2123612  0.5000048 
977.4      0.23       0.525      -9999      -9999      3.947792   1.8118     2.0525     1.8617     1.972      1.9645     3.644      5.47       1.107      2.3897     0.1625471  0.1625471  0.2791577  2.870277   16.23503   2.092913   0.4178718  0.5750263  51.739     0.3533656  0.2078958  0.4988354 
977.6      0.231      0.519      -9999      -9999      3.973225   2.6241     2.7811     2.1497     2.1652     2.2538     4.348      5.69       1.154      2.6394     0.1348678  0.1348678  0.2519494  0.8815297  15.48238   2.369513   0.3069865  0.507125   51.73      0.3547927  0.2119647  0.4976206 
977.8      0.235      0.519      -9999      -9999      4.042348   3.4365     3.5097     2.4377     2.4142     2.4721     3.083      5.449      1.201      2.889      0.1034359  0.1034359  0.2247411  0.2306965  13.60844   2.644232   0.05377067 0.3621601  52.037     0.3675917  0.2234304  0.511753  
978        0.242      0.531      -9999      -9999      4.145312   4.2489     4.2383     2.7257     2.5616     2.6853     2.515      3.985      1.248      3.1387     0.06912284 0.06912284 0.1975328  0.05339257 11.22918   2.917657   0          0.1108351  52.547     0.389121   0.2416696  0.5365724 
978.2      0.222      0.542      -9999      -9999      4.272552   1.9937     3.3532     3.0137     1.9365     2.6904     1.127      2.319      1.187      2.6952     0.09666119 0.09666119 0.2328457  0.1728056  8.855443   2.845565   0          0.3146778  52.994     0.4126803  0.2662788  0.5590817 
978.4      0.216      0.536      -9999      -9999      4.414263   1.9425     2.4681     2.5637     1.6823     2.4162     1.561      2.185      1.126      2.2517     0.1231148  0.1231148  0.2681586  0.5340016  6.797391   2.397592   0.1566212  0.4436454  53.441     0.4395266  0.2966477  0.5824055 
978.6      0.215      0.53       -9999      -9999      4.556131   1.963      4.0177     2.1137     1.7382     2.203      1.888      2.937      1.065      1.8082     0.1450668  0.1450668  0.3034715  1.361907   5.216117   1.949051   0.2904983  0.5310446  54.284     0.4800141  0.3305197  0.6295086 
978.8      0.215      0.524      -9999      -9999      4.674137   2.0091     3.443      2.268      1.9009     2.198      1.565      2.222      1.004      1.9366     0.1708724  0.1708724  0.3387844  4.093835   4.184996   2.08924    0.3840343  0.5879262  54.743     0.5088242  0.3616224  0.6560259 
979        0.215      0.523      -9999      -9999      4.743813   1.676      3.1351     2.3349     2.094      2.1726     1.892      2.398      1.033      2.1113     0.1499656  0.1499656  0.3219963  1.678355   3.67466    2.217478   0.3202026  0.5601743  54.845     0.5213053  0.3813442  0.6612666 
979.2      0.215      0.538      -9999      -9999      4.755969   1.7836     2.9709     2.4531     1.8755     2.2132     2.564      3.906      1.053      2.2808     0.1379665  0.1379665  0.3104183  1.00608    3.592224   2.363814   0.304377   0.5595911  54.845     0.5225812  0.3848936  0.6602688 
979.4      0.226      0.542      -9999      -9999      4.723982   2.2449     2.7862     2.3091     1.9365     2.3959     2.669      3.443      1.055      2.4092     0.1385027  0.1385027  0.3092605  1.029351   3.813218   2.358088   0.3042119  0.5574979  54.845     0.5174481  0.3756241  0.659272  
979.6      0.236      0.548      -9999      -9999      4.673908   2.5575     3.4994     2.5097     2.2567     2.3401     2.208      2.02       1.077      2.363      0.1282517  0.1282517  0.2965247  0.6648004  4.186783   2.434142   0.1927892  0.4900095  54.845     0.509918   0.3615594  0.6582767 
979.8      0.223      0.552      -9999      -9999      4.627676   2.0194     2.8221     2.9263     1.8806     2.198      1.748      1.086      1.099      2.5171     0.1177453  0.1177453  0.2837889  0.4247052  4.564097   2.70632    0.12136    0.4528859  54.845     0.5031623  0.3490419  0.6572828 
980        0.228      0.56       -9999      -9999      4.59242    1.7836     2.6169     2.7103     1.6366     1.934      1.288      1.277      1.086      2.661      0.1248837  0.1248837  0.2913146  0.5758461  4.874531   2.685424   0.1739931  0.4792652  55.05      0.5043362  0.3397881  0.6688843 
980.2      0.23       0.561      -9999      -9999      4.565093   1.7323     2.4168     2.4583     1.413      1.8832     1.348      1.675      1.048      2.0856     0.1471587  0.1471587  0.3133128  1.488997   5.129596   2.256665   0.2997181  0.5430285  55.152     0.5034974  0.3327848  0.67421   
980.4      0.22       0.559      -9999      -9999      4.542616   1.6247     2.2474     2.3451     1.2503     1.8274     1.625      2.085      1.034      2.0856     0.1553114  0.1553114  0.3214174  2.108149   5.349365   2.207751   0.3423799  0.5667292  55.254     0.5033516  0.3271328  0.6795703 
980.6      0.216      0.556      -9999      -9999      4.5197     1.4248     2.5245     2.3194     1.2808     1.7766     1.874      1.934      1.022      2.1986     0.1629677  0.1629677  0.3283642  2.922239   5.583134   2.257385   0.372691   0.5825645  55.292     0.5012015  0.3214689  0.6809342 
980.8      0.222      0.553      -9999      -9999      4.48371    1.6452     2.8426     2.3606     1.3164     1.7868     1.57       2.162      1.064      2.3733     0.1390674  0.1390674  0.3040504  1.054444   5.971043   2.366933   0.2732776  0.5305051  55.33      0.4999485  0.3127714  0.6871256 
981        0.228      0.55       -9999      -9999      4.422676   1.7426     2.5912     2.3606     1.291      1.797      1.568      1.872      1.106      2.5428     0.1164694  0.1164694  0.2797366  0.4022113  6.691501   2.448315   0.1565299  0.4746199  55.33      0.4947491  0.2985557  0.6909425 
981.2      0.234      0.544      -9999      -9999      4.338324   1.7887     2.2218     2.304      1.2147     1.8376     1.61       1.601      1.092      2.6764     0.1270085  0.1270085  0.2878412  0.6304696  7.832439   2.476277   0.2415766  0.5164201  55.33      0.4873717  0.2799666  0.6947769 
981.4      0.24       0.535      -9999      -9999      4.246655   1.6811     2.1551     2.2269     1.1893     1.8223     1.669      1.933      1.107      2.6712     0.1208066  0.1208066  0.2791577  0.4839368  9.293974   2.428899   0.223405   0.5083116  55.33      0.479852   0.261075   0.698629  
981.6      0.239      0.526      -9999      -9999      4.17338    2.0655     2.5964     2.2474     1.3621     1.8071     2.395      3.244      1.122      2.7123     0.1138243  0.1138243  0.2704742  0.3593032  10.65607   2.458061   0.1955214  0.496235   55.33      0.4746966  0.2468949  0.7024983 
981.8      0.22       0.523      -9999      -9999      4.146721   2.209      2.7862     2.4737     1.5197     1.769      2.51       3.367      1.11       2.7945     0.1222998  0.1222998  0.277421   0.5157601  11.19968   2.624333   0.2395429  0.5139936  55.203     0.4700641  0.2419293  0.6981989 
982        0.224      0.52       -9999      -9999      4.178321   2.3781     3.0325     2.5611     1.6468     1.731      1.967      2.691      1.151      2.9435     0.09830818 0.09830818 0.2536861  0.1853805  10.55824   2.739017   0.0707221  0.4366547  55.075     0.4708421  0.2478264  0.6938578 
982.2      0.23       0.518      -9999      -9999      4.24613    2.3628     3.1813     2.6434     1.8043     1.731      1.611      2.186      1.191      3.0616     0.07369614 0.07369614 0.2305301  0.06489174 9.303092   2.837172   0          0.3263588  54.947     0.4752544  0.2609704  0.6895385 
982.4      0.226      0.516      -9999      -9999      4.302351   2.0347     2.9761     2.5097     1.845      1.731      1.512      1.886      1.181      3.1644     0.07909892 0.07909892 0.2363191  0.08170749 8.376378   2.799279   0          0.3645303  54.743     0.4764248  0.2723952  0.6804544 
