~Version
 VERS              .         2.0                           : CWLS LOG ASCII STANDARD - VERSION 2.0
 WRAP              .         NO                            : ONE LINE PER DEPTH STEP
 DLM               .         SPACE                         : DELIMITING CHARACTER(SPACE TAB OR COMMA)
~Well Information
#_______________________________________________________________________________
#
#PARAMETER_NAME    .UNIT     VALUE                         : DESCRIPTION
#_______________________________________________________________________________
STRT               .M        880                           : First reference value
STOP               .M        1254                          : Last reference value
STEP               .M        0.2                           : Step increment
NULL               .         -9999                         : Missing value
COMP               .                                       : Company
WELL               .         2382                          : Well name
FLD                .         Узень                         : Field
LOC                .                                       : Location
CNTY               .                                       : County
STAT               .                                       : State
CTRY               .                                       : Country
SRVC               .                                       : Service Company
DATE               .                                       : Date
UWI                .                                       : Unique Well ID
123                .         1                             : 
4_кв_для_Заказчика .         1                             : 
Block              .         7                             : 
Category           .         Нефтяная                      : 
Condition          .         Ликвидированная               : 
Date               .         21.01.1977                    : 
EREF               .m        84.7                          : 100.8
Gor                .         15                            : 
Gorizont           .         15                            : 14
Interpretator      .         Кайсанов Е.К                  : 
KUST               .                                       : 
Kupol              .         Основной                      : osnovnoi
Mud                .                                       : 
Mud_density        .                                       : 
Mud_resistivity    .                                       : 
NGDU               .         НГДУ-2                        : 
ORIGINALWELLNAME   .         2382                          : 
Otmetka            .                                       : 
Spud_date          .         1976                          : 1961
Viscosity          .                                       : 
X                  .m        42915.7                       : 46154
Y                  .m        84473.9                       : 85761.93
YEAR               .         2018                          : 
~Parameter Information Block
#_______________________________________________________________________________
#
#PARAMETER_NAME    .UNIT     VALUE                         : DESCRIPTION
#_______________________________________________________________________________
SET                .         LQC_KAZNIPI_Petrel            : 
TLFamily_CALI      .         Caliper                       : 
TLFamily_CILD      .         Conductivity                  : 
TLFamily_COLL      .         Net Reservoir Flag            : 
TLFamily_CSAT      .         Fluid Code                    : 
TLFamily_DEPT      .         Measured Depth                : 
TLFamily_GR        .         Russian Gamma Ray             : 
TLFamily_GZ1       .         Gradient 045                  : 
TLFamily_GZ2       .         Gradient 105                  : 
TLFamily_GZ3       .         Gradient 225                  : 
TLFamily_GZ4       .         Gradient 425                  : 
TLFamily_GZ5       .         Gradient 850                  : 
TLFamily_MINV      .         Micro Gradient Resistivity    : 
TLFamily_MNOR      .         Micro Resistivity             : 
TLFamily_NGLD      .         Neutron Far                   : 
TLFamily_OGZ3      .         Gradient Inverted 225         : 
TLFamily_PHIE      .         Effective Porosity            : 
TLFamily_PHIEN     .         Effective Porosity            : 
TLFamily_PHIT      .         Porosity                      : 
TLFamily_PRMB      .         Permeability                  : 
TLFamily_PRMB_DGR  .         Permeability                  : 
TLFamily_RT        .         Formation Resistivity         : 
TLFamily_SOIL_ARCHIE .         Oil Saturation                : 
TLFamily_SOIL_DW   .         Oil Saturation                : 
TLFamily_SP        .         Spontaneous Potential         : 
TLFamily_VSH_FIN   .         Shale Volume                  : 
TLFamily_VSH_GR    .         Shale Volume                  : 
TLFamily_VSH_SP    .         Shale Volume                  : 
~Curve Information
#_______________________________________________________________________________
#
#LOGNAME           .UNIT     LOG_ID                        : DESCRIPTION
#_______________________________________________________________________________
DEPT               .M                                      : Колонка глубины 
CALI               .м                                      : Каверномер 
CILD               .мСм/м                                  : Индукционный каротаж 
COLL               .unitless                               :  
CSAT               .unitless                               :  
GR                 .uR/h                                   : Гамма каротаж 
GZ1                .Ohmm                                   : 2 
GZ2                .Ohmm                                   : 3 
GZ3                .Ohmm                                   : 2 
GZ4                .Ohmm                                   : 4 
GZ5                .Ohmm                                   : 5 
MINV               .Ohmm                                   : Микро-градиент зонд 
MNOR               .Ohmm                                   : Микро-потенциал зонд 
NGLD               .у.е.                                   : Показания зонда НГК-60 аппаратуры ДРСТ-3-90 
OGZ3               .Ohmm                                   : 3 
PHIE               .v/v                                    : Описание 
PHIEN              .v/v                                    :  
PHIT               .v/v                                    : Описание 
PRMB               .mD                                     :  
PRMB_DGR           .mD                                     :  
RT                 .ohmm                                   : УЭС пласта 
SOIL_ARCHIE        .v/v                                    :  
SOIL_DW            .v/v                                    :  
SP                 .мВ                                     : Потенциал самополяризации 
VSH_FIN            .v/v                                    : Описание 
VSH_GR             .v/v                                    : Shale volume 
VSH_SP             .v/v                                    : Shale Volume 
~Ascii
# ...
1171.6     0.212      0.592      8          2          6.357286   2.0892     2.4359     2.2949     1.6551     1.5459     1.771      3.139      1.134      1.6261     0.1842997  0.1842997  0.2835274  7.258314   7.106128   1.903462   0.3857951  0.5232694  24.559     0.3006901  0.2913158  0.3100644 
1171.8     0.211      0.593      8          2          6.398403   2.2796     2.6718     2.4027     2.1792     1.5663     1.498      3.388      1.111      1.7136     0.1824526  0.1824526  0.2968421  6.708475   6.581196   2.00047    0.3929408  0.5442277  26.956     0.3466348  0.3005889  0.3926807 
1172       0.211      0.602      -9999      -9999      6.452656   2.4391     3.0205     2.49       2.7034     1.6684     1.306      2.812      1.108      1.801      0.1740603  0.1740603  0.2985788  4.690055   5.947424   2.090184   0.3732344  0.5415778  28.129     0.3773286  0.313278   0.4413792 
1172.2     0.211      0.622      -9999      -9999      6.52538    2.0995     2.8359     2.526      3.2275     1.8316     1.154      1.908      1.097      1.8422     0.1660709  0.1660709  0.3049467  3.33576    5.192557   2.130579   0.3374332  0.5315953  29.608     0.4208356  0.3311312  0.5105401 
1172.4     0.211      0.633      -9999      -9999      6.607291   1.7084     2.3692     2.3925     2.6565     1.9337     1.017      1.516      1.085      1.8165     0.1606464  0.1606464  0.3118935  2.646787   4.456422   2.065087   0.2692907  0.4962093  30.629     0.4583245  0.3524612  0.5641878 
1172.6     0.211      0.639      -9999      -9999      6.680068   1.5798     2.2051     2.0125     2.3403     1.9541     0.999      1.257      1.073      1.6003     0.1546406  0.1546406  0.3188403  2.04869    3.890405   1.782885   0.2102121  0.4710439  31.649     0.4975751  0.3725629  0.6225873 
1172.8     0.211      0.648      -9999      -9999      6.734498   1.4254     2.0103     1.838      2.014      1.8469     1.045      1.125      1.061      1.4511     0.1477253  0.1477253  0.3257871  1.525421   3.514601   1.621794   0.1481176  0.4481779  32.745     0.5395811  0.3883424  0.6908199 
1173       0.212      0.651      -9999      -9999      6.7736     1.3431     1.8359     1.7045     1.8152     1.6837     1.098      1.467      1.076      1.3431     0.1363173  0.1363173  0.3171036  0.9377464  3.267238   1.502372   0.04671038 0.3947969  32.796     0.5478373  0.4000894  0.6955851 
1173.2     0.212      0.653      -9999      -9999      6.802401   1.3173     1.7282     1.6224     1.6571     1.5561     1.055      1.575      1.079      1.1887     0.1323249  0.1323249  0.3153669  0.7909268  3.096246   1.372094   0          0.3581836  32.847     0.5546727  0.4089684  0.700377  
1173.4     0.212      0.648      -9999      -9999      6.821057   1.4614     1.6        1.4889     1.55       1.449      1.105      1.372      1.056      1.0858     0.1433329  0.1433329  0.3286816  1.264825   2.990289   1.255795   0.03253226 0.3819045  32.949     0.5616629  0.4148247  0.7085009 
1173.6     0.213      0.642      -9999      -9999      6.827244   1.5077     1.6667     1.4632     1.4481     1.3776     1.181      1.349      1.038      1.0343     0.1406218  0.1406218  0.3391018  1.126715   2.95596    1.211922   0.01630706 0.3895617  34.071     0.6014547  0.4167852  0.7861243 
1173.8     0.213      0.63       -9999      -9999      6.820402   1.554      1.6872     1.4632     1.3461     1.2755     1.132      1.432      1.033      1.0343     0.1415844  0.1415844  0.3419963  1.173936   2.993948   1.211922   0.0374822  0.4044753  34.913     0.6073088  0.4146176  0.8       
1174       0.214      0.616      -9999      -9999      6.802521   1.5746     1.6615     1.4632     1.2696     1.25       1.084      1.369      1.042      1.0961     0.1373002  0.1373002  0.3367862  0.9778923  3.095552   1.253322   0.05538552 0.4206231  34.76      0.6045029  0.4090058  0.8       
1174.2     0.214      0.606      -9999      -9999      6.776076   1.4202     1.6103     1.5043     1.29       1.3673     1.069      1.427      0.993      1.2762     0.1670129  0.1670129  0.3651523  3.472497   3.252175   1.380894   0.3042246  0.5567744  34.25      0.6004225  0.400845   0.8       
1174.4     0.214      0.598      7          7          6.741874   1.3688     1.5846     1.6224     1.3971     1.4439     1.558      1.83       0.985      1.5437     0.1825032  0.1825032  0.3697835  6.722943   3.466547   1.582072   0.4526488  0.6425477  33.153     0.5675161  0.3905316  0.7445007 
1174.6     0.214      0.59       7          7          6.708926   1.5026     1.6513     2.0318     2.1721     1.9209     2.539      2.675      0.934      2.1674     0.230688   0.230688   0.3993074  52.48788   3.686412   2.097411   0.5891789  0.7151376  31.394     0.5109679  0.3808473  0.6410885 
1174.8     0.213      0.584      7          7          6.701702   1.8268     2.4487     2.4412     2.9471     2.398      2.226      5.512      0.935      2.7911     0.239836   0.239836   0.3987285  77.53584   3.736453   2.60445    0.6297129  0.7394791  30.271     0.4814924  0.3787563  0.5842286 
1175       0.213      0.582      7          7          6.741808   2.187      3.2462     2.8507     3.7221     2.875      1.812      3.734      0.951      3.4148     0.2335714  0.2335714  0.3894661  59.35636   3.466969   3.107356   0.5904461  0.7099046  29.583     0.4724082  0.3905121  0.5543042 
1175.2     0.213      0.582      -9999      -9999      6.813401   2.2744     2.841      3.2601     4.4971     3.352      1.434      0.937      0.967      4.0384     0.22392    0.22392    0.3802037  39.32781   3.033324   3.607752   0.4776326  0.6269767  29.073     0.4735869  0.4124113  0.5347626 
1175.4     0.213      0.582      -9999      -9999      6.871308   2.4288     2.4359     2.2744     3.3907     2.6173     1.34       1.622      0.984      4.662099   0.2141324  0.2141324  0.3703624  25.9066    2.722582   3.0573     0.4276067  0.5920159  28.563     0.473424   0.4310195  0.5158286 
1175.6     0.213      0.574      -9999      -9999      6.888405   1.9091     2.0308     1.5351     2.2843     2.2857     1.441      1.74       1.004      2.7427     0.2026056  0.2026056  0.3587844  15.84546   2.637079   1.968451   0.3782861  0.5589746  28.308     0.4732693  0.4366722  0.5098663 
1175.8     0.212      0.572      -9999      -9999      6.869943   1.7959     2.2718     1.4273     1.9069     2.0204     1.422      1.996      1.023      2.295      0.1906825  0.1906825  0.3477853  9.529273   2.729529   1.760016   0.3328104  0.5308733  28.41      0.4760692  0.4305713  0.5215672 
1176       0.212      0.562      -9999      -9999      6.824505   1.8988     2.5282     1.3503     1.6367     1.9133     1.312      2.471      1.081      2.0738     0.1547265  0.1547265  0.3142091  2.056213   2.97111    1.635614   0.2001909  0.4588836  28.843     0.4832807  0.4159161  0.5506453 
1176.2     0.212      0.552      -9999      -9999      6.752812   1.8731     2.6667     1.2219     1.3971     1.8622     1.329      1.989      1.096      2.2127     0.1628405  0.1628405  0.3055256  2.906425   3.396494   1.574389   0.2791852  0.4935285  27.084     0.4323792  0.3938007  0.4709576 
1176.4     0.212      0.544      1          2          6.66053    1.765      2.359      1.1449     1.2186     1.9796     1.613      2.613      1.112      2.5317     0.1792371  0.1792371  0.2962632  5.848758   4.034896   1.576752   0.3760895  0.5345478  23.679     0.3546246  0.3670562  0.3421931 
1176.6     0.212      0.537      1          2          6.560698   1.7136     2.2513     1.3451     1.1625     2.0969     1.986      3.372      1.127      2.6758     0.1901599  0.1901599  0.2875797  9.319252   4.861308   1.790255   0.4225407  0.5500779  20.274     0.2952115  0.3401652  0.2502578 
1176.8     0.212      0.526      1          2          6.466136   1.8165     2.1744     1.6095     1.2441     2.2041     3.199      3.618      1.142      2.7787     0.1955505  0.1955505  0.2788962  11.7281    5.79966    2.038338   0.4489267  0.5578312  16.87      0.2525628  0.3165129  0.1886127 
