~Version
 VERS              .         2.0                           : CWLS LOG ASCII STANDARD - VERSION 2.0
 WRAP              .         NO                            : ONE LINE PER DEPTH STEP
 DLM               .         SPACE                         : DELIMITING CHARACTER(SPACE TAB OR COMMA)
~Well Information
#_______________________________________________________________________________
#
#PARAMETER_NAME    .UNIT     VALUE                         : DESCRIPTION
#_______________________________________________________________________________
STRT               .M        880                           : First reference value
STOP               .M        1254                          : Last reference value
STEP               .M        0.2                           : Step increment
NULL               .         -9999                         : Missing value
COMP               .                                       : Company
WELL               .         2382                          : Well name
FLD                .         Узень                         : Field
LOC                .                                       : Location
CNTY               .                                       : County
STAT               .                                       : State
CTRY               .                                       : Country
SRVC               .                                       : Service Company
DATE               .                                       : Date
UWI                .                                       : Unique Well ID
123                .         1                             : 
4_кв_для_Заказчика .         1                             : 
Block              .         7                             : 
Category           .         Нефтяная                      : 
Condition          .         Ликвидированная               : 
Date               .         21.01.1977                    : 
EREF               .m        84.7                          : 100.8
Gor                .         15                            : 
Gorizont           .         15                            : 14
Interpretator      .         Кайсанов Е.К                  : 
KUST               .                                       : 
Kupol              .         Основной                      : osnovnoi
Mud                .                                       : 
Mud_density        .                                       : 
Mud_resistivity    .                                       : 
NGDU               .         НГДУ-2                        : 
ORIGINALWELLNAME   .         2382                          : 
Otmetka            .                                       : 
Spud_date          .         1976                          : 1961
Viscosity          .                                       : 
X                  .m        42915.7                       : 46154
Y                  .m        84473.9                       : 85761.93
YEAR               .         2018                          : 
~Parameter Information Block
#_______________________________________________________________________________
#
#PARAMETER_NAME    .UNIT     VALUE                         : DESCRIPTION
#_______________________________________________________________________________
SET                .         LQC_KAZNIPI_Petrel            : 
TLFamily_CALI      .         Caliper                       : 
TLFamily_CILD      .         Conductivity                  : 
TLFamily_COLL      .         Net Reservoir Flag            : 
TLFamily_CSAT      .         Fluid Code                    : 
TLFamily_DEPT      .         Measured Depth                : 
TLFamily_GR        .         Russian Gamma Ray             : 
TLFamily_GZ1       .         Gradient 045                  : 
TLFamily_GZ2       .         Gradient 105                  : 
TLFamily_GZ3       .         Gradient 225                  : 
TLFamily_GZ4       .         Gradient 425                  : 
TLFamily_GZ5       .         Gradient 850                  : 
TLFamily_MINV      .         Micro Gradient Resistivity    : 
TLFamily_MNOR      .         Micro Resistivity             : 
TLFamily_NGLD      .         Neutron Far                   : 
TLFamily_OGZ3      .         Gradient Inverted 225         : 
TLFamily_PHIE      .         Effective Porosity            : 
TLFamily_PHIEN     .         Effective Porosity            : 
TLFamily_PHIT      .         Porosity                      : 
TLFamily_PRMB      .         Permeability                  : 
TLFamily_PRMB_DGR  .         Permeability                  : 
TLFamily_RT        .         Formation Resistivity         : 
TLFamily_SOIL_ARCHIE .         Oil Saturation                : 
TLFamily_SOIL_DW   .         Oil Saturation                : 
TLFamily_SP        .         Spontaneous Potential         : 
TLFamily_VSH_FIN   .         Shale Volume                  : 
TLFamily_VSH_GR    .         Shale Volume                  : 
TLFamily_VSH_SP    .         Shale Volume                  : 
~Curve Information
#_______________________________________________________________________________
#
#LOGNAME           .UNIT     LOG_ID                        : DESCRIPTION
#_______________________________________________________________________________
DEPT               .M                                      : Колонка глубины 
CALI               .м                                      : Каверномер 
CILD               .мСм/м                                  : Индукционный каротаж 
COLL               .unitless                               :  
CSAT               .unitless                               :  
GR                 .uR/h                                   : Гамма каротаж 
GZ1                .Ohmm                                   : 2 
GZ2                .Ohmm                                   : 3 
GZ3                .Ohmm                                   : 2 
GZ4                .Ohmm                                   : 4 
GZ5                .Ohmm                                   : 5 
MINV               .Ohmm                                   : Микро-градиент зонд 
MNOR               .Ohmm                                   : Микро-потенциал зонд 
NGLD               .у.е.                                   : Показания зонда НГК-60 аппаратуры ДРСТ-3-90 
OGZ3               .Ohmm                                   : 3 
PHIE               .v/v                                    : Описание 
PHIEN              .v/v                                    :  
PHIT               .v/v                                    : Описание 
PRMB               .mD                                     :  
PRMB_DGR           .mD                                     :  
RT                 .ohmm                                   : УЭС пласта 
SOIL_ARCHIE        .v/v                                    :  
SOIL_DW            .v/v                                    :  
SP                 .мВ                                     : Потенциал самополяризации 
VSH_FIN            .v/v                                    : Описание 
VSH_GR             .v/v                                    : Shale volume 
VSH_SP             .v/v                                    : Shale Volume 
~Ascii
880.0      0.226      0.472      -9999      -9999      -9999      1.8348     3.0443     3.5195     3.2956     1.723      -9999      -9999      0.962      3.6867     -9999      -9999      -9999      -9999      -9999      3.60116    -9999      -9999      45.332     -9999      0.06159713 0.6435238 
880.2      0.23       0.469      -9999      -9999      -9999      1.7274     4.2467     3.0757     3.1227     2.587      -9999      -9999      0.986      3.315      -9999      -9999      -9999      -9999      -9999      3.19087    -9999      -9999      45.434     -9999      0.06572332 0.6470792 
880.4      0.237      0.463      -9999      -9999      -9999      2.7802     5.4491     3.2924     3.4685     3.1715     -9999      -9999      1.01       3.3924     -9999      -9999      -9999      -9999      -9999      3.341652   -9999      -9999      45.536     -9999      0.07168994 0.6506512 
880.6      0.246      0.461      -9999      -9999      -9999      2.5605     4.7558     3.4782     3.8347     3.446      -9999      -9999      1.033      3.6506     -9999      -9999      -9999      -9999      -9999      3.562315   -9999      -9999      45.255     -9999      0.07819826 0.6408505 
880.8      0.251      0.458      -9999      -9999      -9999      2.2027     4.0625     3.8394     3.4634     3.9238     -9999      -9999      0.999      3.8881     -9999      -9999      -9999      -9999      -9999      3.863597   -9999      -9999      45         -9999      0.08134385 0.6320637 
881        0.235      0.454      -9999      -9999      6.342578   2.7751     4.4923     3.9478     3.2244     4.1474     -9999      -9999      0.987      4.0069     0.1708873  0.1708873  0.3686257  4.09643    1.64014    3.97713    0.5180826  0.6988734  44.745     0.5992073  0.5301161  0.6682985 
881.2      0.218      0.454      -9999      -9999      6.320085   2.7138     4.9221     3.9375     3.0464     4.4473     -9999      -9999      0.981      3.5112     0.1800998  0.1800998  0.3720991  6.067972   1.717878   3.712151   0.5245067  0.6962475  44.337     0.581816   0.5201863  0.6434457 
881.4      0.225      0.466      -9999      -9999      6.320333   2.3612     4.4565     4.0975     3.0617     4.3329     -9999      -9999      0.976      3.1549     0.1848617  0.1848617  0.3749936  7.434381   1.717002   3.564945   0.5263003  0.6945941  44.145     0.5761573  0.5202947  0.6320199 
881.6      0.233      0.467      -9999      -9999      6.356645   1.937      3.9781     4.1852     2.9854     4.2186     -9999      -9999      0.986      2.8761     0.1782591  0.1782591  0.3692046  5.609823   1.593321   3.409302   0.5006706  0.680248   43.954     0.5786227  0.5364225  0.6208229 
881.8      0.238      0.472      -9999      -9999      6.40759    1.6814     3.4997     4.1181     2.9854     4.2186     -9999      -9999      0.961      2.9277     0.1888586  0.1888586  0.3836771  8.816109   1.434672   3.42234    0.526021   0.6951551  43.954     0.5903592  0.5598953  0.6208229 
882        0.234      0.485      -9999      -9999      6.441715   2.1414     4.8044     4.0562     3.1125     4.5337     -9999      -9999      0.954      3.0723     0.1883748  0.1883748  0.3877294  8.636059   1.337337   3.496349   0.5296962  0.7000486  44.145     0.604105   0.5761901  0.6320199 
882.2      0.237      0.49       -9999      -9999      6.442613   2.1261     3.4844     4.1646     3.1634     4.5947     -9999      -9999      0.964      3.2014     0.1806287  0.1806287  0.3819404  6.206401   1.334867   3.620024   0.5200822  0.6976718  44.337     0.6100355  0.5766252  0.6434457 
882.4      0.235      0.493      -9999      -9999      6.407242   1.9472     3.382      4.1388     2.8531     4.676      -9999      -9999      0.955      3.3666     0.1871036  0.1871036  0.3871505  8.180326   1.435699   3.712976   0.5400915  0.7079195  44.49      0.6062028  0.5597317  0.6526738 
882.6      0.225      0.494      -9999      -9999      6.338046   1.8705     3.0921     3.8911     2.7718     4.7624     -9999      -9999      0.948      3.537      0.1948343  0.1948343  0.3912028  11.37528   1.655516   3.70561    0.555594   0.713956   44.643     0.595056   0.5281001  0.6620119 
882.8      0.227      0.497      -9999      -9999      6.237432   1.7325     2.8022     3.6692     2.7006     4.6201     -9999      -9999      0.972      3.8107     0.1869706  0.1869706  0.3773092  8.134048   2.036543   3.738611   0.5412754  0.7041667  44.745     0.5767837  0.485269   0.6682985 
883        0.233      0.497      -9999      -9999      6.100106   1.7581     2.5122     3.7259     2.7667     4.2541     -9999      -9999      0.992      4.3186     0.1830772  0.1830772  0.3657312  6.889568   2.701965   4.000416   0.547424   0.7061207  44.847     0.553497   0.4323594  0.6746347 
883.2      0.232      0.497      -9999      -9999      5.911849   1.9267     2.9881     3.5401     2.8074     4.1779     -9999      -9999      0.993      4.8266     0.1942511  0.1942511  0.3651523  11.09584   3.981108   4.084441   0.5743471  0.7154712  44.719     0.5178823  0.3690732  0.6666914 
883.4      0.232      0.494      -9999      -9999      5.668475   1.8348     2.7783     3.3286     2.7514     4.0508     -9999      -9999      0.991      6.9707     0.2137541  0.2137541  0.3663101  25.49196   6.570679   4.50568    0.6260183  0.7396201  44.005     0.4622908  0.3007853  0.6237963 
883.6      0.229      0.49       -9999      -9999      5.391904   1.7785     2.548      3.1686     2.7133     4.0508     -9999      -9999      1.007      7.4742     0.22125    0.22125    0.3570477  35.09494   11.61175   4.450474   0.6349657  0.7375898  43.316     0.4115083  0.2383861  0.5846305 
883.8      0.228      0.483      -9999      -9999      5.116505   1.7274     2.9215     3.0189     2.6751     4.0457     -9999      -9999      1.028      7.977601   0.2269999  0.2269999  0.3448908  44.84836   20.47091   4.380226   0.6403667  0.7327788  42.194     0.3572452  0.1891181  0.5253723 
884        0.233      0.478      -9999      -9999      4.866598   1.8501     3.0699     3.0447     2.9549     4.0661     -9999      -9999      1.074      9.0878     0.2148622  0.2148622  0.3182614  26.72554   34.24395   4.56124    0.6298267  0.7191414  41.148     0.313331   0.1532824  0.4733796 
884.2      0.237      0.47       -9999      -9999      4.646291   1.9114     3.0188     3.2873     3.199      4.554      -9999      -9999      1.12       9.565399   0.199066   0.199066   0.291632   13.6252    53.897     4.893032   0.6171562  0.7053704  40.281     0.2805031  0.1273675  0.4336388 
884.4      0.24       0.468      -9999      -9999      4.441695   2.1465     3.1109     3.4318     3.3516     5.6247     -9999      -9999      1.166      10.043     0.1797221  0.1797221  0.2650026  5.971008   82.1293    5.115559   0.5902016  0.6820951  39.732     0.2584257  0.107241   0.4096104 
884.6      0.232      0.463      -9999      -9999      4.234321   2.3254     3.6379     3.8653     3.5601     6.6955     -9999      -9999      1.212      10.4819    0.1596691  0.1596691  0.2383732  2.538734   125.8681   5.647887   0.5663133  0.6619128  39.184     0.2384972  0.09008418 0.3869103 
884.8      0.225      0.453      -9999      -9999      4.019294   2.2896     3.7095     4.4742     4.5823     6.3659     -9999      -9999      1.258      11.179     0.1410381  0.1410381  0.2117438  1.146902   195.9637   6.390652   0.5440515  0.6413844  38.291     0.2142596  0.07518695 0.3533322 
885        0.227      0.443      6          6          3.811619   2.0801     3.4281     4.7477     5.6046     6.963201   -9999      -9999      1.304      11.8244    0.1192809  0.1192809  0.1851144  0.4534494  300.5118   6.775086   0.4866884  0.5962034  37.806     0.1994956  0.06314234 0.3358488 
885.2      0.217      0.433      6          6          3.630045   2.7649     5.398      5.2431     6.6268     7.496799   -9999      -9999      1.35       12.9088    0.09685928 0.09685928 0.158485   0.1742717  436.7275   7.457305   0.4116883  0.5407292  37.321     0.1867446  0.05420361 0.3192855 
