~Version
 VERS              .         2.0                           : CWLS LOG ASCII STANDARD - VERSION 2.0
 WRAP              .         NO                            : ONE LINE PER DEPTH STEP
 DLM               .         SPACE                         : DELIMITING CHARACTER(SPACE TAB OR COMMA)
~Well Information
#_______________________________________________________________________________
#
#PARAMETER_NAME    .UNIT     VALUE                         : DESCRIPTION
#_______________________________________________________________________________
STRT               .M        880                           : First reference value
STOP               .M        1254                          : Last reference value
STEP               .M        0.2                           : Step increment
NULL               .         -9999                         : Missing value
COMP               .                                       : Company
WELL               .         2382                          : Well name
FLD                .         Узень                         : Field
LOC                .                                       : Location
CNTY               .                                       : County
STAT               .                                       : State
CTRY               .                                       : Country
SRVC               .                                       : Service Company
DATE               .                                       : Date
UWI                .                                       : Unique Well ID
123                .         1                             : 
4_кв_для_Заказчика .         1                             : 
Block              .         7                             : 
Category           .         Нефтяная                      : 
Condition          .         Ликвидированная               : 
Date               .         21.01.1977                    : 
EREF               .m        84.7                          : 100.8
Gor                .         15                            : 
Gorizont           .         15                            : 14
Interpretator      .         Кайсанов Е.К                  : 
KUST               .                                       : 
Kupol              .         Основной                      : osnovnoi
Mud                .                                       : 
Mud_density        .                                       : 
Mud_resistivity    .                                       : 
NGDU               .         НГДУ-2                        : 
ORIGINALWELLNAME   .         2382                          : 
Otmetka            .                                       : 
Spud_date          .         1976                          : 1961
Viscosity          .                                       : 
X                  .m        42915.7                       : 46154
Y                  .m        84473.9                       : 85761.93
YEAR               .         2018                          : 
~Parameter Information Block
#_______________________________________________________________________________
#
#PARAMETER_NAME    .UNIT     VALUE                         : DESCRIPTION
#_______________________________________________________________________________
SET                .         LQC_KAZNIPI_Petrel            : 
TLFamily_CALI      .         Caliper                       : 
TLFamily_CILD      .         Conductivity                  : 
TLFamily_COLL      .         Net Reservoir Flag            : 
TLFamily_CSAT      .         Fluid Code                    : 
TLFamily_DEPT      .         Measured Depth                : 
TLFamily_GR        .         Russian Gamma Ray             : 
TLFamily_GZ1       .         Gradient 045                  : 
TLFamily_GZ2       .         Gradient 105                  : 
TLFamily_GZ3       .         Gradient 225                  : 
TLFamily_GZ4       .         Gradient 425                  : 
TLFamily_GZ5       .         Gradient 850                  : 
TLFamily_MINV      .         Micro Gradient Resistivity    : 
TLFamily_MNOR      .         Micro Resistivity             : 
TLFamily_NGLD      .         Neutron Far                   : 
TLFamily_OGZ3      .         Gradient Inverted 225         : 
TLFamily_PHIE      .         Effective Porosity            : 
TLFamily_PHIEN     .         Effective Porosity            : 
TLFamily_PHIT      .         Porosity                      : 
TLFamily_PRMB      .         Permeability                  : 
TLFamily_PRMB_DGR  .         Permeability                  : 
TLFamily_RT        .         Formation Resistivity         : 
TLFamily_SOIL_ARCHIE .         Oil Saturation                : 
TLFamily_SOIL_DW   .         Oil Saturation                : 
TLFamily_SP        .         Spontaneous Potential         : 
TLFamily_VSH_FIN   .         Shale Volume                  : 
TLFamily_VSH_GR    .         Shale Volume                  : 
TLFamily_VSH_SP    .         Shale Volume                  : 
~Curve Information
#_______________________________________________________________________________
#
#LOGNAME           .UNIT     LOG_ID                        : DESCRIPTION
#_______________________________________________________________________________
DEPT               .M                                      : Колонка глубины 
CALI               .м                                      : Каверномер 
CILD               .мСм/м                                  : Индукционный каротаж 
COLL               .unitless                               :  
CSAT               .unitless                               :  
GR                 .uR/h                                   : Гамма каротаж 
GZ1                .Ohmm                                   : 2 
GZ2                .Ohmm                                   : 3 
GZ3                .Ohmm                                   : 2 
GZ4                .Ohmm                                   : 4 
GZ5                .Ohmm                                   : 5 
MINV               .Ohmm                                   : Микро-градиент зонд 
MNOR               .Ohmm                                   : Микро-потенциал зонд 
NGLD               .у.е.                                   : Показания зонда НГК-60 аппаратуры ДРСТ-3-90 
OGZ3               .Ohmm                                   : 3 
PHIE               .v/v                                    : Описание 
PHIEN              .v/v                                    :  
PHIT               .v/v                                    : Описание 
PRMB               .mD                                     :  
PRMB_DGR           .mD                                     :  
RT                 .ohmm                                   : УЭС пласта 
SOIL_ARCHIE        .v/v                                    :  
SOIL_DW            .v/v                                    :  
SP                 .мВ                                     : Потенциал самополяризации 
VSH_FIN            .v/v                                    : Описание 
VSH_GR             .v/v                                    : Shale volume 
VSH_SP             .v/v                                    : Shale Volume 
~Ascii
# ...
1150       0.217      0.449      1          2          5.707981   1.7187     3.2308     2.4067     2.5607     2.4714     5.425      6.732      1.112      5.1561     0.2461632  0.2461632  0.2962632  101.5543   23.87495   3.281638   0.6594953  0.7126734  11.961     0.1518181  0.1776046  0.1260316 
1150.2     0.216      0.443      1          2          5.620816   2.4494     4.1026     2.7752     2.9743     3.2694     5.351      7.498      1.095      5.5446     0.2584153  0.2584153  0.3061045  171.2519   28.09285   3.698977   0.6754185  0.7254273  10.941     0.1445128  0.1661897  0.122836  
1150.4     0.217      0.43       1          2          5.578297   3.1801     5.2308     3.1438     3.3879     4.0673     5.574      8.715      1.08       5.9331     0.2682056  0.2682056  0.314788   260.0017   30.41311   4.109879   0.6826606  0.7312514  10.405     0.1411588  0.1608907  0.1214269 
1150.6     0.219      0.425      1          2          5.600849   3.9108     6.3846     3.5123     3.8014     4.8653     6.333      8.973      1.096      5.099501   0.2587372  0.2587372  0.3055256  173.6196   29.15954   4.159636   0.6688485  0.7190217  9.742      0.1417831  0.1636799  0.1198863 
1150.8     0.22       0.422      1          2          5.677972   4.646699   8.666699   3.8808     4.215      5.6633     6.495      8.249      1.094      4.286399   0.2581755  0.2581755  0.3066834  169.5099   25.25032   4.073528   0.6535606  0.706139   9.972      0.1469936  0.1735889  0.1203984 
1151       0.217      0.427      1          2          5.781594   4.831901   10.4615    4.2493     4.6286     6.0221     5.499      7.524      1.085      3.7358     0.2606761  0.2606761  0.3118935  188.5869   20.81005   3.976039   0.6382191  0.6937364  10.839     0.1552043  0.1878535  0.122555  
1151.2     0.215      0.43       1          2          5.89044    5.0532     11.7436    4.6178     5.0421     6.381      4.436      7.532      1.1        2.9846     0.2489906  0.2489906  0.30321    114.5692   16.98425   3.625772   0.6031245  0.6642835  11.502     0.1643012  0.204101   0.1245013 
1151.4     0.212      0.438      1          2          5.994579   5.3002     13.1026    4.9863     5.4557     6.7398     3.374      3.411      1.088      2.4082     0.2502946  0.2502946  0.3101568  121.1215   13.98406   3.247821   0.5819678  0.648857   15.076     0.1814005  0.2209601  0.1418409 
1151.6     0.212      0.445      1          2          6.091097   4.9091     13.6923    5.3548     4.432499   5.9061     2.502      3.308      1.072      1.9914     0.250977   0.250977   0.3194192  124.6986   11.67882   2.903147   0.5576345  0.632814   18.651     0.2074004  0.2378261  0.1769747 
1151.8     0.212      0.465      1          2          6.184759   4.1218     10.6923    5.0745     3.4094     5.0724     1.784      3.477      1.054      1.7238     0.2483492  0.2483492  0.3298394  111.4775   9.805717   2.573415   0.5291907  0.6168897  22.226     0.2469401  0.255423   0.2384571 
1152       0.212      0.514      -9999      -9999      6.288943   2.9537     9.3846     4.7942     2.3862     4.2388     1.718      2.885      1.049      1.4871     0.2318622  0.2318622  0.3327339  55.18341   8.072909   2.270057   0.4765356  0.5879924  25.8       0.3056718  0.2765308  0.3348127 
1152.2     0.212      0.532      -9999      -9999      6.412474   2.6141     7.0769     4.5139     1.7438     3.4051     1.563      2.805      1.035      1.307      0.2123892  0.2123892  0.3408385  24.05039   6.410615   2.027064   0.411426   0.5602216  29.375     0.3892402  0.3038296  0.4746509 
1152.4     0.212      0.56       -9999      -9999      6.545898   2.2796     6.2308     4.2335     1.4175     2.5714     1.394      2.339      1.055      1.1732     0.1637992  0.1637992  0.3292605  3.027732   4.997464   1.837255   0.2946963  0.5257171  32.949     0.5013978  0.3363499  0.6664457 
1152.6     0.213      0.595      -9999      -9999      6.66685    2.1458     5.0769     3.9532     1.239      2.0867     1.226      1.835      1.014      1.0703     0.1708109  0.1708109  0.3529954  4.083099   3.987583   1.684527   0.4131981  0.6178601  34.02      0.5520742  0.3688284  0.73532   
1152.8     0.214      0.602      -9999      -9999      6.757972   2.0017     4.564099   4.279201   1.0351     2.0357     1.067      1.644      0.974      1.1835     0.1835544  0.1835544  0.3761514  7.031222   3.363942   1.854187   0.502377   0.6794167  34.556     0.5836273  0.3953524  0.7719024 
1153       0.214      0.609      -9999      -9999      6.812644   1.7702     3.8974     4.6052     1.2696     2.2806     1.098      1.363      0.983      1.7527     0.1723092  0.1723092  0.3709413  4.352538   3.037618   2.539057   0.5138437  0.6952612  34.837     0.6019155  0.4121732  0.7916577 
1153.2     0.215      0.605      -9999      -9999      6.825275   1.7907     3.6103     4.9313     1.601      2.4133     1.322      0.861      0.977      2.3218     0.1751247  0.1751247  0.3744147  4.907866   2.966842   3.157131   0.5394312  0.7114289  34.837     0.603909   0.4161602  0.7916577 
1153.4     0.215      0.601      -9999      -9999      6.789004   1.8525     3.3744     5.257299   1.8662     2.5816     1.196      1.334      1.003      2.8909     0.1634385  0.1634385  0.3593633  2.9815     3.17464    3.730475   0.4463908  0.6532558  34.709     0.5937116  0.4048141  0.7826092 
1153.6     0.216      0.598      -9999      -9999      6.711818   1.801      2.6205     4.9184     2.0599     2.7602     1.216      1.619      1.03       3.46       0.1689551  0.1689551  0.343733   3.772394   3.666565   4.062271   0.3846221  0.5937906  33.128     0.5296299  0.3816878  0.6775721 
1153.8     0.217      0.592      -9999      -9999      6.623597   1.6569     1.9949     2.5465     2.1874     2.6531     1.455      1.104      1.056      4.0292     0.1666594  0.1666594  0.3286816  3.420545   4.322842   3.120689   0.3323097  0.5479288  32.261     0.4909762  0.3568686  0.6250839 
1154       0.217      0.586      -9999      -9999      6.557085   1.4357     1.7846     1.8534     1.703      2.0561     1.388      1.357      1.083      3.1801     0.1622623  0.1622623  0.3130513  2.835629   4.894205   2.341908   0.2753391  0.4990894  31.368     0.4569365  0.3392297  0.5746432 
1154.2     0.218      0.588      -9999      -9999      6.52638    1.4099     1.5487     1.6224     1.3563     1.699      1.258      1.325      1.109      2.6707     0.1651331  0.1651331  0.2979999  3.204975   5.182875   2.018562   0.2549317  0.4633798  29.358     0.4026266  0.3313836  0.4738695 
1154.4     0.219      0.58       1          2          6.52766    1.4511     1.5436     1.4324     1.2798     1.5255     1.17       1.059      1.105      2.3568     0.1813056  0.1813056  0.3003155  6.388184   5.170506   1.781843   0.3014126  0.4760577  27.349     0.3606361  0.3317071  0.389565  
1154.6     0.22       0.563      1          2          6.552454   1.4254     1.7179     1.3297     1.2288     1.3673     1.101      1.198      1.108      2.0892     0.1899824  0.1899824  0.2985788  9.248981   4.936682   1.62509    0.3320464  0.4863701  25.339     0.3290798  0.3380348  0.3201248 
1154.8     0.22       0.543      1          2          6.586258   1.2967     1.9436     1.227      1.1013     1.2143     1.125      1.182      1.13       2.1715     0.1850353  0.1850353  0.285843   7.489647   4.634843   1.568004   0.3712228  0.512547   23.33      0.3054778  0.3468565  0.2640991 
1155       0.223      0.524      1          2          6.601284   1.2453     1.9641     1.2014     1.0504     1.1633     1.689      1.722      1.112      2.3156     0.2020873  0.2020873  0.2962632  15.49904   4.50667    1.582008   0.444837   0.5625125  21.32      0.2853816  0.3508513  0.2199119 
1155.2     0.223      0.52       1          2          6.573511   1.1938     1.8615     1.5505     1.0249     1.0306     2.303      3.472      1.1        2.4185     0.2174603  0.2174603  0.30321    29.85735   4.746435   1.889586   0.5061319  0.6043631  18.591     0.2598474  0.3435031  0.1761916 
