~Version
 VERS              .         2.0                           : CWLS LOG ASCII STANDARD - VERSION 2.0
 WRAP              .         NO                            : ONE LINE PER DEPTH STEP
 DLM               .         SPACE                         : DELIMITING CHARACTER(SPACE TAB OR COMMA)
~Well Information
#_______________________________________________________________________________
#
#PARAMETER_NAME    .UNIT     VALUE                         : DESCRIPTION
#_______________________________________________________________________________
STRT               .M        880                           : First reference value
STOP               .M        1254                          : Last reference value
STEP               .M        0.2                           : Step increment
NULL               .         -9999                         : Missing value
COMP               .                                       : Company
WELL               .         2382                          : Well name
FLD                .         Узень                         : Field
LOC                .                                       : Location
CNTY               .                                       : County
STAT               .                                       : State
CTRY               .                                       : Country
SRVC               .                                       : Service Company
DATE               .                                       : Date
UWI                .                                       : Unique Well ID
123                .         1                             : 
4_кв_для_Заказчика .         1                             : 
Block              .         7                             : 
Category           .         Нефтяная                      : 
Condition          .         Ликвидированная               : 
Date               .         21.01.1977                    : 
EREF               .m        84.7                          : 100.8
Gor                .         15                            : 
Gorizont           .         15                            : 14
Interpretator      .         Кайсанов Е.К                  : 
KUST               .                                       : 
Kupol              .         Основной                      : osnovnoi
Mud                .                                       : 
Mud_density        .                                       : 
Mud_resistivity    .                                       : 
NGDU               .         НГДУ-2                        : 
ORIGINALWELLNAME   .         2382                          : 
Otmetka            .                                       : 
Spud_date          .         1976                          : 1961
Viscosity          .                                       : 
X                  .m        42915.7                       : 46154
Y                  .m        84473.9                       : 85761.93
YEAR               .         2018                          : 
~Parameter Information Block
#_______________________________________________________________________________
#
#PARAMETER_NAME    .UNIT     VALUE                         : DESCRIPTION
#_______________________________________________________________________________
SET                .         LQC_KAZNIPI_Petrel            : 
TLFamily_CALI      .         Caliper                       : 
TLFamily_CILD      .         Conductivity                  : 
TLFamily_COLL      .         Net Reservoir Flag            : 
TLFamily_CSAT      .         Fluid Code                    : 
TLFamily_DEPT      .         Measured Depth                : 
TLFamily_GR        .         Russian Gamma Ray             : 
TLFamily_GZ1       .         Gradient 045                  : 
TLFamily_GZ2       .         Gradient 105                  : 
TLFamily_GZ3       .         Gradient 225                  : 
TLFamily_GZ4       .         Gradient 425                  : 
TLFamily_GZ5       .         Gradient 850                  : 
TLFamily_MINV      .         Micro Gradient Resistivity    : 
TLFamily_MNOR      .         Micro Resistivity             : 
TLFamily_NGLD      .         Neutron Far                   : 
TLFamily_OGZ3      .         Gradient Inverted 225         : 
TLFamily_PHIE      .         Effective Porosity            : 
TLFamily_PHIEN     .         Effective Porosity            : 
TLFamily_PHIT      .         Porosity                      : 
TLFamily_PRMB      .         Permeability                  : 
TLFamily_PRMB_DGR  .         Permeability                  : 
TLFamily_RT        .         Formation Resistivity         : 
TLFamily_SOIL_ARCHIE .         Oil Saturation                : 
TLFamily_SOIL_DW   .         Oil Saturation                : 
TLFamily_SP        .         Spontaneous Potential         : 
TLFamily_VSH_FIN   .         Shale Volume                  : 
TLFamily_VSH_GR    .         Shale Volume                  : 
TLFamily_VSH_SP    .         Shale Volume                  : 
~Curve Information
#_______________________________________________________________________________
#
#LOGNAME           .UNIT     LOG_ID                        : DESCRIPTION
#_______________________________________________________________________________
DEPT               .M                                      : Колонка глубины 
CALI               .м                                      : Каверномер 
CILD               .мСм/м                                  : Индукционный каротаж 
COLL               .unitless                               :  
CSAT               .unitless                               :  
GR                 .uR/h                                   : Гамма каротаж 
GZ1                .Ohmm                                   : 2 
GZ2                .Ohmm                                   : 3 
GZ3                .Ohmm                                   : 2 
GZ4                .Ohmm                                   : 4 
GZ5                .Ohmm                                   : 5 
MINV               .Ohmm                                   : Микро-градиент зонд 
MNOR               .Ohmm                                   : Микро-потенциал зонд 
NGLD               .у.е.                                   : Показания зонда НГК-60 аппаратуры ДРСТ-3-90 
OGZ3               .Ohmm                                   : 3 
PHIE               .v/v                                    : Описание 
PHIEN              .v/v                                    :  
PHIT               .v/v                                    : Описание 
PRMB               .mD                                     :  
PRMB_DGR           .mD                                     :  
RT                 .ohmm                                   : УЭС пласта 
SOIL_ARCHIE        .v/v                                    :  
SOIL_DW            .v/v                                    :  
SP                 .мВ                                     : Потенциал самополяризации 
VSH_FIN            .v/v                                    : Описание 
VSH_GR             .v/v                                    : Shale volume 
VSH_SP             .v/v                                    : Shale Volume 
~Ascii
# ...
907        0.212      0.644      1          3          3.046121   1.9267     1.8471     1.6256     1.3935     1.0572     1.215      1.566      1.126      1.327      0.2522911  0.2522911  0.2881586  131.8867   1453.143   1.461201   0.434763   0.4929718  34.974     0.1086893  0.03317709 0.1842016 
907.2      0.212      0.644      1          3          3.06876    1.9267     1.8675     1.6256     1.3681     1.0673     1.204      1.596      1.139      1.2444     0.2444182  0.2444182  0.2806329  94.27052   1386.968   1.409684   0.4236117  0.4826805  35.111     0.1097414  0.03381455 0.1856683 
907.4      0.212      0.644      1          3          3.08504    1.9267     1.9545     1.574      1.2918     1.0775     1.275      1.729      1.163      1.2186     0.2302044  0.2302044  0.2667393  51.41642   1341.252   1.373685   0.3946093  0.4554074  35.247     0.1107119  0.03428052 0.1871432 
907.6      0.212      0.644      1          3          3.086006   1.9012     1.9289     1.4708     1.1596     1.0521     1.387      1.954      1.188      1.3322     0.2154803  0.2154803  0.2522668  27.43945   1338.588   1.398073   0.3602107  0.4230497  35.383     0.1114744  0.03430836 0.1886405 
907.8      0.212      0.644      1          3          3.080661   1.8245     1.8778     1.4295     1.0782     0.9936     1.245      1.68       1.19       1.3864     0.2141816  0.2141816  0.251109   25.96096   1353.399   1.40762    0.3594439  0.4225413  35.485     0.1119012  0.03415455 0.1896478 
908        0.212      0.644      1          3          3.088037   1.7479     1.9955     1.3882     0.9307     0.9352     1.275      1.54       1.207      1.4406     0.2041374  0.2041374  0.2412677  16.91522   1333       1.413915   0.3382442  0.402857   35.587     0.1125161  0.03436701 0.1906651 
908.2      0.212      0.645      1          3          3.112071   1.7479     2.0773     1.3366     0.9307     0.9352     1.349      1.729      1.224      1.5284     0.1942672  0.1942672  0.2314264  11.10347   1268.65    1.42608    0.3209035  0.3867763  35.587     0.1126036  0.03506843 0.1901387 
908.4      0.212      0.645      1          3          3.135731   1.8296     2.0569     1.3366     0.9307     0.9352     1.423      1.875      1.241      1.5955     0.1845542  0.1845542  0.2215851  7.337512   1208.333   1.45462    0.298215   0.3654453  35.523     0.1122149  0.03577294 0.1886568 
908.6      0.213      0.645      1          3          3.141543   1.8296     1.9648     1.3572     0.9307     0.9606     1.382      1.771      1.214      1.6988     0.2003965  0.2003965  0.2372154  14.42075   1193.96    1.508908   0.3590637  0.4226019  35.459     0.1115724  0.03594816 0.1871966 
908.8      0.213      0.643      1          3          3.132435   1.8296     1.8727     1.3572     0.9053     0.986      1.298      1.53       1.186      1.7995     0.2167349  0.2167349  0.2534246  28.94768   1216.56    1.547364   0.4034892  0.464386   35.459     0.111181   0.03567396 0.1866881 
909        0.213      0.641      1          3          3.127684   1.8756     1.8471     1.3985     0.8595     0.9759     1.21       1.751      1.159      1.9002     0.2324721  0.2324721  0.2690549  56.63761   1228.517   1.611198   0.4410481  0.4998243  35.459     0.110857   0.03553176 0.1861822 
909.2      0.213      0.636      1          3          3.142587   1.8961     1.9596     1.3985     0.8595     0.9759     1.278      2.014      1.132      1.9931     0.2476175  0.2476175  0.2846852  108.0526   1191.396   1.643679   0.4931808  0.5497029  35.663     0.1123264  0.03597973 0.1886731 
909.4      0.213      0.632      1          3          3.180335   1.845      1.9596     1.3211     0.8341     0.9759     1.413      2.024      1.141      2.0344     0.2417288  0.2417288  0.2794751  84.05462   1102.315   1.601935   0.4837921  0.5414885  35.893     0.1143827  0.03713978 0.1916257 
909.6      0.213      0.614      1          3          3.242656   1.7428     1.8266     1.3366     0.8086     1.0089     1.548      2.131      1.154      2.1119     0.2333721  0.2333721  0.2719494  58.85396   969.5773   1.637098   0.4736922  0.5328568  36.123     0.1169008  0.03913749 0.1946641 
909.8      0.213      0.599      1          3          3.331701   1.7836     1.8266     1.3572     0.7832     1.0419     1.381      3.131      1.172      2.6489     0.220373   0.220373   0.2615292  33.80661   807.1725   1.794806   0.4389126  0.5030686  36.913     0.1247155  0.04217964 0.2072514 
910        0.213      0.572      6          6          3.437277   1.8245     2.0057     1.2798     0.712      1.1233     1.421      4.014      1.188      3.0568     0.208072   0.208072   0.2522668  20.00584   649.4841   1.804221   0.442297   0.5102881  37.73      0.1339236  0.04609445 0.2217528 
910.2      0.213      0.557      6          6          3.539683   1.845      2.0108     1.2798     0.6866     1.2147     1.681      3.711      1.237      3.3253     0.1763726  0.1763726  0.2239007  5.176136   526.0234   1.848264   0.4006146  0.4789224  38.546     0.1440247  0.05023855 0.2378109 
910.4      0.213      0.53       6          6          3.63443    1.8194     1.8727     1.2282     0.6739     1.2732     1.504      1.794      1.224      3.3253     0.1812724  0.1812724  0.2314264  6.379145   432.8025   1.793844   0.4746213  0.5495598  39.107     0.1519819  0.05440379 0.24956   
910.6      0.213      0.515      6          6          3.74275    1.8552     1.8164     1.3108     0.6612     1.3316     2.13       3.991      1.214      4.4148     0.1841379  0.1841379  0.2372154  7.208396   346.2888   2.02142    0.5093575  0.583881   39.668     0.1608409  0.05959046 0.2620914 
910.8      0.213      0.501      6          6          3.882712   1.9421     1.9699     1.4708     0.6103     1.5909     3.28       6.017      1.209      5.9122     0.1835473  0.1835473  0.2401099  7.029109   259.5948   2.355591   0.5122935  0.590112   40.242     0.1714017  0.06703115 0.2757722 
911        0.213      0.471      6          6          4.039128   1.9114     2.0006     1.9249     0.9561     1.7078     3.197      7.521      1.228      6.4544     0.1685915  0.1685915  0.2291108  3.714335   188.1229   2.965421   0.5305904  0.6127671  40.816     0.1833918  0.07645112 0.2903325 
911.2      0.213      0.452      6          6          4.173189   1.8092     2.3587     2.121      1.3783     1.9314     3.6        5.852      1.237      7.7711     0.1560364  0.1560364  0.2239007  2.174353   142.7496   3.332458   0.5385394  0.629636   42.041     0.2056495  0.08557153 0.3257275 
911.4      0.213      0.442      6          6          4.260371   2.0392     2.8141     2.0539     1.5563     2.1194     3.683      7.639      1.258      9.7849     0.1352783  0.1352783  0.2117438  0.8970978  119.2955   3.395142   0.5119813  0.622744   43.418     0.2317137  0.09207875 0.3713486 
911.6      0.213      0.43       6          6          4.314173   2.3203     3.0136     2.7523     1.8462     2.5074     4.294      12.191     1.278      9.9656     0.1143931  0.1143931  0.2001658  0.3681251  106.787    4.313341   0.4280312  0.5770383  44.796     0.2599173  0.09633907 0.4234956 
911.8      0.213      0.418      6          6          4.375689   3.0511     4.6322     3.4507     1.8563     2.8954     6.09       18.04      1.299      10.2496    0.08364449 0.08364449 0.1880089  0.09918749 94.08404   5.163141   0.2095681  0.4765195  47.168     0.3162557  0.1014523  0.5310593 
912        0.213      0.416      6          6          4.481407   3.2606     6.2507     4.1491     1.8411     3.2834     7.886      11.762     1.319      10.6627    0.06165665 0.06165665 0.1764309  0.03883192 75.68177   5.973698   0          0.3559028  48.214     0.3478007  0.1108816  0.5847199 
912.2      0.213      0.417      6          6          4.637258   4.8373     7.8692     3.8921     2.4158     3.6713     7.033      8.765      1.305      11.4888    0.06179964 0.06179964 0.1845355  0.03906946 54.90879   5.814427   0          0.3451517  48.827     0.3719269  0.1264039  0.61745   
