~Version
 VERS              .         2.0                           : CWLS LOG ASCII STANDARD - VERSION 2.0
 WRAP              .         NO                            : ONE LINE PER DEPTH STEP
 DLM               .         SPACE                         : DELIMITING CHARACTER(SPACE TAB OR COMMA)
~Well Information
#_______________________________________________________________________________
#
#PARAMETER_NAME    .UNIT     VALUE                         : DESCRIPTION
#_______________________________________________________________________________
STRT               .M        880                           : First reference value
STOP               .M        1254                          : Last reference value
STEP               .M        0.2                           : Step increment
NULL               .         -9999                         : Missing value
COMP               .                                       : Company
WELL               .         2382                          : Well name
FLD                .         Узень                         : Field
LOC                .                                       : Location
CNTY               .                                       : County
STAT               .                                       : State
CTRY               .                                       : Country
SRVC               .                                       : Service Company
DATE               .                                       : Date
UWI                .                                       : Unique Well ID
123                .         1                             : 
4_кв_для_Заказчика .         1                             : 
Block              .         7                             : 
Category           .         Нефтяная                      : 
Condition          .         Ликвидированная               : 
Date               .         21.01.1977                    : 
EREF               .m        84.7                          : 100.8
Gor                .         15                            : 
Gorizont           .         15                            : 14
Interpretator      .         Кайсанов Е.К                  : 
KUST               .                                       : 
Kupol              .         Основной                      : osnovnoi
Mud                .                                       : 
Mud_density        .                                       : 
Mud_resistivity    .                                       : 
NGDU               .         НГДУ-2                        : 
ORIGINALWELLNAME   .         2382                          : 
Otmetka            .                                       : 
Spud_date          .         1976                          : 1961
Viscosity          .                                       : 
X                  .m        42915.7                       : 46154
Y                  .m        84473.9                       : 85761.93
YEAR               .         2018                          : 
~Parameter Information Block
#_______________________________________________________________________________
#
#PARAMETER_NAME    .UNIT     VALUE                         : DESCRIPTION
#_______________________________________________________________________________
SET                .         LQC_KAZNIPI_Petrel            : 
TLFamily_CALI      .         Caliper                       : 
TLFamily_CILD      .         Conductivity                  : 
TLFamily_COLL      .         Net Reservoir Flag            : 
TLFamily_CSAT      .         Fluid Code                    : 
TLFamily_DEPT      .         Measured Depth                : 
TLFamily_GR        .         Russian Gamma Ray             : 
TLFamily_GZ1       .         Gradient 045                  : 
TLFamily_GZ2       .         Gradient 105                  : 
TLFamily_GZ3       .         Gradient 225                  : 
TLFamily_GZ4       .         Gradient 425                  : 
TLFamily_GZ5       .         Gradient 850                  : 
TLFamily_MINV      .         Micro Gradient Resistivity    : 
TLFamily_MNOR      .         Micro Resistivity             : 
TLFamily_NGLD      .         Neutron Far                   : 
TLFamily_OGZ3      .         Gradient Inverted 225         : 
TLFamily_PHIE      .         Effective Porosity            : 
TLFamily_PHIEN     .         Effective Porosity            : 
TLFamily_PHIT      .         Porosity                      : 
TLFamily_PRMB      .         Permeability                  : 
TLFamily_PRMB_DGR  .         Permeability                  : 
TLFamily_RT        .         Formation Resistivity         : 
TLFamily_SOIL_ARCHIE .         Oil Saturation                : 
TLFamily_SOIL_DW   .         Oil Saturation                : 
TLFamily_SP        .         Spontaneous Potential         : 
TLFamily_VSH_FIN   .         Shale Volume                  : 
TLFamily_VSH_GR    .         Shale Volume                  : 
TLFamily_VSH_SP    .         Shale Volume                  : 
~Curve Information
#_______________________________________________________________________________
#
#LOGNAME           .UNIT     LOG_ID                        : DESCRIPTION
#_______________________________________________________________________________
DEPT               .M                                      : Колонка глубины 
CALI               .м                                      : Каверномер 
CILD               .мСм/м                                  : Индукционный каротаж 
COLL               .unitless                               :  
CSAT               .unitless                               :  
GR                 .uR/h                                   : Гамма каротаж 
GZ1                .Ohmm                                   : 2 
GZ2                .Ohmm                                   : 3 
GZ3                .Ohmm                                   : 2 
GZ4                .Ohmm                                   : 4 
GZ5                .Ohmm                                   : 5 
MINV               .Ohmm                                   : Микро-градиент зонд 
MNOR               .Ohmm                                   : Микро-потенциал зонд 
NGLD               .у.е.                                   : Показания зонда НГК-60 аппаратуры ДРСТ-3-90 
OGZ3               .Ohmm                                   : 3 
PHIE               .v/v                                    : Описание 
PHIEN              .v/v                                    :  
PHIT               .v/v                                    : Описание 
PRMB               .mD                                     :  
PRMB_DGR           .mD                                     :  
RT                 .ohmm                                   : УЭС пласта 
SOIL_ARCHIE        .v/v                                    :  
SOIL_DW            .v/v                                    :  
SP                 .мВ                                     : Потенциал самополяризации 
VSH_FIN            .v/v                                    : Описание 
VSH_GR             .v/v                                    : Shale volume 
VSH_SP             .v/v                                    : Shale Volume 
~Ascii
# ...
1247.2     -9999      0.738      1          3          -9999      3.0411     5.6539     2.2411     1.6582     1.6807     1.806      3.991      -9999      1.7877     -9999      -9999      -9999      -9999      -9999      1.988887   -9999      -9999      3.006      0.1241594  -9999      0.1241594 
1247.4     -9999      0.759      1          3          -9999      3          4.6002     2.1083     1.1122     1.4202     1.751      3.99       -9999      1.5681     -9999      -9999      -9999      -9999      -9999      1.798512   -9999      -9999      2.751      0.1237517  -9999      0.1237517 
1247.6     -9999      0.764      1          3          -9999      2.8921     4.3432     2.1747     0.75       1.0473     1.99       3.989      -9999      1.2463     -9999      -9999      -9999      -9999      -9999      1.584524   -9999      -9999      2.751      0.1241179  -9999      0.1241179 
1247.8     -9999      0.768      1          3          -9999      3.0462     4.189      2.3483     0.5051     1.0064     1.949      3.988      -9999      0.9552     -9999      -9999      -9999      -9999      -9999      1.358012   -9999      -9999      2.853      0.1248204  -9999      0.1248204 
1248       -9999      0.782      1          3          -9999      2.7021     3.3358     2.3891     0.3673     0.8072     1.709      3.7        -9999      0.7968     -9999      -9999      -9999      -9999      -9999      1.195037   -9999      -9999      4.712      0.132919   -9999      0.132919  
1248.2     -9999      0.794      1          3          -9999      2.5839     3.0942     2.3636     0.1582     0.6181     1.514      3.407      -9999      0.7713     -9999      -9999      -9999      -9999      -9999      1.163064   -9999      -9999      5.375      0.1372487  -9999      0.1372487 
1248.4     -9999      0.805      1          3          -9999      2.4555     2.9041     2.2819     0.1327     0.567      1.457      3.846      -9999      0.7917     -9999      -9999      -9999      -9999      -9999      1.175547   -9999      -9999      8.249      0.1616965  -9999      0.1616965 
1248.6     -9999      0.804      1          3          -9999      2.6712     2.976      2.2053     0.1327     0.5415     1.626      3.951      -9999      0.8939     -9999      -9999      -9999      -9999      -9999      1.272146   -9999      -9999      11.123     0.2024655  -9999      0.2024655 
1248.8     -9999      0.797      1          3          -9999      2.774      3.1405     2.1288     0.1531     0.4138     1.919      4.02       -9999      1.0267     -9999      -9999      -9999      -9999      -9999      1.385288   -9999      -9999      13.997     0.2645863  -9999      0.2645863 
1249       -9999      0.79       -9999      -9999      -9999      2.8716     2.7242     2.0752     0.1276     0.3116     1.779      3.369      -9999      1.1288     -9999      -9999      -9999      -9999      -9999      1.462226   -9999      -9999      16.871     0.3530892  -9999      0.3530892 
1249.2     -9999      0.783      -9999      -9999      -9999      2.2551     2.2873     2.0216     0.1276     0.3321     1.425      2.721      -9999      1.1901     -9999      -9999      -9999      -9999      -9999      1.498214   -9999      -9999      19.745     0.4730047  -9999      0.4730047 
1249.4     -9999      0.768      -9999      -9999      -9999      1.8236     2.1279     1.8735     0.2602     0.3525     1.232      2.225      -9999      1.2514     -9999      -9999      -9999      -9999      -9999      1.500527   -9999      -9999      22.619     0.629363   -9999      0.629363  
1249.6     -9999      0.751      -9999      -9999      -9999      1.6592     1.7681     1.7408     0.4439     0.3883     1.087      1.826      -9999      1.2719     -9999      -9999      -9999      -9999      -9999      1.46986    -9999      -9999      22.466     0.6274685  -9999      0.6274685 
1249.8     -9999      0.747      1          3          -9999      1.4692     1.5163     1.6438     0.6224     0.3883     1.019      1.941      -9999      1.2412     -9999      -9999      -9999      -9999      -9999      1.414409   -9999      -9999      17.041     0.376387   -9999      0.376387  
1250       -9999      0.756      1          3          -9999      1.3151     1.4135     1.5009     0.7806     0.3627     0.962      1.574      -9999      0.996      -9999      -9999      -9999      -9999      -9999      1.197402   -9999      -9999      15.181     0.3176241  -9999      0.3176241 
1250.2     -9999      0.762      1          3          -9999      1.3151     1.2593     1.4192     1.0459     0.3372     0.901      1.759      -9999      0.8837     -9999      -9999      -9999      -9999      -9999      1.089189   -9999      -9999      14.035     0.2877233  -9999      0.2877233 
1250.4     -9999      0.771      1          3          -9999      1.351      1.2027     1.3426     1.1429     0.2861     1.038      2.68       -9999      0.6487     -9999      -9999      -9999      -9999      -9999      0.8747498  -9999      -9999      13.526     0.2772639  -9999      0.2772639 
1250.6     -9999      0.773      1          3          -9999      1.5719     1.2387     1.1894     1.2041     0.2861     1.233      2.811      -9999      0.5976     -9999      -9999      -9999      -9999      -9999      0.7955069  -9999      -9999      15.156     0.325695   -9999      0.325695  
1250.8     -9999      0.742      -9999      -9999      -9999      1.9058     1.2593     1.1639     1.2245     0.4036     1.298      2.826      -9999      0.5976     -9999      -9999      -9999      -9999      -9999      0.7897208  -9999      -9999      16.99      0.3896212  -9999      0.3896212 
1251       -9999      0.712      -9999      -9999      -9999      1.5462     1.2336     1.1639     1.2653     0.5773     1.192      2.486      -9999      0.5976     -9999      -9999      -9999      -9999      -9999      0.7897208  -9999      -9999      19.053     0.4764233  -9999      0.4764233 
1251.2     -9999      0.666      -9999      -9999      -9999      1.4949     1.4803     1.1639     1.398      0.7561     1.085      2.033      -9999      0.7917     -9999      -9999      -9999      -9999      -9999      0.9423805  -9999      -9999      19.486     0.4967906  -9999      0.4967906 
1251.4     -9999      0.644      -9999      -9999      -9999      1.2945     1.8144     1.3069     2.7385     0.8633     0.991      1.624      -9999      1.3188     -9999      -9999      -9999      -9999      -9999      1.312823   -9999      -9999      19.104     0.4787823  -9999      0.4787823 
1251.6     -9999      0.651      -9999      -9999      -9999      1.2586     2.1331     1.9501     4.0791     1.1801     0.898      3.532      -9999      1.846      -9999      -9999      -9999      -9999      -9999      1.896623   -9999      -9999      18.416     0.4478459  -9999      0.4478459 
1251.8     -9999      0.677      1          3          -9999      1.8005     2.4569     2.5933     5.4196     1.2925     1.348      3.984      -9999      2.3731     -9999      -9999      -9999      -9999      -9999      2.478318   -9999      -9999      16.48      0.3706477  -9999      0.3706477 
1252       -9999      0.72       1          3          -9999      2.3425     2.6676     3.2365     6.760201   1.4917     3.124      3.98       -9999      2.9002     -9999      -9999      -9999      -9999      -9999      3.059135   -9999      -9999      15.767     0.3456844  -9999      0.3456844 
1252.2     -9999      0.739      1          3          -9999      2.8844     2.9195     2.6682     5.6092     1.6041     2.642      3.975      -9999      3.4274     -9999      -9999      -9999      -9999      -9999      3.000521   -9999      -9999      14.876     0.3169546  -9999      0.3169546 
1252.4     -9999      0.746      1          3          -9999      3.4264     2.9503     2.0998     4.4582     1.7114     2.104      3.971      -9999      2.7037     -9999      -9999      -9999      -9999      -9999      2.363789   -9999      -9999      14.111     0.2943798  -9999      0.2943798 
