~Version
 VERS              .         2.0                           : CWLS LOG ASCII STANDARD - VERSION 2.0
 WRAP              .         NO                            : ONE LINE PER DEPTH STEP
 DLM               .         SPACE                         : DELIMITING CHARACTER(SPACE TAB OR COMMA)
~Well Information
#_______________________________________________________________________________
#
#PARAMETER_NAME    .UNIT     VALUE                         : DESCRIPTION
#_______________________________________________________________________________
STRT               .M        880                           : First reference value
STOP               .M        1254                          : Last reference value
STEP               .M        0.2                           : Step increment
NULL               .         -9999                         : Missing value
COMP               .                                       : Company
WELL               .         2382                          : Well name
FLD                .         Узень                         : Field
LOC                .                                       : Location
CNTY               .                                       : County
STAT               .                                       : State
CTRY               .                                       : Country
SRVC               .                                       : Service Company
DATE               .                                       : Date
UWI                .                                       : Unique Well ID
123                .         1                             : 
4_кв_для_Заказчика .         1                             : 
Block              .         7                             : 
Category           .         Нефтяная                      : 
Condition          .         Ликвидированная               : 
Date               .         21.01.1977                    : 
EREF               .m        84.7                          : 100.8
Gor                .         15                            : 
Gorizont           .         15                            : 14
Interpretator      .         Кайсанов Е.К                  : 
KUST               .                                       : 
Kupol              .         Основной                      : osnovnoi
Mud                .                                       : 
Mud_density        .                                       : 
Mud_resistivity    .                                       : 
NGDU               .         НГДУ-2                        : 
ORIGINALWELLNAME   .         2382                          : 
Otmetka            .                                       : 
Spud_date          .         1976                          : 1961
Viscosity          .                                       : 
X                  .m        42915.7                       : 46154
Y                  .m        84473.9                       : 85761.93
YEAR               .         2018                          : 
~Parameter Information Block
#_______________________________________________________________________________
#
#PARAMETER_NAME    .UNIT     VALUE                         : DESCRIPTION
#_______________________________________________________________________________
SET                .         LQC_KAZNIPI_Petrel            : 
TLFamily_CALI      .         Caliper                       : 
TLFamily_CILD      .         Conductivity                  : 
TLFamily_COLL      .         Net Reservoir Flag            : 
TLFamily_CSAT      .         Fluid Code                    : 
TLFamily_DEPT      .         Measured Depth                : 
TLFamily_GR        .         Russian Gamma Ray             : 
TLFamily_GZ1       .         Gradient 045                  : 
TLFamily_GZ2       .         Gradient 105                  : 
TLFamily_GZ3       .         Gradient 225                  : 
TLFamily_GZ4       .         Gradient 425                  : 
TLFamily_GZ5       .         Gradient 850                  : 
TLFamily_MINV      .         Micro Gradient Resistivity    : 
TLFamily_MNOR      .         Micro Resistivity             : 
TLFamily_NGLD      .         Neutron Far                   : 
TLFamily_OGZ3      .         Gradient Inverted 225         : 
TLFamily_PHIE      .         Effective Porosity            : 
TLFamily_PHIEN     .         Effective Porosity            : 
TLFamily_PHIT      .         Porosity                      : 
TLFamily_PRMB      .         Permeability                  : 
TLFamily_PRMB_DGR  .         Permeability                  : 
TLFamily_RT        .         Formation Resistivity         : 
TLFamily_SOIL_ARCHIE .         Oil Saturation                : 
TLFamily_SOIL_DW   .         Oil Saturation                : 
TLFamily_SP        .         Spontaneous Potential         : 
TLFamily_VSH_FIN   .         Shale Volume                  : 
TLFamily_VSH_GR    .         Shale Volume                  : 
TLFamily_VSH_SP    .         Shale Volume                  : 
~Curve Information
#_______________________________________________________________________________
#
#LOGNAME           .UNIT     LOG_ID                        : DESCRIPTION
#_______________________________________________________________________________
DEPT               .M                                      : Колонка глубины 
CALI               .м                                      : Каверномер 
CILD               .мСм/м                                  : Индукционный каротаж 
COLL               .unitless                               :  
CSAT               .unitless                               :  
GR                 .uR/h                                   : Гамма каротаж 
GZ1                .Ohmm                                   : 2 
GZ2                .Ohmm                                   : 3 
GZ3                .Ohmm                                   : 2 
GZ4                .Ohmm                                   : 4 
GZ5                .Ohmm                                   : 5 
MINV               .Ohmm                                   : Микро-градиент зонд 
MNOR               .Ohmm                                   : Микро-потенциал зонд 
NGLD               .у.е.                                   : Показания зонда НГК-60 аппаратуры ДРСТ-3-90 
OGZ3               .Ohmm                                   : 3 
PHIE               .v/v                                    : Описание 
PHIEN              .v/v                                    :  
PHIT               .v/v                                    : Описание 
PRMB               .mD                                     :  
PRMB_DGR           .mD                                     :  
RT                 .ohmm                                   : УЭС пласта 
SOIL_ARCHIE        .v/v                                    :  
SOIL_DW            .v/v                                    :  
SP                 .мВ                                     : Потенциал самополяризации 
VSH_FIN            .v/v                                    : Описание 
VSH_GR             .v/v                                    : Shale volume 
VSH_SP             .v/v                                    : Shale Volume 
~Ascii
# ...
1198.6     0.215      0.667      -9999      -9999      7.011422   1.3613     1.4957     1.266      1.0663     1.5632     0.926      1.675      1.121      1.7469     0.1165123  0.1165123  0.2910531  0.4029469  2.096086   1.468071   0          0.3273215  30.77      0.5289115  0.4795922  0.5782308 
1198.8     0.214      0.658      -9999      -9999      6.865771   1.3356     1.4443     1.1639     1.0663     1.4866     0.902      1.507      1.139      1.517      0.1255122  0.1255122  0.2806329  0.5914907  2.750865   1.317197   0          0.3122166  29.497     0.4700627  0.4292045  0.5109209 
1199       0.214      0.646      -9999      -9999      6.718081   1.3099     1.3929     1.0874     1.0153     1.4355     1.108      1.362      1.118      1.328      0.1549727  0.1549727  0.2927898  2.077917   3.623959   1.195717   0.09042475 0.3515101  28.248     0.4176276  0.3835138  0.4517414 
1199.2     0.214      0.636      -9999      -9999      6.590446   1.3099     1.2901     1.0822     0.9388     1.3078     1.209      1.906      1.132      1.1135     0.1620844  0.1620844  0.2846852  2.814194   4.598758   1.097627   0.08927862 0.3235465  26.898     0.3715177  0.3479652  0.3950701 
1199.4     0.214      0.615      -9999      -9999      6.467959   1.3716     1.3107     1.1231     0.8878     1.2822     1.388      2.463      1.145      1.2157     0.157009   0.157009   0.2771595  2.266447   5.77996    1.167567   0.1619429  0.3813537  27.331     0.3640925  0.3169529  0.4112321 
1199.6     0.214      0.604      -9999      -9999      6.316998   1.4589     1.506      1.4626     0.8367     1.3384     2.012      2.361      1.156      1.7867     0.1528465  0.1528465  0.2707916  1.89778    7.661083   1.608486   0.2841362  0.4771127  27.866     0.3574094  0.2825069  0.432312  
1199.8     0.214      0.583      6          6          6.124151   1.5411     1.6139     1.802      0.7806     1.4662     3.66       3.561      1.172      2.3578     0.1427027  0.1427027  0.2615292  1.231285   10.9801    2.042769   0.2742353  0.4775667  28.885     0.3600802  0.2438934  0.476267  
1200       0.214      0.563      6          6          5.922686   1.5565     1.6242     2.1415     0.8827     1.8595     3.28       4.005      1.173      2.9288     0.1407747  0.1407747  0.2609503  1.134086   15.9922    2.474025   0.2970946  0.4980602  29.802     0.3641687  0.2091791  0.5191582 
1200.2     0.214      0.546      6          6          5.777678   1.6182     1.7373     2.481      1.6339     2.1916     4.07       4.011      1.219      3.4999     0.1151903  0.1151903  0.2343209  0.3808568  20.9627    2.903661   0.2234551  0.4649395  30.133     0.3610019  0.1872937  0.53471   
1200.4     0.214      0.548      6          6          5.735481   2.649      2.7447     2.8205     2.3852     2.7024     5.938      4.015      1.265      4.0709     0.09951098 0.09951098 0.2076915  0.1951385  22.68044   3.332261   0.1756668  0.4327799  28.911     0.3278198  0.1813662  0.4742733 
1200.6     0.214      0.558      6          6          5.795361   3.6798     3.7521     3.16       3.1365     3.3052     4.02       4.017      1.23       3.5704     0.1354361  0.1354361  0.227953   0.9031587  20.28217   3.352687   0.3012255  0.4698755  26.414     0.2803541  0.1898348  0.3708733 
1200.8     0.214      0.565      0          0          5.928103   4.7106     4.7596     2.7699     3.8878     3.6782     1.639      4.019      1.189      3.0698     0.1610675  0.1610675  0.2516879  2.694749   15.83133   2.912149   0.313758   0.4632291  25.523     0.2746073  0.2100445  0.3391702 
1201       0.215      0.57       0          0          6.105492   3.4521     4.476901   2.3799     2.3878     3.381      1.592      3.172      1.147      2.5692     0.1882927  0.1882927  0.2760017  8.605898   11.36923   2.47093    0.3272892  0.4603862  23.969     0.2657849  0.2404496  0.2911201 
1201.2     0.215      0.574      0          0          6.309801   3.036      4.3021     1.9899     2.2041     3.0839     1.558      2.435      1.105      2.0687     0.2109634  0.2109634  0.3003155  22.6314    7.764678   2.028535   0.2872387  0.4209107  22.823     0.270764   0.2809617  0.2605664 
1201.4     0.215      0.583      0          0          6.523137   2.6301     4.2507     1.5999     1.5714     2.7867     1.524      3          1.063      1.5681     0.2273894  0.2273894  0.3246293  45.59972   5.214341   1.58384    0.4382329  0.5538192  22.772     0.2946663  0.3305656  0.258767  
1201.6     0.215      0.589      0          0          6.711596   2.3579     3.7744     1.2099     1.0204     2.4896     1.49       2.74       1.089      1.0675     0.2020237  0.2020237  0.3095779  15.4571    3.668083   1.134248   0.4508997  0.5787309  23.256     0.3259217  0.3816233  0.2702201 
1201.8     0.215      0.591      0          0          6.82945    2.1473     3.2981     1.7704     0.8929     2.1924     1.456      2.704      1.114      1.5247     0.1789538  0.1789538  0.2951054  5.778526   2.943813   1.63839    0.4473245  0.5903352  23.893     0.3519745  0.4174866  0.2864625 
1202       0.214      0.594      0          0          6.849611   2.0599     2.8218     2.3309     0.7908     1.8953     1.421      2.805      1.139      1.9818     0.1621199  0.1621199  0.2806329  2.818461   2.835097   2.142221   0.4449693  0.5973983  24.198     0.3591302  0.4239509  0.2943095 
1202.2     0.214      0.601      0          0          6.790205   2.1216     3.7778     2.8914     0.8929     2.5594     1.753      2.67       1.121      2.439      0.1757441  0.1757441  0.2910531  5.039245   3.16753    2.646002   0.5173874  0.6458724  24.198     0.3494211  0.4051848  0.2936573 
1202.4     0.214      0.602      0          0          6.701018   2.3784     4.7339     3.452      1.8699     2.9681     1.907      2.534      1.117      2.8961     0.1848566  0.1848566  0.2933687  7.432779   3.741222   3.14971    0.5170363  0.6378092  23.689     0.3288245  0.3785591  0.27909   
1202.6     0.213      0.602      0          0          6.624722   2.5685     3.9886     4.0125     2.8469     3.3665     1.401      4.031      1.114      3.3533     0.1941212  0.1941212  0.2951054  11.03452   4.313771   3.653402   0.4596069  0.5826918  22.747     0.3060128  0.3571748  0.2548508 
1202.8     0.211      0.604      0          0          6.569382   2.4401     3.2433     3.3999     2.0204     3.5402     1.456      4.021      1.106      3.8104     0.2032963  0.2032963  0.2997366  16.31921   4.78315    3.593465   0.4302002  0.5519074  22.212     0.2922434  0.342424   0.2420627 
1203       0.211      0.606      0          0          6.517039   2.2295     2.498      2.9966     1.6327     2.6718     1.585      2.795      1.109      3.0953     0.2052149  0.2052149  0.2979999  17.71074   5.274023   3.04515    0.4047811  0.5266846  21.829     0.2811666  0.329033   0.2333002 
1203.2     0.213      0.606      0          0          6.458959   2.1729     2.1845     2.4095     1.1837     2.2989     1.534      2.636      1.118      2.3649     0.2033     0.2033     0.2927898  16.32174   5.877874   2.386992   0.3871253  0.5090059  21.575     0.2711813  0.3147863  0.2275763 
1203.4     0.212      0.606      0          0          6.416192   2.1473     2.1125     1.899      0.7143     1.9464     1.57       2.705      1.131      2.0176     0.1985983  0.1985983  0.2852641  13.35613   6.366285   1.956504   0.3828216  0.5037292  21.244     0.2626235  0.3046917  0.2205554 
1203.6     0.212      0.606      0          0          6.422661   2.1884     2.3335     1.6948     0.5816     1.7369     1.631      2.824      1.104      1.8133     0.2126343  0.2126343  0.3008944  24.30302   6.28988    1.752049   0.4381839  0.5492914  21.677     0.267455   0.3061976  0.2287125 
1203.8     0.21       0.606      0          0          6.489627   2.2038     2.4929     1.5417     0.4796     1.5479     1.49       2.912      1.092      1.8337     0.2171843  0.2171843  0.3078412  29.50788   5.550875   1.67507    0.4634521  0.5719258  21.626     0.2747179  0.3222304  0.2272054 
