~Version
 VERS              .         2.0                           : CWLS LOG ASCII STANDARD - VERSION 2.0
 WRAP              .         NO                            : ONE LINE PER DEPTH STEP
 DLM               .         SPACE                         : DELIMITING CHARACTER(SPACE TAB OR COMMA)
~Well Information
#_______________________________________________________________________________
#
#PARAMETER_NAME    .UNIT     VALUE                         : DESCRIPTION
#_______________________________________________________________________________
STRT               .M        880                           : First reference value
STOP               .M        1254                          : Last reference value
STEP               .M        0.2                           : Step increment
NULL               .         -9999                         : Missing value
COMP               .                                       : Company
WELL               .         2382                          : Well name
FLD                .         Узень                         : Field
LOC                .                                       : Location
CNTY               .                                       : County
STAT               .                                       : State
CTRY               .                                       : Country
SRVC               .                                       : Service Company
DATE               .                                       : Date
UWI                .                                       : Unique Well ID
123                .         1                             : 
4_кв_для_Заказчика .         1                             : 
Block              .         7                             : 
Category           .         Нефтяная                      : 
Condition          .         Ликвидированная               : 
Date               .         21.01.1977                    : 
EREF               .m        84.7                          : 100.8
Gor                .         15                            : 
Gorizont           .         15                            : 14
Interpretator      .         Кайсанов Е.К                  : 
KUST               .                                       : 
Kupol              .         Основной                      : osnovnoi
Mud                .                                       : 
Mud_density        .                                       : 
Mud_resistivity    .                                       : 
NGDU               .         НГДУ-2                        : 
ORIGINALWELLNAME   .         2382                          : 
Otmetka            .                                       : 
Spud_date          .         1976                          : 1961
Viscosity          .                                       : 
X                  .m        42915.7                       : 46154
Y                  .m        84473.9                       : 85761.93
YEAR               .         2018                          : 
~Parameter Information Block
#_______________________________________________________________________________
#
#PARAMETER_NAME    .UNIT     VALUE                         : DESCRIPTION
#_______________________________________________________________________________
SET                .         LQC_KAZNIPI_Petrel            : 
TLFamily_CALI      .         Caliper                       : 
TLFamily_CILD      .         Conductivity                  : 
TLFamily_COLL      .         Net Reservoir Flag            : 
TLFamily_CSAT      .         Fluid Code                    : 
TLFamily_DEPT      .         Measured Depth                : 
TLFamily_GR        .         Russian Gamma Ray             : 
TLFamily_GZ1       .         Gradient 045                  : 
TLFamily_GZ2       .         Gradient 105                  : 
TLFamily_GZ3       .         Gradient 225                  : 
TLFamily_GZ4       .         Gradient 425                  : 
TLFamily_GZ5       .         Gradient 850                  : 
TLFamily_MINV      .         Micro Gradient Resistivity    : 
TLFamily_MNOR      .         Micro Resistivity             : 
TLFamily_NGLD      .         Neutron Far                   : 
TLFamily_OGZ3      .         Gradient Inverted 225         : 
TLFamily_PHIE      .         Effective Porosity            : 
TLFamily_PHIEN     .         Effective Porosity            : 
TLFamily_PHIT      .         Porosity                      : 
TLFamily_PRMB      .         Permeability                  : 
TLFamily_PRMB_DGR  .         Permeability                  : 
TLFamily_RT        .         Formation Resistivity         : 
TLFamily_SOIL_ARCHIE .         Oil Saturation                : 
TLFamily_SOIL_DW   .         Oil Saturation                : 
TLFamily_SP        .         Spontaneous Potential         : 
TLFamily_VSH_FIN   .         Shale Volume                  : 
TLFamily_VSH_GR    .         Shale Volume                  : 
TLFamily_VSH_SP    .         Shale Volume                  : 
~Curve Information
#_______________________________________________________________________________
#
#LOGNAME           .UNIT     LOG_ID                        : DESCRIPTION
#_______________________________________________________________________________
DEPT               .M                                      : Колонка глубины 
CALI               .м                                      : Каверномер 
CILD               .мСм/м                                  : Индукционный каротаж 
COLL               .unitless                               :  
CSAT               .unitless                               :  
GR                 .uR/h                                   : Гамма каротаж 
GZ1                .Ohmm                                   : 2 
GZ2                .Ohmm                                   : 3 
GZ3                .Ohmm                                   : 2 
GZ4                .Ohmm                                   : 4 
GZ5                .Ohmm                                   : 5 
MINV               .Ohmm                                   : Микро-градиент зонд 
MNOR               .Ohmm                                   : Микро-потенциал зонд 
NGLD               .у.е.                                   : Показания зонда НГК-60 аппаратуры ДРСТ-3-90 
OGZ3               .Ohmm                                   : 3 
PHIE               .v/v                                    : Описание 
PHIEN              .v/v                                    :  
PHIT               .v/v                                    : Описание 
PRMB               .mD                                     :  
PRMB_DGR           .mD                                     :  
RT                 .ohmm                                   : УЭС пласта 
SOIL_ARCHIE        .v/v                                    :  
SOIL_DW            .v/v                                    :  
SP                 .мВ                                     : Потенциал самополяризации 
VSH_FIN            .v/v                                    : Описание 
VSH_GR             .v/v                                    : Shale volume 
VSH_SP             .v/v                                    : Shale Volume 
~Ascii
# ...
928.6      0.214      0.446      -9999      -9999      3.943883   3.0905     5.9179     5.5115     5.352      4.4619     4.023      9.91       1.117      3.9604     0.1520044  0.1520044  0.2733687  1.830833   16.35391   4.608947   0.4720565  0.6257653  48.614     0.3677706  0.2072774  0.5282637 
928.8      0.214      0.449      -9999      -9999      4.022123   4.0028     6.8141     5.8985     5.6366     4.6802     2.743      4.337      1.147      4.0224     0.1320393  0.1320393  0.2560017  0.7813509  14.13195   4.78306    0.3794886  0.5710555  48.682     0.3756437  0.220013   0.5312745 
929        0.215      0.453      -9999      -9999      4.105057   3.3929     5.4903     6.2856     5.7687     4.8376     2.531      3.924      1.176      4.0843     0.1123834  0.1123834  0.2392136  0.3378865  12.10537   4.951306   0.254936   0.5021821  48.75      0.384334   0.2343679  0.5343001 
929.2      0.215      0.456      -9999      -9999      4.174656   3.7005     5.9111     5.799399   5.0928     4.6244     2.289      2.463      1.206      3.1343     0.09211935 0.09211935 0.2218466  0.1423744  10.63072   4.069324   0.08382192 0.4174503  48.852     0.3931129  0.2471351  0.5390908 
929.4      0.215      0.46       -9999      -9999      4.229076   3.0649     6.3318     5.3133     4.5083     4.3249     1.151      1.969      1.158      2.8916     0.1173831  0.1173831  0.2496338  0.4181943  9.603967   3.745064   0.2677216  0.5125394  48.954     0.4007597  0.2576005  0.5439188 
929.6      0.216      0.464      -9999      -9999      4.277177   2.414      4.3409     4.8272     4.0661     3.9797     1.928      2.416      1.11       2.6489     0.1422261  0.1422261  0.277421   1.20651    8.77933    3.420706   0.4045404  0.5931814  49.12      0.4096814  0.267219   0.5521438 
929.8      0.216      0.469      -9999      -9999      4.322995   2.1219     3.9048     4.3411     3.507      3.665      2.436      2.817      1.063      2.5146     0.1664927  0.1664927  0.3046293  3.396306   8.059768   3.184541   0.4902882  0.6456026  49.286     0.4185958  0.2767148  0.5604768 
930        0.216      0.472      -9999      -9999      4.358288   1.8707     3.4686     3.8549     3.4765     3.5076     2.944      5.399      1.015      2.8451     0.1933398  0.1933398  0.3324165  10.67283   7.545965   3.273903   0.5563033  0.6859602  49.26      0.4214447  0.2842588  0.5586305 
930.2      0.216      0.474      -9999      -9999      4.371444   1.9989     4.453801   4.1904     3.8729     3.4162     2.581      5.068      1.041      3.0981     0.1774438  0.1774438  0.3173651  5.41812    7.362936   3.562401   0.5198054  0.6643475  49.311     0.4240038  0.2871232  0.5608843 
930.4      0.216      0.476      -9999      -9999      4.360666   2.3013     4.0125     4.2729     4.2186     3.5025     2.272      2.68       1.067      3.2685     0.1624068  0.1624068  0.3023137  2.853165   7.51254    3.703815   0.4768889  0.6388198  49.362     0.4239601  0.2847745  0.5631457 
930.6      0.216      0.476      -9999      -9999      4.336692   2.3525     3.443      4.2471     4.259201   3.665      2.683      4.354      1.093      3.3924     0.1473787  0.1473787  0.2872623  1.503034   7.856329   3.771938   0.4154356  0.6019509  49.464     0.4238896  0.2796187  0.5681607 
930.8      0.216      0.478      -9999      -9999      4.315303   2.4089     3.5507     4.128399   4.1017     3.8274     2.563      3.445      1.078      3.4131     0.1559744  0.1559744  0.2959458  2.168617   8.176312   3.736827   0.42692    0.605419   49.566     0.4241557  0.2750974  0.5732141 
931        0.216      0.48       -9999      -9999      4.305953   2.3884     3.7406     4.087201   4.0966     3.7716     2.134      3.274      1.062      3.3305     0.1647189  0.1647189  0.3052082  3.148854   8.320251   3.670254   0.4458971  0.615289   49.668     0.425725   0.273144   0.5783059 
931.2      0.216      0.481      -9999      -9999      4.304483   2.5319     3.9766     4.082      4.0712     3.6954     1.906      2.125      1.066      3.0155     0.1597341  0.1597341  0.3028926  2.545781   8.343098   3.468621   0.4220833  0.6024022  49.974     0.4338137  0.2728384  0.5947889 
931.4      0.216      0.48       -9999      -9999      4.299138   2.6139     4.1049     3.7104     4.0203     3.6142     1.843      1.856      1.058      2.9019     0.1631951  0.1631951  0.3075238  2.950719   8.426753   3.256721   0.4405628  0.6150572  50.128     0.4373597  0.2717291  0.6029902 
931.6      0.216      0.477      -9999      -9999      4.286953   2.332      3.7201     3.633      3.8882     3.4264     2.005      2.453      1.04       2.7986     0.1726702  0.1726702  0.317944   4.420078   8.620588   3.161675   0.4743274  0.6361331  50.281     0.4402236  0.2692175  0.6112297 
931.8      0.216      0.476      -9999      -9999      4.280392   2.1116     3.2993     3.4885     3.6849     3.3756     2.815      3.399      1.036      2.7263     0.1738322  0.1738322  0.3202596  4.644637   8.72681    3.060661   0.482094   0.6421511  50.434     0.4437194  0.2678745  0.6195643 
932        0.216      0.476      -9999      -9999      4.293909   1.8964     3.2685     3.3544     3.7052     3.3756     2.655      3.076      1.046      2.9742     0.1661945  0.1661945  0.3144706  3.35338    8.509394   3.152879   0.4631806  0.6330259  50.587     0.4493216  0.2706484  0.6279948 
932.2      0.216      0.475      -9999      -9999      4.328486   2.0757     3.4789     3.344      3.7052     3.4975     2.478      2.735      1.053      3.1446     0.1580339  0.1580339  0.3104183  2.367718   7.977588   3.241236   0.437159   0.6214073  50.893     0.4617708  0.2778753  0.6456664 
932.4      0.216      0.475      -9999      -9999      4.372197   2.3884     3.5969     3.5143     3.7459     3.5787     2.516      2.869      1.036      3.1188     0.1653929  0.1653929  0.3202596  3.240682   7.352593   3.304759   0.4538738  0.6313543  50.995     0.4692929  0.287288   0.6512977 
932.6      0.215      0.48       -9999      -9999      4.417037   2.4089     3.6277     3.6743     3.8272     3.6193     2.816      3.58       1.069      3.0413     0.1437054  0.1437054  0.3011559  1.285079   6.7623     3.327967   0.3689284  0.5862454  51.097     0.4771229  0.2972754  0.6569704 
932.8      0.215      0.482      -9999      -9999      4.470253   2.578      4.453801   3.6898     3.9136     3.6345     2.287      3.644      1.102      2.9897     0.1226587  0.1226587  0.2820522  0.5237157  6.122912   3.30306    0.2631641  0.5341637  51.097     0.4830105  0.3095801  0.6564409 
933        0.214      0.484      -9999      -9999      4.54495    2.7933     3.9971     3.6433     3.8323     3.7056     1.951      2.291      1.135      2.9122     0.1006501  0.1006501  0.2629485  0.2048528  5.326122   3.236982   0.1099667  0.4671001  51.097     0.4918134  0.327715   0.6559117 
933.2      0.214      0.485      -9999      -9999      4.641139   2.3115     3.8278     3.3905     3.5883     3.8071     2.252      3.285      1.106      2.8348     0.1142637  0.1142637  0.2797366  0.3660986  4.450845   3.087848   0.194827   0.5053392  51.012     0.5014333  0.3526416  0.650225  
933.4      0.214      0.486      -9999      -9999      4.740518   2.4653     4.1819     3.2718     3.4816     3.8274     1.904      1.892      1.076      2.7315     0.1279841  0.1279841  0.2971036  0.6572542  3.697329   2.977336   0.2714827  0.5439016  50.927     0.5124835  0.3803878  0.6445792 
933.6      0.214      0.489      -9999      -9999      4.817828   2.4089     4.0587     3.1634     3.2732     3.7513     1.711      1.802      1.047      2.6334     0.1418877  0.1418877  0.3138917  1.189222   3.200532   2.874171   0.3660285  0.5976286  50.842     0.5212241  0.4034735  0.6389746 
933.8      0.214      0.492      -9999      -9999      4.85429    1.9117     2.894      3.086      3.0902     3.6396     2.121      2.622      1.018      2.5818     0.1568853  0.1568853  0.3306798  2.254523   2.989972   2.811474   0.4305128  0.6327779  50.842     0.52665    0.4148426  0.6384573 
