~Version
 VERS              .         2.0                           : CWLS LOG ASCII STANDARD - VERSION 2.0
 WRAP              .         NO                            : ONE LINE PER DEPTH STEP
 DLM               .         SPACE                         : DELIMITING CHARACTER(SPACE TAB OR COMMA)
~Well Information
#_______________________________________________________________________________
#
#PARAMETER_NAME    .UNIT     VALUE                         : DESCRIPTION
#_______________________________________________________________________________
STRT               .M        880                           : First reference value
STOP               .M        1254                          : Last reference value
STEP               .M        0.2                           : Step increment
NULL               .         -9999                         : Missing value
COMP               .                                       : Company
WELL               .         2382                          : Well name
FLD                .         Узень                         : Field
LOC                .                                       : Location
CNTY               .                                       : County
STAT               .                                       : State
CTRY               .                                       : Country
SRVC               .                                       : Service Company
DATE               .                                       : Date
UWI                .                                       : Unique Well ID
123                .         1                             : 
4_кв_для_Заказчика .         1                             : 
Block              .         7                             : 
Category           .         Нефтяная                      : 
Condition          .         Ликвидированная               : 
Date               .         21.01.1977                    : 
EREF               .m        84.7                          : 100.8
Gor                .         15                            : 
Gorizont           .         15                            : 14
Interpretator      .         Кайсанов Е.К                  : 
KUST               .                                       : 
Kupol              .         Основной                      : osnovnoi
Mud                .                                       : 
Mud_density        .                                       : 
Mud_resistivity    .                                       : 
NGDU               .         НГДУ-2                        : 
ORIGINALWELLNAME   .         2382                          : 
Otmetka            .                                       : 
Spud_date          .         1976                          : 1961
Viscosity          .                                       : 
X                  .m        42915.7                       : 46154
Y                  .m        84473.9                       : 85761.93
YEAR               .         2018                          : 
~Parameter Information Block
#_______________________________________________________________________________
#
#PARAMETER_NAME    .UNIT     VALUE                         : DESCRIPTION
#_______________________________________________________________________________
SET                .         LQC_KAZNIPI_Petrel            : 
TLFamily_CALI      .         Caliper                       : 
TLFamily_CILD      .         Conductivity                  : 
TLFamily_COLL      .         Net Reservoir Flag            : 
TLFamily_CSAT      .         Fluid Code                    : 
TLFamily_DEPT      .         Measured Depth                : 
TLFamily_GR        .         Russian Gamma Ray             : 
TLFamily_GZ1       .         Gradient 045                  : 
TLFamily_GZ2       .         Gradient 105                  : 
TLFamily_GZ3       .         Gradient 225                  : 
TLFamily_GZ4       .         Gradient 425                  : 
TLFamily_GZ5       .         Gradient 850                  : 
TLFamily_MINV      .         Micro Gradient Resistivity    : 
TLFamily_MNOR      .         Micro Resistivity             : 
TLFamily_NGLD      .         Neutron Far                   : 
TLFamily_OGZ3      .         Gradient Inverted 225         : 
TLFamily_PHIE      .         Effective Porosity            : 
TLFamily_PHIEN     .         Effective Porosity            : 
TLFamily_PHIT      .         Porosity                      : 
TLFamily_PRMB      .         Permeability                  : 
TLFamily_PRMB_DGR  .         Permeability                  : 
TLFamily_RT        .         Formation Resistivity         : 
TLFamily_SOIL_ARCHIE .         Oil Saturation                : 
TLFamily_SOIL_DW   .         Oil Saturation                : 
TLFamily_SP        .         Spontaneous Potential         : 
TLFamily_VSH_FIN   .         Shale Volume                  : 
TLFamily_VSH_GR    .         Shale Volume                  : 
TLFamily_VSH_SP    .         Shale Volume                  : 
~Curve Information
#_______________________________________________________________________________
#
#LOGNAME           .UNIT     LOG_ID                        : DESCRIPTION
#_______________________________________________________________________________
DEPT               .M                                      : Колонка глубины 
CALI               .м                                      : Каверномер 
CILD               .мСм/м                                  : Индукционный каротаж 
COLL               .unitless                               :  
CSAT               .unitless                               :  
GR                 .uR/h                                   : Гамма каротаж 
GZ1                .Ohmm                                   : 2 
GZ2                .Ohmm                                   : 3 
GZ3                .Ohmm                                   : 2 
GZ4                .Ohmm                                   : 4 
GZ5                .Ohmm                                   : 5 
MINV               .Ohmm                                   : Микро-градиент зонд 
MNOR               .Ohmm                                   : Микро-потенциал зонд 
NGLD               .у.е.                                   : Показания зонда НГК-60 аппаратуры ДРСТ-3-90 
OGZ3               .Ohmm                                   : 3 
PHIE               .v/v                                    : Описание 
PHIEN              .v/v                                    :  
PHIT               .v/v                                    : Описание 
PRMB               .mD                                     :  
PRMB_DGR           .mD                                     :  
RT                 .ohmm                                   : УЭС пласта 
SOIL_ARCHIE        .v/v                                    :  
SOIL_DW            .v/v                                    :  
SP                 .мВ                                     : Потенциал самополяризации 
VSH_FIN            .v/v                                    : Описание 
VSH_GR             .v/v                                    : Shale volume 
VSH_SP             .v/v                                    : Shale Volume 
~Ascii
# ...
1004.2     0.228      0.493      -9999      -9999      4.642072   2.4038     3.0428     2.7103     2.2363     2.0609     1.851      3.331      1.187      3.7928     0.08638982 0.08638982 0.2328457  0.1115083  4.443095   3.161454   0.007043628 0.4065936  46.598     0.4438056  0.3528925  0.5347188 
1004.4     0.228      0.489      -9999      -9999      4.577453   2.0245     2.8888     2.5971     2.0534     2.0102     1.664      2.375      1.161      3.399      0.1038498  0.1038498  0.2478971  0.2348058  5.012616   2.944428   0.1575437  0.4688798  46.598     0.4365069  0.3359344  0.5370793 
1004.6     0.217      0.487      -9999      -9999      4.510447   1.8912     3.2548     2.6589     1.9517     1.9848     2.697      2.796      1.146      3.0051     0.1113619  0.1113619  0.2565806  0.3234822  5.680394   2.82142    0.2032867  0.4908213  47.007     0.4400567  0.3192098  0.5609034 
1004.8     0.216      0.483      -9999      -9999      4.438412   2.1219     3.6209     2.88       2.0635     2.0051     2.701      4.904      1.168      3.1798     0.09863936 0.09863936 0.2438448  0.1880175  6.497829   3.022484   0.1049061  0.4438204  47.275     0.4400165  0.3021578  0.5778752 
1005       0.217      0.479      -9999      -9999      4.36715    2.4396     3.9869     2.9006     2.2719     2.1117     2.417      4.327      1.19       3.2106     0.08566619 0.08566619 0.231109   0.1081194  7.422171   3.047737   0.01604242 0.4123162  47.543     0.4407357  0.2861853  0.5952861 
1005.2     0.216      0.476      -9999      -9999      4.314741   2.7164     3.8278     2.9211     2.4041     2.1777     2.132      3.825      1.212      3.1182     0.06925999 0.06925999 0.2183732  0.05370578 8.184885   3.016434   0          0.3641014  48.079     0.4518582  0.2749797  0.6287367 
1005.4     0.217      0.475      -9999      -9999      4.301023   2.3166     3.5713     2.9829     2.4651     2.198      2.224      2.692      1.186      2.9127     0.07925913 0.07925913 0.2334246  0.0822677  8.397166   2.947382   0.01223494 0.4394107  48.59      0.4671681  0.2721197  0.6622166 
1005.6     0.218      0.475      -9999      -9999      4.313624   2.1629     3.4071     3.3891     2.2821     2.264      2.956      3.119      1.159      2.9075     0.09294748 0.09294748 0.2490549  0.1474928  8.201971   3.129882   0.152807   0.4996874  48.692     0.4730527  0.2747456  0.6713598 
1005.8     0.216      0.478      -9999      -9999      4.303396   2.086      4.0536     3.7594     2.2058     2.3452     3.84       4.092      1.178      3          0.08077461 0.08077461 0.2380558  0.08776065 8.360044   3.337042   0.03034526 0.4513577  48.794     0.4766097  0.2726124  0.680607  
1006       0.216      0.481      -9999      -9999      4.24144    2.6139     4.7001     4.093699   2.3329     2.4365     3.232      5.66       1.197      3.1901     0.07137194 0.07137194 0.2270567  0.05876782 9.384889   3.585851   0          0.408136   48.794     0.471772   0.2600393  0.6835046 
1006.2     0.215      0.487      -9999      -9999      4.160366   3.0649     4.5308     3.9754     2.6429     2.5228     2.625      5.869      1.216      3.4623     0.06246401 0.06246401 0.2160576  0.04019232 10.91807   3.701152   0          0.334247   48.794     0.4654352  0.2444581  0.6864122 
1006.4     0.215      0.492      -9999      -9999      4.109128   2.906      4.2024     3.6771     2.7243     2.6041     2.135      2.251      1.183      3.5291     0.08462743 0.08462743 0.2351613  0.103434   12.01373   3.60158    0.01845321 0.4244379  48.602     0.4561633  0.2350962  0.6772304 
1006.6     0.216      0.498      -9999      -9999      4.095455   2.6446     3.9869     3.5589     2.6175     2.4721     2.475      2.808      1.15       3.6113     0.106308   0.106308   0.254265   0.2607593  12.32426   3.584908   0.1806223  0.4858767  48.411     0.4483546  0.2326591  0.6640501 
1006.8     0.216      0.509      -9999      -9999      4.096161   2.5626     3.992      3.5434     2.2973     2.3655     2.054      2.963      1.117      3.1027     0.1269798  0.1269798  0.2733687  0.6296975  12.30803   3.308439   0.288321   0.5333697  48.275     0.4436028  0.2327844  0.6544212 
1007       0.216      0.513      -9999      -9999      4.095733   2.4243     4.3717     3.5074     2.155      2.2538     1.56       2.183      1.084      2.9743     0.1476656  0.1476656  0.2924724  1.521542   12.31787   3.218927   0.3663126  0.570524   48.139     0.4388084  0.2327084  0.6449084 
1007.2     0.216      0.513      -9999      -9999      4.086861   2.2808     3.8714     3.2297     2.0788     2.1269     1.513      1.636      1.087      2.9743     0.147748   0.147748   0.2907357  1.526896   12.52355   3.096743   0.372581   0.5733621  48.002     0.4332961  0.2311402  0.635452  
1007.4     0.216      0.512      -9999      -9999      4.051203   1.9681     3.3712     2.9777     1.9924     2.0761     1.4        1.399      1.088      3.036      0.1517178  0.1517178  0.2901568  1.808585   13.38539   3.006567   0.4168688  0.5991836  47.658     0.4195122  0.2249434  0.6140809 
1007.6     0.216      0.505      -9999      -9999      3.966395   1.7733     2.8709     2.772      1.9416     2.0152     1.286      1.93       1.11       3.0616     0.1447397  0.1447397  0.277421   1.34304    15.68101   2.909612   0.412783   0.5953643  47.313     0.4020644  0.2108643  0.5932646 
1007.8     0.217      0.501      -9999      -9999      3.831075   1.6196     2.3706     2.8131     1.8856     2.1624     2.01       2.893      1.163      3.1438     0.1208023  0.1208023  0.2467393  0.4838491  20.18651   2.96927    0.3332246  0.5486228  46.968     0.3816273  0.1902016  0.5730529 
1008       0.219      0.493      -9999      -9999      3.67303    1.5171     2.4322     3.0909     2.1855     2.3249     2.774      2.969      1.189      3.5486     0.1125401  0.1125401  0.2316879  0.3401521  27.11246   3.303974   0.3125281  0.5335785  46.624     0.361054   0.1686178  0.5534902 
1008.2     0.22       0.485      -9999      -9999      3.53229    1.5632     2.6477     3.2246     2.4956     2.4569     2.587      4.376      1.215      3.9534     0.1071605  0.1071605  0.2166365  0.2704143  35.25736   3.552001   0.2823734  0.5044905  45.832     0.3317455  0.1514679  0.5120232 
1008.4     0.222      0.477      -9999      -9999      3.434691   2.0706     2.9093     3.3531     2.6328     2.5102     3.521      6.364      1.238      4.3582     0.1016245  0.1016245  0.2033218  0.2135454  42.30204   3.790147   0.2175395  0.4510728  45.092     0.3081736  0.1406101  0.4757371 
1008.6     0.22       0.468      -9999      -9999      3.379212   2.7113     3.4173     3.5229     2.8666     2.5635     2.855      6.553      1.276      4.763      0.08323245 0.08323245 0.1813236  0.0974597  46.9171    4.050151   0.01522558 0.3250585  44.76      0.2972459  0.1347888  0.4597029 
1008.8     0.222      0.463      -9999      -9999      3.348995   3.0085     3.756      3.3274     2.9936     2.6396     1.722      3.669      1.282      5.1678     0.08282843 0.08282843 0.1778502  0.09579471 49.63918   4.048248   0          0.2984701  44.428     0.2879449  0.1317202  0.4441695 
1009       0.222      0.458      -9999      -9999      3.335474   2.7113     3.3865     3.1937     2.9428     2.7919     2.173      2.639      1.204      4.438399   0.1301603  0.1301603  0.2230044  0.7211778  50.90774   3.714552   0.3150564  0.4857232  44.172     0.2813458  0.1303699  0.4323217 
1009.2     0.216      0.451      -9999      -9999      3.347316   2.4191     3.5867     3.1166     2.8107     2.9543     3.049      4.722      1.197      3.4983     0.1388002  0.1388002  0.2270567  1.042497   49.79493   3.296437   0.3387817  0.4930781  43.483     0.2674438  0.1315518  0.4033358 
1009.4     0.216      0.446      -9999      -9999      3.398902   2.5421     4.11       3.1886     2.7598     2.9746     2.756      6.328      1.248      3.0873     0.1113066  0.1113066  0.1975328  0.3227204  45.22416   3.137132   0.193913   0.3943525  43.049     0.2612914  0.1368268  0.3857561 
