~Version
 VERS              .         2.0                           : CWLS LOG ASCII STANDARD - VERSION 2.0
 WRAP              .         NO                            : ONE LINE PER DEPTH STEP
 DLM               .         SPACE                         : DELIMITING CHARACTER(SPACE TAB OR COMMA)
~Well Information
#_______________________________________________________________________________
#
#PARAMETER_NAME    .UNIT     VALUE                         : DESCRIPTION
#_______________________________________________________________________________
STRT               .M        880                           : First reference value
STOP               .M        1254                          : Last reference value
STEP               .M        0.2                           : Step increment
NULL               .         -9999                         : Missing value
COMP               .                                       : Company
WELL               .         2382                          : Well name
FLD                .         Узень                         : Field
LOC                .                                       : Location
CNTY               .                                       : County
STAT               .                                       : State
CTRY               .                                       : Country
SRVC               .                                       : Service Company
DATE               .                                       : Date
UWI                .                                       : Unique Well ID
123                .         1                             : 
4_кв_для_Заказчика .         1                             : 
Block              .         7                             : 
Category           .         Нефтяная                      : 
Condition          .         Ликвидированная               : 
Date               .         21.01.1977                    : 
EREF               .m        84.7                          : 100.8
Gor                .         15                            : 
Gorizont           .         15                            : 14
Interpretator      .         Кайсанов Е.К                  : 
KUST               .                                       : 
Kupol              .         Основной                      : osnovnoi
Mud                .                                       : 
Mud_density        .                                       : 
Mud_resistivity    .                                       : 
NGDU               .         НГДУ-2                        : 
ORIGINALWELLNAME   .         2382                          : 
Otmetka            .                                       : 
Spud_date          .         1976                          : 1961
Viscosity          .                                       : 
X                  .m        42915.7                       : 46154
Y                  .m        84473.9                       : 85761.93
YEAR               .         2018                          : 
~Parameter Information Block
#_______________________________________________________________________________
#
#PARAMETER_NAME    .UNIT     VALUE                         : DESCRIPTION
#_______________________________________________________________________________
SET                .         LQC_KAZNIPI_Petrel            : 
TLFamily_CALI      .         Caliper                       : 
TLFamily_CILD      .         Conductivity                  : 
TLFamily_COLL      .         Net Reservoir Flag            : 
TLFamily_CSAT      .         Fluid Code                    : 
TLFamily_DEPT      .         Measured Depth                : 
TLFamily_GR        .         Russian Gamma Ray             : 
TLFamily_GZ1       .         Gradient 045                  : 
TLFamily_GZ2       .         Gradient 105                  : 
TLFamily_GZ3       .         Gradient 225                  : 
TLFamily_GZ4       .         Gradient 425                  : 
TLFamily_GZ5       .         Gradient 850                  : 
TLFamily_MINV      .         Micro Gradient Resistivity    : 
TLFamily_MNOR      .         Micro Resistivity             : 
TLFamily_NGLD      .         Neutron Far                   : 
TLFamily_OGZ3      .         Gradient Inverted 225         : 
TLFamily_PHIE      .         Effective Porosity            : 
TLFamily_PHIEN     .         Effective Porosity            : 
TLFamily_PHIT      .         Porosity                      : 
TLFamily_PRMB      .         Permeability                  : 
TLFamily_PRMB_DGR  .         Permeability                  : 
TLFamily_RT        .         Formation Resistivity         : 
TLFamily_SOIL_ARCHIE .         Oil Saturation                : 
TLFamily_SOIL_DW   .         Oil Saturation                : 
TLFamily_SP        .         Spontaneous Potential         : 
TLFamily_VSH_FIN   .         Shale Volume                  : 
TLFamily_VSH_GR    .         Shale Volume                  : 
TLFamily_VSH_SP    .         Shale Volume                  : 
~Curve Information
#_______________________________________________________________________________
#
#LOGNAME           .UNIT     LOG_ID                        : DESCRIPTION
#_______________________________________________________________________________
DEPT               .M                                      : Колонка глубины 
CALI               .м                                      : Каверномер 
CILD               .мСм/м                                  : Индукционный каротаж 
COLL               .unitless                               :  
CSAT               .unitless                               :  
GR                 .uR/h                                   : Гамма каротаж 
GZ1                .Ohmm                                   : 2 
GZ2                .Ohmm                                   : 3 
GZ3                .Ohmm                                   : 2 
GZ4                .Ohmm                                   : 4 
GZ5                .Ohmm                                   : 5 
MINV               .Ohmm                                   : Микро-градиент зонд 
MNOR               .Ohmm                                   : Микро-потенциал зонд 
NGLD               .у.е.                                   : Показания зонда НГК-60 аппаратуры ДРСТ-3-90 
OGZ3               .Ohmm                                   : 3 
PHIE               .v/v                                    : Описание 
PHIEN              .v/v                                    :  
PHIT               .v/v                                    : Описание 
PRMB               .mD                                     :  
PRMB_DGR           .mD                                     :  
RT                 .ohmm                                   : УЭС пласта 
SOIL_ARCHIE        .v/v                                    :  
SOIL_DW            .v/v                                    :  
SP                 .мВ                                     : Потенциал самополяризации 
VSH_FIN            .v/v                                    : Описание 
VSH_GR             .v/v                                    : Shale volume 
VSH_SP             .v/v                                    : Shale Volume 
~Ascii
# ...
1025.8     0.238      0.616      -9999      -9999      6.010861   1.4316     1.7414     1.7023     1.129      1.6586     1.323      1.341      0.959      1.649      0.2127361  0.2127361  0.3648349  24.40879   3.000823   1.675226   0.384772   0.5575039  46.713     0.4609056  0.4142295  0.5075816 
1026       0.238      0.616      -9999      -9999      6.114799   1.447      1.8493     1.7023     1.1469     1.6459     1.169      1.172      0.941      1.5411     0.2195886  0.2195886  0.3752551  32.69422   2.592703   1.617694   0.4015273  0.5703968  46.649     0.4717168  0.4397087  0.5037249 
1026.2     0.235      0.615      -9999      -9999      6.178887   1.4675     1.8699     1.7023     1.1648     1.6204     1.031      1.139      0.941      1.464      0.2161707  0.2161707  0.3752551  28.25946   2.369226   1.574183   0.3932944  0.5677122  46.751     0.482074   0.4561943  0.5079536 
1026.4     0.234      0.615      -9999      -9999      6.186415   1.4675     1.9315     1.7023     1.2235     1.5949     1.159      1.24       0.941      1.464      0.2151416  0.2151416  0.3752551  27.04601   2.344275   1.574183   0.390348   0.5665762  46.853     0.4851923  0.4581707  0.5122139 
1026.6     0.233      0.616      -9999      -9999      6.150405   1.3905     1.893      1.7023     1.2822     1.5949     1.303      1.341      0.925      1.464      0.225235   0.225235   0.3845175  41.59641   2.466061   1.574183   0.4178104  0.5833494  46.956     0.4826744  0.4487928  0.5165558 
1026.8     0.229      0.616      -9999      -9999      6.093197   1.3649     1.8545     1.7023     1.3027     1.5924     1.373      1.419      0.909      1.4589     0.2361773  0.2361773  0.3937799  66.33376   2.672684   1.57123    0.443264   0.5984189  47.058     0.4775837  0.4342873  0.52088   
1027       0.231      0.618      -9999      -9999      6.02762    1.3649     1.9033     1.7229     1.3231     1.5898     1.245      1.327      0.896      1.4795     0.2456327  0.2456327  0.4013056  99.28228   2.930921   1.59195    0.4633034  0.6101715  47.16      0.471736   0.4182355  0.5252365 
1027.2     0.233      0.618      -9999      -9999      5.959302   1.3854     1.9521     1.7229     1.3231     1.5898     1.16       1.14       0.896      1.5        0.2485219  0.2485219  0.4013056  112.3019   3.226517   1.603742   0.4714555  0.6141103  47.147     0.4629808  0.4021435  0.523818  
1027.4     0.234      0.614      -9999      -9999      5.894001   1.4059     1.9521     1.7434     1.3103     1.5898     1.18       1.214      0.909      1.5        0.2436721  0.2436721  0.3937799  91.31804   3.536889   1.612567   0.4588167  0.6038927  47.134     0.4548722  0.3873412  0.5224031 
1027.6     0.234      0.612      -9999      -9999      5.836548   1.4265     1.9521     1.7846     1.2976     1.5389     1.256      1.366      0.909      1.5        0.2469155  0.2469155  0.3937799  104.8655   3.834554   1.62997    0.4634447  0.6047654  47.007     0.4450436  0.3747692  0.515318  
1027.8     0.237      0.613      -9999      -9999      5.791356   1.4008     1.9007     1.766      1.175      1.5261     1.332      1.485      0.9        1.4759     0.2556447  0.2556447  0.39899    152.166    4.086197   1.60797    0.4841904  0.617077   46.783     0.4343798  0.3651674  0.5035922 
1028       0.238      0.615      -9999      -9999      5.76533    1.4008     1.7979     1.8021     1.2261     1.5134     1.363      1.424      0.916      1.4346     0.2496094  0.2496094  0.3897276  117.6333   4.238538   1.597487   0.4745078  0.6088347  46.503     0.4246005  0.35975    0.489451  
1028.2     0.239      0.614      -9999      -9999      5.756104   1.4008     1.8185     1.8844     1.3129     1.4879     1.258      1.289      0.933      1.4346     0.2361366  0.2361366  0.3798863  66.21877   4.293897   1.629021   0.4478799  0.5933477  47.013     0.435605   0.3578489  0.5133612 
1028.4     0.241      0.611      -9999      -9999      5.74358    1.5188     1.9007     1.905      1.3282     1.5185     1.151      1.08       0.951      1.4346     0.2228949  0.2228949  0.3694661  37.64545   4.370206   1.636671   0.4108856  0.5702002  47.42      0.4441552  0.3552842  0.5330262 
1028.6     0.237      0.606      -9999      -9999      5.707492   1.5239     1.8442     1.9411     1.2593     1.549      1.173      1.016      0.944      1.4088     0.2258865  0.2258865  0.3735184  42.76852   4.597746   1.632659   0.4244656  0.5805416  47.701     0.4473693  0.3479966  0.5467421 
1028.8     0.239      0.603      -9999      -9999      5.658734   1.3751     1.8313     1.7815     1.1903     1.5898     1.313      1.437      0.933      1.4243     0.2322017  0.2322017  0.3798863  55.98824   4.924111   1.583      0.4467815  0.5960724  47.905     0.447529   0.338387   0.5566711 
1029       0.24       0.6        -9999      -9999      5.639464   1.3187     1.8185     1.8175     1.1545     1.5771     1.535      1.946      0.94       1.4656     0.2291235  0.2291235  0.375834   49.09997   5.059387   1.622691   0.4479741  0.5972453  47.879     0.4445772  0.3346628  0.5544917 
1029.2     0.24       0.603      -9999      -9999      5.687376   1.3597     1.839      1.9256     1.2414     1.5643     1.783      2.498      0.95       1.4862     0.225199   0.225199   0.370045   41.53275   4.729687   1.677605   0.4502837  0.598963   47.497     0.4389272  0.3439993  0.533855  
1029.4     0.236      0.613      -9999      -9999      5.802197   1.4675     1.9212     1.9874     1.3027     1.5592     1.79       1.969      0.962      1.5275     0.2155749  0.2155749  0.3630982  27.55037   4.024361   1.727363   0.4260841  0.5850063  47.37      0.4470404  0.3674483  0.5266325 
1029.6     0.24       0.622      -9999      -9999      5.94502    1.5291     1.9777     2.008      1.4049     1.6        1.463      1.042      0.973      1.6307     0.2062495  0.2062495  0.3567303  18.50967   3.291986   1.799789   0.4016042  0.5716338  47.115     0.4560025  0.3988585  0.5131466 
1029.8     0.245      0.625      -9999      -9999      6.061177   1.5906     2.1421     1.905      1.4457     1.6408     1.245      0.872      0.966      1.672      0.2069204  0.2069204  0.3607826  19.04693   2.795802   1.780911   0.3882247  0.5636485  46.987     0.4662492  0.426374   0.5061244 
1030       0.247      0.632      -9999      -9999      6.11182    1.6933     2.1832     1.8278     1.4866     1.6153     1.165      0.973      0.968      1.7133     0.2048229  0.2048229  0.3596248  17.41705   2.60359    1.768699   0.37058    0.551789   46.86      0.4690968  0.4389571  0.4992364 
1030.2     0.249      0.633      -9999      -9999      6.096078   1.5855     2.0034     1.7763     1.4815     1.5389     1.112      0.817      0.94       1.5894     0.2228144  0.2228144  0.375834   37.51638   2.661879   1.677661   0.4082658  0.5726537  46.732     0.4636958  0.4350064  0.4923853 
1030.4     0.241      0.629      -9999      -9999      6.050932   1.4059     1.9469     1.7248     1.3946     1.4624     1.065      0.825      0.912      1.5069     0.240177   0.240177   0.3920432  78.67177   2.836377   1.608504   0.452087   0.6006273  46.834     0.4602006  0.4238727  0.4965285 
1030.6     0.236      0.624      -9999      -9999      6.0164     1.3238     1.8904     1.6682     1.2925     1.4115     1.025      0.726      0.885      1.4811     0.2556759  0.2556759  0.4076735  152.3689   2.977537   1.569092   0.4844737  0.6221555  47.038     0.4605987  0.4155492  0.5056482 
1030.8     0.242      0.62       -9999      -9999      5.998341   1.2212     1.7517     1.6553     1.1801     1.386      1.116      1.061      0.893      1.5636     0.2493861  0.2493861  0.4030423  116.5184   3.054135   1.608144   0.4770865  0.6187777  47.344     0.4656247  0.4112615  0.5199879 
1031       0.244      0.617      -9999      -9999      5.979206   1.1956     1.649      1.6424     1.1418     1.4064     1.275      1.298      0.909      1.6204     0.236926   0.236926   0.3937799  68.48619   3.137445   1.631326   0.4572184  0.6084809  47.828     0.4753148  0.4067668  0.5438628 
