~Version
 VERS              .         2.0                           : CWLS LOG ASCII STANDARD - VERSION 2.0
 WRAP              .         NO                            : ONE LINE PER DEPTH STEP
 DLM               .         SPACE                         : DELIMITING CHARACTER(SPACE TAB OR COMMA)
~Well Information
#_______________________________________________________________________________
#
#PARAMETER_NAME    .UNIT     VALUE                         : DESCRIPTION
#_______________________________________________________________________________
STRT               .M        880                           : First reference value
STOP               .M        1254                          : Last reference value
STEP               .M        0.2                           : Step increment
NULL               .         -9999                         : Missing value
COMP               .                                       : Company
WELL               .         2382                          : Well name
FLD                .         Узень                         : Field
LOC                .                                       : Location
CNTY               .                                       : County
STAT               .                                       : State
CTRY               .                                       : Country
SRVC               .                                       : Service Company
DATE               .                                       : Date
UWI                .                                       : Unique Well ID
123                .         1                             : 
4_кв_для_Заказчика .         1                             : 
Block              .         7                             : 
Category           .         Нефтяная                      : 
Condition          .         Ликвидированная               : 
Date               .         21.01.1977                    : 
EREF               .m        84.7                          : 100.8
Gor                .         15                            : 
Gorizont           .         15                            : 14
Interpretator      .         Кайсанов Е.К                  : 
KUST               .                                       : 
Kupol              .         Основной                      : osnovnoi
Mud                .                                       : 
Mud_density        .                                       : 
Mud_resistivity    .                                       : 
NGDU               .         НГДУ-2                        : 
ORIGINALWELLNAME   .         2382                          : 
Otmetka            .                                       : 
Spud_date          .         1976                          : 1961
Viscosity          .                                       : 
X                  .m        42915.7                       : 46154
Y                  .m        84473.9                       : 85761.93
YEAR               .         2018                          : 
~Parameter Information Block
#_______________________________________________________________________________
#
#PARAMETER_NAME    .UNIT     VALUE                         : DESCRIPTION
#_______________________________________________________________________________
SET                .         LQC_KAZNIPI_Petrel            : 
TLFamily_CALI      .         Caliper                       : 
TLFamily_CILD      .         Conductivity                  : 
TLFamily_COLL      .         Net Reservoir Flag            : 
TLFamily_CSAT      .         Fluid Code                    : 
TLFamily_DEPT      .         Measured Depth                : 
TLFamily_GR        .         Russian Gamma Ray             : 
TLFamily_GZ1       .         Gradient 045                  : 
TLFamily_GZ2       .         Gradient 105                  : 
TLFamily_GZ3       .         Gradient 225                  : 
TLFamily_GZ4       .         Gradient 425                  : 
TLFamily_GZ5       .         Gradient 850                  : 
TLFamily_MINV      .         Micro Gradient Resistivity    : 
TLFamily_MNOR      .         Micro Resistivity             : 
TLFamily_NGLD      .         Neutron Far                   : 
TLFamily_OGZ3      .         Gradient Inverted 225         : 
TLFamily_PHIE      .         Effective Porosity            : 
TLFamily_PHIEN     .         Effective Porosity            : 
TLFamily_PHIT      .         Porosity                      : 
TLFamily_PRMB      .         Permeability                  : 
TLFamily_PRMB_DGR  .         Permeability                  : 
TLFamily_RT        .         Formation Resistivity         : 
TLFamily_SOIL_ARCHIE .         Oil Saturation                : 
TLFamily_SOIL_DW   .         Oil Saturation                : 
TLFamily_SP        .         Spontaneous Potential         : 
TLFamily_VSH_FIN   .         Shale Volume                  : 
TLFamily_VSH_GR    .         Shale Volume                  : 
TLFamily_VSH_SP    .         Shale Volume                  : 
~Curve Information
#_______________________________________________________________________________
#
#LOGNAME           .UNIT     LOG_ID                        : DESCRIPTION
#_______________________________________________________________________________
DEPT               .M                                      : Колонка глубины 
CALI               .м                                      : Каверномер 
CILD               .мСм/м                                  : Индукционный каротаж 
COLL               .unitless                               :  
CSAT               .unitless                               :  
GR                 .uR/h                                   : Гамма каротаж 
GZ1                .Ohmm                                   : 2 
GZ2                .Ohmm                                   : 3 
GZ3                .Ohmm                                   : 2 
GZ4                .Ohmm                                   : 4 
GZ5                .Ohmm                                   : 5 
MINV               .Ohmm                                   : Микро-градиент зонд 
MNOR               .Ohmm                                   : Микро-потенциал зонд 
NGLD               .у.е.                                   : Показания зонда НГК-60 аппаратуры ДРСТ-3-90 
OGZ3               .Ohmm                                   : 3 
PHIE               .v/v                                    : Описание 
PHIEN              .v/v                                    :  
PHIT               .v/v                                    : Описание 
PRMB               .mD                                     :  
PRMB_DGR           .mD                                     :  
RT                 .ohmm                                   : УЭС пласта 
SOIL_ARCHIE        .v/v                                    :  
SOIL_DW            .v/v                                    :  
SP                 .мВ                                     : Потенциал самополяризации 
VSH_FIN            .v/v                                    : Описание 
VSH_GR             .v/v                                    : Shale volume 
VSH_SP             .v/v                                    : Shale Volume 
~Ascii
# ...
1123       0.211      0.393      1          2          5.35129    2.2899     3.7282     4.7233     2.7635     2.7398     3.454      4.865      1.112      9.494      0.2455882  0.2455882  0.2962632  99.09406   40.95243   6.308232   0.7297102  0.7756971  25.426     0.1535606  0.1424842  0.164637  
1123.2     0.211      0.389      1          2          5.281505   2.3825     3.7026     4.939      2.8324     2.9082     4.333      5.665      1.12       9.9314     0.2436433  0.2436433  0.291632   91.20599   46.79497   6.597157   0.7303648  0.7751382  24.534     0.1454203  0.1349324  0.1559082 
1123.4     0.212      0.385      1          2          5.201889   2.506      3.9026     5.1649     2.9012     3.1276     4.674      6.433      1.126      10.6518    0.2436261  0.2436261  0.2881586  91.13912   54.48505   6.956633   0.7335123  0.7764041  22.952     0.1349468  0.1268044  0.1430893 
1123.6     0.212      0.382      1          2          5.11658    2.7376     4.6554     5.247      3.1001     3.4184     4.403      6.03       1.097      10.9605    0.2623123  0.2623123  0.3049467  202.217    64.13284   7.096683   0.7534851  0.7932639  22.417     0.1291953  0.1186378  0.1397529 
1123.8     0.212      0.38       1          2          5.039838   3.1595     5.4082     5.401      3.6099     3.7143     4.982      6.417      1.068      11.1535    0.2807375  0.2807375  0.3217348  443.7088   74.26328   7.277786   0.7722808  0.8093848  21.881     0.1242343  0.1117415  0.136727  
1124       0.213      0.387      1          2          4.980655   3.458      6.161      5.591      3.7374     4.1276     5.931      5.991      1.039      11.3465    0.2990664  0.2990664  0.3385229  969.6015   83.15601   7.490867   0.7885969  0.8234538  21.04      0.1195651  0.1066983  0.132432  
1124.2     0.213      0.39       1          2          4.937084   3.7719     8          6.0017     4.1555     4.3673     6.532      6.111      1.01       11.2178    0.3169322  0.3169322  0.355311   2077.358   90.37669   7.819725   0.8024131  0.8355023  20.351     0.1162994  0.1031314  0.1294674 
1124.4     0.213      0.396      1          2          4.900087   4.1269     9.5385     6.397      4.5583     4.9439     5.399      6.814      1.019      11.2178    0.3126526  0.3126526  0.3501009  1730.785   96.99786   8.147724   0.7997342  0.8328489  19.624     0.1134795  0.1001966  0.1267625 
1124.6     0.213      0.396      1          2          4.864818   4.3019     10.2051    6.6691     4.9764     5.066299   4.266      5.966      1.031      11.5266    0.3065365  0.3065365  0.3431541  1333.393   103.7612   8.449474   0.7926311  0.8262494  18.897     0.1109623  0.0974765  0.1244482 
1124.8     0.214      0.397      1          2          4.831765   4.5283     11.2821    6.776999   5.3333     5.4337     3.137      5.12       1.033      11.1149    0.305829   0.305829   0.3419963  1293.758   110.5267   8.420087   0.7889726  0.8228436  18.77      0.1095979  0.09499448 0.1242013 
1125       0.214      0.394      1          2          4.804241   4.3225     11.4359    6.7924     5.5577     5.5918     3.137      5.412      1.035      10.06      0.3049265  0.3049265  0.3408385  1244.904   116.4961   8.109415   0.7907721  0.8243717  18.872     0.1088244  0.09297587 0.124673  
1125.2     0.214      0.391      1          2          4.792258   4.101201   10.2051    6.7924     5.4939     5.5255     3.346      5.981      1.057      9.2882     0.2917284  0.2917284  0.3281027  709.0485   119.1946   7.846619   0.7864637  0.820577   19.841     0.110225   0.09211055 0.1283395 
1125.4     0.214      0.388      1          2          4.812838   3.8491     9.935901   7.172299   5.4302     5.459199   3.457      6.409      1.08       9.1338     0.2779037  0.2779037  0.314788   393.1959   114.5977   8.035072   0.7782068  0.8132842  20.172     0.1117705  0.09360174 0.1299393 
1125.6     0.215      0.385      1          2          4.87416    3.6947     9.6667     7.552199   5.047801   5.0765     3.457      5.665      1.102      9.3396     0.2641226  0.2641226  0.3020522  218.4487   101.925    8.351333   0.7698395  0.8061224  20.504     0.1149382  0.09818975 0.1316866 
1125.8     0.215      0.382      1          2          4.963521   3.5403     9.2821     7.5471     4.8642     4.5663     3.457      5.807      1.086      9.5455     0.2720523  0.2720523  0.3113146  306.3564   85.924     8.429477   0.7768755  0.812897   20.657     0.1189766  0.1052812  0.1326721 
1126       0.215      0.38       1          2          5.056458   3.4322     8.8974     7.5984     4.9764     4.3571     3.622      6.448      1.09       9.8027     0.2682601  0.2682601  0.308999   260.6068   71.94153   8.560934   0.7765204  0.813096   20.81      0.1234512  0.1132003  0.1337021 
1126.2     0.215      0.374      1          2          5.135253   3.3808     8.5128     7.5984     5.0376     4.6276     3.824      6.519      1.052      10.06      0.2891636  0.2891636  0.3309972  635.5786   61.88461   8.657626   0.7918926  0.8270761  20.657     0.1267684  0.1203791  0.1331577 
1126.4     0.215      0.369      1          2          5.196849   3.4014     8.384601   7.713901   5.0376     4.8673     4.027      6.497      1.054      10.3945    0.2877145  0.2877145  0.3298394  597.4868   55.01233   8.855795   0.7941344  0.8291473  19.713     0.1276513  0.1263067  0.1289959 
1126.6     0.215      0.366      1          2          5.247268   3.4014     8.2564     7.8294     5.0325     4.8827     4.3        6.758      1.056      10.4974    0.2859184  0.2859184  0.3286816  553.4283   49.95906   8.969198   0.7958267  0.8308337  19.369     0.1295853  0.1313752  0.1277955 
1126.8     0.215      0.364      1          2          5.29106    3.4014     8.1923     8.33       5.1957     4.923501   4.61       7.105      1.046      10.4331    0.2911389  0.2911389  0.3344706  691.4442   45.94816   9.263684   0.8000976  0.8347567  19.025     0.1313081  0.1359423  0.1266739 
1127       0.215      0.359      1          2          5.327786   3.3756     8.1282     8.8306     5.7015     5.010201   4.92       7.36       1.036      10.3688    0.2962855  0.2962855  0.3402596  861.1603   42.83382   9.538081   0.8031327  0.8375996  18.961     0.1332549  0.1398947  0.1266151 
1127.2     0.215      0.356      1          2          5.355985   3.458      8.769199   9.292599   6.207301   5.7398     5.478      7.905      1.036      9.9828     0.2957816  0.2957816  0.3402596  842.8516   40.58666   9.625342   0.8025745  0.8372481  18.897     0.1347818  0.1430071  0.1265565 
1127.4     0.215      0.355      1          2          5.379879   3.6381     9.358999   9.7547     6.7131     5.5102     6.072      8.282      1.048      9.5712     0.2883618  0.2883618  0.3333128  614.2131   38.77497   9.662079   0.7974033  0.8328547  18.897     0.1362151  0.1456987  0.1267315 
1127.6     0.215      0.355      1          2          5.410424   3.7667     9.9487     10.0242    7.571701   5.6122     6.444      8.738      1.056      9.301      0.2831215  0.2831215  0.3286816  491.1969   36.57636   9.649068   0.7932162  0.8293723  18.897     0.1380608  0.1492132  0.1269085 
1127.8     0.215      0.355      1          2          5.455582   3.8954     10.3846    10.2938    10.2996    5.816299   6.238      8.591      1.045      9.0309     0.2885769  0.2885769  0.3350495  619.8718   33.55219   9.621084   0.793768   0.8301012  18.897     0.1408262  0.1545651  0.1270874 
1128       0.215      0.362      1          2          5.509541   4.0961     10.8205    10.8585    10.8349    6.0204     5.74       7.634      1.045      8.5163     0.2868488  0.2868488  0.3350495  575.8297   30.26474   9.545827   0.7895647  0.8269323  19.765     0.1460628  0.1612123  0.1309133 
1128.2     0.215      0.371      1          2          5.559524   4.2967     11.2308    11.2949    12.5175    6.989799   5.242      6.837      1.056      8.1304     0.278813   0.278813   0.3286816  408.7445   27.50764   9.454892   0.7783523  0.8176851  20.453     0.1511169  0.1676245  0.1346093 
