~Version
 VERS              .         2.0                           : CWLS LOG ASCII STANDARD - VERSION 2.0
 WRAP              .         NO                            : ONE LINE PER DEPTH STEP
 DLM               .         SPACE                         : DELIMITING CHARACTER(SPACE TAB OR COMMA)
~Well Information
#_______________________________________________________________________________
#
#PARAMETER_NAME    .UNIT     VALUE                         : DESCRIPTION
#_______________________________________________________________________________
STRT               .M        880                           : First reference value
STOP               .M        1254                          : Last reference value
STEP               .M        0.2                           : Step increment
NULL               .         -9999                         : Missing value
COMP               .                                       : Company
WELL               .         2382                          : Well name
FLD                .         Узень                         : Field
LOC                .                                       : Location
CNTY               .                                       : County
STAT               .                                       : State
CTRY               .                                       : Country
SRVC               .                                       : Service Company
DATE               .                                       : Date
UWI                .                                       : Unique Well ID
123                .         1                             : 
4_кв_для_Заказчика .         1                             : 
Block              .         7                             : 
Category           .         Нефтяная                      : 
Condition          .         Ликвидированная               : 
Date               .         21.01.1977                    : 
EREF               .m        84.7                          : 100.8
Gor                .         15                            : 
Gorizont           .         15                            : 14
Interpretator      .         Кайсанов Е.К                  : 
KUST               .                                       : 
Kupol              .         Основной                      : osnovnoi
Mud                .                                       : 
Mud_density        .                                       : 
Mud_resistivity    .                                       : 
NGDU               .         НГДУ-2                        : 
ORIGINALWELLNAME   .         2382                          : 
Otmetka            .                                       : 
Spud_date          .         1976                          : 1961
Viscosity          .                                       : 
X                  .m        42915.7                       : 46154
Y                  .m        84473.9                       : 85761.93
YEAR               .         2018                          : 
~Parameter Information Block
#_______________________________________________________________________________
#
#PARAMETER_NAME    .UNIT     VALUE                         : DESCRIPTION
#_______________________________________________________________________________
SET                .         LQC_KAZNIPI_Petrel            : 
TLFamily_CALI      .         Caliper                       : 
TLFamily_CILD      .         Conductivity                  : 
TLFamily_COLL      .         Net Reservoir Flag            : 
TLFamily_CSAT      .         Fluid Code                    : 
TLFamily_DEPT      .         Measured Depth                : 
TLFamily_GR        .         Russian Gamma Ray             : 
TLFamily_GZ1       .         Gradient 045                  : 
TLFamily_GZ2       .         Gradient 105                  : 
TLFamily_GZ3       .         Gradient 225                  : 
TLFamily_GZ4       .         Gradient 425                  : 
TLFamily_GZ5       .         Gradient 850                  : 
TLFamily_MINV      .         Micro Gradient Resistivity    : 
TLFamily_MNOR      .         Micro Resistivity             : 
TLFamily_NGLD      .         Neutron Far                   : 
TLFamily_OGZ3      .         Gradient Inverted 225         : 
TLFamily_PHIE      .         Effective Porosity            : 
TLFamily_PHIEN     .         Effective Porosity            : 
TLFamily_PHIT      .         Porosity                      : 
TLFamily_PRMB      .         Permeability                  : 
TLFamily_PRMB_DGR  .         Permeability                  : 
TLFamily_RT        .         Formation Resistivity         : 
TLFamily_SOIL_ARCHIE .         Oil Saturation                : 
TLFamily_SOIL_DW   .         Oil Saturation                : 
TLFamily_SP        .         Spontaneous Potential         : 
TLFamily_VSH_FIN   .         Shale Volume                  : 
TLFamily_VSH_GR    .         Shale Volume                  : 
TLFamily_VSH_SP    .         Shale Volume                  : 
~Curve Information
#_______________________________________________________________________________
#
#LOGNAME           .UNIT     LOG_ID                        : DESCRIPTION
#_______________________________________________________________________________
DEPT               .M                                      : Колонка глубины 
CALI               .м                                      : Каверномер 
CILD               .мСм/м                                  : Индукционный каротаж 
COLL               .unitless                               :  
CSAT               .unitless                               :  
GR                 .uR/h                                   : Гамма каротаж 
GZ1                .Ohmm                                   : 2 
GZ2                .Ohmm                                   : 3 
GZ3                .Ohmm                                   : 2 
GZ4                .Ohmm                                   : 4 
GZ5                .Ohmm                                   : 5 
MINV               .Ohmm                                   : Микро-градиент зонд 
MNOR               .Ohmm                                   : Микро-потенциал зонд 
NGLD               .у.е.                                   : Показания зонда НГК-60 аппаратуры ДРСТ-3-90 
OGZ3               .Ohmm                                   : 3 
PHIE               .v/v                                    : Описание 
PHIEN              .v/v                                    :  
PHIT               .v/v                                    : Описание 
PRMB               .mD                                     :  
PRMB_DGR           .mD                                     :  
RT                 .ohmm                                   : УЭС пласта 
SOIL_ARCHIE        .v/v                                    :  
SOIL_DW            .v/v                                    :  
SP                 .мВ                                     : Потенциал самополяризации 
VSH_FIN            .v/v                                    : Описание 
VSH_GR             .v/v                                    : Shale volume 
VSH_SP             .v/v                                    : Shale Volume 
~Ascii
# ...
1052.8     0.216      0.506      -9999      -9999      5.757026   2.5091     4.3202     3.8461     2.5083     2.6854     2.051      3.252      1.054      2.1519     0.1543631  0.1543631  0.3098394  2.02459    4.288337   2.759727   0.377353   0.5832677  47.021     0.4711403  0.3580383  0.5842422 
1053       0.217      0.517      -9999      -9999      5.80434    2.6374     4.4332     3.8101     2.5696     2.7261     1.75       2.629      1.057      2.2139     0.1526912  0.1526912  0.3081027  1.885249   4.012253   2.800525   0.3650397  0.5755278  46.834     0.470944   0.3679007  0.5739874 
1053.2     0.218      0.521      -9999      -9999      5.840581   2.581      4.5822     3.7277     2.5798     2.7465     2.346      2.535      1.048      2.1881     0.1573852  0.1573852  0.3133128  2.303104   3.812863   2.757558   0.3715624  0.5775867  46.749     0.472508   0.3756383  0.5693776 
1053.4     0.219      0.531      -9999      -9999      5.875099   2.3193     3.9914     3.8358     2.59       2.7669     2.166      3.61       1.034      2.1829     0.1650041  0.1650041  0.3214174  3.187388   3.632177   2.782384   0.3913734  0.587679   46.664     0.4739795  0.3831592  0.5647997 
1053.6     0.22       0.54       -9999      -9999      5.9234     2.3398     3.4007     3.3673     2.6309     2.828      1.754      2.365      1.048      2.2861     0.1558714  0.1558714  0.3133128  2.159109   3.393622   2.723311   0.314715   0.5391834  46.579     0.4770952  0.3939368  0.5602536 
1053.8     0.222      0.546      -9999      -9999      6.005559   2.2782     4.0479     3.0635     2.7944     2.828      2.202      2.466      1.051      2.3068     0.1521834  0.1521834  0.3115761  1.844865   3.023283   2.631839   0.2730788  0.5139906  46.443     0.4830081  0.4129701  0.553046  
1054       0.219      0.561      -9999      -9999      6.127516   2.2526     3.9349     2.7906     2.8761     2.558      1.855      1.834      1.018      2.3997     0.1675194  0.1675194  0.3306798  3.548327   2.546742   2.58043    0.3037286  0.528506   46.307     0.4944255  0.4429319  0.5459191 
1054.2     0.223      0.569      -9999      -9999      6.274304   2.3706     3.5137     2.4714     2.3857     2.1096     1.46       1.562      1.017      2.0281     0.1628327  0.1628327  0.3312587  2.905463   2.071684   2.227913   0.2654209  0.5089903  46.171     0.5103818  0.4818909  0.5388727 
1054.4     0.224      0.581      -9999      -9999      6.419302   2.1756     3.9401     2.4457     2.1098     1.8191     1.267      1.337      1.026      1.7701     0.1515223  0.1515223  0.3260486  1.793569   1.689491   2.053766   0.1990313  0.477278   46.076     0.5288677  0.5237376  0.5339977 
1054.6     0.226      0.591      -9999      -9999      6.532933   1.8062     3.2568     2.3942     1.834      1.7707     1.273      1.359      0.999      1.5533     0.1621313  0.1621313  0.3416789  2.819829   1.439951   1.884185   0.253775   0.5113242  45.98      0.5440837  0.5590563  0.529111  
1054.8     0.22       0.596      -9999      -9999      6.593216   1.6727     2.7277     2.3427     1.6245     1.7223     1.272      1.319      0.985      1.4243     0.1677861  0.1677861  0.3497835  3.588925   1.322893   1.771546   0.2982041  0.5403131  45.884     0.5515071  0.5787506  0.5242637 
1055       0.228      0.594      -9999      -9999      6.597619   1.5445     2.5377     2.2912     1.5428     1.5439     1.254      1.188      0.991      1.3314     0.1648561  0.1648561  0.3463101  3.167326   1.314728   1.684152   0.3228281  0.5590093  45.789     0.5498607  0.5802156  0.5195057 
1055.2     0.234      0.591      -9999      -9999      6.558587   1.4932     2.3938     2.1573     1.4713     1.493      1.237      1.165      1.004      1.4398     0.1599779  0.1599779  0.3387844  2.572393   1.388921   1.726992   0.3349974  0.5686759  45.725     0.5418379  0.567354   0.5163217 
1055.4     0.228      0.589      -9999      -9999      6.482303   1.4367     2.2603     2.1573     1.5939     1.493      1.234      1.33       1.01       1.6153     0.1610397  0.1610397  0.335311   2.691559   1.546228   1.847366   0.3634573  0.5841725  45.661     0.5280949  0.5430346  0.5131552 
1055.6     0.236      0.581      -9999      -9999      6.367235   1.3854     2.101      2.3684     1.7165     1.6917     1.348      1.309      0.995      1.8217     0.175453   0.175453   0.3439945  4.97706    1.817856   2.059385   0.4152366  0.6081868  45.661     0.5107319  0.5083085  0.5131552 
1055.8     0.235      0.575      -9999      -9999      6.226956   1.3341     1.9932     2.6465     1.9668     1.8701     1.772      1.714      0.999      1.9765     0.1796293  0.1796293  0.3416789  5.94741    2.214343   2.262949   0.4257713  0.6091716  45.661     0.4910595  0.4689637  0.5131552 
1056       0.235      0.572      -9999      -9999      6.100038   1.2674     1.9777     2.9605     2.2069     2.0025     1.907      2.621      1.014      2.0952     0.1761734  0.1761734  0.3329954  5.132348   2.647094   2.4538     0.4109208  0.5962759  45.687     0.4752182  0.4359968  0.5144396 
1056.2     0.234      0.568      -9999      -9999      6.031461   1.5547     2.2962     2.9193     2.7331     2.0994     1.596      2.051      1.022      2.1984     0.1741162  0.1741162  0.3283642  4.701249   2.915129   2.508075   0.3805996  0.5731487  45.712     0.4674182  0.4191591  0.5156773 
1056.4     0.235      0.565      -9999      -9999      6.043551   1.6933     2.5582     2.7391     2.7075     2.2166     1.635      1.809      1.023      2.2913     0.1728426  0.1728426  0.3277853  4.452684   2.865977   2.495269   0.3553375  0.5558549  45.738     0.4695234  0.4220797  0.5169671 
1056.6     0.235      0.559      -9999      -9999      6.125361   1.801      2.7329     2.6053     2.5645     2.2115     2.027      2.589      1.027      2.3119     0.1671768  0.1671768  0.3254697  3.496858   2.554472   2.449847   0.3262798  0.5408097  45.738     0.4796756  0.4423841  0.5169671 
1056.8     0.235      0.557      -9999      -9999      6.247165   1.9139     2.2192     2.4302     2.4215     2.135      1.67       1.754      1.029      2.0952     0.16073    0.16073    0.3243119  2.656246   2.152291   2.250301   0.290041   0.5236599  45.738     0.4957026  0.4744381  0.5169671 
1057       0.235      0.557      -9999      -9999      6.380636   2.0576     2.4966     2.147      2.2069     2.0331     1.542      1.599      1.019      2.0436     0.1606342  0.1606342  0.3301009  2.645408   1.783915   2.094024   0.2786354  0.52092    45.695     0.5135354  0.5122356  0.5148353 
1057.2     0.223      0.559      -9999      -9999      6.502303   2.1192     2.6712     2.0955     2.1303     1.9159     1.671      1.824      1.013      1.9662     0.158333   0.158333   0.3335743  2.398107   1.503339   2.028792   0.2675495  0.520022   45.653     0.5310344  0.549308   0.5127606 
1057.4     0.224      0.56       -9999      -9999      6.587701   1.9088     2.5377     2.0183     2.0179     1.814      1.54       1.664      1.013      1.8888     0.1541261  0.1541261  0.3335743  2.004231   1.333195   1.951404   0.24551    0.5118958  45.61      0.5437824  0.5769204  0.5106444 
1057.6     0.229      0.566      -9999      -9999      6.617905   1.8318     2.4606     1.9153     1.8084     1.7885     1.778      1.944      1.018      1.863      0.1516105  0.1516105  0.3306798  1.800329   1.277746   1.888788   0.2332725  0.5052598  45.355     0.5426343  0.5870152  0.4982535 
1057.8     0.221      0.578      -9999      -9999      6.595222   1.8062     2.589      1.9205     1.7573     1.7376     1.719      1.824      1.013      1.8372     0.1572606  0.1572606  0.3335743  2.2909     1.319167   1.877927   0.2568853  0.5143865  45.164     0.5342839  0.5794176  0.4891501 
1058       0.219      0.581      -9999      -9999      6.538575   1.801      2.6918     1.9256     1.7573     1.6611     1.529      1.581      1.001      1.7856     0.1687448  0.1687448  0.3405211  3.738712   1.428568   1.852959   0.3019508  0.5338371  44.973     0.520534   0.5608709  0.4801972 
