~Version
 VERS              .         2.0                           : CWLS LOG ASCII STANDARD - VERSION 2.0
 WRAP              .         NO                            : ONE LINE PER DEPTH STEP
 DLM               .         SPACE                         : DELIMITING CHARACTER(SPACE TAB OR COMMA)
~Well Information
#_______________________________________________________________________________
#
#PARAMETER_NAME    .UNIT     VALUE                         : DESCRIPTION
#_______________________________________________________________________________
STRT               .M        880.1                         : First reference value
STOP               .M        1160.2                        : Last reference value
STEP               .M        0.1                           : Step increment
NULL               .         -9999                         : Missing value
COMP               .                                       : Company
WELL               .         2938                          : Well name
FLD                .         Узень                         : Field
LOC                .                                       : Location
CNTY               .                                       : County
STAT               .                                       : State
CTRY               .                                       : Country
SRVC               .         SCH                           : Service Company
DATE               .         04/21/2010                    : Date
UWI                .                                       : Unique Well ID
Block              .         7                             : 
Cartographic_reference_system .         GCS_WGS_1984                  : ESRI,PE_10_3_1- <?xml version="1.0" encoding="utf-16"?><ILateBoundCoordinateReferenceSystem name="GCS_WGS_1984"><AuthorityCode>EPSG,4326</AuthorityCode></ILateBoundCoordinateReferenceSystem>
Category           .         Нефтяная                      : 
Condition          .         В работе                      : 
Date               .         01.09.1980                    : 
EREF               .m        85.2                          : 100.8
Gorizont           .         15                            : 14
HZCS               .GCS_WGS_1984 WGS_1984_EASE-Grid_2.0_Global : ESRI,PE_10_3_1- <?xml version="1.0" encoding="utf-16"?><ILateBoundCoordinateReferenceSystem name="WGS_1984_EASE-Grid_2.0_Global"><AuthorityCode>EPSG,6933</AuthorityCode></ILateBoundCoordinateReferenceSystem>
Interpretator      .         Кушербаева А.С                : 
Kupol              .         основной                      : osnovnoi
LATI               .dega     0.6567763258                  : GCS_WGS_1984
LONG               .dega     0.4397506038                  : GCS_WGS_1984
Mud                .                                       : 
Mud_density        .                                       : 
Mud_resistivity    .                                       : 
NGDU               .         НГДУ-2                        : 
ORIGINALWELLNAME   .         2938                          : 
Spud_date          .         1980                          : 1961
Viscosity          .                                       : 
X                  .m        42429.9                       : 46154
Y                  .m        83785.33                      : 85761.93
YEAR               .         2018г                         : 
~Parameter Information Block
#_______________________________________________________________________________
#
#PARAMETER_NAME    .UNIT     VALUE                         : DESCRIPTION
#_______________________________________________________________________________
SET                .         LQC_KAZNIPI_Petrel            : 
PBBOTTOM           .M        1160.2                        : Глубина подошвы планшета
PBSCALE            .         1 _ 500                       : Вертикальный масштаб планшета
PBTOP              .M        880                           : Глубина кровли планшета
TLFamily_CALI      .         Caliper                       : 
TLFamily_CILD      .         Conductivity                  : 
TLFamily_COLL      .         Net Reservoir Flag            : 
TLFamily_CSAT      .         Fluid Code                    : 
TLFamily_DEPT      .         Measured Depth                : 
TLFamily_GR        .         Russian Gamma Ray             : 
TLFamily_GZ1       .         Gradient 045                  : 
TLFamily_GZ2       .         Gradient 105                  : 
TLFamily_GZ3       .         Gradient 225                  : 
TLFamily_GZ4       .         Gradient 425                  : 
TLFamily_GZ5       .         Gradient 850                  : 
TLFamily_LLS       .         Lateral Log Resistivity       : 
TLFamily_MINV      .         Micro Gradient Resistivity    : 
TLFamily_MNOR      .         Micro Resistivity             : 
TLFamily_NGLD      .         Neutron Gamma                 : 
TLFamily_OGZ       .         Gradient Inverted 225         : 
TLFamily_PHIE      .         Effective Porosity            : 
TLFamily_PHIEN     .         Effective Porosity            : 
TLFamily_PHIT      .         Porosity                      : 
TLFamily_PRMB      .         Permeability                  : 
TLFamily_PRMB_DGR  .         Permeability                  : 
TLFamily_RT        .         Formation Resistivity         : 
TLFamily_SOIL_ARCHIE .         Oil Saturation                : 
TLFamily_SOIL_DW   .         Oil Saturation                : 
TLFamily_SP        .         Spontaneous Potential         : 
TLFamily_VSH_FIN   .         Shale Volume                  : 
TLFamily_VSH_GR    .         Shale Volume                  : 
TLFamily_VSH_SP    .         Shale Volume                  : 
~Curve Information
#_______________________________________________________________________________
#
#LOGNAME           .UNIT     LOG_ID                        : DESCRIPTION
#_______________________________________________________________________________
DEPT               .M                                      : Колонка глубины 
CALI               .м                                      : Каверномер 
CILD               .мСм/м                                  : Индукционный каротаж 
COLL               .unitless                               : Описание 
CSAT               .unitless                               : Описание 
GR                 .uR/h                                   : Гамма каротаж 
GZ1                .Ohmm                                   : Градиент-зонд  длиной 0.45м 
GZ2                .Ohmm                                   : Градиент-зонд  длиной 1.05м 
GZ3                .Ohmm                                   : Градиент-зонд  длиной 2.25м 
GZ4                .Ohmm                                   : Градиент-зонд  длиной 4.5м 
GZ5                .Ohmm                                   : Градиент-зонд  длиной 8.5м 
LLS                .Ohmm                                   : Боковой каротаж 
MINV               .Ohmm                                   : Микро-градиент зонд 
MNOR               .Ohmm                                   : Микро-потенциал зонд 
NGLD               .у.е.                                   : Показания зонда НГК-60 аппаратуры ДРСТ-3-90 
OGZ                .Ohmm                                   : Обращенный градиент-зонд 
PHIE               .v/v                                    : Описание 
PHIEN              .v/v                                    :  
PHIT               .v/v                                    : Описание 
PRMB               .mD                                     :  
PRMB_DGR           .mD                                     :  
RT                 .ohmm                                   : УЭС пласта 
SOIL_ARCHIE        .v/v                                    :  
SOIL_DW            .v/v                                    :  
SP                 .мВ                                     : Потенциал самополяризации 
VSH_FIN            .v/v                                    : Описание 
VSH_GR             .v/v                                    : Shale volume 
VSH_SP             .v/v                                    : Shale Volume 
~Ascii
# ...
1007.5     0.259      391.159    -9999      -9999      8.678      1.774      2.464      3.536      2.796      2.599      1.674      0.685      0.856      1.051      2.134      0.2316813  0.2316813  0.40695    54.7594    2.17031    2.557      0.4855645  0.6417605  29.569     0.5311171  0.4728257  0.5894086 
1007.6     0.259      398.64     -9999      -9999      8.795      1.748      2.4        3.44       2.769      2.54       1.642      0.681      0.83       1.044      2.12       0.2317063  0.2317063  0.4108     54.81769   1.939522   2.509      0.4810181  0.6404193  29.599     0.5427082  0.4950383  0.590378  
1007.7     0.258      404.528    -9999      -9999      8.899      1.726      2.325      3.331      2.748      2.483      1.65       0.672      0.804      1.04       2.105      0.2302692  0.2302692  0.413      51.55873   1.755064   2.472      0.4745477  0.6380217  29.643     0.5537298  0.5156574  0.5918022 
1007.8     0.256      409.29     -9999      -9999      8.979      1.702      2.247      3.212      2.728      2.43       1.684      0.66       0.784      1.039      2.089      0.2277901  0.2277901  0.41355    46.38562   1.6252     2.443      0.466625   0.6346215  29.702     0.5629087  0.5321007  0.5937166 
1007.9     0.254      413.622    -9999      -9999      9.032      1.675      2.174      3.093      2.705      2.381      1.72       0.647      0.771      1.041      2.073      0.2244747  0.2244747  0.41245    40.26928   1.544503   2.418      0.4571564  0.630021   29.771     0.5696222  0.5432821  0.5959622 
1008       0.253      418.244    -9999      -9999      9.066      1.642      2.111      2.985      2.677      2.34       1.739      0.635      0.767      1.043      2.057      0.2217721  0.2217721  0.41135    35.88519   1.494857   2.391      0.4485009  0.625562   29.845     0.5744786  0.5505787  0.5983785 
1008.1     0.253      423.645    -9999      -9999      9.089      1.605      2.059      2.893      2.646      2.305      1.727      0.625      0.768      1.044      2.042      0.2200201  0.2200201  0.4108     33.3015    1.462181   2.36       0.4412669  0.6216329  29.915     0.5781209  0.5555699  0.6006719 
1008.2     0.254      429.95     -9999      -9999      9.105      1.567      2.016      2.82       2.616      2.278      1.692      0.619      0.774      1.044      2.026      0.2191175  0.2191175  0.4108     32.04388   1.439872   2.326      0.4354313  0.6182657  29.975     0.5808561  0.5590687  0.6026436 
1008.3     0.257      436.958    -9999      -9999      9.113      1.533      1.982      2.763      2.591      2.256      1.645      0.615      0.782      1.043      2.011      0.219122   0.219122   0.41135    32.05003   1.428845   2.289      0.4311773  0.61551    30.022     0.5825092  0.5608265  0.6041919 
1008.4     0.259      444.285    -9999      -9999      9.112      1.51       1.958      2.722      2.573      2.238      1.602      0.614      0.789      1.042      1.997      0.2194958  0.2194958  0.4119     32.56511   1.430218   2.251      0.4275417  0.6128515  30.061     0.583043   0.5606066  0.6054793 
1008.5     0.262      451.486    -9999      -9999      9.1        1.502      1.946      2.694      2.56       2.225      1.573      0.615      0.793      1.04       1.985      0.2208176  0.2208176  0.413      34.45364   1.446805   2.215      0.4262026  0.6112639  30.1       0.5823711  0.5579731  0.606769  
1008.6     0.265      458.111    -9999      -9999      9.077      1.508      1.945      2.673      2.551      2.217      1.559      0.617      0.797      1.039      1.975      0.2219377  0.2219377  0.41355    36.1396    1.479139   2.183      0.4248112  0.6095147  30.147     0.5806432  0.5529601  0.6083263 
1008.7     0.266      463.733    -9999      -9999      9.042      1.527      1.953      2.653      2.544      2.216      1.556      0.621      0.802      1.038      1.965      0.2234033  0.2234033  0.4141     38.47068   1.529732   2.156      0.4247493  0.6084037  30.207     0.5778687  0.5454181  0.6103193 
1008.8     0.267      467.99     -9999      -9999      8.995      1.555      1.966      2.63       2.538      2.221      1.561      0.628      0.814      1.036      1.956      0.2257464  0.2257464  0.4152     42.51379   1.600404   2.137      0.4275803  0.6089013  30.28      0.5741017  0.5354518  0.6127515 
1008.9     0.266      470.652    -9999      -9999      8.939      1.59       1.979      2.603      2.531      2.232      1.574      0.637      0.837      1.035      1.947      0.2277753  0.2277753  0.41575    46.35627   1.688884   2.125      0.4305206  0.609486   30.36      0.5696205  0.5238146  0.6154264 
1009       0.264      471.696    -9999      -9999      8.881      1.629      1.989      2.574      2.521      2.244      1.594      0.647      0.869      1.036      1.94       0.2287159  0.2287159  0.4152     48.25385   1.785686   2.12       0.4319334  0.6093437  30.442     0.5651032  0.5120281  0.6181784 
1009.1     0.262      471.332    -9999      -9999      8.826      1.671      1.996      2.548      2.509      2.257      1.62       0.658      0.902      1.038      1.935      0.2289861  0.2289861  0.4141     48.81308   1.882599   2.122      0.4327683  0.6090799  30.52      0.5609512  0.5010966  0.6208059 
1009.2     0.26       469.982    -9999      -9999      8.777      1.704      2          2.526      2.493      2.268      1.649      0.67       0.925      1.041      1.932      0.2285202  0.2285202  0.41245    47.85271   1.973361   2.128      0.4325136  0.608371   30.59      0.557363   0.4915543  0.6231717 
1009.3     0.259      468.166    -9999      -9999      8.731      1.715      2.003      2.51       2.472      2.277      1.677      0.683      0.934      1.043      1.931      0.2285354  0.2285354  0.41135    47.88377   2.062546   2.136      0.4335448  0.6084815  30.65      0.5539836  0.4827615  0.6252057 
1009.4     0.257      466.381    -9999      -9999      8.686      1.695      2.001      2.495      2.447      2.286      1.702      0.697      0.934      1.044      1.93       0.2291048  0.2291048  0.4108     49.06076   2.153691   2.144      0.4357618  0.6092783  30.699     0.5505915  0.4743122  0.6268709 
1009.5     0.257      464.999    -9999      -9999      8.647      1.648      1.995      2.48       2.421      2.294      1.728      0.714      0.939      1.043      1.93       0.2306129  0.2306129  0.41135    52.3201    2.235934   2.151      0.4398344  0.611237   30.74      0.5476882  0.4671092  0.6282672 
1009.6     0.258      464.26     -9999      -9999      8.623      1.597      1.987      2.46       2.397      2.303      1.754      0.736      0.957      1.043      1.93       0.2311496  0.2311496  0.41135    53.53143   2.288098   2.154      0.4413328  0.6118637  30.773     0.5460619  0.462731   0.6293929 
1009.7     0.26       464.275    -9999      -9999      8.619      1.57       1.985      2.434      2.376      2.311      1.774      0.763      0.983      1.042      1.93       0.231684   0.231684   0.4119     54.76563   2.296909   2.154      0.4424554  0.6125308  30.797     0.546109   0.4620053  0.6302126 
1009.8     0.262      464.985    -9999      -9999      8.635      1.582      1.993      2.4        2.359      2.317      1.785      0.787      1.003      1.04       1.93       0.2322532  0.2322532  0.413      56.11142   2.261865   2.151      0.4432817  0.6132609  30.806     0.5477176  0.4649149  0.6305202 
1009.9     0.263      466.082    -9999      -9999      8.659      1.625      2.011      2.362      2.346      2.319      1.782      0.798      0.999      1.037      1.93       0.2332451  0.2332451  0.41465    58.536     2.210299   2.146      0.4447381  0.6143931  30.794     0.5497119  0.4693138  0.6301101 
1010       0.263      466.999    -9999      -9999      8.681      1.673      2.03       2.324      2.337      2.318      1.774      0.787      0.966      1.034      1.93       0.234404   0.234404   0.4163     61.5019    2.164064   2.141      0.4465243  0.6156225  30.762     0.5512     0.4733825  0.6290174 
