~Version
 VERS              .         2.0                           : CWLS LOG ASCII STANDARD - VERSION 2.0
 WRAP              .         NO                            : ONE LINE PER DEPTH STEP
 DLM               .         SPACE                         : DELIMITING CHARACTER(SPACE TAB OR COMMA)
~Well Information
#_______________________________________________________________________________
#
#PARAMETER_NAME    .UNIT     VALUE                         : DESCRIPTION
#_______________________________________________________________________________
STRT               .M        880.1                         : First reference value
STOP               .M        1160.2                        : Last reference value
STEP               .M        0.1                           : Step increment
NULL               .         -9999                         : Missing value
COMP               .                                       : Company
WELL               .         2938                          : Well name
FLD                .         Узень                         : Field
LOC                .                                       : Location
CNTY               .                                       : County
STAT               .                                       : State
CTRY               .                                       : Country
SRVC               .         SCH                           : Service Company
DATE               .         04/21/2010                    : Date
UWI                .                                       : Unique Well ID
Block              .         7                             : 
Cartographic_reference_system .         GCS_WGS_1984                  : ESRI,PE_10_3_1- <?xml version="1.0" encoding="utf-16"?><ILateBoundCoordinateReferenceSystem name="GCS_WGS_1984"><AuthorityCode>EPSG,4326</AuthorityCode></ILateBoundCoordinateReferenceSystem>
Category           .         Нефтяная                      : 
Condition          .         В работе                      : 
Date               .         01.09.1980                    : 
EREF               .m        85.2                          : 100.8
Gorizont           .         15                            : 14
HZCS               .GCS_WGS_1984 WGS_1984_EASE-Grid_2.0_Global : ESRI,PE_10_3_1- <?xml version="1.0" encoding="utf-16"?><ILateBoundCoordinateReferenceSystem name="WGS_1984_EASE-Grid_2.0_Global"><AuthorityCode>EPSG,6933</AuthorityCode></ILateBoundCoordinateReferenceSystem>
Interpretator      .         Кушербаева А.С                : 
Kupol              .         основной                      : osnovnoi
LATI               .dega     0.6567763258                  : GCS_WGS_1984
LONG               .dega     0.4397506038                  : GCS_WGS_1984
Mud                .                                       : 
Mud_density        .                                       : 
Mud_resistivity    .                                       : 
NGDU               .         НГДУ-2                        : 
ORIGINALWELLNAME   .         2938                          : 
Spud_date          .         1980                          : 1961
Viscosity          .                                       : 
X                  .m        42429.9                       : 46154
Y                  .m        83785.33                      : 85761.93
YEAR               .         2018г                         : 
~Parameter Information Block
#_______________________________________________________________________________
#
#PARAMETER_NAME    .UNIT     VALUE                         : DESCRIPTION
#_______________________________________________________________________________
SET                .         LQC_KAZNIPI_Petrel            : 
PBBOTTOM           .M        1160.2                        : Глубина подошвы планшета
PBSCALE            .         1 _ 500                       : Вертикальный масштаб планшета
PBTOP              .M        880                           : Глубина кровли планшета
TLFamily_CALI      .         Caliper                       : 
TLFamily_CILD      .         Conductivity                  : 
TLFamily_COLL      .         Net Reservoir Flag            : 
TLFamily_CSAT      .         Fluid Code                    : 
TLFamily_DEPT      .         Measured Depth                : 
TLFamily_GR        .         Russian Gamma Ray             : 
TLFamily_GZ1       .         Gradient 045                  : 
TLFamily_GZ2       .         Gradient 105                  : 
TLFamily_GZ3       .         Gradient 225                  : 
TLFamily_GZ4       .         Gradient 425                  : 
TLFamily_GZ5       .         Gradient 850                  : 
TLFamily_LLS       .         Lateral Log Resistivity       : 
TLFamily_MINV      .         Micro Gradient Resistivity    : 
TLFamily_MNOR      .         Micro Resistivity             : 
TLFamily_NGLD      .         Neutron Gamma                 : 
TLFamily_OGZ       .         Gradient Inverted 225         : 
TLFamily_PHIE      .         Effective Porosity            : 
TLFamily_PHIEN     .         Effective Porosity            : 
TLFamily_PHIT      .         Porosity                      : 
TLFamily_PRMB      .         Permeability                  : 
TLFamily_PRMB_DGR  .         Permeability                  : 
TLFamily_RT        .         Formation Resistivity         : 
TLFamily_SOIL_ARCHIE .         Oil Saturation                : 
TLFamily_SOIL_DW   .         Oil Saturation                : 
TLFamily_SP        .         Spontaneous Potential         : 
TLFamily_VSH_FIN   .         Shale Volume                  : 
TLFamily_VSH_GR    .         Shale Volume                  : 
TLFamily_VSH_SP    .         Shale Volume                  : 
~Curve Information
#_______________________________________________________________________________
#
#LOGNAME           .UNIT     LOG_ID                        : DESCRIPTION
#_______________________________________________________________________________
DEPT               .M                                      : Колонка глубины 
CALI               .м                                      : Каверномер 
CILD               .мСм/м                                  : Индукционный каротаж 
COLL               .unitless                               : Описание 
CSAT               .unitless                               : Описание 
GR                 .uR/h                                   : Гамма каротаж 
GZ1                .Ohmm                                   : Градиент-зонд  длиной 0.45м 
GZ2                .Ohmm                                   : Градиент-зонд  длиной 1.05м 
GZ3                .Ohmm                                   : Градиент-зонд  длиной 2.25м 
GZ4                .Ohmm                                   : Градиент-зонд  длиной 4.5м 
GZ5                .Ohmm                                   : Градиент-зонд  длиной 8.5м 
LLS                .Ohmm                                   : Боковой каротаж 
MINV               .Ohmm                                   : Микро-градиент зонд 
MNOR               .Ohmm                                   : Микро-потенциал зонд 
NGLD               .у.е.                                   : Показания зонда НГК-60 аппаратуры ДРСТ-3-90 
OGZ                .Ohmm                                   : Обращенный градиент-зонд 
PHIE               .v/v                                    : Описание 
PHIEN              .v/v                                    :  
PHIT               .v/v                                    : Описание 
PRMB               .mD                                     :  
PRMB_DGR           .mD                                     :  
RT                 .ohmm                                   : УЭС пласта 
SOIL_ARCHIE        .v/v                                    :  
SOIL_DW            .v/v                                    :  
SP                 .мВ                                     : Потенциал самополяризации 
VSH_FIN            .v/v                                    : Описание 
VSH_GR             .v/v                                    : Shale volume 
VSH_SP             .v/v                                    : Shale Volume 
~Ascii
# ...
989.3      0.293      527.471    -9999      -9999      7.31       1.905      2.031      2.723      2.04       1.645      1.401      1.316      1.102      0.961      3.728      0.2375185  0.2375185  0.45645    70.23892   1.023292   1.896      0.4207411  0.6157959  32.321     0.6634286  0.6427336  0.6841236 
989.4      0.289      524.696    -9999      -9999      7.26       2.143      2.114      2.635      2.121      1.71       1.455      1.561      1.229      0.974      3.819      0.2322767  0.2322767  0.4493     56.16758   1.08894    1.906      0.4108283  0.6097208  32.445     0.6576465  0.6266199  0.6886731 
989.5      0.284      518.94     -9999      -9999      7.19       2.332      2.194      2.545      2.182      1.764      1.527      1.887      1.404      0.989      3.86       0.2269375  0.2269375  0.44105    44.72918   1.187984   1.927      0.4018573  0.6038694  32.56      0.6488258  0.6047369  0.6929146 
989.6      0.279      510.933    -9999      -9999      7.112      2.428      2.26       2.456      2.212      1.799      1.631      2.237      1.602      1.003      3.859      0.2224275  0.2224275  0.43335    36.90241   1.308995   1.957      0.3957047  0.5995519  32.672     0.6391591  0.5812521  0.697066  
989.7000000000001 0.272      501.591    -9999      -9999      7.033      2.419      2.301      2.364      2.203      1.811      1.778      2.512      1.768      1.017      3.827      0.2178228  0.2178228  0.42565    30.32249   1.444126   1.994      0.389979   0.5956408  32.782     0.6297795  0.5583957  0.7011632 
989.8      0.263      491.704    -9999      -9999      6.957      2.318      2.312      2.27       2.156      1.8        1.976      2.614      1.841      1.029      3.775      0.2141244  0.2141244  0.41905    25.89773   1.587276   2.034      0.3865567  0.5930955  32.877     0.6209866  0.5372558  0.7047174 
989.9      0.253      481.757    -9999      -9999      6.885      2.166      2.302      2.18       2.081      1.768      2.224      2.498      1.787      1.041      3.722      0.2102671  0.2102671  0.41245    21.96922   1.735956   2.076      0.3827158  0.5904234  32.948     0.6126755  0.5179675  0.7073835 
990        0.243      472.069    -9999      -9999      6.822      2.005      2.283      2.099      1.993      1.722      2.508      2.197      1.62       1.053      3.684      0.206122   0.206122   0.40585    18.40935   1.877433   2.118      0.377794   0.5873091  32.986     0.6052363  0.501659   0.7088137 
990.1      0.235      463.124    -9999      -9999      6.781      1.868      2.271      2.032      1.907      1.668      2.795      1.805      1.393      1.066      3.68       0.2006092  0.2006092  0.3987     14.55213   1.975643   2.159      0.3686341  0.5824167  32.997     0.6002753  0.4913224  0.7092282 
990.2000000000001 0.231      455.829    -9999      -9999      6.771      1.77       2.277      1.979      1.834      1.613      3.035      1.429      1.171      1.079      3.721      0.193932   0.193932   0.39155    10.94583   2.000366   2.194      0.3546312  0.5756355  32.987     0.5988425  0.4888337  0.7088513 
990.3      0.23       451.399    -9999      -9999      6.793      1.704      2.301      1.938      1.776      1.564      3.18       1.145      1          1.089      3.807      0.1876563  0.1876563  0.38605    8.375446   1.946378   2.215      0.3388359  0.5685503  32.966     0.6011931  0.4943255  0.7080606 
990.4      0.235      450.766    -9999      -9999      6.834      1.657      2.332      1.905      1.735      1.522      3.19       0.984      0.897      1.094      3.931      0.1833827  0.1833827  0.3833     6.979928   1.849624   2.218      0.3258647  0.5631115  32.935     0.60581    0.5047253  0.7068947 
990.5      0.243      453.854    -9999      -9999      6.875      1.616      2.351      1.877      1.707      1.49       3.061      0.931      0.859      1.092      4.09       0.183028   0.183028   0.3844     6.875125   1.75768    2.203      0.3225732  0.5620825  32.887     0.6102182  0.5153438  0.7050925 
990.6      0.253      459.231    -9999      -9999      6.903      1.578      2.346      1.853      1.687      1.465      2.823      0.946      0.866      1.082      4.288      0.1877737  0.1877737  0.3899     8.417506   1.697529   2.178      0.3339518  0.5676669  32.812     0.6125038  0.5227236  0.702284  
990.7000000000001 0.263      464.543    -9999      -9999      6.909      1.542      2.312      1.838      1.673      1.447      2.53       0.982      0.892      1.068      4.530001   0.1958507  0.1958507  0.3976     11.87921   1.68491    2.153      0.354452   0.5772441  32.708     0.6113617  0.5243187  0.6984047 
990.8      0.272      467.523    -9999      -9999      6.894      1.509      2.258      1.851      1.663      1.434      2.24       1          0.912      1.052      4.815001   0.2060726  0.2060726  0.4064     18.37053   1.716635   2.139      0.3805385  0.5896434  32.583     0.6070528  0.5203401  0.6937655 
990.9      0.278      466.993    -9999      -9999      6.863      1.482      2.196      1.91       1.654      1.428      1.999      0.982      0.912      1.038      5.133      0.215887   0.215887   0.4141     27.91959   1.784107   2.141      0.4053997  0.6017609  32.456     0.6006455  0.512213   0.6890779 
991        0.28       463.254    -9999      -9999      6.821      1.462      2.146      2.023      1.649      1.426      1.831      0.936      0.892      1.03       5.463      0.2226825  0.2226825  0.4185     37.30592   1.87977    2.159      0.4235041  0.6106983  32.355     0.5933865  0.5014043  0.6853686 
991.1      0.28       457.737    -9999      -9999      6.773      1.456      2.122      2.175      1.65       1.429      1.74       0.887      0.863      1.027      5.786      0.2266508  0.2266508  0.42015    44.18561   1.995396   2.185      0.4354852  0.6166015  32.301     0.5863613  0.4893304  0.6833922 
991.2000000000001 0.279      452.24     -9999      -9999      6.72       1.475      2.134      2.329      1.661      1.435      1.715      0.862      0.845      1.029      6.083      0.2276948  0.2276948  0.41905    46.19746   2.131347   2.211      0.4408526  0.6189395  32.301     0.5798642  0.4763363  0.6833922 
991.3      0.278      448.189    -9999      -9999      6.663      1.523      2.186      2.448      1.683      1.444      1.734      0.889      0.854      1.034      6.334      0.2269577  0.2269577  0.4163     44.76774   2.287912   2.231      0.4416358  0.618645   32.339     0.5737645  0.4627464  0.6847826 
991.4      0.278      446.257    -9999      -9999      6.603      1.602      2.271      2.513      1.717      1.455      1.773      0.984      0.905      1.041      6.522999   0.2250602  0.2250602  0.41245    41.28758   2.465158   2.241      0.4387171  0.6160797  32.395     0.5678478  0.4488599  0.6868357 
991.5      0.277      446.319    -9999      -9999      6.544      1.708      2.378      2.526      1.757      1.469      1.81       1.158      1.011      1.05       6.640999   0.2219445  0.2219445  0.4075     36.15009   2.652835   2.241      0.4318608  0.6111319  32.453     0.5622894  0.4356112  0.6889675 
991.6      0.274      447.606    -9999      -9999      6.483      1.833      2.492      2.503      1.796      1.485      1.841      1.415      1.183      1.06       6.689      0.2183025  0.2183025  0.402      30.94922   2.861911   2.234      0.4227674  0.604737   32.508     0.5566592  0.4223244  0.690994  
991.7000000000001 0.267      448.893    -9999      -9999      6.423      1.974      2.601      2.463      1.828      1.502      1.875      1.744      1.418      1.072      6.674      0.2134584  0.2134584  0.3954     25.17242   3.083625   2.228      0.4106317  0.5966707  32.563     0.5513382  0.409651   0.6930255 
991.8      0.257      448.719    -9999      -9999      6.367      2.127      2.695      2.428      1.845      1.518      1.926      2.122      1.692      1.085      6.612      0.2078552  0.2078552  0.38825    19.82167   3.306029   2.229      0.3969451  0.5879931  32.62      0.5466509  0.3981657  0.695136  
