~Version
 VERS              .         2.0                           : CWLS LOG ASCII STANDARD - VERSION 2.0
 WRAP              .         NO                            : ONE LINE PER DEPTH STEP
 DLM               .         SPACE                         : DELIMITING CHARACTER(SPACE TAB OR COMMA)
~Well Information
#_______________________________________________________________________________
#
#PARAMETER_NAME    .UNIT     VALUE                         : DESCRIPTION
#_______________________________________________________________________________
STRT               .M        880.1                         : First reference value
STOP               .M        1160.2                        : Last reference value
STEP               .M        0.1                           : Step increment
NULL               .         -9999                         : Missing value
COMP               .                                       : Company
WELL               .         2938                          : Well name
FLD                .         Узень                         : Field
LOC                .                                       : Location
CNTY               .                                       : County
STAT               .                                       : State
CTRY               .                                       : Country
SRVC               .         SCH                           : Service Company
DATE               .         04/21/2010                    : Date
UWI                .                                       : Unique Well ID
Block              .         7                             : 
Cartographic_reference_system .         GCS_WGS_1984                  : ESRI,PE_10_3_1- <?xml version="1.0" encoding="utf-16"?><ILateBoundCoordinateReferenceSystem name="GCS_WGS_1984"><AuthorityCode>EPSG,4326</AuthorityCode></ILateBoundCoordinateReferenceSystem>
Category           .         Нефтяная                      : 
Condition          .         В работе                      : 
Date               .         01.09.1980                    : 
EREF               .m        85.2                          : 100.8
Gorizont           .         15                            : 14
HZCS               .GCS_WGS_1984 WGS_1984_EASE-Grid_2.0_Global : ESRI,PE_10_3_1- <?xml version="1.0" encoding="utf-16"?><ILateBoundCoordinateReferenceSystem name="WGS_1984_EASE-Grid_2.0_Global"><AuthorityCode>EPSG,6933</AuthorityCode></ILateBoundCoordinateReferenceSystem>
Interpretator      .         Кушербаева А.С                : 
Kupol              .         основной                      : osnovnoi
LATI               .dega     0.6567763258                  : GCS_WGS_1984
LONG               .dega     0.4397506038                  : GCS_WGS_1984
Mud                .                                       : 
Mud_density        .                                       : 
Mud_resistivity    .                                       : 
NGDU               .         НГДУ-2                        : 
ORIGINALWELLNAME   .         2938                          : 
Spud_date          .         1980                          : 1961
Viscosity          .                                       : 
X                  .m        42429.9                       : 46154
Y                  .m        83785.33                      : 85761.93
YEAR               .         2018г                         : 
~Parameter Information Block
#_______________________________________________________________________________
#
#PARAMETER_NAME    .UNIT     VALUE                         : DESCRIPTION
#_______________________________________________________________________________
SET                .         LQC_KAZNIPI_Petrel            : 
PBBOTTOM           .M        1160.2                        : Глубина подошвы планшета
PBSCALE            .         1 _ 500                       : Вертикальный масштаб планшета
PBTOP              .M        880                           : Глубина кровли планшета
TLFamily_CALI      .         Caliper                       : 
TLFamily_CILD      .         Conductivity                  : 
TLFamily_COLL      .         Net Reservoir Flag            : 
TLFamily_CSAT      .         Fluid Code                    : 
TLFamily_DEPT      .         Measured Depth                : 
TLFamily_GR        .         Russian Gamma Ray             : 
TLFamily_GZ1       .         Gradient 045                  : 
TLFamily_GZ2       .         Gradient 105                  : 
TLFamily_GZ3       .         Gradient 225                  : 
TLFamily_GZ4       .         Gradient 425                  : 
TLFamily_GZ5       .         Gradient 850                  : 
TLFamily_LLS       .         Lateral Log Resistivity       : 
TLFamily_MINV      .         Micro Gradient Resistivity    : 
TLFamily_MNOR      .         Micro Resistivity             : 
TLFamily_NGLD      .         Neutron Gamma                 : 
TLFamily_OGZ       .         Gradient Inverted 225         : 
TLFamily_PHIE      .         Effective Porosity            : 
TLFamily_PHIEN     .         Effective Porosity            : 
TLFamily_PHIT      .         Porosity                      : 
TLFamily_PRMB      .         Permeability                  : 
TLFamily_PRMB_DGR  .         Permeability                  : 
TLFamily_RT        .         Formation Resistivity         : 
TLFamily_SOIL_ARCHIE .         Oil Saturation                : 
TLFamily_SOIL_DW   .         Oil Saturation                : 
TLFamily_SP        .         Spontaneous Potential         : 
TLFamily_VSH_FIN   .         Shale Volume                  : 
TLFamily_VSH_GR    .         Shale Volume                  : 
TLFamily_VSH_SP    .         Shale Volume                  : 
~Curve Information
#_______________________________________________________________________________
#
#LOGNAME           .UNIT     LOG_ID                        : DESCRIPTION
#_______________________________________________________________________________
DEPT               .M                                      : Колонка глубины 
CALI               .м                                      : Каверномер 
CILD               .мСм/м                                  : Индукционный каротаж 
COLL               .unitless                               : Описание 
CSAT               .unitless                               : Описание 
GR                 .uR/h                                   : Гамма каротаж 
GZ1                .Ohmm                                   : Градиент-зонд  длиной 0.45м 
GZ2                .Ohmm                                   : Градиент-зонд  длиной 1.05м 
GZ3                .Ohmm                                   : Градиент-зонд  длиной 2.25м 
GZ4                .Ohmm                                   : Градиент-зонд  длиной 4.5м 
GZ5                .Ohmm                                   : Градиент-зонд  длиной 8.5м 
LLS                .Ohmm                                   : Боковой каротаж 
MINV               .Ohmm                                   : Микро-градиент зонд 
MNOR               .Ohmm                                   : Микро-потенциал зонд 
NGLD               .у.е.                                   : Показания зонда НГК-60 аппаратуры ДРСТ-3-90 
OGZ                .Ohmm                                   : Обращенный градиент-зонд 
PHIE               .v/v                                    : Описание 
PHIEN              .v/v                                    :  
PHIT               .v/v                                    : Описание 
PRMB               .mD                                     :  
PRMB_DGR           .mD                                     :  
RT                 .ohmm                                   : УЭС пласта 
SOIL_ARCHIE        .v/v                                    :  
SOIL_DW            .v/v                                    :  
SP                 .мВ                                     : Потенциал самополяризации 
VSH_FIN            .v/v                                    : Описание 
VSH_GR             .v/v                                    : Shale volume 
VSH_SP             .v/v                                    : Shale Volume 
~Ascii
# ...
1041.3     0.234      384.479    -9999      -9999      8.535      1.79       2.311      2.943      1.931      1.638      1.85       0.999      1.131      1.123      3.795      0.1849359  0.1849359  0.36735    7.457947   2.490002   2.601      0.3789968  0.587167   31.61      0.55277    0.4470258  0.6585141 
1041.4     0.232      390.057    -9999      -9999      8.636      1.808      2.307      2.957      1.979      1.643      1.832      1.111      1.149      1.121      3.88       0.1826087  0.1826087  0.36845    6.753283   2.259695   2.564      0.3678739  0.5829392  31.686     0.5631552  0.4650973  0.6612131 
1041.5     0.229      395.207    -9999      -9999      8.704      1.84       2.318      2.964      2.034      1.658      1.824      1.23       1.185      1.12       3.952      0.180513   0.180513   0.369      6.175857   2.116759   2.53       0.3574745  0.578674   31.783     0.5711727  0.4776741  0.6646711 
1041.6     0.225      399.841    -9999      -9999      8.726      1.882      2.338      2.962      2.088      1.68       1.83       1.34       1.235      1.119      4.019      0.1796112  0.1796112  0.36955    5.942831   2.07248    2.501      0.351165   0.5758171  31.913     0.5755722  0.4818153  0.6693291 
1041.7     0.22       403.782    -9999      -9999      8.705      1.929      2.36       2.952      2.14       1.707      1.851      1.443      1.292      1.119      4.092      0.1792638  0.1792638  0.36955    5.855416   2.114726   2.477      0.3471223  0.5734519  32.081     0.576625   0.4778615  0.6753887 
1041.8     0.215      406.816    -9999      -9999      8.651      1.976      2.38       2.931      2.185      1.736      1.892      1.565      1.352      1.119      4.174      0.1796746  0.1796746  0.36955    5.95893    2.227356   2.458      0.3460642  0.5721806  32.288     0.57538    0.4678428  0.6829171 
1041.9     0.211      409.057    -9999      -9999      8.574      2.017      2.398      2.899      2.222      1.764      1.949      1.747      1.415      1.12       4.264      0.180004   0.180004   0.369      6.043238   2.398411   2.445      0.3454798  0.57095    32.522     0.572715   0.4539193  0.6915107 
1042       0.208      408.699    -9999      -9999      8.476      2.052      2.417      2.858      2.25       1.789      2.018      2.008      1.487      1.123      4.353      0.1796791  0.1796791  0.36735    5.960074   2.63525    2.447      0.3447007  0.5696393  32.767     0.5686995  0.4367959  0.7006032 
1042.1     0.207      406.703    -9999      -9999      8.359      2.088      2.443      2.812      2.265      1.81       2.094      2.325      1.577      1.129      4.432      0.1781588  0.1781588  0.36405    5.585884   2.948823   2.459      0.3413468  0.5668864  33.002     0.5633066  0.4171967  0.7094166 
1042.2     0.206      403.474    -9999      -9999      8.227      2.138      2.478      2.767      2.269      1.826      2.171      2.63       1.683      1.139      4.495      0.1748401  0.1748401  0.35855    4.848652   3.347618   2.478      0.3328851  0.5613317  33.209     0.5566965  0.3961385  0.7172546 
1042.3     0.207      399.14     -9999      -9999      8.092      2.209      2.521      2.727      2.262      1.837      2.251      2.848      1.79       1.152      4.541      0.1700042  0.1700042  0.3514     3.94502    3.811316   2.505      0.3198552  0.5534793  33.377     0.5496842  0.3757006  0.7236678 
1042.4     0.208      393.844    -9999      -9999      7.973      2.295      2.569      2.694      2.246      1.844      2.334      2.934      1.879      1.169      4.573      0.1626199  0.1626199  0.34205    2.879215   4.273037   2.539      0.2974924  0.5413209  33.513     0.5437274  0.3585612  0.7288935 
1042.5     0.208      387.754    -9999      -9999      7.884      2.379      2.617      2.667      2.226      1.85       2.425      2.89       1.927      1.187      4.595      0.1540045  0.1540045  0.33215    1.993863   4.654562   2.579      0.2687683  0.5268577  33.63      0.5398347  0.3462557  0.7334137 
1042.6     0.209      381.097    -9999      -9999      7.833      2.436      2.663      2.643      2.206      1.858      2.52       2.751      1.929      1.208      4.615      0.1428626  0.1428626  0.3206     1.239711   4.888349   2.624      0.2256529  0.5067306  33.743     0.5385982  0.3393956  0.7378008 
1042.7     0.21       374.219    -9999      -9999      7.813      2.453      2.707      2.623      2.188      1.869      2.606      2.579      1.891      1.229      4.637      0.1310165  0.1310165  0.30905    0.7480001  4.983204   2.672      0.1720908  0.4834327  33.857     0.5394955  0.3367426  0.7422484 
1042.8     0.211      367.578    -9999      -9999      7.813      2.432      2.75       2.613      2.179      1.885      2.668      2.452      1.838      1.25       4.663      0.1187355  0.1187355  0.2975     0.443025   4.983204   2.721      0.1056482  0.4563547  33.97      0.5417105  0.3367426  0.7466784 
1042.9     0.212      361.64     -9999      -9999      7.815      2.387      2.794      2.621      2.181      1.908      2.693      2.445      1.802      1.268      4.695      0.1081356  0.1081356  0.2876     0.2818982  4.973639   2.765      0.03703559 0.4300158  34.071     0.5438314  0.337007   0.7506558 
1043       0.213      356.705    -9999      -9999      7.809      2.343      2.843      2.652      2.199      1.936      2.681      2.6        1.814      1.283      4.729      0.09952722 0.09952722 0.27935    0.1952737  5.002397   2.803      0          0.4059459  34.146     0.5449175  0.3362145  0.7536206 
1043.1     0.214      352.746    -9999      -9999      7.793      2.316      2.9        2.709      2.232      1.97       2.644      2.893      1.891      1.294      4.761      0.09354976 0.09354976 0.2733     0.1513305  5.079901   2.835      0          0.3877242  34.188     0.5446976  0.3341103  0.7552849 
1043.2     0.215      349.384    -9999      -9999      7.771      2.319      2.973      2.787      2.279      2.008      2.605      3.233      2.027      1.3        4.787      0.09070402 0.09070402 0.27       0.1340345  5.188436   2.862      0          0.3791539  34.191     0.5433213  0.3312385  0.755404  
1043.3     0.215      346.027    -9999      -9999      7.748      2.36       3.063      2.875      2.336      2.049      2.587      3.518      2.197      1.304      4.805      0.0892762  0.0892762  0.2678     0.1261159  5.304384   2.89       0          0.3754397  34.148     0.5409812  0.3282627  0.7536997 
1043.4     0.216      342.103    -9999      -9999      7.729      2.445      3.172      2.965      2.4        2.09       2.607      3.685      2.366      1.305      4.812      0.08975445 0.08975445 0.26725    0.1287147  5.40212    2.923      0          0.3792833  34.052     0.5378654  0.3258245  0.7499062 
1043.5     0.217      337.253    -9999      -9999      7.715      2.579      3.297      3.058      2.466      2.129      2.669      3.734      2.496      1.304      4.807      0.09160415 0.09160415 0.2678     0.1392801  5.475284   2.965      0          0.3888554  33.897     0.5339268  0.3240396  0.7438141 
1043.6     0.217      331.401    -9999      -9999      7.707      2.752      3.435      3.16       2.534      2.166      2.768      3.713      2.559      1.304      4.791      0.09319352 0.09319352 0.2678     0.1490487  5.51754    3.017      0          0.3977628  33.676     0.5291105  0.3230239  0.735197  
1043.7     0.217      324.693    -9999      -9999      7.701      2.947      3.584      3.278      2.603      2.2        2.834      3.676      2.548      1.306      4.762      0.0939947  0.0939947  0.2667     0.1542297  5.549442   3.08       0          0.4041431  33.397     0.5233494  0.3222644  0.7244344 
1043.8     0.218      317.382    -9999      -9999      7.689      3.137      3.738      3.414      2.673      2.231      2.899      3.654      2.477      1.311      4.72       0.09348021 0.09348021 0.26395    0.1508823  5.613805   3.151      0          0.4057737  33.081     0.5165752  0.3207506  0.7123997 
