~Version
 VERS              .         2.0                           : CWLS LOG ASCII STANDARD - VERSION 2.0
 WRAP              .         NO                            : ONE LINE PER DEPTH STEP
 DLM               .         SPACE                         : DELIMITING CHARACTER(SPACE TAB OR COMMA)
~Well Information
#_______________________________________________________________________________
#
#PARAMETER_NAME    .UNIT     VALUE                         : DESCRIPTION
#_______________________________________________________________________________
STRT               .M        880.1                         : First reference value
STOP               .M        1160.2                        : Last reference value
STEP               .M        0.1                           : Step increment
NULL               .         -9999                         : Missing value
COMP               .                                       : Company
WELL               .         2938                          : Well name
FLD                .         Узень                         : Field
LOC                .                                       : Location
CNTY               .                                       : County
STAT               .                                       : State
CTRY               .                                       : Country
SRVC               .         SCH                           : Service Company
DATE               .         04/21/2010                    : Date
UWI                .                                       : Unique Well ID
Block              .         7                             : 
Cartographic_reference_system .         GCS_WGS_1984                  : ESRI,PE_10_3_1- <?xml version="1.0" encoding="utf-16"?><ILateBoundCoordinateReferenceSystem name="GCS_WGS_1984"><AuthorityCode>EPSG,4326</AuthorityCode></ILateBoundCoordinateReferenceSystem>
Category           .         Нефтяная                      : 
Condition          .         В работе                      : 
Date               .         01.09.1980                    : 
EREF               .m        85.2                          : 100.8
Gorizont           .         15                            : 14
HZCS               .GCS_WGS_1984 WGS_1984_EASE-Grid_2.0_Global : ESRI,PE_10_3_1- <?xml version="1.0" encoding="utf-16"?><ILateBoundCoordinateReferenceSystem name="WGS_1984_EASE-Grid_2.0_Global"><AuthorityCode>EPSG,6933</AuthorityCode></ILateBoundCoordinateReferenceSystem>
Interpretator      .         Кушербаева А.С                : 
Kupol              .         основной                      : osnovnoi
LATI               .dega     0.6567763258                  : GCS_WGS_1984
LONG               .dega     0.4397506038                  : GCS_WGS_1984
Mud                .                                       : 
Mud_density        .                                       : 
Mud_resistivity    .                                       : 
NGDU               .         НГДУ-2                        : 
ORIGINALWELLNAME   .         2938                          : 
Spud_date          .         1980                          : 1961
Viscosity          .                                       : 
X                  .m        42429.9                       : 46154
Y                  .m        83785.33                      : 85761.93
YEAR               .         2018г                         : 
~Parameter Information Block
#_______________________________________________________________________________
#
#PARAMETER_NAME    .UNIT     VALUE                         : DESCRIPTION
#_______________________________________________________________________________
SET                .         LQC_KAZNIPI_Petrel            : 
PBBOTTOM           .M        1160.2                        : Глубина подошвы планшета
PBSCALE            .         1 _ 500                       : Вертикальный масштаб планшета
PBTOP              .M        880                           : Глубина кровли планшета
TLFamily_CALI      .         Caliper                       : 
TLFamily_CILD      .         Conductivity                  : 
TLFamily_COLL      .         Net Reservoir Flag            : 
TLFamily_CSAT      .         Fluid Code                    : 
TLFamily_DEPT      .         Measured Depth                : 
TLFamily_GR        .         Russian Gamma Ray             : 
TLFamily_GZ1       .         Gradient 045                  : 
TLFamily_GZ2       .         Gradient 105                  : 
TLFamily_GZ3       .         Gradient 225                  : 
TLFamily_GZ4       .         Gradient 425                  : 
TLFamily_GZ5       .         Gradient 850                  : 
TLFamily_LLS       .         Lateral Log Resistivity       : 
TLFamily_MINV      .         Micro Gradient Resistivity    : 
TLFamily_MNOR      .         Micro Resistivity             : 
TLFamily_NGLD      .         Neutron Gamma                 : 
TLFamily_OGZ       .         Gradient Inverted 225         : 
TLFamily_PHIE      .         Effective Porosity            : 
TLFamily_PHIEN     .         Effective Porosity            : 
TLFamily_PHIT      .         Porosity                      : 
TLFamily_PRMB      .         Permeability                  : 
TLFamily_PRMB_DGR  .         Permeability                  : 
TLFamily_RT        .         Formation Resistivity         : 
TLFamily_SOIL_ARCHIE .         Oil Saturation                : 
TLFamily_SOIL_DW   .         Oil Saturation                : 
TLFamily_SP        .         Spontaneous Potential         : 
TLFamily_VSH_FIN   .         Shale Volume                  : 
TLFamily_VSH_GR    .         Shale Volume                  : 
TLFamily_VSH_SP    .         Shale Volume                  : 
~Curve Information
#_______________________________________________________________________________
#
#LOGNAME           .UNIT     LOG_ID                        : DESCRIPTION
#_______________________________________________________________________________
DEPT               .M                                      : Колонка глубины 
CALI               .м                                      : Каверномер 
CILD               .мСм/м                                  : Индукционный каротаж 
COLL               .unitless                               : Описание 
CSAT               .unitless                               : Описание 
GR                 .uR/h                                   : Гамма каротаж 
GZ1                .Ohmm                                   : Градиент-зонд  длиной 0.45м 
GZ2                .Ohmm                                   : Градиент-зонд  длиной 1.05м 
GZ3                .Ohmm                                   : Градиент-зонд  длиной 2.25м 
GZ4                .Ohmm                                   : Градиент-зонд  длиной 4.5м 
GZ5                .Ohmm                                   : Градиент-зонд  длиной 8.5м 
LLS                .Ohmm                                   : Боковой каротаж 
MINV               .Ohmm                                   : Микро-градиент зонд 
MNOR               .Ohmm                                   : Микро-потенциал зонд 
NGLD               .у.е.                                   : Показания зонда НГК-60 аппаратуры ДРСТ-3-90 
OGZ                .Ohmm                                   : Обращенный градиент-зонд 
PHIE               .v/v                                    : Описание 
PHIEN              .v/v                                    :  
PHIT               .v/v                                    : Описание 
PRMB               .mD                                     :  
PRMB_DGR           .mD                                     :  
RT                 .ohmm                                   : УЭС пласта 
SOIL_ARCHIE        .v/v                                    :  
SOIL_DW            .v/v                                    :  
SP                 .мВ                                     : Потенциал самополяризации 
VSH_FIN            .v/v                                    : Описание 
VSH_GR             .v/v                                    : Shale volume 
VSH_SP             .v/v                                    : Shale Volume 
~Ascii
# ...
1077.7     0.211      281.696    -9999      -9999      8.431      4.904      5.452      7.093      7.534      6.227      7.945      3.354      3.603      1.322      10.809     0.1041585  0.1041585  0.2579     0.2379172  14.35026   3.55       0.1151826  0.453326   34.205     0.4658833  0.21864    0.7131267 
1077.8     0.211      270.835    -9999      -9999      8.461      5.365      5.824      6.758      7.837      6.498      9.283      3.121      3.523      1.339      10.268     0.09531687 0.09531687 0.24855    0.1631766  13.45424   3.692      0.06154415 0.4332606  33.992     0.4643428  0.2244726  0.7042131 
1077.9     0.211      259.696    -9999      -9999      8.485      5.637      6.082      6.376      7.996      6.618      10.719     2.943      3.288      1.353      9.759001   0.0886915  0.0886915  0.24085    0.1230098  12.77792   3.851      0.02034995 0.4189865  33.719     0.4610863  0.2292501  0.6929225 
1078       0.211      248.786    -9999      -9999      8.488      5.661      6.169      5.965      7.978      6.552      12.166     2.86       2.949      1.366      9.347      0.08357414 0.08357414 0.2337     0.09889033 12.6958    4.02       0          0.4078323  33.402     0.4549268  0.2298545  0.679999  
1078.1     0.211      238.849    -9999      -9999      8.47       5.436      6.075      5.548      7.766      6.289999   13.446     2.882      2.586      1.376      9.083      0.08087304 0.08087304 0.2282     0.08812984 13.19652   4.187      0          0.4038866  33.069     0.4464453  0.2262524  0.6666381 
1078.2     0.211      230.854    -9999      -9999      8.452      5.019      5.842      5.153      7.368      5.851      14.291     2.989      2.283      1.385      8.98       0.07857975 0.07857975 0.22325    0.07991821 13.71702   4.332      0          0.3995162  32.751     0.4383947  0.2227065  0.6540828 
1078.3     0.212      225.77     -9999      -9999      8.469      4.497      5.545      4.807      6.819      5.282      14.414     3.138      2.098      1.391      9.018      0.07650539 0.07650539 0.21995    0.07315155 13.22492   4.429      0          0.394713   32.474     0.4346806  0.2260538  0.6433073 
1078.4     0.212      224.224    -9999      -9999      8.547      3.967      5.257      4.531      6.171      4.647999   13.646     3.276      2.047      1.395      9.167      0.07312059 0.07312059 0.21775    0.06331824 11.1839    4.46       0          0.3832352  32.244     0.438271   0.2420686  0.6344733 
1078.5     0.212      226.164    -9999      -9999      8.695      3.506      5.027      4.335      5.486      4.011      12.052     3.359      2.104      1.394      9.414      0.06937882 0.06937882 0.2183     0.05397867 8.136928   4.422      0          0.3703969  32.045     0.4512762  0.2756403  0.6269121 
1078.6     0.212      230.825    -9999      -9999      8.899      3.165      4.864      4.216001   4.823      3.423      9.964      3.373      2.224      1.39       9.773      0.06392246 0.06392246 0.2205     0.04277176 5.248806   4.332      0          0.3505811  31.842     0.4744774  0.3296776  0.6192772 
1078.7     0.212      236.908    -9999      -9999      9.131      2.96       4.752      4.168      4.227      2.915      7.843      3.337      2.357      1.382      10.276     0.05750045 0.05750045 0.2249     0.03252415 3.188072   4.221      0          0.3283378  31.604     0.5072714  0.4041167  0.6104261 
1078.8     0.212      242.932    -9999      -9999      9.36       2.877      4.666999   4.19       3.729      2.501      6.092      3.294      2.464      1.37       10.949     0.05100912 0.05100912 0.2315     0.02465873 1.948925   4.116      0          0.3084516  31.315     0.5469421  0.4940616  0.5998225 
1078.9     0.212      247.587    -9999      -9999      9.558      2.884      4.586      4.283      3.339      2.182      4.907      3.277      2.525      1.356      11.805     0.04517047 0.04517047 0.2392     0.01922316 1.273491   4.039      0          0.2936935  30.991     0.5879683  0.5878153  0.5881214 
1079       0.212      250.071    -9999      -9999      9.712      2.944      4.498      4.446      3.05       1.95       4.269      3.284      2.536      1.341      12.826     0.04129042 0.04129042 0.24745    0.01629134 0.9146658  3.999      0          0.2904721  30.666     0.6247261  0.6728713  0.5765808 
1079.1     0.212      250.341    -9999      -9999      9.814      3.02       4.401      4.67       2.845      1.79       4.034      3.291      2.505      1.328      13.965     0.03970493 0.03970493 0.2546     0.01522614 0.7346195  3.995      0          0.2978727  30.378     0.6511973  0.7358772  0.5665173 
1079.2     0.212      249.11     -9999      -9999      9.865      3.085      4.302      4.931001   2.7        1.681      4.043      3.281      2.446      1.318      15.144     0.04089895 0.04089895 0.2601     0.0160216  0.6583589  4.014      0          0.3157903  30.158     0.6642457  0.7695588  0.5589324 
1079.3     0.212      247.514    -9999      -9999      9.871      3.112      4.208      5.206      2.596      1.609      4.173      3.277      2.37       1.311      16.272     0.04485615 0.04485615 0.26395    0.01896718 0.6499236  4.04       0          0.3413967  30.02      0.6639208  0.7736218  0.5542197 
1079.4     0.212      246.58     -9999      -9999      9.837      3.086      4.123      5.48       2.52       1.563      4.344      3.323      2.288      1.309      17.294     0.0500168  0.0500168  0.26505    0.0236369  0.699191   4.055      0          0.3637129  29.965     0.6516157  0.7508804  0.5523511 
1079.5     0.212      246.813    -9999      -9999      9.773      3.005      4.05       5.760001   2.466      1.538      4.507      3.455      2.216      1.308      18.218     0.0572213  0.0572213  0.2656     0.03213922 0.8022859  4.052      0          0.3884425  29.985     0.6314507  0.7098714  0.5530299 
1079.6     0.212      248.112    -9999      -9999      9.687      2.885      3.995      6.071      2.432      1.536      4.645      3.667      2.18       1.307      19.119     0.06584741 0.06584741 0.26615    0.04643141 0.965151   4.03       0          0.4131414  30.063     0.6069775  0.6582705  0.5556844 
1079.7     0.212      249.948    -9999      -9999      9.585      2.757      3.965      6.439001   2.423      1.559      4.761      3.921      2.219      1.305      20.081     0.07568853 0.07568853 0.26725    0.07064691 1.201698   4.001      0          0.4381793  30.162     0.5804894  0.6019093  0.5590695 
1079.8     0.212      251.581    -9999      -9999      9.473      2.658      3.971      6.868001   2.441      1.611      4.866      4.169      2.363      1.302      21.142     0.08630668 0.08630668 0.2689     0.1111136  1.528723   3.975      0.011624   0.4627014  30.22      0.553313   0.545565   0.561061  
1079.9     0.212      252.216    -9999      -9999      9.362      2.62       4.025      7.331      2.487      1.692      4.971      4.389      2.622      1.3        22.265     0.0961806  0.0961806  0.27       0.1692997  1.940564   3.965      0.09954249 0.4831968  30.146     0.5267255  0.4949298  0.5585212 
1080       0.212      251.13     -9999      -9999      9.266      2.656      4.132      7.78       2.56       1.806      5.082      4.583      2.979      1.3        23.348     0.1044216  0.1044216  0.27       0.2406021  2.385219   3.982      0.1634425  0.499166   29.853     0.5017528  0.4549428  0.5485628 
1080.1     0.211      247.874    -9999      -9999      9.195      2.766      4.292      8.170001   2.656      1.957      5.206      4.764      3.384      1.303      24.267     0.1103969  0.1103969  0.26835    0.3104387  2.7784     4.034      0.2078565  0.5104485  29.289     0.4786459  0.4274624  0.5298294 
1080.2     0.211      242.438    -9999      -9999      9.152      2.934      4.502      8.469      2.773      2.15       5.362      4.926      3.775      1.307      24.923     0.1150642  0.1150642  0.26615    0.3788147  3.047386   4.125      0.243873   0.5207253  28.483     0.4578356  0.4116333  0.5040379 
