~Version
 VERS              .         2.0                           : CWLS LOG ASCII STANDARD - VERSION 2.0
 WRAP              .         NO                            : ONE LINE PER DEPTH STEP
 DLM               .         SPACE                         : DELIMITING CHARACTER(SPACE TAB OR COMMA)
~Well Information
#_______________________________________________________________________________
#
#PARAMETER_NAME    .UNIT     VALUE                         : DESCRIPTION
#_______________________________________________________________________________
STRT               .M        880.1                         : First reference value
STOP               .M        1160.2                        : Last reference value
STEP               .M        0.1                           : Step increment
NULL               .         -9999                         : Missing value
COMP               .                                       : Company
WELL               .         2938                          : Well name
FLD                .         Узень                         : Field
LOC                .                                       : Location
CNTY               .                                       : County
STAT               .                                       : State
CTRY               .                                       : Country
SRVC               .         SCH                           : Service Company
DATE               .         04/21/2010                    : Date
UWI                .                                       : Unique Well ID
Block              .         7                             : 
Cartographic_reference_system .         GCS_WGS_1984                  : ESRI,PE_10_3_1- <?xml version="1.0" encoding="utf-16"?><ILateBoundCoordinateReferenceSystem name="GCS_WGS_1984"><AuthorityCode>EPSG,4326</AuthorityCode></ILateBoundCoordinateReferenceSystem>
Category           .         Нефтяная                      : 
Condition          .         В работе                      : 
Date               .         01.09.1980                    : 
EREF               .m        85.2                          : 100.8
Gorizont           .         15                            : 14
HZCS               .GCS_WGS_1984 WGS_1984_EASE-Grid_2.0_Global : ESRI,PE_10_3_1- <?xml version="1.0" encoding="utf-16"?><ILateBoundCoordinateReferenceSystem name="WGS_1984_EASE-Grid_2.0_Global"><AuthorityCode>EPSG,6933</AuthorityCode></ILateBoundCoordinateReferenceSystem>
Interpretator      .         Кушербаева А.С                : 
Kupol              .         основной                      : osnovnoi
LATI               .dega     0.6567763258                  : GCS_WGS_1984
LONG               .dega     0.4397506038                  : GCS_WGS_1984
Mud                .                                       : 
Mud_density        .                                       : 
Mud_resistivity    .                                       : 
NGDU               .         НГДУ-2                        : 
ORIGINALWELLNAME   .         2938                          : 
Spud_date          .         1980                          : 1961
Viscosity          .                                       : 
X                  .m        42429.9                       : 46154
Y                  .m        83785.33                      : 85761.93
YEAR               .         2018г                         : 
~Parameter Information Block
#_______________________________________________________________________________
#
#PARAMETER_NAME    .UNIT     VALUE                         : DESCRIPTION
#_______________________________________________________________________________
SET                .         LQC_KAZNIPI_Petrel            : 
PBBOTTOM           .M        1160.2                        : Глубина подошвы планшета
PBSCALE            .         1 _ 500                       : Вертикальный масштаб планшета
PBTOP              .M        880                           : Глубина кровли планшета
TLFamily_CALI      .         Caliper                       : 
TLFamily_CILD      .         Conductivity                  : 
TLFamily_COLL      .         Net Reservoir Flag            : 
TLFamily_CSAT      .         Fluid Code                    : 
TLFamily_DEPT      .         Measured Depth                : 
TLFamily_GR        .         Russian Gamma Ray             : 
TLFamily_GZ1       .         Gradient 045                  : 
TLFamily_GZ2       .         Gradient 105                  : 
TLFamily_GZ3       .         Gradient 225                  : 
TLFamily_GZ4       .         Gradient 425                  : 
TLFamily_GZ5       .         Gradient 850                  : 
TLFamily_LLS       .         Lateral Log Resistivity       : 
TLFamily_MINV      .         Micro Gradient Resistivity    : 
TLFamily_MNOR      .         Micro Resistivity             : 
TLFamily_NGLD      .         Neutron Gamma                 : 
TLFamily_OGZ       .         Gradient Inverted 225         : 
TLFamily_PHIE      .         Effective Porosity            : 
TLFamily_PHIEN     .         Effective Porosity            : 
TLFamily_PHIT      .         Porosity                      : 
TLFamily_PRMB      .         Permeability                  : 
TLFamily_PRMB_DGR  .         Permeability                  : 
TLFamily_RT        .         Formation Resistivity         : 
TLFamily_SOIL_ARCHIE .         Oil Saturation                : 
TLFamily_SOIL_DW   .         Oil Saturation                : 
TLFamily_SP        .         Spontaneous Potential         : 
TLFamily_VSH_FIN   .         Shale Volume                  : 
TLFamily_VSH_GR    .         Shale Volume                  : 
TLFamily_VSH_SP    .         Shale Volume                  : 
~Curve Information
#_______________________________________________________________________________
#
#LOGNAME           .UNIT     LOG_ID                        : DESCRIPTION
#_______________________________________________________________________________
DEPT               .M                                      : Колонка глубины 
CALI               .м                                      : Каверномер 
CILD               .мСм/м                                  : Индукционный каротаж 
COLL               .unitless                               : Описание 
CSAT               .unitless                               : Описание 
GR                 .uR/h                                   : Гамма каротаж 
GZ1                .Ohmm                                   : Градиент-зонд  длиной 0.45м 
GZ2                .Ohmm                                   : Градиент-зонд  длиной 1.05м 
GZ3                .Ohmm                                   : Градиент-зонд  длиной 2.25м 
GZ4                .Ohmm                                   : Градиент-зонд  длиной 4.5м 
GZ5                .Ohmm                                   : Градиент-зонд  длиной 8.5м 
LLS                .Ohmm                                   : Боковой каротаж 
MINV               .Ohmm                                   : Микро-градиент зонд 
MNOR               .Ohmm                                   : Микро-потенциал зонд 
NGLD               .у.е.                                   : Показания зонда НГК-60 аппаратуры ДРСТ-3-90 
OGZ                .Ohmm                                   : Обращенный градиент-зонд 
PHIE               .v/v                                    : Описание 
PHIEN              .v/v                                    :  
PHIT               .v/v                                    : Описание 
PRMB               .mD                                     :  
PRMB_DGR           .mD                                     :  
RT                 .ohmm                                   : УЭС пласта 
SOIL_ARCHIE        .v/v                                    :  
SOIL_DW            .v/v                                    :  
SP                 .мВ                                     : Потенциал самополяризации 
VSH_FIN            .v/v                                    : Описание 
VSH_GR             .v/v                                    : Shale volume 
VSH_SP             .v/v                                    : Shale Volume 
~Ascii
# ...
1132.3     0.244      528.821    -9999      -9999      9.897      1.66       1.647      2.18       2.199      1.152      1.611      2.206      1.117      1.163      2.263      0.1047153  0.1047153  0.34535    0.2436345  0.6146044  1.891      0          0.3816951  33.076     0.7291962  0.7914757  0.6669167 
1132.4     0.245      527.855    -9999      -9999      9.883      1.668      1.649      2.157      2.148      1.162      1.636      2.191      1.142      1.159      2.293      0.10764    0.10764    0.34755    0.2760016  0.6333771  1.894      0          0.3904443  33.208     0.727      0.7818115  0.6721885 
1132.5     0.246      527.041    -9999      -9999      9.883      1.676      1.65       2.13       2.094      1.173      1.657      2.184      1.164      1.154      2.325      0.1097405  0.1097405  0.3503     0.301869   0.6333771  1.897      0          0.3980353  33.306     0.7289681  0.7818115  0.6761247 
1132.6     0.246      526.457    -9999      -9999      9.88       1.682      1.651      2.1        2.045      1.185      1.667      2.186      1.172      1.149      2.364      0.1123905  0.1123905  0.35305    0.3379892  0.6374739  1.899      0          0.406273   33.372     0.7292711  0.7797558  0.6787863 
1132.7     0.247      526.171    -9999      -9999      9.858      1.689      1.651      2.07       1.998      1.197      1.665      2.184      1.16       1.143      2.412      0.1178504  0.1178504  0.35635    0.4266123  0.6683381  1.901      0          0.4196896  33.417     0.722726   0.7648461  0.6806059 
1132.8     0.247      526.219    -9999      -9999      9.814      1.695      1.651      2.042      1.951      1.209      1.653      2.166      1.132      1.136      2.469      0.1262396  0.1262396  0.3602     0.6101286  0.7346195  1.9        0          0.4371792  33.453     0.7089709  0.7358772  0.6820646 
1132.9     0.248      526.589    -9999      -9999      9.757      1.702      1.651      2.02       1.899      1.218      1.634      2.126      1.098      1.128      2.536      0.1363694  0.1363694  0.3646     0.9398322  0.8303521  1.899      0.06150241 0.4564574  33.482     0.6916078  0.6999741  0.6832415 
1133       0.249      527.212    -9999      -9999      9.701      1.708      1.651      2.006      1.84       1.224      1.615      2.071      1.073      1.119      2.609      0.1467104  0.1467104  0.36955    1.4608     0.9365453  1.897      0.1189503  0.4748338  33.504     0.6752716  0.6664076  0.6841355 
1133.1     0.249      527.973    -9999      -9999      9.656      1.714      1.651      1.998      1.774      1.226      1.6        2.018      1.065      1.108      2.685      0.1569508  0.1569508  0.3756     2.260829   1.031641   1.894      0.1686158  0.4924674  33.514     0.6625733  0.6406044  0.6845421 
1133.2     0.248      528.734    -9999      -9999      9.629      1.721      1.651      1.994      1.705      1.224      1.59       1.984      1.077      1.096      2.76       0.1660326  0.1660326  0.3822     3.330305   1.093274   1.891      0.2077765  0.5079477  33.513     0.6550529  0.6256044  0.6845015 
1133.3     0.247      529.357    -9999      -9999      9.618      1.727      1.652      1.991      1.641      1.219      1.588      1.972      1.1        1.086      2.832      0.1725845  0.1725845  0.3877     4.40395    1.119426   1.889      0.2336558  0.5190659  33.504     0.6518651  0.6195947  0.6841355 
1133.4     0.245      529.727    -9999      -9999      9.622      1.734      1.653      1.986      1.587      1.211      1.59       1.975      1.122      1.079      2.9        0.1761488  0.1761488  0.39155    5.126982   1.109845   1.888      0.2469921  0.5255473  33.493     0.6527308  0.6217732  0.6836883 
1133.5     0.244      529.77     -9999      -9999      9.636      1.74       1.655      1.98       1.546      1.203      1.596      1.977      1.137      1.074      2.971      0.1777379  0.1777379  0.3943     5.486492   1.076951   1.888      0.2528588  0.5292061  33.477     0.6562489  0.6294591  0.6830385 
1133.6     0.244      529.447    -9999      -9999      9.655      1.746      1.659      1.97       1.518      1.197      1.602      1.961      1.14       1.074      3.054      0.2092584  0.2092584  0.3943     21.04417   3.203192   1.889      0.3610636  0.5636973  33.45      0.5607321  0.4033367  0.7181274 
1133.7     0.245      528.716    -9999      -9999      9.669      1.753      1.664      1.956      1.502      1.196      1.609      1.922      1.137      1.076      3.156      0.2083163  0.2083163  0.3932     20.21539   3.153385   1.891      0.3588662  0.5624132  33.394     0.5602536  0.405926   0.7145811 
1133.8     0.247      527.489    -9999      -9999      9.67       1.759      1.668      1.937      1.494      1.199      1.616      1.876      1.135      1.081      3.276      0.2067196  0.2067196  0.39045    18.88457   3.149857   1.896      0.3553545  0.5597959  33.28      0.5567588  0.4061116  0.7074059 
1133.9     0.25       525.616    -9999      -9999      9.65       1.766      1.672      1.913      1.491      1.208      1.624      1.858      1.147      1.088      3.408      0.2055431  0.2055431  0.3866     17.96032   3.221172   1.903      0.3532612  0.5569616  33.079     0.5486573  0.4024159  0.6948987 
1134       0.251      522.959    -9999      -9999      9.611      1.772      1.674      1.885      1.488      1.223      1.636      1.903      1.185      1.098      3.541      0.2043999  0.2043999  0.3811     17.10567   3.364907   1.912      0.3515494  0.5531662  32.763     0.5354548  0.3953061  0.6756035 
1134.1     0.253      519.479    -9999      -9999      9.561      1.779      1.675      1.856      1.485      1.242      1.654      2.016      1.255      1.109      3.667      0.2041347  0.2041347  0.37505    16.91328   3.558608   1.925      0.3528767  0.550108   32.323     0.5179253  0.3863741  0.6494764 
1134.2     0.255      515.276    -9999      -9999      9.518      1.786      1.676      1.827      1.478      1.263      1.674      2.161      1.35       1.12       3.778      0.204453   0.204453   0.369      17.14444   3.734087   1.941      0.3562595  0.5478172  31.78      0.4986273  0.3788542  0.6184005 
1134.3     0.255      510.514    -9999      -9999      9.491      1.794      1.675      1.801      1.467      1.286      1.697      2.274      1.449      1.13       3.873      0.2051077  0.2051077  0.3635     17.62992   3.848665   1.959      0.3608243  0.5463797  31.184     0.4799767  0.3742076  0.5857458 
1134.4     0.254      505.317    -9999      -9999      9.48       1.803      1.674      1.777      1.451      1.307      1.718      2.31       1.533      1.14       3.955      0.205001   0.205001   0.358      17.54985   3.89635    1.979      0.3635752  0.5444231  30.595     0.4636335  0.3723307  0.5549362 
1134.5     0.252      499.71     1          2          9.469      1.812      1.676      1.755      1.429      1.325      1.739      2.281      1.595      1.149      4.034      0.202718   0.202718   0.35305    15.9216    3.944622   2.001      0.3606628  0.5410811  30.312     0.4555515  0.3704634  0.5406396 
1134.6     0.25       493.666    1          2          9.444      1.821      1.688      1.737      1.403      1.34       1.763      2.247      1.648      1.158      4.119      0.2008405  0.2008405  0.3481     14.69643   4.056566   2.026      0.3592052  0.5383242  30.02      0.4462408  0.3662543  0.5262273 
1134.7     0.246      487.167    1          2          9.398      1.832      1.721      1.723      1.374      1.354      1.794      2.273      1.713      1.167      4.214      0.200796   0.200796   0.34315    14.66853   4.270919   2.053      0.3630506  0.5373704  29.558     0.4313758  0.3586338  0.5041177 
1134.8     0.243      480.241    1          2          9.332      1.848      1.786      1.72       1.348      1.372      1.838      2.378      1.805      1.177      4.317      0.2002513  0.2002513  0.33765    14.33168   4.5984     2.082      0.3657306  0.5356305  29.138     0.4163598  0.3479764  0.4847432 
