~Version
 VERS              .         2.0                           : CWLS LOG ASCII STANDARD - VERSION 2.0
 WRAP              .         NO                            : ONE LINE PER DEPTH STEP
 DLM               .         SPACE                         : DELIMITING CHARACTER(SPACE TAB OR COMMA)
~Well Information
#_______________________________________________________________________________
#
#PARAMETER_NAME    .UNIT     VALUE                         : DESCRIPTION
#_______________________________________________________________________________
STRT               .M        880.1                         : First reference value
STOP               .M        1160.2                        : Last reference value
STEP               .M        0.1                           : Step increment
NULL               .         -9999                         : Missing value
COMP               .                                       : Company
WELL               .         2938                          : Well name
FLD                .         Узень                         : Field
LOC                .                                       : Location
CNTY               .                                       : County
STAT               .                                       : State
CTRY               .                                       : Country
SRVC               .         SCH                           : Service Company
DATE               .         04/21/2010                    : Date
UWI                .                                       : Unique Well ID
Block              .         7                             : 
Cartographic_reference_system .         GCS_WGS_1984                  : ESRI,PE_10_3_1- <?xml version="1.0" encoding="utf-16"?><ILateBoundCoordinateReferenceSystem name="GCS_WGS_1984"><AuthorityCode>EPSG,4326</AuthorityCode></ILateBoundCoordinateReferenceSystem>
Category           .         Нефтяная                      : 
Condition          .         В работе                      : 
Date               .         01.09.1980                    : 
EREF               .m        85.2                          : 100.8
Gorizont           .         15                            : 14
HZCS               .GCS_WGS_1984 WGS_1984_EASE-Grid_2.0_Global : ESRI,PE_10_3_1- <?xml version="1.0" encoding="utf-16"?><ILateBoundCoordinateReferenceSystem name="WGS_1984_EASE-Grid_2.0_Global"><AuthorityCode>EPSG,6933</AuthorityCode></ILateBoundCoordinateReferenceSystem>
Interpretator      .         Кушербаева А.С                : 
Kupol              .         основной                      : osnovnoi
LATI               .dega     0.6567763258                  : GCS_WGS_1984
LONG               .dega     0.4397506038                  : GCS_WGS_1984
Mud                .                                       : 
Mud_density        .                                       : 
Mud_resistivity    .                                       : 
NGDU               .         НГДУ-2                        : 
ORIGINALWELLNAME   .         2938                          : 
Spud_date          .         1980                          : 1961
Viscosity          .                                       : 
X                  .m        42429.9                       : 46154
Y                  .m        83785.33                      : 85761.93
YEAR               .         2018г                         : 
~Parameter Information Block
#_______________________________________________________________________________
#
#PARAMETER_NAME    .UNIT     VALUE                         : DESCRIPTION
#_______________________________________________________________________________
SET                .         LQC_KAZNIPI_Petrel            : 
PBBOTTOM           .M        1160.2                        : Глубина подошвы планшета
PBSCALE            .         1 _ 500                       : Вертикальный масштаб планшета
PBTOP              .M        880                           : Глубина кровли планшета
TLFamily_CALI      .         Caliper                       : 
TLFamily_CILD      .         Conductivity                  : 
TLFamily_COLL      .         Net Reservoir Flag            : 
TLFamily_CSAT      .         Fluid Code                    : 
TLFamily_DEPT      .         Measured Depth                : 
TLFamily_GR        .         Russian Gamma Ray             : 
TLFamily_GZ1       .         Gradient 045                  : 
TLFamily_GZ2       .         Gradient 105                  : 
TLFamily_GZ3       .         Gradient 225                  : 
TLFamily_GZ4       .         Gradient 425                  : 
TLFamily_GZ5       .         Gradient 850                  : 
TLFamily_LLS       .         Lateral Log Resistivity       : 
TLFamily_MINV      .         Micro Gradient Resistivity    : 
TLFamily_MNOR      .         Micro Resistivity             : 
TLFamily_NGLD      .         Neutron Gamma                 : 
TLFamily_OGZ       .         Gradient Inverted 225         : 
TLFamily_PHIE      .         Effective Porosity            : 
TLFamily_PHIEN     .         Effective Porosity            : 
TLFamily_PHIT      .         Porosity                      : 
TLFamily_PRMB      .         Permeability                  : 
TLFamily_PRMB_DGR  .         Permeability                  : 
TLFamily_RT        .         Formation Resistivity         : 
TLFamily_SOIL_ARCHIE .         Oil Saturation                : 
TLFamily_SOIL_DW   .         Oil Saturation                : 
TLFamily_SP        .         Spontaneous Potential         : 
TLFamily_VSH_FIN   .         Shale Volume                  : 
TLFamily_VSH_GR    .         Shale Volume                  : 
TLFamily_VSH_SP    .         Shale Volume                  : 
~Curve Information
#_______________________________________________________________________________
#
#LOGNAME           .UNIT     LOG_ID                        : DESCRIPTION
#_______________________________________________________________________________
DEPT               .M                                      : Колонка глубины 
CALI               .м                                      : Каверномер 
CILD               .мСм/м                                  : Индукционный каротаж 
COLL               .unitless                               : Описание 
CSAT               .unitless                               : Описание 
GR                 .uR/h                                   : Гамма каротаж 
GZ1                .Ohmm                                   : Градиент-зонд  длиной 0.45м 
GZ2                .Ohmm                                   : Градиент-зонд  длиной 1.05м 
GZ3                .Ohmm                                   : Градиент-зонд  длиной 2.25м 
GZ4                .Ohmm                                   : Градиент-зонд  длиной 4.5м 
GZ5                .Ohmm                                   : Градиент-зонд  длиной 8.5м 
LLS                .Ohmm                                   : Боковой каротаж 
MINV               .Ohmm                                   : Микро-градиент зонд 
MNOR               .Ohmm                                   : Микро-потенциал зонд 
NGLD               .у.е.                                   : Показания зонда НГК-60 аппаратуры ДРСТ-3-90 
OGZ                .Ohmm                                   : Обращенный градиент-зонд 
PHIE               .v/v                                    : Описание 
PHIEN              .v/v                                    :  
PHIT               .v/v                                    : Описание 
PRMB               .mD                                     :  
PRMB_DGR           .mD                                     :  
RT                 .ohmm                                   : УЭС пласта 
SOIL_ARCHIE        .v/v                                    :  
SOIL_DW            .v/v                                    :  
SP                 .мВ                                     : Потенциал самополяризации 
VSH_FIN            .v/v                                    : Описание 
VSH_GR             .v/v                                    : Shale volume 
VSH_SP             .v/v                                    : Shale Volume 
~Ascii
# ...
1095.9     0.214      34.145     1          2          8.657      7.552999   19.716     46.27801   32.349     24.263     38.082     3.919      3.382      1.253      30.635     0.2191521  0.2191521  0.29585    32.0913    8.829317   29.286     0.8280336  0.8691471  13.126     0.2324177  0.2666003  0.1982352 
1096       0.214      35.168     8          2          8.733      7.415999   19.847     44.953     32.681     23.946     35.391     3.886      3.547      1.258      29.457     0.2127984  0.2127984  0.2931     24.47376   7.498835   28.435     0.8211117  0.864836   13.45      0.2433381  0.284987   0.2016893 
1096.1     0.214      36.769     8          2          8.808      7.290999   19.807     43.833     32.854     23.555     32.259     3.758      3.648      1.263      28.332     0.2062607  0.2062607  0.29035    18.5185    6.382548   27.196     0.8122999  0.8592206  13.775     0.2548162  0.3043745  0.205258  
1096.2     0.214      38.727     8          2          8.882      7.191      19.622     42.999     32.911     23.131     29.149     3.599      3.66       1.268      27.295     0.1995764  0.1995764  0.2876     13.92509   5.444114   25.821     0.8020759  0.8527255  14.078     0.2667381  0.3247959  0.2086803 
1096.3     0.214      40.737     8          2          8.953      7.125      19.343     42.474     32.921     22.726     26.463     3.467      3.598      1.272      26.373     0.1934363  0.1934363  0.2854     10.71688   4.673698   24.547     0.7917282  0.8463095  14.337     0.2786778  0.3456761  0.2116795 
1096.4     0.214      42.526     8          2          9.011      7.096      19.028     42.24001   32.958     22.384     24.498     3.372      3.497      1.277      25.573     0.1873419  0.1873419  0.28265    8.26388    4.125986   23.515     0.7814791  0.839993   14.525     0.2888126  0.3637254  0.2138998 
1096.5     0.214      43.941     8          2          9.045      7.101      18.731     42.259     33.088     22.131     23.431     3.286      3.393      1.284      24.873     0.1814888  0.1814888  0.2788     6.438283   3.835255   22.758     0.7718776  0.8338938  14.619     0.2948825  0.3747413  0.2150237 
1096.6     0.214      44.955     8          2          9.046      7.132999   18.489     42.497     33.354     21.973     23.282     3.183      3.311      1.291      24.214     0.1776122  0.1776122  0.27495    5.45717    3.827026   22.244     0.765042   0.8291008  14.605     0.2949629  0.3750701  0.2148557 
1096.7     0.214      45.606     8          2          9.02       7.182      18.324     42.925     33.772     21.898     23.891     3.071      3.254      1.297      23.538     0.17596    0.17596    0.27165    5.085861   4.046942   21.927     0.7615208  0.8259716  14.477     0.2899696  0.3666097  0.2133295 
1096.8     0.214      45.936     8          2          8.984      7.239999   18.247     43.506     34.331     21.886     24.975     2.987      3.215      1.301      22.824     0.1760886  0.1760886  0.26945    5.113822   4.372474   21.769     0.7608622  0.8245477  14.246     0.2829134  0.3552089  0.2106179 
1096.9     0.214      45.857     8          2          8.957      7.3        18.261     44.188     35         21.918     26.223     2.961      3.187      1.302      22.108     0.1774916  0.1774916  0.2689     5.42916    4.633696   21.807     0.7627037  0.8250538  13.939     0.2769952  0.3468915  0.2070988 
1097       0.214      45.373     8          2          8.95       7.355999   18.364     44.909     35.739     21.979     27.444     2.988      3.166      1.3        21.45      0.1795741  0.1795741  0.27       5.933441   4.703931   22.039     0.766266   0.8272207  13.595     0.2740179  0.3447672  0.2032685 
1097.1     0.214      45         8          2          8.96       7.405      18.55      45.607     36.503     22.053     28.597     3.03       3.144      1.295      20.897     0.1824196  0.1824196  0.27275    6.699012   4.603917   22.222     0.7703375  0.8300563  13.26      0.2737287  0.347806   0.1996513 
1097.2     0.214      44.778     8          2          8.976      7.442      18.81      46.235     37.244     22.121     29.767     3.054      3.115      1.288      20.466     0.1859431  0.1859431  0.2766     7.78529    4.448302   22.332     0.7746553  0.8331838  12.98      0.274718   0.3527238  0.1967121 
1097.3     0.214      44.803     8          2          8.997      7.465      19.126     46.753     37.912     22.167     31.02      3.054      3.076      1.279      20.141     0.1901544  0.1901544  0.28155    9.317061   4.252011   22.32      0.7789524  0.8363844  12.777     0.2769563  0.3592842  0.1946284 
1097.4     0.214      45.106     8          2          9.025      7.474      19.477     47.134     38.453     22.171     32.282     3.064      3.034      1.27       19.893     0.1938184  0.1938184  0.2865     10.89292   4.003698   22.17      0.7819073  0.8387775  12.664     0.2808535  0.3682215  0.1934855 
1097.5     0.214      45.678     8          2          9.073      7.467999   19.829     47.356     38.819     22.12      33.294     3.123      3.007      1.261      19.686     0.1962009  0.1962009  0.29145    12.05798   3.611279   21.892     0.7829342  0.8401919  12.636     0.2886336  0.3840631  0.1932041 
1097.6     0.214      46.501     8          2          9.141      7.451      20.141     47.395     38.984     22.008     33.7       3.245      3.018      1.255      19.484     0.1954296  0.1954296  0.29475    11.6678    3.120287   21.505     0.7803577  0.8395737  12.741     0.3009708  0.4076787  0.194263  
1097.7     0.214      47.554     8          2          9.22       7.423      20.367     47.22001   38.953     21.833     33.224     3.415      3.071      1.252      19.261     0.1918399  0.1918399  0.2964     10.01148   2.633061   21.029     0.7744254  0.8370812  12.984     0.3168488  0.4369441  0.1967536 
1097.8     0.214      48.795     8          2          9.289      7.386001   20.474     46.798     38.764     21.591     31.811     3.592      3.151      1.253      19.007     0.1863571  0.1863571  0.29585    7.923974   2.270188   20.494     0.7658414  0.8328358  13.234     0.3317967  0.4642183  0.1993752 
1097.9     0.214      50.15      8          2          9.322      7.335001   20.446     46.115     38.46301   21.276     29.664     3.741      3.234      1.259      18.733     0.180285   0.180285   0.29255    6.116081   2.114763   19.94      0.7558679  0.827099   13.528     0.3401971  0.477858   0.2025362 
1098       0.214      51.541     8          2          9.301      7.266      20.296     45.204     38.082     20.874     27.128     3.843      3.303      1.267      18.461     0.1767446  0.1767446  0.28815    5.258933   2.21239    19.402     0.7484056  0.8217069  13.846     0.3375921  0.4691326  0.2060516 
1098.1     0.214      52.915     8          2          9.226      7.171      20.049     44.15499   37.624     20.375     24.559     3.9        3.353      1.277      18.22      0.1755707  0.1755707  0.28265    5.00212    2.59933    18.898     0.7437962  0.8167608  14.168     0.3244827  0.4392506  0.2097147 
1098.2     0.214      54.265     8          2          9.112      7.052      19.736     43.094     37.072     19.776     22.216     3.924      3.387      1.287      18.031     0.1763778  0.1763778  0.27715    5.177298   3.320936   18.428     0.7417839  0.8125979  14.475     0.3053704  0.3974349  0.2133058 
1098.3     0.214      55.625     8          2          8.982      6.912      19.378     42.12099   36.406     19.094     20.245     3.926      3.406      1.294      17.903     0.1790233  0.1790233  0.2733     5.795676   4.391306   17.977     0.7421294  0.8098288  14.765     0.2856869  0.3545861  0.2167877 
1098.4     0.214      57.049     8          2          8.859      6.76       18.988     41.265     35.618     18.361     18.693     3.911      3.404      1.298      17.83      0.1822348  0.1822348  0.2711     6.646441   5.719968   17.529     0.7430671  0.807887   15.048     0.2692885  0.3183062  0.2202707 
