~Version
 VERS              .         2.0                           : CWLS LOG ASCII STANDARD - VERSION 2.0
 WRAP              .         NO                            : ONE LINE PER DEPTH STEP
 DLM               .         SPACE                         : DELIMITING CHARACTER(SPACE TAB OR COMMA)
~Well Information
#_______________________________________________________________________________
#
#PARAMETER_NAME    .UNIT     VALUE                         : DESCRIPTION
#_______________________________________________________________________________
STRT               .M        880.1                         : First reference value
STOP               .M        1160.2                        : Last reference value
STEP               .M        0.1                           : Step increment
NULL               .         -9999                         : Missing value
COMP               .                                       : Company
WELL               .         2938                          : Well name
FLD                .         Узень                         : Field
LOC                .                                       : Location
CNTY               .                                       : County
STAT               .                                       : State
CTRY               .                                       : Country
SRVC               .         SCH                           : Service Company
DATE               .         04/21/2010                    : Date
UWI                .                                       : Unique Well ID
Block              .         7                             : 
Cartographic_reference_system .         GCS_WGS_1984                  : ESRI,PE_10_3_1- <?xml version="1.0" encoding="utf-16"?><ILateBoundCoordinateReferenceSystem name="GCS_WGS_1984"><AuthorityCode>EPSG,4326</AuthorityCode></ILateBoundCoordinateReferenceSystem>
Category           .         Нефтяная                      : 
Condition          .         В работе                      : 
Date               .         01.09.1980                    : 
EREF               .m        85.2                          : 100.8
Gorizont           .         15                            : 14
HZCS               .GCS_WGS_1984 WGS_1984_EASE-Grid_2.0_Global : ESRI,PE_10_3_1- <?xml version="1.0" encoding="utf-16"?><ILateBoundCoordinateReferenceSystem name="WGS_1984_EASE-Grid_2.0_Global"><AuthorityCode>EPSG,6933</AuthorityCode></ILateBoundCoordinateReferenceSystem>
Interpretator      .         Кушербаева А.С                : 
Kupol              .         основной                      : osnovnoi
LATI               .dega     0.6567763258                  : GCS_WGS_1984
LONG               .dega     0.4397506038                  : GCS_WGS_1984
Mud                .                                       : 
Mud_density        .                                       : 
Mud_resistivity    .                                       : 
NGDU               .         НГДУ-2                        : 
ORIGINALWELLNAME   .         2938                          : 
Spud_date          .         1980                          : 1961
Viscosity          .                                       : 
X                  .m        42429.9                       : 46154
Y                  .m        83785.33                      : 85761.93
YEAR               .         2018г                         : 
~Parameter Information Block
#_______________________________________________________________________________
#
#PARAMETER_NAME    .UNIT     VALUE                         : DESCRIPTION
#_______________________________________________________________________________
SET                .         LQC_KAZNIPI_Petrel            : 
PBBOTTOM           .M        1160.2                        : Глубина подошвы планшета
PBSCALE            .         1 _ 500                       : Вертикальный масштаб планшета
PBTOP              .M        880                           : Глубина кровли планшета
TLFamily_CALI      .         Caliper                       : 
TLFamily_CILD      .         Conductivity                  : 
TLFamily_COLL      .         Net Reservoir Flag            : 
TLFamily_CSAT      .         Fluid Code                    : 
TLFamily_DEPT      .         Measured Depth                : 
TLFamily_GR        .         Russian Gamma Ray             : 
TLFamily_GZ1       .         Gradient 045                  : 
TLFamily_GZ2       .         Gradient 105                  : 
TLFamily_GZ3       .         Gradient 225                  : 
TLFamily_GZ4       .         Gradient 425                  : 
TLFamily_GZ5       .         Gradient 850                  : 
TLFamily_LLS       .         Lateral Log Resistivity       : 
TLFamily_MINV      .         Micro Gradient Resistivity    : 
TLFamily_MNOR      .         Micro Resistivity             : 
TLFamily_NGLD      .         Neutron Gamma                 : 
TLFamily_OGZ       .         Gradient Inverted 225         : 
TLFamily_PHIE      .         Effective Porosity            : 
TLFamily_PHIEN     .         Effective Porosity            : 
TLFamily_PHIT      .         Porosity                      : 
TLFamily_PRMB      .         Permeability                  : 
TLFamily_PRMB_DGR  .         Permeability                  : 
TLFamily_RT        .         Formation Resistivity         : 
TLFamily_SOIL_ARCHIE .         Oil Saturation                : 
TLFamily_SOIL_DW   .         Oil Saturation                : 
TLFamily_SP        .         Spontaneous Potential         : 
TLFamily_VSH_FIN   .         Shale Volume                  : 
TLFamily_VSH_GR    .         Shale Volume                  : 
TLFamily_VSH_SP    .         Shale Volume                  : 
~Curve Information
#_______________________________________________________________________________
#
#LOGNAME           .UNIT     LOG_ID                        : DESCRIPTION
#_______________________________________________________________________________
DEPT               .M                                      : Колонка глубины 
CALI               .м                                      : Каверномер 
CILD               .мСм/м                                  : Индукционный каротаж 
COLL               .unitless                               : Описание 
CSAT               .unitless                               : Описание 
GR                 .uR/h                                   : Гамма каротаж 
GZ1                .Ohmm                                   : Градиент-зонд  длиной 0.45м 
GZ2                .Ohmm                                   : Градиент-зонд  длиной 1.05м 
GZ3                .Ohmm                                   : Градиент-зонд  длиной 2.25м 
GZ4                .Ohmm                                   : Градиент-зонд  длиной 4.5м 
GZ5                .Ohmm                                   : Градиент-зонд  длиной 8.5м 
LLS                .Ohmm                                   : Боковой каротаж 
MINV               .Ohmm                                   : Микро-градиент зонд 
MNOR               .Ohmm                                   : Микро-потенциал зонд 
NGLD               .у.е.                                   : Показания зонда НГК-60 аппаратуры ДРСТ-3-90 
OGZ                .Ohmm                                   : Обращенный градиент-зонд 
PHIE               .v/v                                    : Описание 
PHIEN              .v/v                                    :  
PHIT               .v/v                                    : Описание 
PRMB               .mD                                     :  
PRMB_DGR           .mD                                     :  
RT                 .ohmm                                   : УЭС пласта 
SOIL_ARCHIE        .v/v                                    :  
SOIL_DW            .v/v                                    :  
SP                 .мВ                                     : Потенциал самополяризации 
VSH_FIN            .v/v                                    : Описание 
VSH_GR             .v/v                                    : Shale volume 
VSH_SP             .v/v                                    : Shale Volume 
~Ascii
# ...
952.9      0.227      364.103    -9999      -9999      6.821      2.215      2.829      2.883      2.229      2.161      2.232      1.35       1.589      1.159      4.359      0.1439072  0.1439072  0.34755    1.296191   1.87977    2.746      0.2467862  0.5429426  33.614     0.6170992  0.5014043  0.7327941 
953        0.222      360.451    -9999      -9999      6.831      2.292      2.851      2.947      2.231      2.163      2.144      1.57       1.662      1.161      4.406      0.1419192  0.1419192  0.34645    1.190817   1.856539   2.774      0.2412256  0.5420133  33.687     0.6197904  0.5039569  0.735624  
953.1      0.218      355.553    -9999      -9999      6.828      2.351      2.867      3.011      2.241      2.168      2.086      1.887      1.676      1.161      4.456      0.1416544  0.1416544  0.34645    1.177447   1.863477   2.813      0.2449536  0.5448887  33.748     0.6205927  0.5031898  0.7379955 
953.2000000000001 0.214      350.052    -9999      -9999      6.806      2.391      2.878      3.073      2.256      2.176      2.078      2.272      1.652      1.16       4.506      0.1428054  0.1428054  0.347      1.236687   1.915164   2.857      0.2556971  0.5501944  33.798     0.6187717  0.4975996  0.7399439 
953.3      0.213      344.555    -9999      -9999      6.768      2.424      2.891      3.13       2.275      2.185      2.123      2.658      1.63       1.159      4.548999   0.1446345  0.1446345  0.34755    1.337028   2.007842   2.902      0.2692807  0.5562189  33.843     0.6148953  0.4880896  0.7417009 
953.4      0.212      339.505    -9999      -9999      6.724      2.46       2.913      3.18       2.295      2.193      2.209      2.98       1.641      1.161      4.584      0.1450429  0.1450429  0.34645    1.36052    2.120771   2.945      0.2760869  0.5590438  33.885     0.6103244  0.4773049  0.743344  
953.5      0.212      335.151    -9999      -9999      6.683      2.505      2.95       3.228      2.315      2.201      2.316      3.213      1.687      1.166      4.609      0.1436117  0.1436117  0.3437     1.279957   2.231709   2.984      0.2743015  0.5581135  33.932     0.6063281  0.4674701  0.7451862 
953.6      0.212      331.508    -9999      -9999      6.647      2.552      3.002      3.277      2.335      2.207      2.428      3.377      1.748      1.175      4.623      0.1397544  0.1397544  0.33875    1.085798   2.333892   3.017      0.2607128  0.5520288  33.979     0.603017   0.4590018  0.747032  
953.7000000000001 0.212      328.329    -9999      -9999      6.606      2.594      3.066      3.334      2.354      2.214      2.525      3.51       1.803      1.186      4.624      0.1349598  0.1349598  0.3327     0.8849937  2.45598    3.046      0.241303   0.5432478  34.026     0.5992129  0.4495442  0.7488816 
953.8      0.213      325.146    -9999      -9999      6.555      2.63       3.137      3.4        2.373      2.221      2.599      3.636      1.846      1.197      4.611      0.1305589  0.1305589  0.32665    0.7335429  2.616794   3.076      0.2226604  0.5345615  34.064     0.5942155  0.4380513  0.7503796 
953.9      0.213      321.451    -9999      -9999      6.497      2.665      3.211      3.477      2.392      2.227      2.644      3.755      1.893      1.207      4.581      0.1269677  0.1269677  0.32115    0.6293738  2.812514   3.111      0.2077634  0.5273944  34.093     0.5884311  0.4253376  0.7515245 
954        0.213      316.915    -9999      -9999      6.446      2.711      3.287      3.559      2.411      2.235      2.666      3.853      1.966      1.214      4.533      0.1247946  0.1247946  0.3173     0.573663   2.996673   3.155      0.2010442  0.5241119  34.111     0.5833497  0.4144636  0.7522359 
954.1      0.213      311.51     -9999      -9999      6.42       2.777      3.367      3.642      2.43       2.243      2.682      3.92       2.08       1.218      4.473      0.1234197  0.1234197  0.3151     0.5409924  3.095151   3.21       0.1998141  0.5242043  34.122     0.5808492  0.4090274  0.7526709 
954.2000000000001 0.213      305.445    -9999      -9999      6.425      2.868      3.453      3.722      2.449      2.252      2.714      3.955      2.227      1.222      4.408      0.1210156  0.1210156  0.3129     0.4882703  3.075964   3.274      0.1934925  0.5233933  34.127     0.5814679  0.4100673  0.7528686 
954.3      0.213      299.014    -9999      -9999      6.448      2.98       3.546      3.792      2.468      2.261      2.777      3.962      2.372      1.227      4.346      0.1174576  0.1174576  0.31015    0.4195257  2.98923    3.344      0.1804328  0.5206248  34.129     0.5839162  0.4148847  0.7529478 
954.4      0.213      292.478    -9999      -9999      6.47       3.103      3.646      3.85       2.485      2.27       2.873      3.942      2.474      1.235      4.29       0.1123147  0.1123147  0.30575    0.3368982  2.908556   3.419      0.1566658  0.5138374  34.125     0.5861676  0.4195457  0.7527895 
954.5      0.213      286.046    -9999      -9999      6.473      3.218      3.75       3.896      2.503      2.278      2.984      3.89       2.505      1.245      4.239      0.1067875  0.1067875  0.30025    0.2661465  2.897723   3.496      0.1279349  0.5047971  34.113     0.5862501  0.4201853  0.7523149 
954.6      0.213      279.921    -9999      -9999      6.453      3.308      3.855      3.933      2.519      2.286      3.096      3.799      2.466      1.257      4.19       0.101025   0.101025   0.29365    0.2081545  2.970699   3.572      0.09395769 0.4932261  34.092     0.5837122  0.4159395  0.751485  
954.7000000000001 0.213      274.33     -9999      -9999      6.413      3.361      3.954      3.965      2.537      2.295      3.202      3.674      2.383      1.269      4.138      0.09603284 0.09603284 0.28705    0.1682361  3.122213   3.645      0.06201844 0.4817997  34.057     0.5788398  0.407576   0.7501035 
954.8      0.213      269.531    -9999      -9999      6.362      3.372      4.042      3.994      2.556      2.305      3.307      3.535      2.288      1.281      4.085      0.09143825 0.09143825 0.28045    0.1382981  3.326652   3.71       0.02918544 0.4695975  34.013     0.5727628  0.397156   0.7483696 
954.9      0.213      265.768    -9999      -9999      6.305      3.348      4.113      4.021      2.579      2.316      3.43       3.42       2.2        1.294      4.033      0.08649528 0.08649528 0.2733     0.1120109  3.571023   3.763      0          0.4540654  33.961     0.5660748  0.3858251  0.7463247 
955        0.213      263.219    -9999      -9999      6.241      3.296      4.162      4.048      2.604      2.327      3.58       3.365      2.122      1.307      3.988      0.08171115 0.08171115 0.26615    0.09133701 3.866859   3.799      0          0.4363143  33.91      0.5589055  0.3734876  0.7443235 
955.1      0.213      261.937    -9999      -9999      6.172      3.227      4.186      4.075      2.63       2.337      3.749      3.391      2.053      1.319      3.95       0.07753674 0.07753674 0.25955    0.07644103 4.213324   3.818      0          0.4181329  33.863     0.5515553  0.3606276  0.742483  
955.2000000000001 0.213      261.817    -9999      -9999      6.101      3.152      4.185      4.105      2.655      2.345      3.911      3.487      1.995      1.331      3.92       0.07330831 0.07330831 0.25295    0.0638272  4.602265   3.819      0          0.3970104  33.822     0.5443688  0.347857   0.7408805 
955.3      0.213      262.595    -9999      -9999      6.034      3.077      4.162      4.134      2.679      2.353      4.034      3.616      1.958      1.34       3.898      0.07051644 0.07051644 0.248      0.05666221 5.00216    3.808      0          0.3802229  33.785     0.5378289  0.3362209  0.7394369 
955.4      0.213      264.636    -9999      -9999      5.979      3.012      4.127      4.164      2.701      2.358      4.093      3.729      1.956      1.345      3.884      0.06952584 0.06952584 0.24525    0.05431818 5.356272   3.779      0          0.3702567  33.749     0.5324974  0.3269604  0.7380344 
