~Version
 VERS              .         2.0                           : CWLS LOG ASCII STANDARD - VERSION 2.0
 WRAP              .         NO                            : ONE LINE PER DEPTH STEP
 DLM               .         SPACE                         : DELIMITING CHARACTER(SPACE TAB OR COMMA)
~Well Information
#_______________________________________________________________________________
#
#PARAMETER_NAME    .UNIT     VALUE                         : DESCRIPTION
#_______________________________________________________________________________
STRT               .M        880.1                         : First reference value
STOP               .M        1160.2                        : Last reference value
STEP               .M        0.1                           : Step increment
NULL               .         -9999                         : Missing value
COMP               .                                       : Company
WELL               .         2938                          : Well name
FLD                .         Узень                         : Field
LOC                .                                       : Location
CNTY               .                                       : County
STAT               .                                       : State
CTRY               .                                       : Country
SRVC               .         SCH                           : Service Company
DATE               .         04/21/2010                    : Date
UWI                .                                       : Unique Well ID
Block              .         7                             : 
Cartographic_reference_system .         GCS_WGS_1984                  : ESRI,PE_10_3_1- <?xml version="1.0" encoding="utf-16"?><ILateBoundCoordinateReferenceSystem name="GCS_WGS_1984"><AuthorityCode>EPSG,4326</AuthorityCode></ILateBoundCoordinateReferenceSystem>
Category           .         Нефтяная                      : 
Condition          .         В работе                      : 
Date               .         01.09.1980                    : 
EREF               .m        85.2                          : 100.8
Gorizont           .         15                            : 14
HZCS               .GCS_WGS_1984 WGS_1984_EASE-Grid_2.0_Global : ESRI,PE_10_3_1- <?xml version="1.0" encoding="utf-16"?><ILateBoundCoordinateReferenceSystem name="WGS_1984_EASE-Grid_2.0_Global"><AuthorityCode>EPSG,6933</AuthorityCode></ILateBoundCoordinateReferenceSystem>
Interpretator      .         Кушербаева А.С                : 
Kupol              .         основной                      : osnovnoi
LATI               .dega     0.6567763258                  : GCS_WGS_1984
LONG               .dega     0.4397506038                  : GCS_WGS_1984
Mud                .                                       : 
Mud_density        .                                       : 
Mud_resistivity    .                                       : 
NGDU               .         НГДУ-2                        : 
ORIGINALWELLNAME   .         2938                          : 
Spud_date          .         1980                          : 1961
Viscosity          .                                       : 
X                  .m        42429.9                       : 46154
Y                  .m        83785.33                      : 85761.93
YEAR               .         2018г                         : 
~Parameter Information Block
#_______________________________________________________________________________
#
#PARAMETER_NAME    .UNIT     VALUE                         : DESCRIPTION
#_______________________________________________________________________________
SET                .         LQC_KAZNIPI_Petrel            : 
PBBOTTOM           .M        1160.2                        : Глубина подошвы планшета
PBSCALE            .         1 _ 500                       : Вертикальный масштаб планшета
PBTOP              .M        880                           : Глубина кровли планшета
TLFamily_CALI      .         Caliper                       : 
TLFamily_CILD      .         Conductivity                  : 
TLFamily_COLL      .         Net Reservoir Flag            : 
TLFamily_CSAT      .         Fluid Code                    : 
TLFamily_DEPT      .         Measured Depth                : 
TLFamily_GR        .         Russian Gamma Ray             : 
TLFamily_GZ1       .         Gradient 045                  : 
TLFamily_GZ2       .         Gradient 105                  : 
TLFamily_GZ3       .         Gradient 225                  : 
TLFamily_GZ4       .         Gradient 425                  : 
TLFamily_GZ5       .         Gradient 850                  : 
TLFamily_LLS       .         Lateral Log Resistivity       : 
TLFamily_MINV      .         Micro Gradient Resistivity    : 
TLFamily_MNOR      .         Micro Resistivity             : 
TLFamily_NGLD      .         Neutron Gamma                 : 
TLFamily_OGZ       .         Gradient Inverted 225         : 
TLFamily_PHIE      .         Effective Porosity            : 
TLFamily_PHIEN     .         Effective Porosity            : 
TLFamily_PHIT      .         Porosity                      : 
TLFamily_PRMB      .         Permeability                  : 
TLFamily_PRMB_DGR  .         Permeability                  : 
TLFamily_RT        .         Formation Resistivity         : 
TLFamily_SOIL_ARCHIE .         Oil Saturation                : 
TLFamily_SOIL_DW   .         Oil Saturation                : 
TLFamily_SP        .         Spontaneous Potential         : 
TLFamily_VSH_FIN   .         Shale Volume                  : 
TLFamily_VSH_GR    .         Shale Volume                  : 
TLFamily_VSH_SP    .         Shale Volume                  : 
~Curve Information
#_______________________________________________________________________________
#
#LOGNAME           .UNIT     LOG_ID                        : DESCRIPTION
#_______________________________________________________________________________
DEPT               .M                                      : Колонка глубины 
CALI               .м                                      : Каверномер 
CILD               .мСм/м                                  : Индукционный каротаж 
COLL               .unitless                               : Описание 
CSAT               .unitless                               : Описание 
GR                 .uR/h                                   : Гамма каротаж 
GZ1                .Ohmm                                   : Градиент-зонд  длиной 0.45м 
GZ2                .Ohmm                                   : Градиент-зонд  длиной 1.05м 
GZ3                .Ohmm                                   : Градиент-зонд  длиной 2.25м 
GZ4                .Ohmm                                   : Градиент-зонд  длиной 4.5м 
GZ5                .Ohmm                                   : Градиент-зонд  длиной 8.5м 
LLS                .Ohmm                                   : Боковой каротаж 
MINV               .Ohmm                                   : Микро-градиент зонд 
MNOR               .Ohmm                                   : Микро-потенциал зонд 
NGLD               .у.е.                                   : Показания зонда НГК-60 аппаратуры ДРСТ-3-90 
OGZ                .Ohmm                                   : Обращенный градиент-зонд 
PHIE               .v/v                                    : Описание 
PHIEN              .v/v                                    :  
PHIT               .v/v                                    : Описание 
PRMB               .mD                                     :  
PRMB_DGR           .mD                                     :  
RT                 .ohmm                                   : УЭС пласта 
SOIL_ARCHIE        .v/v                                    :  
SOIL_DW            .v/v                                    :  
SP                 .мВ                                     : Потенциал самополяризации 
VSH_FIN            .v/v                                    : Описание 
VSH_GR             .v/v                                    : Shale volume 
VSH_SP             .v/v                                    : Shale Volume 
~Ascii
# ...
916.5      0.208      138.362    -9999      -9999      5.756      5.061999   8.128      9.137      5.9        3.023      10.198     2.97       2.813      1.602      7.028      0.01       0          0.1039     0.004289259 7.06811    7.227      0          0          31.908     0.480552   0.2919546  0.6691495 
916.6      0.208      142.59     -9999      -9999      5.838      4.84       7.932      9.049001   5.737999   2.98       9.657      3.186      2.741      1.576      6.924      0.01       0          0.1182     0.004289259 6.382869   7.013      0          0          31.988     0.4881985  0.3043682  0.6720287 
916.7000000000001 0.208      146.698    -9999      -9999      5.903      4.618      7.758      8.965      5.598001   2.931      8.754      3.32       2.765      1.541      6.825      0.01       0          0.13745    0.004289259 5.887214   6.817      0          0          32.064     0.4946778  0.3145823  0.6747734 
916.8      0.208      150.455    -9999      -9999      5.945      4.421      7.607      8.889      5.482      2.886      7.753      3.345      2.873      1.5        6.727      0.01       0          0.16       0.004289259 5.587607   6.646      0          0          32.129     0.499246   0.3213638  0.6771283 
916.9      0.209      153.627    -9999      -9999      5.964      4.272      7.482      8.829      5.392      2.856      6.869      3.304      3.005      1.459      6.635      0.0169791  0.0169791  0.18255    0.005776331 5.457127   6.509      0          0.1393526  32.18      0.50173    0.3244794  0.6789806 
917        0.209      155.955    -9999      -9999      5.964      4.192      7.385      8.786      5.332      2.842      6.19       3.266      3.084      1.422      6.563      0.0371129  0.0371129  0.2029     0.01363261 5.457127   6.412      0          0.3332856  32.216     0.5023851  0.3244794  0.6802907 
917.1      0.209      157.258    -9999      -9999      5.959      4.185      7.308001   8.756      5.3        2.844      5.702      3.27       3.075      1.394      6.527      0.05253443 0.05253443 0.2183     0.0263162  5.491164   6.359      0          0.4255097  32.235     0.5023198  0.3236566  0.680983  
917.2000000000001 0.209      157.563    -9999      -9999      5.966      4.238      7.230999   8.728001   5.292      2.86       5.351      3.3        3.002      1.376      6.533      0.06222023 0.06222023 0.2282     0.03977661 5.443569   6.347      0          0.4711275  32.239     0.5029689  0.3248091  0.6811287 
917.3      0.209      157.19     -9999      -9999      5.995      4.313      7.127      8.696      5.297      2.89       5.115      3.314      2.937      1.37       6.577      0.06479132 0.06479132 0.2315     0.04438646 5.250748   6.362      0          0.483668   32.228     0.5051778  0.3296278  0.6807278 
917.4      0.209      156.715    -9999      -9999      6.046      4.366      6.982      8.651999   5.303      2.932      5.009      3.29       2.938      1.373      6.651      0.06187058 0.06187058 0.22985    0.03918784 4.928065   6.381      0          0.4741587  32.202     0.5090285  0.338276   0.679781  
917.5      0.209      156.834    -9999      -9999      6.104      4.369      6.804      8.592      5.305      2.983      5.062      3.254      3          1.384      6.744      0.05437427 0.05437427 0.2238     0.02846436 4.585123   6.376      0          0.4420188  32.165     0.5134114  0.3483874  0.6784354 
917.6      0.209      158.131    -9999      -9999      6.151      4.324      6.624      8.51       5.302      3.037      5.269      3.257      3.062      1.397      6.855      0.04610534 0.04610534 0.21665    0.0200051  4.324806   6.324      0          0.3977001  32.12      0.5168021  0.3568023  0.6768017 
917.7000000000001 0.209      160.858    -9999      -9999      6.172      4.257      6.473      8.404      5.303      3.09       5.575      3.335      3.05       1.407      6.986      0.04026707 0.04026707 0.21115    0.01559559 4.213324   6.217      0          0.3568383  32.071     0.5178272  0.3606276  0.6750267 
917.8      0.209      164.823    -9999      -9999      6.168      4.194      6.367      8.281      5.315      3.14       5.875      3.481      2.945      1.412      7.139      0.03794197 0.03794197 0.2084     0.01412328 4.234334   6.067      0          0.331829   32.02      0.5165396  0.3598959  0.6731833 
917.9      0.209      169.472    -9999      -9999      6.152      4.141      6.297      8.148001   5.346      3.185      6.064      3.653      2.795      1.409      7.305      0.04037595 0.04037595 0.21005    0.01566818 4.319432   5.901      0          0.3378555  31.969     0.5141637  0.3569836  0.6713439 
918        0.209      174.108    -9999      -9999      6.144      4.081      6.238      8.015      5.404      3.23       6.071      3.803      2.691      1.4        7.475      0.04585572 0.04585572 0.215      0.01979326 4.362619   5.744      0          0.363586   31.92      0.5125585  0.3555363  0.6695807 
918.1      0.209      178.159    -9999      -9999      6.163      3.998      6.165      7.888      5.493      3.28       5.894      3.905      2.712      1.386      7.631999   0.0532654  0.0532654  0.2227     0.02714955 4.260745   5.613      0          0.3994735  31.873     0.5134381  0.3589832  0.667893  
918.2000000000001 0.209      181.385    -9999      -9999      6.21       3.889      6.072      7.772      5.618      3.341      5.594      3.961      2.873      1.373      7.764      0.05923305 0.05923305 0.22985    0.03501853 4.018845   5.513      0          0.4263779  31.831     0.517021   0.3676541  0.6663878 
918.3      0.209      183.938    -9999      -9999      6.271      3.776      5.976      7.671      5.781001   3.417      5.266      3.986      3.123      1.362      7.863999   0.06360477 0.06360477 0.2359     0.04219614 3.725252   5.437      0          0.4452411  31.792     0.5221068  0.3792209  0.6649927 
918.4      0.209      186.219    -9999      -9999      6.33       3.693      5.907      7.587      5.978      3.509      4.986      3.994      3.365      1.355      7.929999   0.06579327 0.06579327 0.23975    0.04632431 3.461706   5.37       0          0.4538654  31.751     0.5271416  0.3907545  0.6635286 
918.5      0.209      188.585    -9999      -9999      6.372      3.669      5.886      7.518      6.201      3.615      4.793      3.997      3.506      1.352      7.964      0.06633565 0.06633565 0.2414     0.04740839 3.285536   5.303      0          0.4544208  31.703     0.530498   0.399178   0.661818  
918.6      0.209      191.064    -9999      -9999      6.394      3.715      5.922      7.453001   6.438      3.732      4.675      3.996      3.501      1.35       7.969      0.06704181 0.06704181 0.2425     0.04885793 3.196864   5.234      0          0.4543949  31.644     0.5316914  0.4036625  0.6597204 
918.7000000000001 0.209      193.263    -9999      -9999      6.395      3.818      5.998001   7.379      6.672      3.854      4.597      3.994      3.367      1.348      7.946      0.06850573 0.06850573 0.2436     0.05200562 3.192891   5.174      0          0.4567394  31.576     0.5305886  0.4038675  0.6573097 
918.8      0.209      194.552    -9999      -9999      6.38       3.946      6.085999   7.286      6.885001   3.979      4.529      3.992      3.176      1.347      7.891      0.06999291 0.06999291 0.24415    0.05541106 3.253011   5.14       0          0.4595791  31.502     0.5277488  0.4008029  0.6546946 
918.9      0.209      194.401    -9999      -9999      6.351      4.061      6.155      7.168      7.056001   4.103      4.475      3.99       3.01       1.349      7.807      0.07029556 0.07029556 0.24305    0.05613094 3.372472   5.144      0          0.4589159  31.427     0.5234984  0.3949437  0.6520529 
919        0.209      192.676    -9999      -9999      6.309      4.134      6.183      7.029      7.166      4.224      4.465      3.987      2.916      1.355      7.697      0.06876459 0.06876459 0.23975    0.05258296 3.553302   5.19       0          0.4524049  31.359     0.5181376  0.3866096  0.6496655 
