~Version
 VERS              .         2.0                           : CWLS LOG ASCII STANDARD - VERSION 2.0
 WRAP              .         NO                            : ONE LINE PER DEPTH STEP
 DLM               .         SPACE                         : DELIMITING CHARACTER(SPACE TAB OR COMMA)
~Well Information
#_______________________________________________________________________________
#
#PARAMETER_NAME    .UNIT     VALUE                         : DESCRIPTION
#_______________________________________________________________________________
STRT               .M        880.1                         : First reference value
STOP               .M        1160.2                        : Last reference value
STEP               .M        0.1                           : Step increment
NULL               .         -9999                         : Missing value
COMP               .                                       : Company
WELL               .         2938                          : Well name
FLD                .         Узень                         : Field
LOC                .                                       : Location
CNTY               .                                       : County
STAT               .                                       : State
CTRY               .                                       : Country
SRVC               .         SCH                           : Service Company
DATE               .         04/21/2010                    : Date
UWI                .                                       : Unique Well ID
Block              .         7                             : 
Cartographic_reference_system .         GCS_WGS_1984                  : ESRI,PE_10_3_1- <?xml version="1.0" encoding="utf-16"?><ILateBoundCoordinateReferenceSystem name="GCS_WGS_1984"><AuthorityCode>EPSG,4326</AuthorityCode></ILateBoundCoordinateReferenceSystem>
Category           .         Нефтяная                      : 
Condition          .         В работе                      : 
Date               .         01.09.1980                    : 
EREF               .m        85.2                          : 100.8
Gorizont           .         15                            : 14
HZCS               .GCS_WGS_1984 WGS_1984_EASE-Grid_2.0_Global : ESRI,PE_10_3_1- <?xml version="1.0" encoding="utf-16"?><ILateBoundCoordinateReferenceSystem name="WGS_1984_EASE-Grid_2.0_Global"><AuthorityCode>EPSG,6933</AuthorityCode></ILateBoundCoordinateReferenceSystem>
Interpretator      .         Кушербаева А.С                : 
Kupol              .         основной                      : osnovnoi
LATI               .dega     0.6567763258                  : GCS_WGS_1984
LONG               .dega     0.4397506038                  : GCS_WGS_1984
Mud                .                                       : 
Mud_density        .                                       : 
Mud_resistivity    .                                       : 
NGDU               .         НГДУ-2                        : 
ORIGINALWELLNAME   .         2938                          : 
Spud_date          .         1980                          : 1961
Viscosity          .                                       : 
X                  .m        42429.9                       : 46154
Y                  .m        83785.33                      : 85761.93
YEAR               .         2018г                         : 
~Parameter Information Block
#_______________________________________________________________________________
#
#PARAMETER_NAME    .UNIT     VALUE                         : DESCRIPTION
#_______________________________________________________________________________
SET                .         LQC_KAZNIPI_Petrel            : 
PBBOTTOM           .M        1160.2                        : Глубина подошвы планшета
PBSCALE            .         1 _ 500                       : Вертикальный масштаб планшета
PBTOP              .M        880                           : Глубина кровли планшета
TLFamily_CALI      .         Caliper                       : 
TLFamily_CILD      .         Conductivity                  : 
TLFamily_COLL      .         Net Reservoir Flag            : 
TLFamily_CSAT      .         Fluid Code                    : 
TLFamily_DEPT      .         Measured Depth                : 
TLFamily_GR        .         Russian Gamma Ray             : 
TLFamily_GZ1       .         Gradient 045                  : 
TLFamily_GZ2       .         Gradient 105                  : 
TLFamily_GZ3       .         Gradient 225                  : 
TLFamily_GZ4       .         Gradient 425                  : 
TLFamily_GZ5       .         Gradient 850                  : 
TLFamily_LLS       .         Lateral Log Resistivity       : 
TLFamily_MINV      .         Micro Gradient Resistivity    : 
TLFamily_MNOR      .         Micro Resistivity             : 
TLFamily_NGLD      .         Neutron Gamma                 : 
TLFamily_OGZ       .         Gradient Inverted 225         : 
TLFamily_PHIE      .         Effective Porosity            : 
TLFamily_PHIEN     .         Effective Porosity            : 
TLFamily_PHIT      .         Porosity                      : 
TLFamily_PRMB      .         Permeability                  : 
TLFamily_PRMB_DGR  .         Permeability                  : 
TLFamily_RT        .         Formation Resistivity         : 
TLFamily_SOIL_ARCHIE .         Oil Saturation                : 
TLFamily_SOIL_DW   .         Oil Saturation                : 
TLFamily_SP        .         Spontaneous Potential         : 
TLFamily_VSH_FIN   .         Shale Volume                  : 
TLFamily_VSH_GR    .         Shale Volume                  : 
TLFamily_VSH_SP    .         Shale Volume                  : 
~Curve Information
#_______________________________________________________________________________
#
#LOGNAME           .UNIT     LOG_ID                        : DESCRIPTION
#_______________________________________________________________________________
DEPT               .M                                      : Колонка глубины 
CALI               .м                                      : Каверномер 
CILD               .мСм/м                                  : Индукционный каротаж 
COLL               .unitless                               : Описание 
CSAT               .unitless                               : Описание 
GR                 .uR/h                                   : Гамма каротаж 
GZ1                .Ohmm                                   : Градиент-зонд  длиной 0.45м 
GZ2                .Ohmm                                   : Градиент-зонд  длиной 1.05м 
GZ3                .Ohmm                                   : Градиент-зонд  длиной 2.25м 
GZ4                .Ohmm                                   : Градиент-зонд  длиной 4.5м 
GZ5                .Ohmm                                   : Градиент-зонд  длиной 8.5м 
LLS                .Ohmm                                   : Боковой каротаж 
MINV               .Ohmm                                   : Микро-градиент зонд 
MNOR               .Ohmm                                   : Микро-потенциал зонд 
NGLD               .у.е.                                   : Показания зонда НГК-60 аппаратуры ДРСТ-3-90 
OGZ                .Ohmm                                   : Обращенный градиент-зонд 
PHIE               .v/v                                    : Описание 
PHIEN              .v/v                                    :  
PHIT               .v/v                                    : Описание 
PRMB               .mD                                     :  
PRMB_DGR           .mD                                     :  
RT                 .ohmm                                   : УЭС пласта 
SOIL_ARCHIE        .v/v                                    :  
SOIL_DW            .v/v                                    :  
SP                 .мВ                                     : Потенциал самополяризации 
VSH_FIN            .v/v                                    : Описание 
VSH_GR             .v/v                                    : Shale volume 
VSH_SP             .v/v                                    : Shale Volume 
~Ascii
# ...
1114.1     0.212      221.238    1          2          8.66       3.181      4.336      6.703      7.931      6.244999   4.848      2.747      2.071      1.258      10.719     0.1857405  0.1857405  0.2931     7.718325   8.772573   4.52       0.5226582  0.6415848  24.12      0.3253317  0.2673031  0.3833604 
1114.2     0.212      222.048    1          2          8.681      3.028      4.249      6.521999   7.635      6.212      5.043      2.712      2.046      1.255      11.03      0.1863063  0.1863063  0.29475    7.906836   8.385465   4.504      0.5231282  0.6425874  24.186     0.3286173  0.2722747  0.3849599 
1114.3     0.212      224.082    1          2          8.691      2.855      4.177      6.372001   7.282      6.217999   5.1        2.679      2.092      1.25       11.414     0.1884958  0.1884958  0.2975     8.680768   8.207173   4.463      0.5259262  0.6446127  24.227     0.3303157  0.2746746  0.3859568 
1114.4     0.212      226.255    1          2          8.695      2.684      4.146      6.268      6.931001   6.27       5.022      2.654      2.2        1.246      11.806     0.190444   0.190444   0.2997     9.432837   8.136928   4.42       0.5280132  0.645927   24.25      0.3310788  0.2756403  0.3865172 
1114.5     0.212      227.439    1          2          8.694      2.533      4.168      6.224999   6.621      6.363      4.845      2.646      2.343      1.243      12.177     0.1921218  0.1921218  0.30135    10.13257   8.154424   4.397      0.5304571  0.647414   24.253     0.3309945  0.2753987  0.3865904 
1114.6     0.212      226.863    1          2          8.689      2.419      4.241      6.264      6.362      6.488      4.63       2.657      2.483      1.243      12.53      0.1924253  0.1924253  0.30135    10.26458   8.24252    4.408      0.5316516  0.648079   24.227     0.3300749  0.2741929  0.3859568 
1114.7     0.212      224.271    1          2          8.675      2.363      4.355      6.411      6.151999   6.632      4.438      2.706      2.604      1.247      12.869     0.1910503  0.1910503  0.29915    9.679953   8.494283   4.459      0.5312545  0.6475465  24.159     0.3275748  0.270845   0.3843048 
1114.8     0.212      219.849    6          6          8.651      2.384      4.499      6.691      5.989999   6.786      4.311      2.844      2.724      1.253      13.173     0.1891638  0.1891638  0.29585    8.93164    8.943895   4.549      0.5315986  0.647325   24.038     0.3232914  0.2652003  0.3813824 
1114.9     0.212      213.974    6          6          8.611      2.494      4.666999   7.118      5.883999   6.942999   4.28       3.173      2.892      1.261      13.4       0.1869562  0.1869562  0.29145    8.129066   9.746756   4.673      0.5327197  0.6472463  23.865     0.3166478  0.2560529  0.3772427 
1115       0.212      207.034    6          6          8.548      2.692      4.859      7.683      5.847      7.102001   4.357      3.801      3.161      1.27       13.51      0.1851016  0.1851016  0.2865     7.510839   11.15988   4.83       0.5358974  0.6480548  23.654     0.307268   0.2422812  0.3722547 
1115.1     0.212      199.35     6          6          8.45       2.96       5.082      8.343      5.883999   7.26       4.563      4.78       3.555      1.279      13.492     0.1843228  0.1843228  0.28155    7.265459   13.77611   5.016      0.5423768  0.6504503  23.426     0.2946279  0.222316   0.3669397 
1115.2     0.212      191.203    6          6          8.312      3.276      5.35       9.031      5.987999   7.415999   4.927      6.038      4.045      1.289      13.373     0.1838369  0.1838369  0.27605    7.116453   18.53215   5.23       0.5502285  0.6532772  23.207     0.2794335  0.1969599  0.3619072 
1115.3     0.212      182.837    6          6          8.138      3.622      5.684      9.674      6.142      7.565      5.489      7.362      4.566      1.301      13.195     0.1825722  0.1825722  0.26945    6.742754   26.93557   5.469      0.5569053  0.6550784  23.011     0.2632662  0.1690691  0.3574632 
1115.4     0.212      174.434    6          6          7.945      3.991      6.103      10.225     6.328      7.697      6.285      8.454      5.027      1.314      12.993     0.1804263  0.1804263  0.2623     6.153044   40.78106   5.733      0.562114   0.6560608  22.833     0.2481022  0.1427283  0.3534761 
1115.5     0.212      166.064    6          6          7.761      4.383999   6.619      10.674     6.528999   7.797      7.329      9.037      5.342      1.33       12.774     0.1757916  0.1757916  0.2535     5.049459   60.56077   6.022      0.5622951  0.6539188  22.654     0.2354799  0.1214468  0.3495131 
1115.6     0.212      157.65     6          6          7.607      4.806      7.237      11.04      6.73       7.855      8.626      8.966      5.45       1.346      12.523     0.1702606  0.1702606  0.2447     3.988385   84.31886   6.343      0.5607721  0.651145   22.45      0.2255741  0.106095   0.3450531 
1115.7     0.213      148.894    6          6          7.497      5.255      7.945      11.346     6.908      7.867001   10.212     8.288      5.339      1.364      12.217     0.1628281  0.1628281  0.2348     2.904884   106.8048   6.716      0.5554425  0.6461915  22.209     0.2180969  0.09633251 0.3398612 
1115.8     0.213      139.168    6          6          7.434      5.723      8.721001   11.59      7.044      7.842      12.208     7.209      5.046      1.383      11.842     0.1541972  0.1541972  0.22435    2.01032    122.29     7.186      0.5484114  0.6407099  21.933     0.2125841  0.09115129 0.3340168 
1115.9     0.213      127.481    6          6          7.409      6.194      9.526999   11.755     7.122001   7.798999   14.822     6.001      4.643      1.402      11.399     0.1450983  0.1450983  0.2139     1.363739   129.04     7.844      0.5430245  0.6373645  21.634     0.20849    0.08917334 0.3278066 
1116       0.213      112.768    6          6          7.408      6.639999   10.309     11.82      7.147999   7.752      18.25      4.897      4.207      1.421      10.9       0.1356819  0.1356819  0.20345    0.9126758  129.3176   8.868      0.5426311  0.6389246  21.33      0.2053578  0.08909512 0.3216204 
1116.1     0.213      94.58      6          6          7.416      7.020999   10.998     11.787     7.136      7.71       22.471     4.022      3.805      1.439      10.371     0.1266129  0.1266129  0.19355    0.6199207  127.1133   10.573     0.5527043  0.6496609  21.046     0.2028397  0.08972279 0.3159565 
1116.2     0.213      73.813     6          6          7.42       7.284      11.519     11.676     7.106      7.672      27.051     3.397      3.474      1.454      9.846001   0.119096   0.119096   0.1853     0.4498895  126.0253   13.548     0.5800319  0.674405   20.803     0.200618   0.0900383  0.3111978 
1116.3     0.213      52.822     6          6          7.419      7.371      11.808     11.522     7.069      7.63       31.097     2.982      3.226      1.464      9.368      0.114198   0.114198   0.1798     0.3650752  126.2963   18.931     0.6276783  0.714767   20.618     0.1987939  0.08995933 0.3076285 
1116.4     0.212      34.549     6          6          7.421      7.247      11.833     11.354     7.030001   7.573999   33.51      2.713      3.045      1.466      8.969      0.1134562  0.1134562  0.1787     0.3537054  125.7547   28.944     0.6931979  0.7678658  20.496     0.1977086  0.09011734 0.3052999 
1116.5     0.212      21.146     6          6          7.441      6.922999   11.605     11.188     6.985      7.496      33.442     2.536      2.907      1.458      8.656      0.1178025  0.1178025  0.1831     0.4257419  120.4641   47.289     0.7641743  0.8237041  20.429     0.1978713  0.09171293 0.3040296 
1116.6     0.211      13.043     1          2          7.485      6.463      11.175     11.035     6.934      7.396      30.756     2.421      2.786      1.44       8.41       0.1271785  0.1271785  0.193      0.6350555  109.5951   76.667     0.8241469  0.8699144  20.406     0.1994591  0.09532339 0.3035949 
