~Version
 VERS              .         2.0                           : CWLS LOG ASCII STANDARD - VERSION 2.0
 WRAP              .         NO                            : ONE LINE PER DEPTH STEP
 DLM               .         SPACE                         : DELIMITING CHARACTER(SPACE TAB OR COMMA)
~Well Information
#_______________________________________________________________________________
#
#PARAMETER_NAME    .UNIT     VALUE                         : DESCRIPTION
#_______________________________________________________________________________
STRT               .M        880.1                         : First reference value
STOP               .M        1160.2                        : Last reference value
STEP               .M        0.1                           : Step increment
NULL               .         -9999                         : Missing value
COMP               .                                       : Company
WELL               .         2938                          : Well name
FLD                .         Узень                         : Field
LOC                .                                       : Location
CNTY               .                                       : County
STAT               .                                       : State
CTRY               .                                       : Country
SRVC               .         SCH                           : Service Company
DATE               .         04/21/2010                    : Date
UWI                .                                       : Unique Well ID
Block              .         7                             : 
Cartographic_reference_system .         GCS_WGS_1984                  : ESRI,PE_10_3_1- <?xml version="1.0" encoding="utf-16"?><ILateBoundCoordinateReferenceSystem name="GCS_WGS_1984"><AuthorityCode>EPSG,4326</AuthorityCode></ILateBoundCoordinateReferenceSystem>
Category           .         Нефтяная                      : 
Condition          .         В работе                      : 
Date               .         01.09.1980                    : 
EREF               .m        85.2                          : 100.8
Gorizont           .         15                            : 14
HZCS               .GCS_WGS_1984 WGS_1984_EASE-Grid_2.0_Global : ESRI,PE_10_3_1- <?xml version="1.0" encoding="utf-16"?><ILateBoundCoordinateReferenceSystem name="WGS_1984_EASE-Grid_2.0_Global"><AuthorityCode>EPSG,6933</AuthorityCode></ILateBoundCoordinateReferenceSystem>
Interpretator      .         Кушербаева А.С                : 
Kupol              .         основной                      : osnovnoi
LATI               .dega     0.6567763258                  : GCS_WGS_1984
LONG               .dega     0.4397506038                  : GCS_WGS_1984
Mud                .                                       : 
Mud_density        .                                       : 
Mud_resistivity    .                                       : 
NGDU               .         НГДУ-2                        : 
ORIGINALWELLNAME   .         2938                          : 
Spud_date          .         1980                          : 1961
Viscosity          .                                       : 
X                  .m        42429.9                       : 46154
Y                  .m        83785.33                      : 85761.93
YEAR               .         2018г                         : 
~Parameter Information Block
#_______________________________________________________________________________
#
#PARAMETER_NAME    .UNIT     VALUE                         : DESCRIPTION
#_______________________________________________________________________________
SET                .         LQC_KAZNIPI_Petrel            : 
PBBOTTOM           .M        1160.2                        : Глубина подошвы планшета
PBSCALE            .         1 _ 500                       : Вертикальный масштаб планшета
PBTOP              .M        880                           : Глубина кровли планшета
TLFamily_CALI      .         Caliper                       : 
TLFamily_CILD      .         Conductivity                  : 
TLFamily_COLL      .         Net Reservoir Flag            : 
TLFamily_CSAT      .         Fluid Code                    : 
TLFamily_DEPT      .         Measured Depth                : 
TLFamily_GR        .         Russian Gamma Ray             : 
TLFamily_GZ1       .         Gradient 045                  : 
TLFamily_GZ2       .         Gradient 105                  : 
TLFamily_GZ3       .         Gradient 225                  : 
TLFamily_GZ4       .         Gradient 425                  : 
TLFamily_GZ5       .         Gradient 850                  : 
TLFamily_LLS       .         Lateral Log Resistivity       : 
TLFamily_MINV      .         Micro Gradient Resistivity    : 
TLFamily_MNOR      .         Micro Resistivity             : 
TLFamily_NGLD      .         Neutron Gamma                 : 
TLFamily_OGZ       .         Gradient Inverted 225         : 
TLFamily_PHIE      .         Effective Porosity            : 
TLFamily_PHIEN     .         Effective Porosity            : 
TLFamily_PHIT      .         Porosity                      : 
TLFamily_PRMB      .         Permeability                  : 
TLFamily_PRMB_DGR  .         Permeability                  : 
TLFamily_RT        .         Formation Resistivity         : 
TLFamily_SOIL_ARCHIE .         Oil Saturation                : 
TLFamily_SOIL_DW   .         Oil Saturation                : 
TLFamily_SP        .         Spontaneous Potential         : 
TLFamily_VSH_FIN   .         Shale Volume                  : 
TLFamily_VSH_GR    .         Shale Volume                  : 
TLFamily_VSH_SP    .         Shale Volume                  : 
~Curve Information
#_______________________________________________________________________________
#
#LOGNAME           .UNIT     LOG_ID                        : DESCRIPTION
#_______________________________________________________________________________
DEPT               .M                                      : Колонка глубины 
CALI               .м                                      : Каверномер 
CILD               .мСм/м                                  : Индукционный каротаж 
COLL               .unitless                               : Описание 
CSAT               .unitless                               : Описание 
GR                 .uR/h                                   : Гамма каротаж 
GZ1                .Ohmm                                   : Градиент-зонд  длиной 0.45м 
GZ2                .Ohmm                                   : Градиент-зонд  длиной 1.05м 
GZ3                .Ohmm                                   : Градиент-зонд  длиной 2.25м 
GZ4                .Ohmm                                   : Градиент-зонд  длиной 4.5м 
GZ5                .Ohmm                                   : Градиент-зонд  длиной 8.5м 
LLS                .Ohmm                                   : Боковой каротаж 
MINV               .Ohmm                                   : Микро-градиент зонд 
MNOR               .Ohmm                                   : Микро-потенциал зонд 
NGLD               .у.е.                                   : Показания зонда НГК-60 аппаратуры ДРСТ-3-90 
OGZ                .Ohmm                                   : Обращенный градиент-зонд 
PHIE               .v/v                                    : Описание 
PHIEN              .v/v                                    :  
PHIT               .v/v                                    : Описание 
PRMB               .mD                                     :  
PRMB_DGR           .mD                                     :  
RT                 .ohmm                                   : УЭС пласта 
SOIL_ARCHIE        .v/v                                    :  
SOIL_DW            .v/v                                    :  
SP                 .мВ                                     : Потенциал самополяризации 
VSH_FIN            .v/v                                    : Описание 
VSH_GR             .v/v                                    : Shale volume 
VSH_SP             .v/v                                    : Shale Volume 
~Ascii
# ...
934.7000000000001 0.227      279.452    -9999      -9999      6.895      2.902      3.69       3.755      3.591      3.434      2.911      1.603      1.587      1.204      3.83       0.1178171  0.1178171  0.3228     0.4260074  1.714502   3.578      0.2081471  0.548836   33.326     0.6211602  0.5206044  0.721716  
934.8      0.221      274.551    -9999      -9999      6.837      2.787      3.636      3.793      3.514      3.354      3.164      1.662      1.661      1.213      3.776      0.1153413  0.1153413  0.31785    0.3833171  1.842737   3.642      0.2000464  0.5449231  33.329     0.6136627  0.5054947  0.7218307 
934.9      0.217      273.304    -9999      -9999      6.8        2.73       3.623      3.841      3.452      3.267      3.425      1.773      1.803      1.215      3.73       0.1157685  0.1157685  0.31675    0.390366   1.929508   3.659      0.2043589  0.5455582  33.333     0.6090347  0.4960858  0.7219837 
935        0.216      274.48     -9999      -9999      6.786      2.733      3.648      3.891      3.408      3.183      3.627      1.91       2.008      1.21       3.695      0.1190858  0.1190858  0.3195     0.4496926  1.963397   3.643      0.2220992  0.5516151  33.335     0.6073157  0.4925714  0.7220601 
935.1      0.216      278.02     -9999      -9999      6.795      2.787      3.698      3.936      3.385      3.111      3.713      2.027      2.223      1.199      3.671      0.1247572  0.1247572  0.32555    0.5727485  1.941543   3.597      0.2485228  0.561519   33.336     0.608463   0.4948278  0.7220984 
935.2000000000001 0.217      282.968    -9999      -9999      6.818      2.877      3.764      3.971      3.385      3.061      3.667      2.059      2.362      1.184      3.656      0.1320669  0.1320669  0.3338     0.7822721  1.886797   3.534      0.2789265  0.5734986  33.333     0.6113123  0.500641   0.7219837 
935.3      0.218      287.729    -9999      -9999      6.842      2.98       3.837      3.994      3.407      3.038      3.519      1.972      2.354      1.169      3.646      0.1393797  0.1393797  0.34205    1.068583   1.831313   3.475      0.3065333  0.5847433  33.321     0.6141524  0.5067798  0.7215249 
935.4      0.22       290.715    -9999      -9999      6.851      3.069      3.909      4.008      3.442      3.04       3.33       1.792      2.201      1.159      3.637      0.144629   0.144629   0.34755    1.336715   1.810931   3.44       0.3253094  0.5923905  33.3       0.6149119  0.5091012  0.7207227 
935.5      0.22       291.018    -9999      -9999      6.832      3.125      3.969      4.018      3.48       3.061      3.168      1.594      1.968      1.156      3.627      0.147306   0.147306   0.3492     1.498381   1.854231   3.436      0.335638   0.5961069  33.265     0.6118     0.5042129  0.7193872 
935.6      0.221      288.727    -9999      -9999      6.779      3.149      4.01       4.027      3.509      3.087      3.073      1.452      1.743      1.163      3.614      0.1459418  0.1459418  0.34535    1.413688   1.980564   3.463      0.3326881  0.5934666  33.221     0.6042674  0.4908236  0.7177112 
935.7000000000001 0.222      284.732    -9999      -9999      6.692      3.156      4.03       4.038      3.523      3.109      3.058      1.395      1.577      1.177      3.597      0.1420679  0.1420679  0.33765    1.198396   2.20687    3.512      0.3213571  0.5864435  33.169     0.5926729  0.4696114  0.7157345 
935.8      0.222      280.253    -9999      -9999      6.582      3.152      4.033      4.048999   3.523      3.12       3.118      1.403      1.471      1.195      3.578      0.1366904  0.1366904  0.32775    0.9527869  2.530387   3.568      0.3033531  0.5759333  33.119     0.5789684  0.4440987  0.7138382 
935.9      0.222      276.388    -9999      -9999      6.473      3.132      4.028      4.055      3.514      3.115      3.233      1.425      1.403      1.213      3.558      0.1310171  0.1310171  0.31785    0.7480196  2.897723   3.618      0.2818572  0.563886   33.074     0.5661601  0.4201853  0.712135  
936        0.221      273.879    -9999      -9999      6.389      3.084      4.016      4.048999   3.502      3.098      3.378      1.409      1.357      1.229      3.542      0.1253243  0.1253243  0.30905    0.5867709  3.216805   3.651      0.2567012  0.550824   33.04      0.5567445  0.4026389  0.7108502 
936.1      0.22       273.057    -9999      -9999      6.345      3.008      3.995      4.026      3.49       3.071      3.514      1.334      1.324      1.239      3.532      0.1214293  0.1214293  0.30355    0.4969614  3.397732   3.662      0.2370557  0.5411038  33.018     0.5518811  0.3937422  0.71002   
936.2000000000001 0.219      273.875    -9999      -9999      6.343      2.92       3.962      3.985      3.477      3.039      3.602      1.211      1.301      1.245      3.533      0.1182636  0.1182636  0.30025    0.4341979  3.406192   3.651      0.2181966  0.5327457  33.007     0.5514738  0.3933426  0.7096051 
936.3      0.219      275.995    -9999      -9999      6.375      2.844      3.918      3.931      3.458      3.006      3.61       1.071      1.282      1.246      3.543      0.1166752  0.1166752  0.2997     0.4057575  3.273301   3.623      0.2060717  0.5280945  33.003     0.5546204  0.3997865  0.7094542 
936.4      0.219      278.891    -9999      -9999      6.433      2.796      3.872      3.871      3.43       2.973      3.532      0.945      1.259      1.244      3.561      0.1157911  0.1157911  0.3008     0.3907419  3.045513   3.586      0.1969353  0.5254791  33.005     0.5606331  0.4117365  0.7095297 
936.5      0.22       282.02     -9999      -9999      6.511      2.778      3.828      3.81       3.392      2.942      3.394      0.845      1.227      1.237      3.587      0.1168837  0.1168837  0.30465    0.4093817  2.763969   3.546      0.1992739  0.5282773  33.007     0.5689887  0.4283723  0.7096051 
936.6      0.222      284.967    -9999      -9999      6.6        2.781      3.79       3.746      3.345      2.913      3.237      0.776      1.185      1.228      3.622      0.1185411  0.1185411  0.3096     0.4393665  2.474373   3.509      0.2051304  0.533037   33.011     0.5789663  0.4481766  0.709756  
936.7000000000001 0.223      287.57     -9999      -9999      6.687      2.784      3.752      3.68       3.293      2.882      3.098      0.747      1.136      1.215      3.668      0.1223135  0.1223135  0.31675    0.5160617  2.220635   3.477      0.223193   0.5428802  33.017     0.5892013  0.4684205  0.7099822 
936.8      0.224      289.934    -9999      -9999      6.758      2.765      3.703      3.615      3.236      2.85       2.998      0.773      1.081      1.201      3.726      0.1271201  0.1271201  0.32445    0.6334758  2.032968   3.449      0.2459822  0.5542616  33.026     0.5979695  0.4856173  0.7103218 
936.9      0.226      292.351    -9999      -9999      6.807      2.706      3.634      3.557      3.174      2.815      2.931      0.862      1.033      1.189      3.797      0.1316016  0.1316016  0.33105    0.766901   1.912784   3.421      0.2655918  0.5636618  33.042     0.604389   0.4978523  0.7109257 
937        0.227      295.134    -9999      -9999      6.838      2.601      3.542      3.51       3.106      2.776      2.883      1.009      1.009      1.181      3.875      0.1345611  0.1345611  0.33545    0.8700751  1.840447   3.388      0.2763961  0.5687107  33.064     0.6087542  0.5057514  0.7117568 
937.1      0.227      298.516    -9999      -9999      6.857      2.468      3.431      3.478      3.034      2.736      2.838      1.197      1.03       1.175      3.955      0.1368836  0.1368836  0.33875    0.9606717  1.797469   3.35       0.2833174  0.5716401  33.091     0.6117163  0.5106547  0.712778  
937.2000000000001 0.229      302.646    -9999      -9999      6.871      2.335      3.316      3.457      2.964      2.696      2.793      1.411      1.108      1.172      4.031001   0.1377637  0.1377637  0.3404     0.9974169  1.766445   3.304      0.2826676  0.5710016  33.118     0.6140492  0.5142981  0.7138003 
