~Version
 VERS              .         2.0                           : CWLS LOG ASCII STANDARD - VERSION 2.0
 WRAP              .         NO                            : ONE LINE PER DEPTH STEP
 DLM               .         SPACE                         : DELIMITING CHARACTER(SPACE TAB OR COMMA)
~Well Information
#_______________________________________________________________________________
#
#PARAMETER_NAME    .UNIT     VALUE                         : DESCRIPTION
#_______________________________________________________________________________
STRT               .M        880.1                         : First reference value
STOP               .M        1160.2                        : Last reference value
STEP               .M        0.1                           : Step increment
NULL               .         -9999                         : Missing value
COMP               .                                       : Company
WELL               .         2938                          : Well name
FLD                .         Узень                         : Field
LOC                .                                       : Location
CNTY               .                                       : County
STAT               .                                       : State
CTRY               .                                       : Country
SRVC               .         SCH                           : Service Company
DATE               .         04/21/2010                    : Date
UWI                .                                       : Unique Well ID
Block              .         7                             : 
Cartographic_reference_system .         GCS_WGS_1984                  : ESRI,PE_10_3_1- <?xml version="1.0" encoding="utf-16"?><ILateBoundCoordinateReferenceSystem name="GCS_WGS_1984"><AuthorityCode>EPSG,4326</AuthorityCode></ILateBoundCoordinateReferenceSystem>
Category           .         Нефтяная                      : 
Condition          .         В работе                      : 
Date               .         01.09.1980                    : 
EREF               .m        85.2                          : 100.8
Gorizont           .         15                            : 14
HZCS               .GCS_WGS_1984 WGS_1984_EASE-Grid_2.0_Global : ESRI,PE_10_3_1- <?xml version="1.0" encoding="utf-16"?><ILateBoundCoordinateReferenceSystem name="WGS_1984_EASE-Grid_2.0_Global"><AuthorityCode>EPSG,6933</AuthorityCode></ILateBoundCoordinateReferenceSystem>
Interpretator      .         Кушербаева А.С                : 
Kupol              .         основной                      : osnovnoi
LATI               .dega     0.6567763258                  : GCS_WGS_1984
LONG               .dega     0.4397506038                  : GCS_WGS_1984
Mud                .                                       : 
Mud_density        .                                       : 
Mud_resistivity    .                                       : 
NGDU               .         НГДУ-2                        : 
ORIGINALWELLNAME   .         2938                          : 
Spud_date          .         1980                          : 1961
Viscosity          .                                       : 
X                  .m        42429.9                       : 46154
Y                  .m        83785.33                      : 85761.93
YEAR               .         2018г                         : 
~Parameter Information Block
#_______________________________________________________________________________
#
#PARAMETER_NAME    .UNIT     VALUE                         : DESCRIPTION
#_______________________________________________________________________________
SET                .         LQC_KAZNIPI_Petrel            : 
PBBOTTOM           .M        1160.2                        : Глубина подошвы планшета
PBSCALE            .         1 _ 500                       : Вертикальный масштаб планшета
PBTOP              .M        880                           : Глубина кровли планшета
TLFamily_CALI      .         Caliper                       : 
TLFamily_CILD      .         Conductivity                  : 
TLFamily_COLL      .         Net Reservoir Flag            : 
TLFamily_CSAT      .         Fluid Code                    : 
TLFamily_DEPT      .         Measured Depth                : 
TLFamily_GR        .         Russian Gamma Ray             : 
TLFamily_GZ1       .         Gradient 045                  : 
TLFamily_GZ2       .         Gradient 105                  : 
TLFamily_GZ3       .         Gradient 225                  : 
TLFamily_GZ4       .         Gradient 425                  : 
TLFamily_GZ5       .         Gradient 850                  : 
TLFamily_LLS       .         Lateral Log Resistivity       : 
TLFamily_MINV      .         Micro Gradient Resistivity    : 
TLFamily_MNOR      .         Micro Resistivity             : 
TLFamily_NGLD      .         Neutron Gamma                 : 
TLFamily_OGZ       .         Gradient Inverted 225         : 
TLFamily_PHIE      .         Effective Porosity            : 
TLFamily_PHIEN     .         Effective Porosity            : 
TLFamily_PHIT      .         Porosity                      : 
TLFamily_PRMB      .         Permeability                  : 
TLFamily_PRMB_DGR  .         Permeability                  : 
TLFamily_RT        .         Formation Resistivity         : 
TLFamily_SOIL_ARCHIE .         Oil Saturation                : 
TLFamily_SOIL_DW   .         Oil Saturation                : 
TLFamily_SP        .         Spontaneous Potential         : 
TLFamily_VSH_FIN   .         Shale Volume                  : 
TLFamily_VSH_GR    .         Shale Volume                  : 
TLFamily_VSH_SP    .         Shale Volume                  : 
~Curve Information
#_______________________________________________________________________________
#
#LOGNAME           .UNIT     LOG_ID                        : DESCRIPTION
#_______________________________________________________________________________
DEPT               .M                                      : Колонка глубины 
CALI               .м                                      : Каверномер 
CILD               .мСм/м                                  : Индукционный каротаж 
COLL               .unitless                               : Описание 
CSAT               .unitless                               : Описание 
GR                 .uR/h                                   : Гамма каротаж 
GZ1                .Ohmm                                   : Градиент-зонд  длиной 0.45м 
GZ2                .Ohmm                                   : Градиент-зонд  длиной 1.05м 
GZ3                .Ohmm                                   : Градиент-зонд  длиной 2.25м 
GZ4                .Ohmm                                   : Градиент-зонд  длиной 4.5м 
GZ5                .Ohmm                                   : Градиент-зонд  длиной 8.5м 
LLS                .Ohmm                                   : Боковой каротаж 
MINV               .Ohmm                                   : Микро-градиент зонд 
MNOR               .Ohmm                                   : Микро-потенциал зонд 
NGLD               .у.е.                                   : Показания зонда НГК-60 аппаратуры ДРСТ-3-90 
OGZ                .Ohmm                                   : Обращенный градиент-зонд 
PHIE               .v/v                                    : Описание 
PHIEN              .v/v                                    :  
PHIT               .v/v                                    : Описание 
PRMB               .mD                                     :  
PRMB_DGR           .mD                                     :  
RT                 .ohmm                                   : УЭС пласта 
SOIL_ARCHIE        .v/v                                    :  
SOIL_DW            .v/v                                    :  
SP                 .мВ                                     : Потенциал самополяризации 
VSH_FIN            .v/v                                    : Описание 
VSH_GR             .v/v                                    : Shale volume 
VSH_SP             .v/v                                    : Shale Volume 
~Ascii
# ...
1023.1     0.246      108.101    -9999      -9999      9.552      1.807      2.226      2.558      1.885      1.678      1.835      0.886      1.227      1.074      2.678      0.183951   0.183951   0.3943     7.151168   0.937085   9.251      0.656025   0.7900482  30.155     0.6374212  0.6662507  0.6085917 
1023.2     0.243      157.394    -9999      -9999      9.488      1.818      2.233      2.507      1.912      1.681      1.792      0.946      1.281      1.082      2.689      0.1818274  0.1818274  0.3899     6.531954   0.9965245  6.353      0.5855165  0.7437512  30.237     0.6305229  0.6497279  0.6113178 
1023.3     0.239      220.185    -9999      -9999      9.431      1.852      2.266      2.462      1.941      1.69       1.765      0.977      1.289      1.09       2.694      0.1794297  0.1794297  0.3855     5.89701    1.05263    4.542      0.5091884  0.6932584  30.304     0.6244553  0.6353576  0.613553  
1023.4     0.236      285.037    -9999      -9999      9.391      1.901      2.317      2.424      1.964      1.701      1.774      0.967      1.246      1.097      2.694      0.1769971  0.1769971  0.38165    5.315858   1.093878   3.508      0.4393089  0.6469646  30.343     0.6201603  0.6254635  0.6148572 
1023.5     0.234      339.75     -9999      -9999      9.374      1.953      2.373      2.391      1.976      1.714      1.826      0.918      1.165      1.102      2.689      0.1749222  0.1749222  0.3789     4.865652   1.111894   2.943      0.3848594  0.6110974  30.345     0.6181147  0.6213052  0.6149241 
1023.6     0.233      377.141    -9999      -9999      9.376      1.998      2.418      2.363      1.972      1.725      1.917      0.85       1.076      1.104      2.68       0.1739183  0.1739183  0.3778     4.661726   1.109758   2.652      0.3508128  0.5886816  30.313     0.6178234  0.6217932  0.6138538 
1023.7     0.235      397.213    -9999      -9999      9.381      2.026      2.44       2.337      1.952      1.733      2.026      0.788      1.005      1.103      2.667      0.1745808  0.1745808  0.37835    4.795315   1.10444    2.518      0.3370226  0.5788652  30.256     0.6174825  0.623014   0.611951  
1023.8     0.238      405.015    -9999      -9999      9.372      2.031      2.435      2.314      1.919      1.734      2.126      0.749      0.964      1.1        2.651      0.1770159  0.1770159  0.38       5.320134   1.114032   2.469      0.3389047  0.5780695  30.179     0.6151032  0.6208178  0.6093885 
1023.9     0.242      406.791    -9999      -9999      9.346      2.013      2.402      2.297      1.878      1.729      2.191      0.738      0.95       1.097      2.634      0.180198   0.180198   0.38165    6.093423   1.142216   2.458      0.3477185  0.5810984  30.089     0.6104608  0.6145166  0.606405  
1024       0.246      407.419    -9999      -9999      9.311      1.979      2.352      2.287      1.839      1.716      2.203      0.746      0.951      1.092      2.621      0.1848429  0.1848429  0.3844     7.428425   1.181285   2.454      0.3615301  0.5866364  29.995     0.6047185  0.606135   0.6033021 
1024.1     0.249      409.535    -9999      -9999      9.278      1.936      2.296      2.285      1.806      1.696      2.161      0.764      0.957      1.087      2.613      0.1893677  0.1893677  0.38715    9.009619   1.219344   2.442      0.373398   0.5912346  29.905     0.5993404  0.598337   0.6003438 
1024.2     0.252      413.793    -9999      -9999      9.254      1.886      2.243      2.29       1.781      1.67       2.078      0.79       0.965      1.08       2.613      0.194559   0.194559   0.391      11.24249   1.247792   2.417      0.3850226  0.5958363  29.828     0.5952757  0.5927288  0.5978227 
1024.3     0.254      419.466    -9999      -9999      9.24       1.832      2.197      2.298      1.764      1.641      1.976      0.826      0.978      1.072      2.619      0.1998125  0.1998125  0.3954     14.06599   1.264692   2.384      0.3952405  0.5999619  29.769     0.5926893  0.5894817  0.595897  
1024.4     0.256      425.281    -9999      -9999      9.238      1.779      2.159      2.308      1.753      1.611      1.875      0.874      0.996      1.064      2.63       0.204493   0.204493   0.3998     17.17372   1.267125   2.351      0.4034246  0.6034513  29.731     0.5918394  0.5890193  0.5946596 
1024.5     0.257      430.216    -9999      -9999      9.247      1.731      2.126      2.321      1.744      1.581      1.787      0.927      1.015      1.057      2.642      0.2080689  0.2080689  0.40365    20.00319   1.256214   2.324      0.4091704  0.606141   29.718     0.5926698  0.591103   0.5942367 
1024.6     0.256      433.944    -9999      -9999      9.266      1.691      2.096      2.336      1.737      1.555      1.718      0.979      1.027      1.054      2.656      0.208914   0.208914   0.4053     20.73727   1.233486   2.304      0.4088597  0.6060416  29.732     0.5951092  0.5955263  0.5946921 
1024.7     0.254      436.77     -9999      -9999      9.289      1.662      2.069      2.355      1.73       1.535      1.665      1.036      1.032      1.053      2.672      0.208326   0.208326   0.40585    20.22369   1.206524   2.29       0.4057095  0.6047369  29.778     0.5985577  0.600925   0.5961904 
1024.8     0.249      439.238    -9999      -9999      9.311      1.644      2.047      2.374      1.725      1.522      1.627      1.122      1.042      1.054      2.69       0.2064905  0.2064905  0.4053     18.70091   1.181285   2.277      0.3995091  0.6019214  29.857     0.6024531  0.606135   0.5987712 
1024.9     0.242      441.724    -9999      -9999      9.33       1.637      2.031      2.393      1.724      1.518      1.601      1.272      1.079      1.057      2.71       0.2034911  0.2034911  0.40365    16.45536   1.159913   2.264      0.3901713  0.5975141  29.968     0.606542   0.6106707  0.6024133 
1025       0.234      444.245    -9999      -9999      9.345      1.645      2.026      2.41       1.731      1.522      1.587      1.503      1.155      1.06       2.732      0.2005168  0.2005168  0.402      14.49489   1.143314   2.251      0.3806288  0.5930367  30.102     0.6105554  0.6142756  0.6068351 
1025.1     0.228      446.512    -9999      -9999      9.359      1.671      2.035      2.425      1.746      1.531      1.582      1.794      1.268      1.064      2.755      0.1969803  0.1969803  0.3998     12.46554   1.128036   2.24       0.3695075  0.5878527  30.244     0.6146051  0.6176593  0.611551  
1025.2     0.224      448.111    -9999      -9999      9.371      1.716      2.054      2.437      1.767      1.543      1.586      2.095      1.393      1.07       2.776      0.1924492  0.1924492  0.3965     10.27507   1.115103   2.232      0.355517   0.5812864  30.38      0.6183355  0.6205744  0.6160967 
1025.3     0.223      448.653    -9999      -9999      9.377      1.774      2.081      2.446      1.792      1.558      1.594      2.353      1.502      1.077      2.793      0.1876755  0.1876755  0.39265    8.382321   1.108693   2.229      0.3408468  0.574413   30.503     0.6211347  0.6220371  0.6202324 
1025.4     0.224      447.862    -9999      -9999      9.372      1.838      2.11       2.452      1.817      1.576      1.609      2.529      1.576      1.085      2.805      0.1828576  0.1828576  0.38825    6.825335   1.114032   2.233      0.326313   0.5675629  30.614     0.6224012  0.6208178  0.6239847 
1025.5     0.227      445.624    -9999      -9999      9.35       1.903      2.137      2.454      1.84       1.596      1.634      2.619      1.61       1.094      2.813      0.1781376  0.1781376  0.3833     5.580834   1.137834   2.244      0.3123802  0.5608457  30.73      0.6217042  0.6154819  0.6279263 
1025.6     0.229      442.057    -9999      -9999      9.311      1.963      2.16       2.449      1.859      1.617      1.678      2.635      1.609      1.102      2.817      0.1745412  0.1745412  0.3789     4.787243   1.181285   2.262      0.3026759  0.5560371  30.861     0.619269   0.606135   0.632403  
