~Version
 VERS              .         2.0                           : CWLS LOG ASCII STANDARD - VERSION 2.0
 WRAP              .         NO                            : ONE LINE PER DEPTH STEP
 DLM               .         SPACE                         : DELIMITING CHARACTER(SPACE TAB OR COMMA)
~Well Information
#_______________________________________________________________________________
#
#PARAMETER_NAME    .UNIT     VALUE                         : DESCRIPTION
#_______________________________________________________________________________
STRT               .M        880.1                         : First reference value
STOP               .M        1160.2                        : Last reference value
STEP               .M        0.1                           : Step increment
NULL               .         -9999                         : Missing value
COMP               .                                       : Company
WELL               .         2938                          : Well name
FLD                .         Узень                         : Field
LOC                .                                       : Location
CNTY               .                                       : County
STAT               .                                       : State
CTRY               .                                       : Country
SRVC               .         SCH                           : Service Company
DATE               .         04/21/2010                    : Date
UWI                .                                       : Unique Well ID
Block              .         7                             : 
Cartographic_reference_system .         GCS_WGS_1984                  : ESRI,PE_10_3_1- <?xml version="1.0" encoding="utf-16"?><ILateBoundCoordinateReferenceSystem name="GCS_WGS_1984"><AuthorityCode>EPSG,4326</AuthorityCode></ILateBoundCoordinateReferenceSystem>
Category           .         Нефтяная                      : 
Condition          .         В работе                      : 
Date               .         01.09.1980                    : 
EREF               .m        85.2                          : 100.8
Gorizont           .         15                            : 14
HZCS               .GCS_WGS_1984 WGS_1984_EASE-Grid_2.0_Global : ESRI,PE_10_3_1- <?xml version="1.0" encoding="utf-16"?><ILateBoundCoordinateReferenceSystem name="WGS_1984_EASE-Grid_2.0_Global"><AuthorityCode>EPSG,6933</AuthorityCode></ILateBoundCoordinateReferenceSystem>
Interpretator      .         Кушербаева А.С                : 
Kupol              .         основной                      : osnovnoi
LATI               .dega     0.6567763258                  : GCS_WGS_1984
LONG               .dega     0.4397506038                  : GCS_WGS_1984
Mud                .                                       : 
Mud_density        .                                       : 
Mud_resistivity    .                                       : 
NGDU               .         НГДУ-2                        : 
ORIGINALWELLNAME   .         2938                          : 
Spud_date          .         1980                          : 1961
Viscosity          .                                       : 
X                  .m        42429.9                       : 46154
Y                  .m        83785.33                      : 85761.93
YEAR               .         2018г                         : 
~Parameter Information Block
#_______________________________________________________________________________
#
#PARAMETER_NAME    .UNIT     VALUE                         : DESCRIPTION
#_______________________________________________________________________________
SET                .         LQC_KAZNIPI_Petrel            : 
PBBOTTOM           .M        1160.2                        : Глубина подошвы планшета
PBSCALE            .         1 _ 500                       : Вертикальный масштаб планшета
PBTOP              .M        880                           : Глубина кровли планшета
TLFamily_CALI      .         Caliper                       : 
TLFamily_CILD      .         Conductivity                  : 
TLFamily_COLL      .         Net Reservoir Flag            : 
TLFamily_CSAT      .         Fluid Code                    : 
TLFamily_DEPT      .         Measured Depth                : 
TLFamily_GR        .         Russian Gamma Ray             : 
TLFamily_GZ1       .         Gradient 045                  : 
TLFamily_GZ2       .         Gradient 105                  : 
TLFamily_GZ3       .         Gradient 225                  : 
TLFamily_GZ4       .         Gradient 425                  : 
TLFamily_GZ5       .         Gradient 850                  : 
TLFamily_LLS       .         Lateral Log Resistivity       : 
TLFamily_MINV      .         Micro Gradient Resistivity    : 
TLFamily_MNOR      .         Micro Resistivity             : 
TLFamily_NGLD      .         Neutron Gamma                 : 
TLFamily_OGZ       .         Gradient Inverted 225         : 
TLFamily_PHIE      .         Effective Porosity            : 
TLFamily_PHIEN     .         Effective Porosity            : 
TLFamily_PHIT      .         Porosity                      : 
TLFamily_PRMB      .         Permeability                  : 
TLFamily_PRMB_DGR  .         Permeability                  : 
TLFamily_RT        .         Formation Resistivity         : 
TLFamily_SOIL_ARCHIE .         Oil Saturation                : 
TLFamily_SOIL_DW   .         Oil Saturation                : 
TLFamily_SP        .         Spontaneous Potential         : 
TLFamily_VSH_FIN   .         Shale Volume                  : 
TLFamily_VSH_GR    .         Shale Volume                  : 
TLFamily_VSH_SP    .         Shale Volume                  : 
~Curve Information
#_______________________________________________________________________________
#
#LOGNAME           .UNIT     LOG_ID                        : DESCRIPTION
#_______________________________________________________________________________
DEPT               .M                                      : Колонка глубины 
CALI               .м                                      : Каверномер 
CILD               .мСм/м                                  : Индукционный каротаж 
COLL               .unitless                               : Описание 
CSAT               .unitless                               : Описание 
GR                 .uR/h                                   : Гамма каротаж 
GZ1                .Ohmm                                   : Градиент-зонд  длиной 0.45м 
GZ2                .Ohmm                                   : Градиент-зонд  длиной 1.05м 
GZ3                .Ohmm                                   : Градиент-зонд  длиной 2.25м 
GZ4                .Ohmm                                   : Градиент-зонд  длиной 4.5м 
GZ5                .Ohmm                                   : Градиент-зонд  длиной 8.5м 
LLS                .Ohmm                                   : Боковой каротаж 
MINV               .Ohmm                                   : Микро-градиент зонд 
MNOR               .Ohmm                                   : Микро-потенциал зонд 
NGLD               .у.е.                                   : Показания зонда НГК-60 аппаратуры ДРСТ-3-90 
OGZ                .Ohmm                                   : Обращенный градиент-зонд 
PHIE               .v/v                                    : Описание 
PHIEN              .v/v                                    :  
PHIT               .v/v                                    : Описание 
PRMB               .mD                                     :  
PRMB_DGR           .mD                                     :  
RT                 .ohmm                                   : УЭС пласта 
SOIL_ARCHIE        .v/v                                    :  
SOIL_DW            .v/v                                    :  
SP                 .мВ                                     : Потенциал самополяризации 
VSH_FIN            .v/v                                    : Описание 
VSH_GR             .v/v                                    : Shale volume 
VSH_SP             .v/v                                    : Shale Volume 
~Ascii
# ...
898.3      0.218      567.463    1          3          4.102      1.187      1.333      1.563      1.502      1.932      1.247      2.081      1.621      1.325      1.689      0.1935771  0.1935771  0.25625    10.78139   92.44215   1.762      0.2835447  0.3890955  16.161     0.1899179  0.1021842  0.2776517 
898.4      0.219      567.147    1          3          4.065      1.185      1.32       1.568      1.482      1.98       1.226      1.997      1.532      1.32       1.694      0.196607   0.196607   0.259      12.26864   96.34735   1.763      0.293359   0.3969762  16.162     0.1890696  0.1004723  0.277667  
898.5      0.221      565.317    1          3          4.027      1.202      1.321      1.572      1.462      2.021      1.212      1.972      1.432      1.314      1.698      0.2001871  0.2001871  0.2623     14.29255   100.5299   1.769      0.3054867  0.4069084  16.164     0.1882207  0.09874389 0.2776976 
898.6      0.221      562.729    1          3          4          1.232      1.332      1.574      1.441      2.051      1.205      2.017      1.359      1.31       1.7        0.2025717  0.2025717  0.2645     15.82257   103.6115   1.777      0.3140664  0.4140217  16.17      0.1876617  0.09753394 0.2777895 
898.7000000000001 0.221      560.505    1          3          3.991      1.266      1.346      1.575      1.423      2.07       1.209      2.123      1.334      1.307      1.701      0.2042573  0.2042573  0.26615    17.00194   104.6596   1.784      0.3202543  0.4193001  16.182     0.1875536  0.09713393 0.2779733 
898.8      0.22       559.613    1          3          4.004      1.297      1.352      1.576      1.408      2.08       1.222      2.26       1.372      1.308      1.702      0.2035638  0.2035638  0.2656     16.50645   103.1491   1.787      0.3187752  0.4182625  16.201     0.1879885  0.09771226 0.2782648 
898.9      0.218      560.413    1          3          4.037      1.317      1.344      1.575      1.397      2.083      1.24       2.392      1.474      1.313      1.702      0.2005107  0.2005107  0.26285    14.49116   99.4119    1.784      0.3092055  0.4105248  16.224     0.188907   0.09919584 0.2786181 
899        0.216      562.489    1          3          4.08       1.325      1.323      1.574      1.389      2.081      1.256      2.481      1.625      1.322      1.702      0.1951752  0.1951752  0.2579     11.54188   94.74469   1.778      0.291668   0.3961956  16.248     0.190075   0.1011628  0.2789873 
899.1      0.214      563.704    1          3          4.127      1.324      1.297      1.572      1.38       2.074      1.265      2.519      1.783      1.333      1.702      0.1887149  0.1887149  0.25185    8.76224    89.89355   1.774      0.2698233  0.3784294  16.267     0.1913187  0.1033574  0.27928   
899.2000000000001 0.213      564.85     1          3          4.175      1.317      1.277      1.568      1.37       2.063      1.263      2.532      1.896      1.343      1.702      0.1828063  0.1828063  0.24635    6.810438   85.19543   1.77       0.2485154  0.361254   16.279     0.1925565  0.1056479  0.279465  
899.3      0.213      566.41     1          3          4.224      1.312      1.273      1.563      1.355      2.05       1.254      2.57       1.937      1.352      1.703      0.1774466  0.1774466  0.2414     5.418767   80.65267   1.766      0.2279652  0.3448493  16.285     0.193798   0.1080384  0.2795576 
899.4      0.213      566.486    1          3          4.268      1.309      1.289      1.558      1.338      2.039      1.242      2.661      1.922      1.356      1.704      0.1748798  0.1748798  0.2392     4.856865   76.78023   1.765      0.2178972  0.3371488  16.287     0.1949098  0.1102311  0.2795885 
899.5      0.214      565.016    1          3          4.301      1.309      1.32       1.553      1.321      2.035      1.239      2.79       1.908      1.357      1.708      0.1740511  0.1740511  0.23865    4.688201   73.9984    1.77       0.2156967  0.3358865  16.288     0.1957543  0.1119047  0.279604  
899.6      0.214      562.387    1          3          4.317      1.307      1.359      1.548      1.307      2.04       1.247      2.896      1.935      1.356      1.714      0.1744657  0.1744657  0.2392     4.771842   72.68617   1.778      0.2189749  0.3389271  16.288     0.1961646  0.1127253  0.279604  
899.7000000000001 0.213      559.011    1          3          4.321      1.299      1.397      1.542      1.298      2.055      1.266      2.923      2.001      1.355      1.726      0.1749817  0.1749817  0.23975    4.878011   72.36176   1.789      0.2232325  0.3426532  16.288     0.1962677  0.1129314  0.279604  
899.8      0.212      555.051    1          3          4.324      1.284      1.429      1.534      1.293      2.078      1.293      2.857      2.058      1.357      1.743      0.1738561  0.1738561  0.23865    4.649385   72.1194    1.802      0.2215041  0.3415039  16.288     0.1963451  0.1130862  0.279604  
899.9      0.21       550.434    1          3          4.339      1.27       1.453      1.524      1.294      2.104      1.319      2.731      2.06       1.36       1.767      0.1720779  0.1720779  0.237      4.309804   70.91971   1.817      0.2175516  0.3387468  16.288     0.1967337  0.1138634  0.279604  
900        0.208      545.119    1          3          4.369      1.268      1.471      1.514      1.299      2.127      1.34       2.603      1.999      1.364      1.796      0.1696188  0.1696188  0.2348     3.880692   68.57994   1.834      0.2111358  0.3342564  16.288     0.197519   0.115434   0.279604  
900.1      0.206      542.09     1          3          4.405      1.288      1.486      1.504      1.309      2.143      1.354      2.518      1.904      1.368      1.828      0.167103   0.167103   0.2326     3.485874   65.87383   1.845      0.2030416  0.3284319  16.288     0.1984756  0.1173473  0.279604  
900.2000000000001 0.205      539.293    1          3          4.432      1.333      1.5        1.496      1.324      2.15       1.37       2.492      1.815      1.371      1.86       0.1652128  0.1652128  0.23095    3.215884   63.91459   1.854      0.1969419  0.3240894  16.288     0.1992035  0.118803   0.279604  
900.3      0.204      533.387    1          3          4.438      1.4        1.516      1.489      1.342      2.146      1.397      2.51       1.755      1.373      1.887      0.1640591  0.1640591  0.22985    3.061469   63.48718   1.875      0.1962845  0.3240453  16.288     0.1993665  0.119129   0.279604  
900.4      0.204      527.94     1          3          4.415      1.478      1.532      1.484      1.363      2.133      1.444      2.54       1.727      1.372      1.908      0.1648144  0.1648144  0.2304     3.161705   65.14131   1.894      0.2032722  0.3296603  16.288     0.1987441  0.1178843  0.279604  
900.5      0.204      523.452    1          3          4.367      1.555      1.55       1.483      1.382      2.11       1.513      2.555      1.719      1.369      1.923      0.1668862  0.1668862  0.23205    3.453778   68.73348   1.91       0.2149983  0.3386859  16.288     0.1974663  0.1153286  0.279604  
900.6      0.205      520.31     1          3          4.302      1.62       1.569      1.484      1.396      2.078      1.594      2.543      1.721      1.366      1.934      0.1690952  0.1690952  0.2337     3.79499    73.9157    1.922      0.226215   0.3470483  16.287     0.1957722  0.1119558  0.2795885 
900.7000000000001 0.206      518.726    1          3          4.235      1.661      1.588      1.488      1.401      2.039      1.669      2.516      1.722      1.364      1.941      0.1707646  0.1707646  0.2348     4.075039   79.66663   1.928      0.2339288  0.3524959  16.282     0.1940469  0.1085824  0.2795113 
900.8      0.207      518.705    1          3          4.179      1.671      1.606      1.494      1.394      1.994      1.718      2.491      1.718      1.365      1.945      0.1706974  0.1706974  0.23425    4.063384   84.81523   1.928      0.2336663  0.3515003  16.27      0.1925836  0.105841   0.2793263 
