~Version
 VERS              .         2.0                           : CWLS LOG ASCII STANDARD - VERSION 2.0
 WRAP              .         NO                            : ONE LINE PER DEPTH STEP
 DLM               .         SPACE                         : DELIMITING CHARACTER(SPACE TAB OR COMMA)
~Well Information
#_______________________________________________________________________________
#
#PARAMETER_NAME    .UNIT     VALUE                         : DESCRIPTION
#_______________________________________________________________________________
STRT               .M        880.1                         : First reference value
STOP               .M        1160.2                        : Last reference value
STEP               .M        0.1                           : Step increment
NULL               .         -9999                         : Missing value
COMP               .                                       : Company
WELL               .         2938                          : Well name
FLD                .         Узень                         : Field
LOC                .                                       : Location
CNTY               .                                       : County
STAT               .                                       : State
CTRY               .                                       : Country
SRVC               .         SCH                           : Service Company
DATE               .         04/21/2010                    : Date
UWI                .                                       : Unique Well ID
Block              .         7                             : 
Cartographic_reference_system .         GCS_WGS_1984                  : ESRI,PE_10_3_1- <?xml version="1.0" encoding="utf-16"?><ILateBoundCoordinateReferenceSystem name="GCS_WGS_1984"><AuthorityCode>EPSG,4326</AuthorityCode></ILateBoundCoordinateReferenceSystem>
Category           .         Нефтяная                      : 
Condition          .         В работе                      : 
Date               .         01.09.1980                    : 
EREF               .m        85.2                          : 100.8
Gorizont           .         15                            : 14
HZCS               .GCS_WGS_1984 WGS_1984_EASE-Grid_2.0_Global : ESRI,PE_10_3_1- <?xml version="1.0" encoding="utf-16"?><ILateBoundCoordinateReferenceSystem name="WGS_1984_EASE-Grid_2.0_Global"><AuthorityCode>EPSG,6933</AuthorityCode></ILateBoundCoordinateReferenceSystem>
Interpretator      .         Кушербаева А.С                : 
Kupol              .         основной                      : osnovnoi
LATI               .dega     0.6567763258                  : GCS_WGS_1984
LONG               .dega     0.4397506038                  : GCS_WGS_1984
Mud                .                                       : 
Mud_density        .                                       : 
Mud_resistivity    .                                       : 
NGDU               .         НГДУ-2                        : 
ORIGINALWELLNAME   .         2938                          : 
Spud_date          .         1980                          : 1961
Viscosity          .                                       : 
X                  .m        42429.9                       : 46154
Y                  .m        83785.33                      : 85761.93
YEAR               .         2018г                         : 
~Parameter Information Block
#_______________________________________________________________________________
#
#PARAMETER_NAME    .UNIT     VALUE                         : DESCRIPTION
#_______________________________________________________________________________
SET                .         LQC_KAZNIPI_Petrel            : 
PBBOTTOM           .M        1160.2                        : Глубина подошвы планшета
PBSCALE            .         1 _ 500                       : Вертикальный масштаб планшета
PBTOP              .M        880                           : Глубина кровли планшета
TLFamily_CALI      .         Caliper                       : 
TLFamily_CILD      .         Conductivity                  : 
TLFamily_COLL      .         Net Reservoir Flag            : 
TLFamily_CSAT      .         Fluid Code                    : 
TLFamily_DEPT      .         Measured Depth                : 
TLFamily_GR        .         Russian Gamma Ray             : 
TLFamily_GZ1       .         Gradient 045                  : 
TLFamily_GZ2       .         Gradient 105                  : 
TLFamily_GZ3       .         Gradient 225                  : 
TLFamily_GZ4       .         Gradient 425                  : 
TLFamily_GZ5       .         Gradient 850                  : 
TLFamily_LLS       .         Lateral Log Resistivity       : 
TLFamily_MINV      .         Micro Gradient Resistivity    : 
TLFamily_MNOR      .         Micro Resistivity             : 
TLFamily_NGLD      .         Neutron Gamma                 : 
TLFamily_OGZ       .         Gradient Inverted 225         : 
TLFamily_PHIE      .         Effective Porosity            : 
TLFamily_PHIEN     .         Effective Porosity            : 
TLFamily_PHIT      .         Porosity                      : 
TLFamily_PRMB      .         Permeability                  : 
TLFamily_PRMB_DGR  .         Permeability                  : 
TLFamily_RT        .         Formation Resistivity         : 
TLFamily_SOIL_ARCHIE .         Oil Saturation                : 
TLFamily_SOIL_DW   .         Oil Saturation                : 
TLFamily_SP        .         Spontaneous Potential         : 
TLFamily_VSH_FIN   .         Shale Volume                  : 
TLFamily_VSH_GR    .         Shale Volume                  : 
TLFamily_VSH_SP    .         Shale Volume                  : 
~Curve Information
#_______________________________________________________________________________
#
#LOGNAME           .UNIT     LOG_ID                        : DESCRIPTION
#_______________________________________________________________________________
DEPT               .M                                      : Колонка глубины 
CALI               .м                                      : Каверномер 
CILD               .мСм/м                                  : Индукционный каротаж 
COLL               .unitless                               : Описание 
CSAT               .unitless                               : Описание 
GR                 .uR/h                                   : Гамма каротаж 
GZ1                .Ohmm                                   : Градиент-зонд  длиной 0.45м 
GZ2                .Ohmm                                   : Градиент-зонд  длиной 1.05м 
GZ3                .Ohmm                                   : Градиент-зонд  длиной 2.25м 
GZ4                .Ohmm                                   : Градиент-зонд  длиной 4.5м 
GZ5                .Ohmm                                   : Градиент-зонд  длиной 8.5м 
LLS                .Ohmm                                   : Боковой каротаж 
MINV               .Ohmm                                   : Микро-градиент зонд 
MNOR               .Ohmm                                   : Микро-потенциал зонд 
NGLD               .у.е.                                   : Показания зонда НГК-60 аппаратуры ДРСТ-3-90 
OGZ                .Ohmm                                   : Обращенный градиент-зонд 
PHIE               .v/v                                    : Описание 
PHIEN              .v/v                                    :  
PHIT               .v/v                                    : Описание 
PRMB               .mD                                     :  
PRMB_DGR           .mD                                     :  
RT                 .ohmm                                   : УЭС пласта 
SOIL_ARCHIE        .v/v                                    :  
SOIL_DW            .v/v                                    :  
SP                 .мВ                                     : Потенциал самополяризации 
VSH_FIN            .v/v                                    : Описание 
VSH_GR             .v/v                                    : Shale volume 
VSH_SP             .v/v                                    : Shale Volume 
~Ascii
# ...
1150.5     0.208      91.117     1          2          -9999      5.282      9.010999   4.543      5.349      4.34       16.859     3.445      3.478      -9999      -9999      -9999      -9999      -9999      -9999      -9999      10.975     -9999      -9999      -33.75     -4999.49   -9999      0.02      
1150.6     0.208      86.659     1          2          -9999      5.475999   9.555      4.751      5.499      4.465      17.227     3.444      3.498      -9999      -9999      -9999      -9999      -9999      -9999      -9999      11.539     -9999      -9999      -33.75     -4999.49   -9999      0.02      
1150.7     0.208      82.924     1          2          -9999      5.66       10.093     4.982      5.666      4.583      17.523     3.419      3.505      -9999      -9999      -9999      -9999      -9999      -9999      -9999      12.059     -9999      -9999      -33.75     -4999.49   -9999      0.02      
1150.8     0.208      79.928     1          2          -9999      5.823      10.626     5.203      5.846      4.694      17.75      3.369      3.495      -9999      -9999      -9999      -9999      -9999      -9999      -9999      12.511     -9999      -9999      -33.75     -4999.49   -9999      0.02      
1150.9     0.208      77.666     1          2          -9999      5.959      11.151     5.343      6.032      4.797      17.893     3.307      3.471      -9999      -9999      -9999      -9999      -9999      -9999      -9999      12.876     -9999      -9999      -33.75     -4999.49   -9999      0.02      
1151       0.209      76.146     1          2          -9999      6.072      11.665     5.343      6.217999   4.895      17.907     3.25       3.44       -9999      -9999      -9999      -9999      -9999      -9999      -9999      13.133     -9999      -9999      -33.75     -4999.49   -9999      0.02      
1151.1     0.209      75.439     1          2          -9999      6.172      12.164     -9999      6.403      4.986      17.734     3.214      3.413      -9999      -9999      -9999      -9999      -9999      -9999      -9999      13.256     -9999      -9999      -33.75     -4999.49   -9999      0.02      
1151.2     0.209      75.703     1          2          -9999      6.271      12.647     -9999      6.592      5.067      16.983     3.212      3.402      -9999      -9999      -9999      -9999      -9999      -9999      -9999      13.209     -9999      -9999      -33.75     -4999.49   -9999      0.02      
1151.3     0.209      77.212     1          2          -9999      6.38       13.11      -9999      6.793001   5.134      15.689     3.246      3.414      -9999      -9999      -9999      -9999      -9999      -9999      -9999      12.951     -9999      -9999      -33.75     -4999.49   -9999      0.02      
1151.4     0.209      80.337     1          2          -9999      6.506999   13.545     -9999      7.005      5.177      14.504     3.31       3.449      -9999      -9999      -9999      -9999      -9999      -9999      -9999      12.447     -9999      -9999      -33.75     -4999.49   -9999      0.02      
1151.5     0.209      85.519     -9999      -9999      -9999      6.656001   13.937     -9999      7.216      5.188      13.15      3.38       3.499      -9999      -9999      -9999      -9999      -9999      -9999      -9999      11.693     -9999      -9999      -33.75     -4999.49   -9999      0.02      
1151.6     0.209      93.149     -9999      -9999      -9999      6.829      14.261     -9999      7.408      5.161      11.716     3.416      3.542      -9999      -9999      -9999      -9999      -9999      -9999      -9999      10.735     -9999      -9999      -33.75     -4999.49   -9999      0.02      
1151.7     0.209      103.435    -9999      -9999      -9999      7.015999   14.481     -9999      7.552999   5.09       10.287     3.363      3.54       -9999      -9999      -9999      -9999      -9999      -9999      -9999      9.668      -9999      -9999      -33.75     -4999.49   -9999      0.02      
1151.8     0.209      116.206    -9999      -9999      -9999      7.193      14.554     -9999      7.587      4.973      8.925      3.173      3.445      -9999      -9999      -9999      -9999      -9999      -9999      -9999      8.605      -9999      -9999      -33.75     -4999.49   -9999      0.02      
1151.9     0.209      130.746    -9999      -9999      -9999      7.302      14.428     -9999      7.351      4.808      7.672      2.834      3.22       -9999      -9999      -9999      -9999      -9999      -9999      -9999      7.648      -9999      -9999      -33.75     -4999.49   -9999      0.02      
1152       0.209      145.724    -9999      -9999      -9999      7.268      14.054     -9999      6.578001   4.6        6.561      2.396      2.878      -9999      -9999      -9999      -9999      -9999      -9999      -9999      6.862      -9999      -9999      -33.75     -4999.49   -9999      0.02      
1152.1     0.21       159.339    -9999      -9999      -9999      7.01       13.396     -9999      4.99       4.356      5.636      1.966      2.5        -9999      -9999      -9999      -9999      -9999      -9999      -9999      6.276      -9999      -9999      -33.75     -4999.49   -9999      0.02      
1152.2     0.21       169.765    -9999      -9999      -9999      6.495      12.458     -9999      2.51       4.092      4.961      1.672      2.209      -9999      -9999      -9999      -9999      -9999      -9999      -9999      5.89       -9999      -9999      -33.75     -4999.49   -9999      0.02      
1152.3     0.21       175.732    -9999      -9999      -9999      5.766      11.303     -9999      -9999      3.83       4.594      1.6        2.102      -9999      -9999      -9999      -9999      -9999      -9999      -9999      5.69       -9999      -9999      -33.75     -4999.49   -9999      0.02      
1152.4     0.21       177.031    -9999      -9999      -9999      4.946      10.046     -9999      -9999      3.596      4.57       1.754      2.197      -9999      -9999      -9999      -9999      -9999      -9999      -9999      5.649      -9999      -9999      -33.75     -4999.49   -9999      0.02      
1152.5     0.211      174.573    -9999      -9999      -9999      4.192      8.830999   -9999      -9999      3.413      4.873      2.064      2.427      -9999      -9999      -9999      -9999      -9999      -9999      -9999      5.728      -9999      -9999      -33.75     -4999.49   -9999      0.02      
1152.6     0.211      169.999    -9999      -9999      -9999      3.628      7.781001   -9999      -9999      3.296      5.442      2.427      2.691      -9999      -9999      -9999      -9999      -9999      -9999      -9999      5.882      -9999      -9999      -33.75     -4999.49   -9999      0.02      
1152.7     0.211      164.965    -9999      -9999      -9999      3.307      6.969      -9999      -9999      3.249      6.185      2.751      2.908      -9999      -9999      -9999      -9999      -9999      -9999      -9999      6.062      -9999      -9999      -33.75     -4999.49   -9999      0.02      
1152.8     0.211      160.532    1          2          -9999      3.207      6.407001   -9999      -9999      3.262      7          2.982      3.043      -9999      -9999      -9999      -9999      -9999      -9999      -9999      6.229      -9999      -9999      -33.75     -4999.49   -9999      0.02      
1152.9     0.212      156.863    1          2          -9999      3.26       6.066      -9999      -9999      3.319      7.797      3.112      3.102      -9999      -9999      -9999      -9999      -9999      -9999      -9999      6.375      -9999      -9999      -33.75     -4999.49   -9999      0.02      
1153       0.212      153.386    1          2          -9999      3.389      5.895      -9999      -9999      3.403      8.512      3.163      3.111      -9999      -9999      -9999      -9999      -9999      -9999      -9999      6.519      -9999      -9999      -33.75     -4999.49   -9999      0.02      
