~Version
 VERS              .         2.0                           : CWLS LOG ASCII STANDARD - VERSION 2.0
 WRAP              .         NO                            : ONE LINE PER DEPTH STEP
 DLM               .         SPACE                         : DELIMITING CHARACTER(SPACE TAB OR COMMA)
~Well Information
#_______________________________________________________________________________
#
#PARAMETER_NAME    .UNIT     VALUE                         : DESCRIPTION
#_______________________________________________________________________________
STRT               .M        880.1                         : First reference value
STOP               .M        1160.2                        : Last reference value
STEP               .M        0.1                           : Step increment
NULL               .         -9999                         : Missing value
COMP               .                                       : Company
WELL               .         2938                          : Well name
FLD                .         Узень                         : Field
LOC                .                                       : Location
CNTY               .                                       : County
STAT               .                                       : State
CTRY               .                                       : Country
SRVC               .         SCH                           : Service Company
DATE               .         04/21/2010                    : Date
UWI                .                                       : Unique Well ID
Block              .         7                             : 
Cartographic_reference_system .         GCS_WGS_1984                  : ESRI,PE_10_3_1- <?xml version="1.0" encoding="utf-16"?><ILateBoundCoordinateReferenceSystem name="GCS_WGS_1984"><AuthorityCode>EPSG,4326</AuthorityCode></ILateBoundCoordinateReferenceSystem>
Category           .         Нефтяная                      : 
Condition          .         В работе                      : 
Date               .         01.09.1980                    : 
EREF               .m        85.2                          : 100.8
Gorizont           .         15                            : 14
HZCS               .GCS_WGS_1984 WGS_1984_EASE-Grid_2.0_Global : ESRI,PE_10_3_1- <?xml version="1.0" encoding="utf-16"?><ILateBoundCoordinateReferenceSystem name="WGS_1984_EASE-Grid_2.0_Global"><AuthorityCode>EPSG,6933</AuthorityCode></ILateBoundCoordinateReferenceSystem>
Interpretator      .         Кушербаева А.С                : 
Kupol              .         основной                      : osnovnoi
LATI               .dega     0.6567763258                  : GCS_WGS_1984
LONG               .dega     0.4397506038                  : GCS_WGS_1984
Mud                .                                       : 
Mud_density        .                                       : 
Mud_resistivity    .                                       : 
NGDU               .         НГДУ-2                        : 
ORIGINALWELLNAME   .         2938                          : 
Spud_date          .         1980                          : 1961
Viscosity          .                                       : 
X                  .m        42429.9                       : 46154
Y                  .m        83785.33                      : 85761.93
YEAR               .         2018г                         : 
~Parameter Information Block
#_______________________________________________________________________________
#
#PARAMETER_NAME    .UNIT     VALUE                         : DESCRIPTION
#_______________________________________________________________________________
SET                .         LQC_KAZNIPI_Petrel            : 
PBBOTTOM           .M        1160.2                        : Глубина подошвы планшета
PBSCALE            .         1 _ 500                       : Вертикальный масштаб планшета
PBTOP              .M        880                           : Глубина кровли планшета
TLFamily_CALI      .         Caliper                       : 
TLFamily_CILD      .         Conductivity                  : 
TLFamily_COLL      .         Net Reservoir Flag            : 
TLFamily_CSAT      .         Fluid Code                    : 
TLFamily_DEPT      .         Measured Depth                : 
TLFamily_GR        .         Russian Gamma Ray             : 
TLFamily_GZ1       .         Gradient 045                  : 
TLFamily_GZ2       .         Gradient 105                  : 
TLFamily_GZ3       .         Gradient 225                  : 
TLFamily_GZ4       .         Gradient 425                  : 
TLFamily_GZ5       .         Gradient 850                  : 
TLFamily_LLS       .         Lateral Log Resistivity       : 
TLFamily_MINV      .         Micro Gradient Resistivity    : 
TLFamily_MNOR      .         Micro Resistivity             : 
TLFamily_NGLD      .         Neutron Gamma                 : 
TLFamily_OGZ       .         Gradient Inverted 225         : 
TLFamily_PHIE      .         Effective Porosity            : 
TLFamily_PHIEN     .         Effective Porosity            : 
TLFamily_PHIT      .         Porosity                      : 
TLFamily_PRMB      .         Permeability                  : 
TLFamily_PRMB_DGR  .         Permeability                  : 
TLFamily_RT        .         Formation Resistivity         : 
TLFamily_SOIL_ARCHIE .         Oil Saturation                : 
TLFamily_SOIL_DW   .         Oil Saturation                : 
TLFamily_SP        .         Spontaneous Potential         : 
TLFamily_VSH_FIN   .         Shale Volume                  : 
TLFamily_VSH_GR    .         Shale Volume                  : 
TLFamily_VSH_SP    .         Shale Volume                  : 
~Curve Information
#_______________________________________________________________________________
#
#LOGNAME           .UNIT     LOG_ID                        : DESCRIPTION
#_______________________________________________________________________________
DEPT               .M                                      : Колонка глубины 
CALI               .м                                      : Каверномер 
CILD               .мСм/м                                  : Индукционный каротаж 
COLL               .unitless                               : Описание 
CSAT               .unitless                               : Описание 
GR                 .uR/h                                   : Гамма каротаж 
GZ1                .Ohmm                                   : Градиент-зонд  длиной 0.45м 
GZ2                .Ohmm                                   : Градиент-зонд  длиной 1.05м 
GZ3                .Ohmm                                   : Градиент-зонд  длиной 2.25м 
GZ4                .Ohmm                                   : Градиент-зонд  длиной 4.5м 
GZ5                .Ohmm                                   : Градиент-зонд  длиной 8.5м 
LLS                .Ohmm                                   : Боковой каротаж 
MINV               .Ohmm                                   : Микро-градиент зонд 
MNOR               .Ohmm                                   : Микро-потенциал зонд 
NGLD               .у.е.                                   : Показания зонда НГК-60 аппаратуры ДРСТ-3-90 
OGZ                .Ohmm                                   : Обращенный градиент-зонд 
PHIE               .v/v                                    : Описание 
PHIEN              .v/v                                    :  
PHIT               .v/v                                    : Описание 
PRMB               .mD                                     :  
PRMB_DGR           .mD                                     :  
RT                 .ohmm                                   : УЭС пласта 
SOIL_ARCHIE        .v/v                                    :  
SOIL_DW            .v/v                                    :  
SP                 .мВ                                     : Потенциал самополяризации 
VSH_FIN            .v/v                                    : Описание 
VSH_GR             .v/v                                    : Shale volume 
VSH_SP             .v/v                                    : Shale Volume 
~Ascii
# ...
971.1      0.277      399.888    -9999      -9999      7.335      2.126      2.443      2.542      2.053      1.808      1.945      0.733      1.02       1.083      2.794      0.1683858  0.1683858  0.38935    3.6819     0.991967   2.501      0.3136505  0.5793027  32.433     0.6695885  0.6509452  0.6882317 
971.2000000000001 0.275      397.764    -9999      -9999      7.379      2.14       2.466      2.541      2.066      1.819      1.973      0.724      0.989      1.085      2.794      0.1648104  0.1648104  0.38825    3.161155   0.9391456  2.514      0.3023994  0.5762913  32.441     0.6770898  0.6656534  0.688526  
971.3      0.274      395.842    -9999      -9999      7.417      2.152      2.489      2.542      2.079      1.828      2.01       0.715      0.961      1.088      2.794      0.1609293  0.1609293  0.3866     2.678921   0.895797   2.526      0.2893592  0.5724247  32.456     0.6838504  0.6786229  0.6890779 
971.4      0.272      394.259    -9999      -9999      7.441      2.158      2.513      2.543      2.088      1.836      2.053      0.709      0.937      1.091      2.794      0.1577666  0.1577666  0.38495    2.340878   0.8694556  2.536      0.2783068  0.5689867  32.479     0.6884345  0.6869442  0.6899249 
971.5      0.27       393.13     -9999      -9999      7.448      2.155      2.534      2.546      2.094      1.841      2.098      0.704      0.917      1.093      2.794      0.1560865  0.1560865  0.38385    2.179011   0.8619195  2.544      0.2726216  0.5671929  32.508     0.6901922  0.6893904  0.690994  
971.6      0.269      392.538    -9999      -9999      7.44       2.141      2.553      2.551      2.098      1.844      2.142      0.696      0.904      1.093      2.794      0.1563406  0.1563406  0.38385    2.202749   0.8705374  2.548      0.2741865  0.5677895  32.542     0.6894224  0.6865955  0.6922493 
971.7000000000001 0.269      392.524    -9999      -9999      7.424      2.115      2.568      2.558      2.099      1.845      2.184      0.687      0.898      1.091      2.794      0.1581378  0.1581378  0.38495    2.378225   0.8880331  2.548      0.2813759  0.5703723  32.578     0.6873099  0.6810395  0.6935804 
971.8      0.27       393.074    -9999      -9999      7.406      2.082      2.577      2.566      2.1        1.844      2.218      0.679      0.899      1.088      2.794      0.1605596  0.1605596  0.3866     2.637004   0.908135   2.544      0.2903027  0.57358    32.619     0.6849709  0.6748429  0.6950989 
971.9      0.273      394.12     -9999      -9999      7.396      2.049      2.58       2.575      2.1        1.841      2.24       0.675      0.906      1.083      2.794      0.1635981  0.1635981  0.38935    3.00187    0.9194994  2.537      0.3008935  0.5778216  32.664     0.6840968  0.6714246  0.6967689 
972        0.275      395.534    -9999      -9999      7.397      2.02       2.579      2.582      2.1        1.836      2.244      0.677      0.915      1.077      2.794      0.1665412  0.1665412  0.39265    3.403335   0.9183567  2.528      0.3105172  0.5820743  32.713     0.6851782  0.6717656  0.6985909 
972.1      0.278      397.131    -9999      -9999      7.412      2          2.573      2.587      2.101      1.829      2.228      0.683      0.924      1.07       2.794      0.1692485  0.1692485  0.3965     3.819889   0.9013843  2.518      0.3188672  0.5862857  32.761     0.6886408  0.6769022  0.7003795 
972.2000000000001 0.28       398.679    -9999      -9999      7.437      1.986      2.563      2.59       2.102      1.82       2.196      0.688      0.937      1.063      2.794      0.1713882  0.1713882  0.40035    4.184887   0.8737914  2.508      0.3250203  0.5898883  32.807     0.6938236  0.6855502  0.702097  
972.3      0.281      399.929    -9999      -9999      7.469      1.979      2.553      2.593      2.105      1.812      2.159      0.691      0.954      1.058      2.794      0.1720382  0.1720382  0.4031     4.302517   0.8397013  2.5        0.3262325  0.5915729  32.847     0.7001874  0.6967813  0.7035934 
972.4      0.282      400.658    -9999      -9999      7.504      1.979      2.542      2.596      2.11       1.805      2.116      0.691      0.975      1.054      2.794      0.1719477  0.1719477  0.4053     4.285951   0.8039357  2.496      0.3254171  0.5925672  32.884     0.707128   0.7092762  0.7049799 
972.5      0.282      400.709    -9999      -9999      7.539      1.99       2.532      2.601      2.117      1.8        2.075      0.693      0.994      1.052      2.793      0.1707262  0.1707262  0.4064     4.068376   0.7696944  2.496      0.3212152  0.5921934  32.92      0.714163   0.721995   0.706331  
972.6      0.281      400.031    -9999      -9999      7.568      2.015      2.523      2.61       2.127      1.797      2.033      0.699      1.008      1.049      2.792      0.1703918  0.1703918  0.40805    4.010763   0.7424304  2.5        0.3205658  0.5932689  32.955     0.7201764  0.732706   0.7076468 
972.7000000000001 0.28       398.688    -9999      -9999      7.584      2.055      2.516      2.622      2.138      1.795      1.994      0.709      1.013      1.044      2.79       0.1719319  0.1719319  0.4108     4.283051   0.7278033  2.508      0.3268795  0.5969747  32.991     0.7238428  0.7386835  0.7090021 
972.8      0.279      396.858    -9999      -9999      7.583      2.103      2.511      2.637      2.149      1.793      1.961      0.716      1.005      1.04       2.786      0.1739822  0.1739822  0.413      4.674459   0.7287089  2.52       0.3352844  0.601035   33.025     0.7242963  0.7383085  0.7102841 
972.9      0.277      394.777    -9999      -9999      7.568      2.147      2.508      2.651      2.158      1.791      1.939      0.717      0.985      1.037      2.781      0.1763511  0.1763511  0.41465    5.171399   0.7424304  2.533      0.3446521  0.6050355  33.058     0.722118   0.732706   0.71153   
973        0.277      392.691    -9999      -9999      7.549      2.173      2.509      2.664      2.166      1.789      1.932      0.708      0.955      1.036      2.775      0.1778872  0.1778872  0.4152     5.521548   0.7601819  2.547      0.3512639  0.6077113  33.086     0.7191296  0.7256706  0.7125887 
973.1      0.276      390.829    -9999      -9999      7.534      2.174      2.515      2.675      2.17       1.787      1.945      0.694      0.921      1.038      2.769      0.1775646  0.1775646  0.4141     5.446104   0.7744952  2.559      0.3516691  0.6077142  33.107     0.7167739  0.7201641  0.7133836 
973.2000000000001 0.277      389.419    -9999      -9999      7.524      2.15       2.524      2.683      2.172      1.788      2.001      0.68       0.89       1.042      2.762      0.1759102  0.1759102  0.4119     5.075068   0.7841867  2.568      0.3474376  0.6057226  33.116     0.7151205  0.7165164  0.7137246 
973.3      0.278      388.721    -9999      -9999      7.509      2.11       2.536      2.688      2.171      1.791      2.08       0.668      0.869      1.046      2.756      0.1746199  0.1746199  0.4097     4.803328   0.7989529  2.573      0.3438392  0.6036969  33.114     0.712364   0.7110792  0.7136487 
973.4      0.279      388.987    -9999      -9999      7.485      2.063      2.545      2.691      2.168      1.799      2.136      0.658      0.858      1.051      2.75       0.1733786  0.1733786  0.40695    4.555647   0.8231578  2.571      0.3395085  0.6008049  33.1       0.7077922  0.7024658  0.7131186 
973.5      0.281      390.364    -9999      -9999      7.452      2.018      2.551      2.692      2.163      1.808      2.18       0.647      0.854      1.057      2.743      0.1721545  0.1721545  0.40365    4.32392    0.8576426  2.562      0.3343257  0.5969924  33.076     0.7015014  0.6907922  0.7122105 
973.6      0.282      392.736    -9999      -9999      7.422      1.98       2.551      2.691      2.159      1.817      2.207      0.635      0.849      1.063      2.737      0.1707836  0.1707836  0.40035    4.078351   0.8902443  2.546      0.3277005  0.592428   33.043     0.6956558  0.6803482  0.7109634 
