~Version
 VERS              .         2.0                           : CWLS LOG ASCII STANDARD - VERSION 2.0
 WRAP              .         NO                            : ONE LINE PER DEPTH STEP
 DLM               .         SPACE                         : DELIMITING CHARACTER(SPACE TAB OR COMMA)
~Well Information
#_______________________________________________________________________________
#
#PARAMETER_NAME    .UNIT     VALUE                         : DESCRIPTION
#_______________________________________________________________________________
STRT               .M        880.1                         : First reference value
STOP               .M        1160.2                        : Last reference value
STEP               .M        0.1                           : Step increment
NULL               .         -9999                         : Missing value
COMP               .                                       : Company
WELL               .         2938                          : Well name
FLD                .         Узень                         : Field
LOC                .                                       : Location
CNTY               .                                       : County
STAT               .                                       : State
CTRY               .                                       : Country
SRVC               .         SCH                           : Service Company
DATE               .         04/21/2010                    : Date
UWI                .                                       : Unique Well ID
Block              .         7                             : 
Cartographic_reference_system .         GCS_WGS_1984                  : ESRI,PE_10_3_1- <?xml version="1.0" encoding="utf-16"?><ILateBoundCoordinateReferenceSystem name="GCS_WGS_1984"><AuthorityCode>EPSG,4326</AuthorityCode></ILateBoundCoordinateReferenceSystem>
Category           .         Нефтяная                      : 
Condition          .         В работе                      : 
Date               .         01.09.1980                    : 
EREF               .m        85.2                          : 100.8
Gorizont           .         15                            : 14
HZCS               .GCS_WGS_1984 WGS_1984_EASE-Grid_2.0_Global : ESRI,PE_10_3_1- <?xml version="1.0" encoding="utf-16"?><ILateBoundCoordinateReferenceSystem name="WGS_1984_EASE-Grid_2.0_Global"><AuthorityCode>EPSG,6933</AuthorityCode></ILateBoundCoordinateReferenceSystem>
Interpretator      .         Кушербаева А.С                : 
Kupol              .         основной                      : osnovnoi
LATI               .dega     0.6567763258                  : GCS_WGS_1984
LONG               .dega     0.4397506038                  : GCS_WGS_1984
Mud                .                                       : 
Mud_density        .                                       : 
Mud_resistivity    .                                       : 
NGDU               .         НГДУ-2                        : 
ORIGINALWELLNAME   .         2938                          : 
Spud_date          .         1980                          : 1961
Viscosity          .                                       : 
X                  .m        42429.9                       : 46154
Y                  .m        83785.33                      : 85761.93
YEAR               .         2018г                         : 
~Parameter Information Block
#_______________________________________________________________________________
#
#PARAMETER_NAME    .UNIT     VALUE                         : DESCRIPTION
#_______________________________________________________________________________
SET                .         LQC_KAZNIPI_Petrel            : 
PBBOTTOM           .M        1160.2                        : Глубина подошвы планшета
PBSCALE            .         1 _ 500                       : Вертикальный масштаб планшета
PBTOP              .M        880                           : Глубина кровли планшета
TLFamily_CALI      .         Caliper                       : 
TLFamily_CILD      .         Conductivity                  : 
TLFamily_COLL      .         Net Reservoir Flag            : 
TLFamily_CSAT      .         Fluid Code                    : 
TLFamily_DEPT      .         Measured Depth                : 
TLFamily_GR        .         Russian Gamma Ray             : 
TLFamily_GZ1       .         Gradient 045                  : 
TLFamily_GZ2       .         Gradient 105                  : 
TLFamily_GZ3       .         Gradient 225                  : 
TLFamily_GZ4       .         Gradient 425                  : 
TLFamily_GZ5       .         Gradient 850                  : 
TLFamily_LLS       .         Lateral Log Resistivity       : 
TLFamily_MINV      .         Micro Gradient Resistivity    : 
TLFamily_MNOR      .         Micro Resistivity             : 
TLFamily_NGLD      .         Neutron Gamma                 : 
TLFamily_OGZ       .         Gradient Inverted 225         : 
TLFamily_PHIE      .         Effective Porosity            : 
TLFamily_PHIEN     .         Effective Porosity            : 
TLFamily_PHIT      .         Porosity                      : 
TLFamily_PRMB      .         Permeability                  : 
TLFamily_PRMB_DGR  .         Permeability                  : 
TLFamily_RT        .         Formation Resistivity         : 
TLFamily_SOIL_ARCHIE .         Oil Saturation                : 
TLFamily_SOIL_DW   .         Oil Saturation                : 
TLFamily_SP        .         Spontaneous Potential         : 
TLFamily_VSH_FIN   .         Shale Volume                  : 
TLFamily_VSH_GR    .         Shale Volume                  : 
TLFamily_VSH_SP    .         Shale Volume                  : 
~Curve Information
#_______________________________________________________________________________
#
#LOGNAME           .UNIT     LOG_ID                        : DESCRIPTION
#_______________________________________________________________________________
DEPT               .M                                      : Колонка глубины 
CALI               .м                                      : Каверномер 
CILD               .мСм/м                                  : Индукционный каротаж 
COLL               .unitless                               : Описание 
CSAT               .unitless                               : Описание 
GR                 .uR/h                                   : Гамма каротаж 
GZ1                .Ohmm                                   : Градиент-зонд  длиной 0.45м 
GZ2                .Ohmm                                   : Градиент-зонд  длиной 1.05м 
GZ3                .Ohmm                                   : Градиент-зонд  длиной 2.25м 
GZ4                .Ohmm                                   : Градиент-зонд  длиной 4.5м 
GZ5                .Ohmm                                   : Градиент-зонд  длиной 8.5м 
LLS                .Ohmm                                   : Боковой каротаж 
MINV               .Ohmm                                   : Микро-градиент зонд 
MNOR               .Ohmm                                   : Микро-потенциал зонд 
NGLD               .у.е.                                   : Показания зонда НГК-60 аппаратуры ДРСТ-3-90 
OGZ                .Ohmm                                   : Обращенный градиент-зонд 
PHIE               .v/v                                    : Описание 
PHIEN              .v/v                                    :  
PHIT               .v/v                                    : Описание 
PRMB               .mD                                     :  
PRMB_DGR           .mD                                     :  
RT                 .ohmm                                   : УЭС пласта 
SOIL_ARCHIE        .v/v                                    :  
SOIL_DW            .v/v                                    :  
SP                 .мВ                                     : Потенциал самополяризации 
VSH_FIN            .v/v                                    : Описание 
VSH_GR             .v/v                                    : Shale volume 
VSH_SP             .v/v                                    : Shale Volume 
~Ascii
880.1      0.247      367.773    -9999      -9999      8.67       2.113      4.053      8.002      3.991      1.104      4.133      1.817      2.271      1.106      8.026      -9999      -9999      -9999      -9999      -9999      2.719      -9999      -9999      28.353     -9999      0.3561185  0.2496073 
880.2000000000001 0.253      363.453    -9999      -9999      8.641      2.185      4.133      8.002      4.024      1.107      4.2        1.737      2.143      1.106      8.026      -9999      -9999      -9999      -9999      -9999      2.751      -9999      -9999      28.352     -9999      0.3492817  0.2495939 
880.3      0.263      356.29     -9999      -9999      8.597      2.312      4.264999   8.002      4.085      1.113      4.304      1.602      1.942      1.109      8.026      -9999      -9999      -9999      -9999      -9999      2.807      -9999      -9999      28.35      -9999      0.3391586  0.2495672 
880.4      0.274      348.457    -9999      -9999      8.561      2.465      4.403      8.002      4.166      1.126      4.411      1.447      1.742      1.116      8.026      -9999      -9999      -9999      -9999      -9999      2.87       -9999      -9999      28.342     -9999      0.3310945  0.2494602 
880.5      0.283      341.857    -9999      -9999      8.547      2.607      4.502      8.001      4.248      1.147      4.493      1.301      1.591      1.127      8.026      -9999      -9999      -9999      -9999      -9999      2.925      -9999      -9999      28.326     -9999      0.3280105  0.2492465 
880.6      0.288      337.518    -9999      -9999      8.56       2.711      4.54       7.994      4.312      1.179      4.517      1.181      1.494      1.143      8.026      -9999      -9999      -9999      -9999      -9999      2.963      -9999      -9999      28.296     -9999      0.3308734  0.2488463 
880.7000000000001 0.289      335.529    -9999      -9999      8.592      2.774      4.523      7.966      4.342      1.223      4.544      1.088      1.43       1.159      8.024999   -9999      -9999      -9999      -9999      -9999      2.98       -9999      -9999      28.253     -9999      0.3380269  0.2482743 
880.8      0.286      335.269    -9999      -9999      8.63       2.807      4.477      7.888      4.33       1.278      4.567      1.025      1.373      1.173      8.022      -9999      -9999      -9999      -9999      -9999      2.983      -9999      -9999      28.203     -9999      0.346723   0.2476113 
880.9      0.279      335.743    -9999      -9999      8.663      2.827      4.432      7.721      4.279      1.339      4.569      1.012      1.308      1.184      8.008      -9999      -9999      -9999      -9999      -9999      2.978      -9999      -9999      28.16      -9999      0.3544561  0.247043  
881        0.27       335.889    -9999      -9999      8.682      2.84       4.399      7.434      4.2        1.401      4.551      1.092      1.231      1.19       7.97       -9999      -9999      -9999      -9999      -9999      2.977      -9999      -9999      28.133     -9999      0.3589866  0.2466871 
881.1      0.259      334.855    -9999      -9999      8.688      2.836      4.371      7.026      4.112      1.458      4.497      1.314      1.148      1.192      7.895999   -9999      -9999      -9999      -9999      -9999      2.986      -9999      -9999      28.123     -9999      0.3604291  0.2465554 
881.2000000000001 0.249      332.177    -9999      -9999      8.682      2.801      4.335      6.543      4.029      1.508      4.392      1.692      1.069      1.186      7.778      -9999      -9999      -9999      -9999      -9999      3.01       -9999      -9999      28.124     -9999      0.3589866  0.2465686 
881.3      0.242      327.81     -9999      -9999      8.663      2.724      4.291      6.057      3.967      1.548      4.225      2.156      1.019      1.173      7.622      -9999      -9999      -9999      -9999      -9999      3.051      -9999      -9999      28.123     -9999      0.3544561  0.2465554 
881.4      0.239      322.031    -9999      -9999      8.625      2.605      4.253      5.644001   3.933      1.582      4.003      2.563      1.032      1.153      7.44       -9999      -9999      -9999      -9999      -9999      3.105      -9999      -9999      28.112     -9999      0.3455661  0.2464107 
881.5      0.24       315.22     -9999      -9999      8.564      2.464      4.239      5.345      3.927      1.615      3.759      2.76       1.125      1.128      7.237      -9999      -9999      -9999      -9999      -9999      3.172      -9999      -9999      28.087     -9999      0.3317592  0.2460823 
881.6      0.245      307.676    -9999      -9999      8.492      2.329      4.254001   5.159      3.943      1.653      3.54       2.681      1.278      1.102      7.013      -9999      -9999      -9999      -9999      -9999      3.25       -9999      -9999      28.049     -9999      0.3161705  0.2455841 
881.7000000000001 0.253      295.046    -9999      -9999      8.429      2.23       4.279      5.06       3.967      1.703      3.465      2.385      1.427      1.078      6.765      -9999      -9999      -9999      -9999      -9999      3.389      -9999      -9999      27.998     -9999      0.3031325  0.2449177 
881.8      0.262      280.842    -9999      -9999      8.397      2.177      4.281      5.015      3.983      1.769      3.387      2.013      1.501      1.059      6.51       -9999      -9999      -9999      -9999      -9999      3.561      -9999      -9999      27.94      -9999      0.2967175  0.2441628 
881.9      0.272      270.163    -9999      -9999      8.405      2.161      4.233      5.001999   3.979      1.852      3.318      1.686      1.472      1.047      6.283      -9999      -9999      -9999      -9999      -9999      3.701      -9999      -9999      27.882     -9999      0.2983083  0.243411  
882        0.281      258.694    -9999      -9999      8.446      2.159      4.124      5.007      3.946      1.952      3.32       1.445      1.373      1.043      6.123001   -9999      -9999      -9999      -9999      -9999      3.866      -9999      -9999      27.83      -9999      0.3065968  0.2427397 
882.1      0.287      246.831    -9999      -9999      8.502      2.148      3.968      5.024      3.89       2.066      3.348      1.27       1.263      1.046      6.055      -9999      -9999      -9999      -9999      -9999      4.051      -9999      -9999      27.785     -9999      0.318291   0.2421608 
882.2000000000001 0.289      235.193    -9999      -9999      8.559      2.114      3.79       5.045      3.819      2.19       3.352      1.132      1.182      1.052      6.074      -9999      -9999      -9999      -9999      -9999      4.252      -9999      -9999      27.743     -9999      0.3306522  0.2416221 
882.3      0.288      224.441    -9999      -9999      8.607      2.055      3.62       5.06       3.747      2.321      3.303      1.032      1.129      1.06       6.158      -9999      -9999      -9999      -9999      -9999      4.456      -9999      -9999      27.7       -9999      0.3414333  0.2410724 
882.4      0.284      214.989    -9999      -9999      8.643      1.979      3.476      5.065      3.682      2.455      3.198      0.986      1.089      1.065      6.284      -9999      -9999      -9999      -9999      -9999      4.651      -9999      -9999      27.653     -9999      0.3497489  0.2404734 
882.5      0.279      206.731    -9999      -9999      8.671      1.896      3.37       5.054      3.624      2.588      3.065      0.996      1.054      1.066      6.452      -9999      -9999      -9999      -9999      -9999      4.837      -9999      -9999      27.603     -9999      0.3563565  0.2398385 
882.6      0.274      199.002    -9999      -9999      8.694      1.822      3.305      5.024      3.569      2.717      2.935      1.034      1.032      1.061      6.672      -9999      -9999      -9999      -9999      -9999      5.025      -9999      -9999      27.549     -9999      0.3618777  0.2391554 
