~Version
 VERS              .         2.0                           : CWLS LOG ASCII STANDARD - VERSION 2.0
 WRAP              .         NO                            : ONE LINE PER DEPTH STEP
 DLM               .         SPACE                         : DELIMITING CHARACTER(SPACE TAB OR COMMA)
~Well Information
#_______________________________________________________________________________
#
#PARAMETER_NAME    .UNIT     VALUE                         : DESCRIPTION
#_______________________________________________________________________________
STRT               .M        880.1                         : First reference value
STOP               .M        1160.2                        : Last reference value
STEP               .M        0.1                           : Step increment
NULL               .         -9999                         : Missing value
COMP               .                                       : Company
WELL               .         2938                          : Well name
FLD                .         Узень                         : Field
LOC                .                                       : Location
CNTY               .                                       : County
STAT               .                                       : State
CTRY               .                                       : Country
SRVC               .         SCH                           : Service Company
DATE               .         04/21/2010                    : Date
UWI                .                                       : Unique Well ID
Block              .         7                             : 
Cartographic_reference_system .         GCS_WGS_1984                  : ESRI,PE_10_3_1- <?xml version="1.0" encoding="utf-16"?><ILateBoundCoordinateReferenceSystem name="GCS_WGS_1984"><AuthorityCode>EPSG,4326</AuthorityCode></ILateBoundCoordinateReferenceSystem>
Category           .         Нефтяная                      : 
Condition          .         В работе                      : 
Date               .         01.09.1980                    : 
EREF               .m        85.2                          : 100.8
Gorizont           .         15                            : 14
HZCS               .GCS_WGS_1984 WGS_1984_EASE-Grid_2.0_Global : ESRI,PE_10_3_1- <?xml version="1.0" encoding="utf-16"?><ILateBoundCoordinateReferenceSystem name="WGS_1984_EASE-Grid_2.0_Global"><AuthorityCode>EPSG,6933</AuthorityCode></ILateBoundCoordinateReferenceSystem>
Interpretator      .         Кушербаева А.С                : 
Kupol              .         основной                      : osnovnoi
LATI               .dega     0.6567763258                  : GCS_WGS_1984
LONG               .dega     0.4397506038                  : GCS_WGS_1984
Mud                .                                       : 
Mud_density        .                                       : 
Mud_resistivity    .                                       : 
NGDU               .         НГДУ-2                        : 
ORIGINALWELLNAME   .         2938                          : 
Spud_date          .         1980                          : 1961
Viscosity          .                                       : 
X                  .m        42429.9                       : 46154
Y                  .m        83785.33                      : 85761.93
YEAR               .         2018г                         : 
~Parameter Information Block
#_______________________________________________________________________________
#
#PARAMETER_NAME    .UNIT     VALUE                         : DESCRIPTION
#_______________________________________________________________________________
SET                .         LQC_KAZNIPI_Petrel            : 
PBBOTTOM           .M        1160.2                        : Глубина подошвы планшета
PBSCALE            .         1 _ 500                       : Вертикальный масштаб планшета
PBTOP              .M        880                           : Глубина кровли планшета
TLFamily_CALI      .         Caliper                       : 
TLFamily_CILD      .         Conductivity                  : 
TLFamily_COLL      .         Net Reservoir Flag            : 
TLFamily_CSAT      .         Fluid Code                    : 
TLFamily_DEPT      .         Measured Depth                : 
TLFamily_GR        .         Russian Gamma Ray             : 
TLFamily_GZ1       .         Gradient 045                  : 
TLFamily_GZ2       .         Gradient 105                  : 
TLFamily_GZ3       .         Gradient 225                  : 
TLFamily_GZ4       .         Gradient 425                  : 
TLFamily_GZ5       .         Gradient 850                  : 
TLFamily_LLS       .         Lateral Log Resistivity       : 
TLFamily_MINV      .         Micro Gradient Resistivity    : 
TLFamily_MNOR      .         Micro Resistivity             : 
TLFamily_NGLD      .         Neutron Gamma                 : 
TLFamily_OGZ       .         Gradient Inverted 225         : 
TLFamily_PHIE      .         Effective Porosity            : 
TLFamily_PHIEN     .         Effective Porosity            : 
TLFamily_PHIT      .         Porosity                      : 
TLFamily_PRMB      .         Permeability                  : 
TLFamily_PRMB_DGR  .         Permeability                  : 
TLFamily_RT        .         Formation Resistivity         : 
TLFamily_SOIL_ARCHIE .         Oil Saturation                : 
TLFamily_SOIL_DW   .         Oil Saturation                : 
TLFamily_SP        .         Spontaneous Potential         : 
TLFamily_VSH_FIN   .         Shale Volume                  : 
TLFamily_VSH_GR    .         Shale Volume                  : 
TLFamily_VSH_SP    .         Shale Volume                  : 
~Curve Information
#_______________________________________________________________________________
#
#LOGNAME           .UNIT     LOG_ID                        : DESCRIPTION
#_______________________________________________________________________________
DEPT               .M                                      : Колонка глубины 
CALI               .м                                      : Каверномер 
CILD               .мСм/м                                  : Индукционный каротаж 
COLL               .unitless                               : Описание 
CSAT               .unitless                               : Описание 
GR                 .uR/h                                   : Гамма каротаж 
GZ1                .Ohmm                                   : Градиент-зонд  длиной 0.45м 
GZ2                .Ohmm                                   : Градиент-зонд  длиной 1.05м 
GZ3                .Ohmm                                   : Градиент-зонд  длиной 2.25м 
GZ4                .Ohmm                                   : Градиент-зонд  длиной 4.5м 
GZ5                .Ohmm                                   : Градиент-зонд  длиной 8.5м 
LLS                .Ohmm                                   : Боковой каротаж 
MINV               .Ohmm                                   : Микро-градиент зонд 
MNOR               .Ohmm                                   : Микро-потенциал зонд 
NGLD               .у.е.                                   : Показания зонда НГК-60 аппаратуры ДРСТ-3-90 
OGZ                .Ohmm                                   : Обращенный градиент-зонд 
PHIE               .v/v                                    : Описание 
PHIEN              .v/v                                    :  
PHIT               .v/v                                    : Описание 
PRMB               .mD                                     :  
PRMB_DGR           .mD                                     :  
RT                 .ohmm                                   : УЭС пласта 
SOIL_ARCHIE        .v/v                                    :  
SOIL_DW            .v/v                                    :  
SP                 .мВ                                     : Потенциал самополяризации 
VSH_FIN            .v/v                                    : Описание 
VSH_GR             .v/v                                    : Shale volume 
VSH_SP             .v/v                                    : Shale Volume 
~Ascii
# ...
1059.5     0.21       337.433    -9999      -9999      8.597      2.446      2.976      3.28       2.448      2.228      2.45       2.484      2.015      1.155      4.964      0.1763558  0.1763558  0.34975    5.172437   2.345986   2.964      0.3912515  0.5940601  29.675     0.5254371  0.4580343  0.5928399 
1059.6     0.209      333.292    -9999      -9999      8.664      2.496      2.984      3.271      2.471      2.272      2.486      2.665      2.116      1.155      5.021      0.1743747  0.1743747  0.34975    4.753364   2.199706   3          0.3887054  0.5947462  29.669     0.5314403  0.4702353  0.5926452 
1059.7     0.208      328.317    -9999      -9999      8.714      2.554      3.004      3.268      2.502      2.326      2.54       2.774      2.217      1.159      5.088      0.1707551  0.1707551  0.34755    4.073406   2.096517   3.046      0.3818647  0.5929896  29.647     0.5357419  0.4795519  0.5919318 
1059.8     0.208      322.754    -9999      -9999      8.737      2.612      3.034      3.278      2.542      2.39       2.6        2.765      2.304      1.163      5.162      0.1680409  0.1680409  0.34535    3.628126   2.050688   3.098      0.3781371  0.5923439  29.609     0.5373005  0.4838995  0.5907014 
1059.9     0.208      316.778    -9999      -9999      8.731      2.657      3.07       3.309      2.595      2.461      2.662      2.647      2.357      1.169      5.236      0.1652324  0.1652324  0.34205    3.218577   2.062546   3.157      0.3745036  0.5911452  29.552     0.5358107  0.4827615  0.5888599 
1060       0.208      310.498    -9999      -9999      8.7        2.677      3.11       3.367      2.659      2.535      2.729      2.485      2.363      1.176      5.293      0.1627441  0.1627441  0.3382     2.894501   2.124911   3.221      0.3721233  0.5900178  29.477     0.5316845  0.4769249  0.5864442 
1060.1     0.208      303.958    -9999      -9999      8.643      2.671      3.158      3.454      2.734      2.608      2.807      2.374      2.331      1.183      5.319      0.1611269  0.1611269  0.33435    2.701584   2.244545   3.29       0.3729065  0.5898972  29.384     0.5249186  0.4663765  0.5834607 
1060.2     0.208      297.178    -9999      -9999      8.557      2.657      3.222      3.562      2.816      2.678      2.898      2.391      2.304      1.19       5.306      0.1603992  0.1603992  0.3305     2.619033   2.437914   3.365      0.3770537  0.5908718  29.276     0.5154568  0.4509015  0.5800121 
1060.3     0.208      290.176    -9999      -9999      8.439      2.669      3.314      3.68       2.904      2.746      3.004      2.564      2.339      1.199      5.254      0.1594234  0.1594234  0.32555    2.512266   2.73063    3.446      0.3806854  0.5909686  29.16      0.503414   0.4305004  0.5763277 
1060.4     0.208      282.981    -9999      -9999      8.301      2.742      3.447      3.801      2.997      2.81       3.116      2.862      2.474      1.208      5.168      0.1588324  0.1588324  0.3206     2.44974    3.117841   3.534      0.3859879  0.5916766  29.042     0.4902048  0.4078093  0.5726004 
1060.5     0.209      275.639    -9999      -9999      8.162      2.89       3.626      3.921      3.099      2.874      3.236      3.215      2.694      1.221      5.048      0.1558605  0.1558605  0.31345    2.158107   3.56338    3.628      0.3834455  0.5883878  28.925     0.477544   0.3861628  0.5689252 
1060.6     0.21       268.229    -9999      -9999      8.042      3.101      3.85       4.048999   3.21       2.938      3.366      3.543      2.931      1.236      4.893001   0.151139   0.151139   0.3052     1.764491   3.998907   3.728      0.3747329  0.5823149  28.809     0.4668516  0.3684016  0.5653015 
1060.7     0.211      260.923    -9999      -9999      7.954      3.339      4.108      4.19       3.333      3          3.525      3.791      3.093      1.255      4.699      0.1433416  0.1433416  0.29475    1.265295   4.351768   3.833      0.3536902  0.5705017  28.694     0.4588134  0.355898   0.5617288 
1060.8     0.213      254.024    -9999      -9999      7.9        3.565      4.387      4.342      3.465      3.06       3.737      3.938      3.113      1.275      4.473      0.1341234  0.1341234  0.28375    0.8539827  4.583545   3.937      0.3237192  0.5549938  28.586     0.4534139  0.3484364  0.5583914 
1060.9     0.215      247.941    -9999      -9999      7.876      3.763      4.676      4.487      3.599      3.112      4.027      3.989      2.983      1.294      4.234      0.1246639  0.1246639  0.2733     0.5704747  4.690482   4.033      0.2873406  0.5373292  28.497     0.4504123  0.3451705  0.555654  
1061       0.216      243.038    -9999      -9999      7.879      3.94       4.966      4.605      3.724      3.152      4.402      3.961      2.761      1.311      4.006      0.1155301  0.1155301  0.26395    0.386416   4.676977   4.115      0.2456703  0.518357   28.441     0.4497574  0.3455771  0.5539377 
1061.1     0.217      239.463    -9999      -9999      7.898      4.113      5.244999   4.675      3.828      3.169      4.836      3.864      2.543      1.324      3.808      0.1080241  0.1080241  0.2568     0.2805601  4.592363   4.176      0.2057232  0.5012973  28.427     0.4508362  0.348163   0.5535093 
1061.2     0.218      237.045    -9999      -9999      7.922      4.278      5.487      4.692      3.902      3.158      5.273      3.704      2.422      1.335      3.651      0.1013093  0.1013093  0.25075    0.210694   4.487663   4.219      0.1640917  0.4843107  28.451     0.4528505  0.3514572  0.5542438 
1061.3     0.219      235.433    -9999      -9999      7.933      4.4        5.661      4.664001   3.939      3.116      5.638      3.494      2.439      1.343      3.534      0.09638018 0.09638018 0.24635    0.1707469  4.440479   4.247      0.1296844  0.4706917  28.506     0.4544539  0.3529775  0.5559304 
1061.4     0.219      234.387    -9999      -9999      7.92       4.433      5.737999   4.61       3.935      3.046      5.874      3.266      2.558      1.351      3.45       0.091901   0.091901   0.24195    0.1410547  4.496297   4.266      0.09475216 0.456519   28.58      0.454694   0.3511816  0.5582065 
1061.5     0.22       234.034    -9999      -9999      7.882      4.347      5.710999   4.55       3.895      2.959      5.966      3.068      2.69       1.359      3.386      0.08792042 0.08792042 0.23755    0.1190303  4.663515   4.273      0.05988238 0.4417654  28.666     0.453423   0.3459841  0.5608619 
1061.6     0.222      234.803    -9999      -9999      7.835      4.152      5.594999   4.501      3.823      2.865      5.949      2.953      2.734      1.366      3.331      0.08460691 0.08460691 0.2337     0.1033435  4.878965   4.259      0.02639696 0.4271733  28.765     0.4517972  0.339662   0.5639323 
1061.7     0.225      237.077    -9999      -9999      7.8        3.891      5.424      4.473      3.729      2.776      5.87       2.955      2.643      1.372      3.273      0.08145407 0.08145407 0.2304     0.09034102 5.045845   4.218      0          0.4112495  28.885     0.4513513  0.3350293  0.5676734 
1061.8     0.228      240.8      -9999      -9999      7.794      3.622      5.236      4.474      3.624      2.698      5.758      3.066      2.451      1.376      3.207      0.07862303 0.07862303 0.2282     0.08006586 5.075023   4.153      0          0.3955194  29.032     0.4532635  0.3342414  0.5722855 
1061.9     0.232      245.395    -9999      -9999      7.823      3.391      5.057      4.508      3.517      2.635      5.594      3.236      2.244      1.375      3.135      0.07765    0.07765    0.22875    0.07681116 4.935552   4.075      0          0.3880794  29.203     0.4578788  0.3380665  0.5776911 
1062       0.236      250.031    -9999      -9999      7.882      3.223      4.903      4.571      3.418      2.586      5.334      3.397      2.103      1.369      3.062      0.07862823 0.07862823 0.23205    0.08008362 4.663515   3.999      0          0.390696   29.396     0.4649145  0.3459841  0.5838449 
