~Version
 VERS              .         2.0                           : CWLS LOG ASCII STANDARD - VERSION 2.0
 WRAP              .         NO                            : ONE LINE PER DEPTH STEP
 DLM               .         SPACE                         : DELIMITING CHARACTER(SPACE TAB OR COMMA)
~Well Information
#_______________________________________________________________________________
#
#PARAMETER_NAME    .UNIT     VALUE                         : DESCRIPTION
#_______________________________________________________________________________
STRT               .M        832                           : First reference value
STOP               .M        1164                          : Last reference value
STEP               .M        0.2                           : Step increment
NULL               .         -9999                         : Missing value
COMP               .                                       : Company
WELL               .         4719                          : Well name
FLD                .         УЗЕНЬ                         : Field
LOC                .                                       : Location
CNTY               .                                       : County
STAT               .                                       : State
CTRY               .                                       : Country
SRVC               .                                       : Service Company
DATE               .                                       : Date
UWI                .                                       : Unique Well ID
Block              .         7                             : 
Category           .         Нефтяная                      : 
Condition          .         В работе                      : 
Date               .         24.09.1990                    : 
EREF               .m        84                            : 100.8
Gorizont           .         15                            : 14
Interpretator      .         Ткачева И.Г.                  : 
Kupol              .         Основной                      : osnovnoi
Mud                .         0                             : 
Mud_density        .         0                             : 
Mud_resistivity    .         0                             : 
NGDU               .         НГДУ-2                        : 
ORIGINALWELLNAME   .         4719                          : 
Spud_date          .         1990                          : 1961
Uslovie            .         15                            : 
Viscosity          .         0                             : 
X                  .m        42234.2                       : 46154
Y                  .m        83713.33                      : 85761.93
YEAR               .         2019                          : 
~Parameter Information Block
#_______________________________________________________________________________
#
#PARAMETER_NAME    .UNIT     VALUE                         : DESCRIPTION
#_______________________________________________________________________________
SET                .         LQC_KAZNIPI_Petrel            : 
TLFamily_CALI      .         Caliper                       : 
TLFamily_CILD      .         Conductivity                  : 
TLFamily_COLL      .         Net Reservoir Flag            : 
TLFamily_CSAT      .         Fluid Code                    : 
TLFamily_DEPT      .         Measured Depth                : 
TLFamily_GR        .         Russian Gamma Ray             : 
TLFamily_GZ1       .         Gradient 045                  : 
TLFamily_GZ2       .         Gradient 105                  : 
TLFamily_GZ3       .         Gradient 225                  : 
TLFamily_GZ4       .         Gradient 425                  : 
TLFamily_GZ5       .         Gradient 850                  : 
TLFamily_LLS       .         Lateral Log Resistivity       : 
TLFamily_MINV      .         Micro Gradient Resistivity    : 
TLFamily_MNOR      .         Micro Resistivity             : 
TLFamily_NGLD      .         Neutron Gamma                 : 
TLFamily_PHIE      .         Effective Porosity            : 
TLFamily_PHIEN     .         Effective Porosity            : 
TLFamily_PHIT      .         Porosity                      : 
TLFamily_PRMB      .         Permeability                  : 
TLFamily_PRMB_DGR  .         Permeability                  : 
TLFamily_RT        .         Formation Resistivity         : 
TLFamily_SOIL_ARCHIE .         Oil Saturation                : 
TLFamily_SOIL_DW   .         Oil Saturation                : 
TLFamily_SP        .         Spontaneous Potential         : 
TLFamily_VSH_FIN   .         Shale Volume                  : 
TLFamily_VSH_GR    .         Shale Volume                  : 
TLFamily_VSH_SP    .         Shale Volume                  : 
~Curve Information
#_______________________________________________________________________________
#
#LOGNAME           .UNIT     LOG_ID                        : DESCRIPTION
#_______________________________________________________________________________
DEPT               .M                                      : Колонка глубины 
CALI               .м                                      : Каверномер 
CILD               .мСм/м                                  : Индукционный каротаж 
COLL               .unitless                               : Описание 
CSAT               .unitless                               : Описание 
GR                 .uR/h                                   : Гамма каротаж 
GZ1                .Ohmm                                   : Градиент-зонд  длиной 0.45м 
GZ2                .Ohmm                                   : Градиент-зонд  длиной 1.05м 
GZ3                .Ohmm                                   : Градиент-зонд  длиной 2.25м 
GZ4                .Ohmm                                   : Градиент-зонд  длиной 4.5м 
GZ5                .Ohmm                                   : Градиент-зонд  длиной 8.5м 
LLS                .Ohmm                                   : Боковой каротаж 
MINV               .Ohmm                                   : Микро-градиент зонд 
MNOR               .Ohmm                                   : Микро-потенциал зонд 
NGLD               .у.е.                                   : Показания зонда НГК-60 аппаратуры ДРСТ-3-90 
PHIE               .v/v                                    : Описание 
PHIEN              .v/v                                    :  
PHIT               .v/v                                    : Описание 
PRMB               .mD                                     :  
PRMB_DGR           .mD                                     :  
RT                 .ohmm                                   : УЭС пласта 
SOIL_ARCHIE        .v/v                                    :  
SOIL_DW            .v/v                                    :  
SP                 .мВ                                     : Потенциал самополяризации 
VSH_FIN            .v/v                                    : Описание 
VSH_GR             .v/v                                    : Shale volume 
VSH_SP             .v/v                                    : Shale Volume 
~Ascii
# ...
1102       -9999      98.4       1          2          8.094      4.981      12.548     8.883      3.704      4.265      8.459      1.297      2.069      1.724      0.1661064  0.1661064  0.24488    3.340807   6.947883   9.774      0.6336331  0.716229   49.039     0.2387079  0.294007   0.1834088 
1102.2     -9999      98.4       1          2          8.155      4.874      12.113     9.466      3.576      4.174      8.238      1.194      2.055      1.68       0.1808463  0.1808463  0.2616     6.264268   6.431286   9.488      0.6550071  0.7324808  49.243     0.2447082  0.3034305  0.1859859 
1102.4     -9999      94.5       1          2          8.273      4.608      11.601     9.297      3.576      4.148      7.61       1.271      2.042      1.715      0.1641606  0.1641606  0.2483     3.074755   5.538453   9.218      0.6195399  0.7087868  49.333     0.2549679  0.3225254  0.1874104 
1102.6     -9999      90.5       1          2          8.354      4.316      11.37      9.277      3.612      4.133      6.968      1.348      2.162      1.632      0.1931872  0.1931872  0.27984    10.60359   4.998409   9.218      0.6698398  0.7461368  49.422     0.2625844  0.3363239  0.1888449 
1102.8     -9999      87         1          2          8.564      4.577      11.37      9.538      3.759      4.387      7.632      1.425      2.254      1.671      0.1732806  0.1732806  0.26502    4.536657   3.831029   9.598      0.6438561  0.7314045  48.631     0.277998   0.37491    0.1810861 
1103       -9999      83.6       1          2          8.436      4.705      11.524     9.835      4.39       4.596      9.528      0.997      1.825      1.678      0.1767629  0.1767629  0.26236    5.263031   4.505319   10.022     0.6570035  0.7377081  47.15      0.2593852  0.3508942  0.1678761 
1103.2     -9999      81.3       6          6          8.492      4.817      11.677     10.265     5.021      4.616      10.075     1.448      2.275      1.845      0.1129153  0.1129153  0.1989     0.3456396  4.196829   10.426     0.5025421  0.6366097  46.104     0.2605596  0.3612057  0.1599136 
1103.4     -9999      74.4       6          6          8.712      5.012      11.985     10.7       5.652      4.728      11.126     1.54       2.487      1.839      0.1086303  0.1086303  0.20118    0.2879083  3.17617    10.85      0.4950293  0.6408141  45.542     0.2804537  0.4047344  0.1561731 
1103.6     -9999      69.3       6          6          8.947      5.207      12.343     10.802     6.283      4.84       10.622     1.476      2.41       1.822      0.1087676  0.1087676  0.20764    0.2895999  2.358498   11.157     0.5021462  0.6527277  43.168     0.2996132  0.4570405  0.142186  
1103.8     -9999      67.2       8          2          8.871      5.253      12.702     10.904     6.914      4.952      10.149     1.463      2.341      1.811      0.1165424  0.1165424  0.21182    0.4034657  2.596816   12.191     0.5502989  0.6805239  42.249     0.2887199  0.4394242  0.1380156 
1104       -9999      65.2       8          2          8.564      5.227      13.624     11.007     7.544      5.324      10.075     1.573      2.541      1.78       0.1400057  0.1400057  0.2236     1.097497   3.831029   13.088     0.6292568  0.7225603  40.615     0.2533161  0.37491    0.1317222 
1104.2     -9999      62.1       8          2          8.625      5.447      14.366     11.084     8.175      5.619      10.875     1.34       2.623      1.716      0.162773   0.162773   0.24792    2.898065   3.546178   13.497     0.6795134  0.7582838  39.773     0.2580214  0.3869266  0.1291162 
1104.4     -9999      61.6       8          2          8.62       5.56       15.109     11.544     8.806      5.879      12.896     1.289      2.306      1.7        0.1693268  0.1693268  0.254      3.832675   3.568708   13.911     0.6947038  0.7690458  39.083     0.2565853  0.3859273  0.1272433 
1104.6     -9999      61.1       1          2          8.569      5.79       15.416     12.287     9.437      6.123      13.329     1.304      2.267      1.681      0.1784398  0.1784398  0.26122    5.653222   3.806843   14.606     0.7149259  0.7830121  38.496     0.2508491  0.3758808  0.1258174 
1104.8     -9999      65.2       1          2          8.104      6.041      15.723     13.029     10.068     6.367      13.144     1.294      2.216      1.682      0.191503   0.191503   0.26084    9.868649   6.860433   14.725     0.7329578  0.7899167  37.986     0.2101122  0.2955316  0.1246928 
1105       -9999      68.6       1          2          7.813      6.159      16.159     13.72      11.395     6.428      13.398     1.292      2.249      1.696      0.1930761  0.1930761  0.25552    10.55348   9.91801    14.845     0.7358618  0.7889537  37.73      0.189224   0.2542382  0.1242098 
1105.2     -9999      72.1       1          2          8.078      6.026      16.466     14.36      11.701     6.372      11.183     1.356      2.316      1.715      0.1797706  0.1797706  0.2483     5.983365   7.090121   13.911     0.7102104  0.7716247  37.475     0.2076649  0.2915841  0.1237456 
1105.4     -9999      72.9       1          2          7.966      5.867      16.773     15.026     11.802     6.393      11.326     1.414      2.325      1.719      0.1810323  0.1810323  0.24678    6.314162   8.170762   13.222     0.7050219  0.7655867  37.22      0.1992354  0.2751737  0.1232971 
1105.6     -9999      73.6       1          2          7.986      5.718      16.645     14.898     11.675     6.342      10.622     1.371      2.28       1.701      0.1874717  0.1874717  0.25362    8.309777   7.966378   12.58      0.7071043  0.7668989  36.965     0.2004493  0.2780349  0.1228638 
1105.8     -9999      72.6       1          2          7.833      5.309      16.082     14.706     11.548     6.199      8.484      1.302      1.817      1.684      0.1973016  0.1973016  0.26008    12.63751   9.669919   12.442     0.7184015  0.7738882  37.271     0.1902377  0.2568817  0.1235937 
1106       -9999      69.5       1          2          7.317      5.012      15.365     14.514     11.65      6.352      8.912      1.358      2.103      1.642      0.223062   0.223062   0.27604    37.91465   18.58933   12.324     0.7458121  0.7915398  37.577     0.1605395  0.1967123  0.1243667 
1106.2     -9999      69.3       1          2          7.179      4.874      14.827     14.386     12.158     6.433      8.905      1.412      2.208      1.657      0.2195811  0.2195811  0.27034    32.68383   22.13985   12.494     0.7439575  0.789055   37.577     0.1538149  0.1831616  0.1244681 
1106.4     -9999      69         1          2          7.261      4.884      14.699     14.565     12.286     6.678      10.383     1.251      2.249      1.679      0.2099899  0.2099899  0.26198    21.711     19.95575   13.051     0.7391945  0.7858267  37.322     0.1575458  0.1910966  0.1239951 
1106.6     -9999      68.8       1          2          7.455      5.596      14.725     15.896     12.438     6.754      14.493     1.166      2.109      1.65       0.217802   0.217802   0.273      30.2956    15.6082    13.088     0.7476965  0.7943585  36.939     0.1672667  0.2112654  0.1232679 
1106.8     -9999      73.9       1          2          7.143      6.021      15.263     16.433     12.591     6.764      14.462     1.105      1.922      1.653      0.2218937  0.2218937  0.27186    36.07177   23.17273   13.145     0.7522591  0.7959145  36.786     0.1514131  0.1797829  0.1230432 
1107       -9999      75.2       1          2          6.99       6.184      15.429     16.536     12.591     6.774      12.559     1.245      1.986      1.697      0.207398   0.207398   0.25514    19.4389    28.12804   13.184     0.7376095  0.7824875  36.837     0.1446728  0.1661048  0.1232408 
1107.2     -9999      73.1       1          2          6.913      5.833      15.595     16.28      12.337     6.67       10.591     1.31       2.236      1.727      0.1970349  0.1970349  0.24374    12.49459   31.00955   12.274     0.7162653  0.763472   36.888     0.1415307  0.1596198  0.1234415 
