~Version
 VERS              .         2.0                           : CWLS LOG ASCII STANDARD - VERSION 2.0
 WRAP              .         NO                            : ONE LINE PER DEPTH STEP
 DLM               .         SPACE                         : DELIMITING CHARACTER(SPACE TAB OR COMMA)
~Well Information
#_______________________________________________________________________________
#
#PARAMETER_NAME    .UNIT     VALUE                         : DESCRIPTION
#_______________________________________________________________________________
STRT               .M        832                           : First reference value
STOP               .M        1164                          : Last reference value
STEP               .M        0.2                           : Step increment
NULL               .         -9999                         : Missing value
COMP               .                                       : Company
WELL               .         4719                          : Well name
FLD                .         УЗЕНЬ                         : Field
LOC                .                                       : Location
CNTY               .                                       : County
STAT               .                                       : State
CTRY               .                                       : Country
SRVC               .                                       : Service Company
DATE               .                                       : Date
UWI                .                                       : Unique Well ID
Block              .         7                             : 
Category           .         Нефтяная                      : 
Condition          .         В работе                      : 
Date               .         24.09.1990                    : 
EREF               .m        84                            : 100.8
Gorizont           .         15                            : 14
Interpretator      .         Ткачева И.Г.                  : 
Kupol              .         Основной                      : osnovnoi
Mud                .         0                             : 
Mud_density        .         0                             : 
Mud_resistivity    .         0                             : 
NGDU               .         НГДУ-2                        : 
ORIGINALWELLNAME   .         4719                          : 
Spud_date          .         1990                          : 1961
Uslovie            .         15                            : 
Viscosity          .         0                             : 
X                  .m        42234.2                       : 46154
Y                  .m        83713.33                      : 85761.93
YEAR               .         2019                          : 
~Parameter Information Block
#_______________________________________________________________________________
#
#PARAMETER_NAME    .UNIT     VALUE                         : DESCRIPTION
#_______________________________________________________________________________
SET                .         LQC_KAZNIPI_Petrel            : 
TLFamily_CALI      .         Caliper                       : 
TLFamily_CILD      .         Conductivity                  : 
TLFamily_COLL      .         Net Reservoir Flag            : 
TLFamily_CSAT      .         Fluid Code                    : 
TLFamily_DEPT      .         Measured Depth                : 
TLFamily_GR        .         Russian Gamma Ray             : 
TLFamily_GZ1       .         Gradient 045                  : 
TLFamily_GZ2       .         Gradient 105                  : 
TLFamily_GZ3       .         Gradient 225                  : 
TLFamily_GZ4       .         Gradient 425                  : 
TLFamily_GZ5       .         Gradient 850                  : 
TLFamily_LLS       .         Lateral Log Resistivity       : 
TLFamily_MINV      .         Micro Gradient Resistivity    : 
TLFamily_MNOR      .         Micro Resistivity             : 
TLFamily_NGLD      .         Neutron Gamma                 : 
TLFamily_PHIE      .         Effective Porosity            : 
TLFamily_PHIEN     .         Effective Porosity            : 
TLFamily_PHIT      .         Porosity                      : 
TLFamily_PRMB      .         Permeability                  : 
TLFamily_PRMB_DGR  .         Permeability                  : 
TLFamily_RT        .         Formation Resistivity         : 
TLFamily_SOIL_ARCHIE .         Oil Saturation                : 
TLFamily_SOIL_DW   .         Oil Saturation                : 
TLFamily_SP        .         Spontaneous Potential         : 
TLFamily_VSH_FIN   .         Shale Volume                  : 
TLFamily_VSH_GR    .         Shale Volume                  : 
TLFamily_VSH_SP    .         Shale Volume                  : 
~Curve Information
#_______________________________________________________________________________
#
#LOGNAME           .UNIT     LOG_ID                        : DESCRIPTION
#_______________________________________________________________________________
DEPT               .M                                      : Колонка глубины 
CALI               .м                                      : Каверномер 
CILD               .мСм/м                                  : Индукционный каротаж 
COLL               .unitless                               : Описание 
CSAT               .unitless                               : Описание 
GR                 .uR/h                                   : Гамма каротаж 
GZ1                .Ohmm                                   : Градиент-зонд  длиной 0.45м 
GZ2                .Ohmm                                   : Градиент-зонд  длиной 1.05м 
GZ3                .Ohmm                                   : Градиент-зонд  длиной 2.25м 
GZ4                .Ohmm                                   : Градиент-зонд  длиной 4.5м 
GZ5                .Ohmm                                   : Градиент-зонд  длиной 8.5м 
LLS                .Ohmm                                   : Боковой каротаж 
MINV               .Ohmm                                   : Микро-градиент зонд 
MNOR               .Ohmm                                   : Микро-потенциал зонд 
NGLD               .у.е.                                   : Показания зонда НГК-60 аппаратуры ДРСТ-3-90 
PHIE               .v/v                                    : Описание 
PHIEN              .v/v                                    :  
PHIT               .v/v                                    : Описание 
PRMB               .mD                                     :  
PRMB_DGR           .mD                                     :  
RT                 .ohmm                                   : УЭС пласта 
SOIL_ARCHIE        .v/v                                    :  
SOIL_DW            .v/v                                    :  
SP                 .мВ                                     : Потенциал самополяризации 
VSH_FIN            .v/v                                    : Описание 
VSH_GR             .v/v                                    : Shale volume 
VSH_SP             .v/v                                    : Shale Volume 
~Ascii
# ...
1010.2     0.223      218.6      -9999      -9999      4.81       3.452      6.347      4.215      3.178      2.651      5.192      1.579      2.534      1.892      0.04778533 0.04778533 0.18104    0.02149109 41.26667   4.497      0          0.1997412  69.254     0.4038021  0.1420401  0.665564  
1010.4     0.223      222.4      -9999      -9999      4.458      3.869      6.796      4.851      3.265      2.651      6.357      1.804      3.104      1.932      0.03310523 0.03310523 0.16584    0.01149072 67.92304   4.637      0          0.06396865 69.714     0.4022265  0.1158885  0.6885645 
1010.6     0.223      230.3      -9999      -9999      5.095      3.373      5.684      5.015      3.127      2.6        4.405      1.812      2.379      1.971      0.01       0.006065277 0.15102    0.004289259 27.56607   4.418      0          0          70.149     0.4392568  0.1674793  0.7110343 
1010.8     0.222      240.8      -9999      -9999      5.34       3.286      5.704      4.887      2.855      2.497      3.821      1.441      2.119      1.796      0.0647708  0.0647708  0.21752    0.04434762 19.48691   4.149      0          0.3332557  70.557     0.4628764  0.1929608  0.732792  
1011       0.223      251.5      -9999      -9999      5.604      3.23       5.566      4.323      2.804      2.298      4.087      1.561      2.139      1.622      0.1254925  0.1254925  0.28364    0.5909947  13.41002   4.078      0.2951204  0.5515665  70.557     0.4792349  0.2247745  0.7336953 
1011.2     0.228      238.7      -9999      -9999      5.645      2.857      4.735      4.364      2.747      2.262      4.028      1.699      2.152      1.598      0.1335738  0.1335738  0.29276    0.8341986  12.65383   3.938      0.3213773  0.5629456  70.557     0.4823823  0.2301655  0.7345991 
1011.4     0.232      226        -9999      -9999      5.569      2.504      4.526      4.185      2.594      2.247      3.006      1.267      1.714      1.578      0.1446847  0.1446847  0.30036    1.339894   14.09122   3.767      0.3536725  0.5732996  70.302     0.4717433  0.2202724  0.7232142 
1011.6     0.229      220.9      -9999      -9999      4.8        2.361      4.556      3.621      2.44       2.17       2.816      0.985      1.458      1.697      0.114861   0.114861   0.25514    0.3755462  41.85501   3.606      0.1933829  0.4732837  69.983     0.4250877  0.1412214  0.708954  
1011.8     0.223      220.9      -9999      -9999      4.28       2.52       4.679      3.672      2.65       2.37       3.309      1.338      1.881      1.817      0.07763314 0.07763314 0.20954    0.07675597 87.38877   3.8        0          0.3291566  69.663     0.3997177  0.104557   0.6948785 
1012       0.22       217.8      -9999      -9999      4.181      2.581      4.959      3.815      2.829      2.457      3.889      1.218      1.973      1.937      0.03915293 0.03915293 0.16394    0.01487186 100.5364   4.013      0          0.03477512 68.82      0.3781426  0.0987413  0.6575439 
1012.2     0.22       205.3      -9999      -9999      4.076      2.995      4.791      3.903      3.111      2.477      4.57       1.292      2.238      1.928      0.04487904 0.04487904 0.16736    0.0189857  116.6486   4.106      0          0.09861454 68.616     0.3711545  0.09292623 0.6493827 
1012.4     0.219      197.6      -9999      -9999      4.051      3.337      4.765      4.015      3.245      2.497      5.064      2.022      2.712      1.895      0.0589716  0.0589716  0.1799     0.03463022 120.851    4.106      0          0.215476   68.412     0.3664497  0.09159293 0.6413065 
1012.6     0.22       193.3      -9999      -9999      4.056      3.041      4.786      4.113      3.306      2.559      3.688      1.801      3.35       1.892      0.06565684 0.06565684 0.18104    0.04605556 119.9986   4.165      0          0.2527159  67.594     0.349646   0.09185805 0.6074339 
1012.8     0.22       195.8      -9999      -9999      4.148      3.322      5.301      4.174      3.368      2.682      4.918      2.308      2.964      1.925      0.05678783 0.05678783 0.1685     0.03155051 105.3447   4.418      0          0.2001867  66.904     0.3385218  0.0968755  0.5801681 
1013       0.219      197.1      -9999      -9999      3.827      3.603      6.036      4.236      3.491      2.845      5.339      1.904      2.579      1.975      0.04529808 0.04529808 0.1495     0.01932807 165.9475   4.59       0          0.08300999 66.138     0.3157634  0.08046853 0.5510582 
1013.2     0.219      193.8      -9999      -9999      3.608      3.884      6.265      4.277      3.552      2.979      5.637      2.045      2.926      1.998      0.04040166 0.04040166 0.14076    0.01568537 226.2648   4.692      0          0.01928971 65.755     0.3041162  0.07089988 0.5373324 
1013.4     0.22       182.8      -9999      -9999      3.756      3.394      6.352      4.18       3.552      3.142      5.094      1.965      2.723      2.021      0.03018762 0.03018762 0.13202    0.01014626 183.4945   4.663      0          0          65.806     0.3085831  0.07723272 0.5399334 
1013.6     0.22       175.2      -9999      -9999      4.122      3.123      5.821      4.174      3.593      3.357      3.998      1.721      2.382      2.042      0.01877401 0.01877401 0.12404    0.006235887 109.2943   4.632      0          0          65.857     0.3189878  0.0954304  0.5425452 
1013.8     0.22       174.1      -9999      -9999      4.26       3.174      6.235      4.174      4.188      3.593      3.837      1.778      2.437      1.927      0.05651618 0.05651618 0.16774    0.03118709 89.89842   4.602      0          0.2127137  66.572     0.3370418  0.1033551  0.5707285 
1014       0.218      173.1      -9999      -9999      4.26       2.969      5.964      5.325      4.782      4.104      4.209      1.958      2.505      2.026      0.02796515 0.02796515 0.13012    0.009228699 89.89842   4.68       0          0          65.091     0.3095601  0.1033551  0.5157651 
1014.2     0.217      223.7      -9999      -9999      3.796      3.128      6.894      6.475      5.377      4.519      4.303      1.983      2.927      2.124      0.01       0.0002190852 0.09287997 0.004289259 173.3925   4.962      0          0          64.12      0.2807906  0.07903937 0.4825418 
1014.4     0.217      245.6      -9999      -9999      3.552      4.198      7.824      7.626      5.971      4.964      7.515      2.945      3.687      2.223      0.01       0          0.05525998 0.004289259 244.9329   5.177      0          0          63.711     0.269067   0.06864147 0.4694925 
1014.6     0.219      258.4      -9999      -9999      3.389      5.268      8.754      7.81       6.566      5.056      13.126     3.457      4.448      2.321      0.01       0          0.01801996 0.004289259 308.5058   5.21       0          0          63.762     0.2671331  0.06246905 0.4717972 
1014.8     0.225      268.4      -9999      -9999      4.514      6.337      9.684      7.99       7.16       4.724      7.442      3.503      4.744      2.42       0.01       0          0.01       0.004289259 62.74618   5.24       0          0          64.375     0.3064367  0.1197014  0.4931719 
1015       0.23       279.1      -9999      -9999      5.64       4.413      6.49       5.728      4.828      4.176      4.22       1.395      1.523      2.083      0.01       0          0.10846    0.004289259 12.74372   4.055      0          0          65.831     0.3879943  0.2295012  0.5464876 
1015.2     0.235      288.3      -9999      -9999      6.766      2.489      6.026      4.559      4.321      3.531      2.392      1.095      1.08       1.746      0.06989188 0.06989188 0.23652    0.05517282 2.588243   3.693      0          0.3484098  66.419     0.5049337  0.4400179  0.5698493 
1015.4     0.236      307.2      -9999      -9999      7.891      2.187      5.439      4.385      3.552      3.137      2.533      0.756      1.093      1.41       0.1353728  0.1353728  0.3642     0.9007203  0.5264158  3.51       0.292027   0.5988708  66.828     0.6934159  0.8        0.5868319 
