~Version
 VERS              .         2.0                           : CWLS LOG ASCII STANDARD - VERSION 2.0
 WRAP              .         NO                            : ONE LINE PER DEPTH STEP
 DLM               .         SPACE                         : DELIMITING CHARACTER(SPACE TAB OR COMMA)
~Well Information
#_______________________________________________________________________________
#
#PARAMETER_NAME    .UNIT     VALUE                         : DESCRIPTION
#_______________________________________________________________________________
STRT               .M        832                           : First reference value
STOP               .M        1164                          : Last reference value
STEP               .M        0.2                           : Step increment
NULL               .         -9999                         : Missing value
COMP               .                                       : Company
WELL               .         4719                          : Well name
FLD                .         УЗЕНЬ                         : Field
LOC                .                                       : Location
CNTY               .                                       : County
STAT               .                                       : State
CTRY               .                                       : Country
SRVC               .                                       : Service Company
DATE               .                                       : Date
UWI                .                                       : Unique Well ID
Block              .         7                             : 
Category           .         Нефтяная                      : 
Condition          .         В работе                      : 
Date               .         24.09.1990                    : 
EREF               .m        84                            : 100.8
Gorizont           .         15                            : 14
Interpretator      .         Ткачева И.Г.                  : 
Kupol              .         Основной                      : osnovnoi
Mud                .         0                             : 
Mud_density        .         0                             : 
Mud_resistivity    .         0                             : 
NGDU               .         НГДУ-2                        : 
ORIGINALWELLNAME   .         4719                          : 
Spud_date          .         1990                          : 1961
Uslovie            .         15                            : 
Viscosity          .         0                             : 
X                  .m        42234.2                       : 46154
Y                  .m        83713.33                      : 85761.93
YEAR               .         2019                          : 
~Parameter Information Block
#_______________________________________________________________________________
#
#PARAMETER_NAME    .UNIT     VALUE                         : DESCRIPTION
#_______________________________________________________________________________
SET                .         LQC_KAZNIPI_Petrel            : 
TLFamily_CALI      .         Caliper                       : 
TLFamily_CILD      .         Conductivity                  : 
TLFamily_COLL      .         Net Reservoir Flag            : 
TLFamily_CSAT      .         Fluid Code                    : 
TLFamily_DEPT      .         Measured Depth                : 
TLFamily_GR        .         Russian Gamma Ray             : 
TLFamily_GZ1       .         Gradient 045                  : 
TLFamily_GZ2       .         Gradient 105                  : 
TLFamily_GZ3       .         Gradient 225                  : 
TLFamily_GZ4       .         Gradient 425                  : 
TLFamily_GZ5       .         Gradient 850                  : 
TLFamily_LLS       .         Lateral Log Resistivity       : 
TLFamily_MINV      .         Micro Gradient Resistivity    : 
TLFamily_MNOR      .         Micro Resistivity             : 
TLFamily_NGLD      .         Neutron Gamma                 : 
TLFamily_PHIE      .         Effective Porosity            : 
TLFamily_PHIEN     .         Effective Porosity            : 
TLFamily_PHIT      .         Porosity                      : 
TLFamily_PRMB      .         Permeability                  : 
TLFamily_PRMB_DGR  .         Permeability                  : 
TLFamily_RT        .         Formation Resistivity         : 
TLFamily_SOIL_ARCHIE .         Oil Saturation                : 
TLFamily_SOIL_DW   .         Oil Saturation                : 
TLFamily_SP        .         Spontaneous Potential         : 
TLFamily_VSH_FIN   .         Shale Volume                  : 
TLFamily_VSH_GR    .         Shale Volume                  : 
TLFamily_VSH_SP    .         Shale Volume                  : 
~Curve Information
#_______________________________________________________________________________
#
#LOGNAME           .UNIT     LOG_ID                        : DESCRIPTION
#_______________________________________________________________________________
DEPT               .M                                      : Колонка глубины 
CALI               .м                                      : Каверномер 
CILD               .мСм/м                                  : Индукционный каротаж 
COLL               .unitless                               : Описание 
CSAT               .unitless                               : Описание 
GR                 .uR/h                                   : Гамма каротаж 
GZ1                .Ohmm                                   : Градиент-зонд  длиной 0.45м 
GZ2                .Ohmm                                   : Градиент-зонд  длиной 1.05м 
GZ3                .Ohmm                                   : Градиент-зонд  длиной 2.25м 
GZ4                .Ohmm                                   : Градиент-зонд  длиной 4.5м 
GZ5                .Ohmm                                   : Градиент-зонд  длиной 8.5м 
LLS                .Ohmm                                   : Боковой каротаж 
MINV               .Ohmm                                   : Микро-градиент зонд 
MNOR               .Ohmm                                   : Микро-потенциал зонд 
NGLD               .у.е.                                   : Показания зонда НГК-60 аппаратуры ДРСТ-3-90 
PHIE               .v/v                                    : Описание 
PHIEN              .v/v                                    :  
PHIT               .v/v                                    : Описание 
PRMB               .mD                                     :  
PRMB_DGR           .mD                                     :  
RT                 .ohmm                                   : УЭС пласта 
SOIL_ARCHIE        .v/v                                    :  
SOIL_DW            .v/v                                    :  
SP                 .мВ                                     : Потенциал самополяризации 
VSH_FIN            .v/v                                    : Описание 
VSH_GR             .v/v                                    : Shale volume 
VSH_SP             .v/v                                    : Shale Volume 
~Ascii
# ...
994        0.26       366.2      -9999      -9999      6.9        -9999      -9999      2.098      -9999      -9999      2.325      1.155      1.256      1.404      0.1679607  0.1679607  0.36648    3.615745   2.141009   2.455      0.3061194  0.5585554  74.279     0.6015736  0.4754573  0.7276898 
994.2000000000001 0.256      363.1      -9999      -9999      7.002      -9999      -9999      2.083      -9999      -9999      2.341      1.316      1.412      1.444      0.1490085  0.1490085  0.35128    1.611225   1.853133   2.466      0.2314709  0.5270361  74.151     0.6129441  0.5043347  0.7215534 
994.4      0.249      360.8      -9999      -9999      7.114      -9999      -9999      2.17       -9999      -9999      2.324      1.393      1.455      1.488      0.1267225  0.1267225  0.33456    0.6228264  1.581417   2.477      0.1168572  0.4836807  74.151     0.6298105  0.5380675  0.7215534 
994.6      0.249      356.3      -9999      -9999      7.185      -9999      -9999      2.19       -9999      -9999      2.331      0.913      1.325      1.544      0.1001058  0.1001058  0.31328    0.2001526  1.430191   2.498      0          0.4173581  74.355     0.6459823  0.5606109  0.7313536 
994.8      0.247      351.9      -9999      -9999      7.348      -9999      -9999      2.113      -9999      -9999      2.367      1.122      1.332      1.55       0.08707342 0.08707342 0.311      0.1148072  1.135476   2.514      0          0.3886612  74.509     0.6785654  0.6160035  0.7411274 
995        0.25       345.5      -9999      -9999      7.093      -9999      -9999      2.088      -9999      -9999      2.371      1.173      1.402      1.556      0.09710213 0.09710213 0.30872    0.1760861  1.629138   2.546      0          0.4112056  74.662     0.6412663  0.5315751  0.7509574 
995.2000000000001 0.244      343.4      -9999      -9999      7.093      -9999      -9999      2.129      -9999      -9999      2.47       1.158      1.488      1.534      0.1034026  0.1034026  0.31708    0.2303697  1.629138   2.578      0          0.4372614  74.866     0.6475072  0.5315751  0.7634393 
995.4      0.249      343.6      -9999      -9999      7.109      -9999      -9999      2.211      -9999      -9999      2.632      1.341      1.634      1.547      0.0968264  0.0968264  0.31214    0.1740275  1.59265    2.625      0          0.4237977  74.918     0.6524654  0.5365146  0.7684161 
995.6      0.249      343.7      -9999      -9999      7.119      -9999      -9999      2.211      -9999      -9999      2.591      1.265      1.402      1.546      0.09587607 0.09587607 0.31252    0.167115   1.570263   2.641      0          0.4241037  74.969     0.6564968  0.539625   0.7733685 
995.8      0.246      346.2      -9999      -9999      7.221      -9999      -9999      2.231      -9999      -9999      2.516      1.13       1.468      1.507      0.10596    0.10596    0.32734    0.256918   1.359128   2.64       0          0.4599719  74.841     0.6708485  0.5723999  0.7692971 
996        0.25       346.2      -9999      -9999      7.073      -9999      -9999      2.293      -9999      -9999      2.574      1.181      1.555      1.454      0.1357731  0.1357731  0.34748    0.9162301  1.675923   2.639      0.1927159  0.5237314  74.56      0.6415362  0.5254648  0.7576075 
996.2000000000001 0.248      341.1      -9999      -9999      7.012      -9999      -9999      2.359      -9999      -9999      2.537      1.305      1.608      1.436      0.1507989  0.1507989  0.35432    1.739082   1.827083   2.62       0.2607405  0.5456422  73.87      0.6167305  0.5072587  0.7262024 
996.4      0.248      341.4      -9999      -9999      7.012      -9999      -9999      2.354      -9999      -9999      2.463      1.385      1.576      1.399      0.169082   0.169082   0.36838    3.792859   1.827083   2.62       0.3308686  0.5751231  73.282     0.6039333  0.5072587  0.700608  
996.6      0.243      346.8      -9999      -9999      7.17       -9999      -9999      2.303      -9999      -9999      2.467      1.344      1.557      1.374      0.1721672  0.1721672  0.37788    4.326248   1.460886   2.659      0.3458753  0.5877103  73.027     0.6233723  0.5557709  0.6909738 
996.8      0.25       352.1      -9999      -9999      7.348      -9999      -9999      2.323      -9999      -9999      2.565      1.348      1.644      1.349      0.1733079  0.1733079  0.38738    4.541936   1.135476   2.657      0.3493972  0.5949104  72.771     0.6487033  0.6160035  0.6814032 
997        0.254      352.1      -9999      -9999      7.348      -9999      -9999      2.364      -9999      -9999      2.651      1.347      1.708      1.402      0.152812   0.152812   0.36724    1.894991   1.135476   2.615      0.2685743  0.5575479  72.771     0.6497819  0.6160035  0.6835603 
997.2000000000001 0.257      348        -9999      -9999      7.272      -9999      -9999      2.339      -9999      -9999      2.533      1.242      1.483      1.429      0.1465639  0.1465639  0.35698    1.4517     1.264459   2.576      0.2361231  0.5391386  72.771     0.6376246  0.5895262  0.6857229 
997.4      0.25       347        -9999      -9999      7.313      -9999      -9999      2.236      -9999      -9999      2.456      1.176      1.504      1.406      0.1526131  0.1526131  0.36572    1.878985   1.193154   2.576      0.2625626  0.552826   72.771     0.6457784  0.6036655  0.6878912 
997.6      0.246      349.6      -9999      -9999      7.369      -9999      -9999      2.236      -9999      -9999      2.519      1.066      1.486      1.383      0.1561505  0.1561505  0.37446    2.18496    1.102216   2.606      0.2810507  0.5656721  72.976     0.661544   0.6235271  0.6995611 
997.8      0.244      354.7      -9999      -9999      7.47       2.034      -9999      2.236      -9999      -9999      2.567      0.946      1.231      1.455      0.1232241  0.1232241  0.3471     0.5364969  0.9553654  2.614      0.1176335  0.504294   72.848     0.6784118  0.6610154  0.6958082 
998        0.245      357.5      -9999      -9999      7.634      2.095      -9999      2.103      -9999      -9999      2.529      1.401      1.31       1.456      0.1168307  0.1168307  0.34672    0.4084563  0.7574228  2.594      0.07238658 0.4927007  72.158     0.6966344  0.7267487  0.66652   
998.2000000000001 0.243      352.1      -9999      -9999      7.557      2.116      -9999      2.103      -9999      -9999      2.381      1.306      1.59       1.433      0.1341721  0.1341721  0.35546    0.8557593  0.8446559  2.557      0.172161   0.5211068  71.647     0.6705693  0.6951095  0.646029  
998.4      0.241      329.6      -9999      -9999      7.262      2.085      2.913      2.078      -9999      -9999      2.245      1.37       1.59       1.435      0.1530651  0.1530651  0.3547     1.915561   1.282486   2.537      0.2591752  0.5411215  71.366     0.6110148  0.5861282  0.6359013 
998.6      0.241      313.8      -9999      -9999      7.338      1.85       2.633      1.914      -9999      -9999      2.164      1.16       1.356      1.422      0.1533255  0.1533255  0.35964    1.936949   1.151665   2.576      0.2655476  0.5488421  71.366     0.6251954  0.6124527  0.637938  
998.8      0.241      299.8      -9999      -9999      7.099      1.62       2.429      1.863      -9999      -9999      2.282      1.107      1.356      1.436      0.1570071  0.1570071  0.35432    2.266264   1.615359   2.752      0.3025397  0.563265   71.877     0.5979179  0.5334221  0.6624137 
999        0.235      287.3      -9999      -9999      6.385      1.722      2.52       1.878      -9999      -9999      2.533      1.321      1.641      1.519      0.1539367  0.1539367  0.32278    1.988102   4.438667   2.89       0.306545   0.5449481  72.005     0.5116464  0.3530363  0.6702565 
999.2000000000001 0.231      274.7      -9999      -9999      5.672      1.835      2.566      1.986      -9999      -9999      2.969      1.562      1.881      1.602      0.1417219  0.1417219  0.29124    1.18084    12.17928   3.025      0.2705666  0.51082    72.005     0.4530852  0.233786   0.6723844 
