~Version
 VERS              .         2.0                           : CWLS LOG ASCII STANDARD - VERSION 2.0
 WRAP              .         NO                            : ONE LINE PER DEPTH STEP
 DLM               .         SPACE                         : DELIMITING CHARACTER(SPACE TAB OR COMMA)
~Well Information
#_______________________________________________________________________________
#
#PARAMETER_NAME    .UNIT     VALUE                         : DESCRIPTION
#_______________________________________________________________________________
STRT               .M        832                           : First reference value
STOP               .M        1164                          : Last reference value
STEP               .M        0.2                           : Step increment
NULL               .         -9999                         : Missing value
COMP               .                                       : Company
WELL               .         4719                          : Well name
FLD                .         УЗЕНЬ                         : Field
LOC                .                                       : Location
CNTY               .                                       : County
STAT               .                                       : State
CTRY               .                                       : Country
SRVC               .                                       : Service Company
DATE               .                                       : Date
UWI                .                                       : Unique Well ID
Block              .         7                             : 
Category           .         Нефтяная                      : 
Condition          .         В работе                      : 
Date               .         24.09.1990                    : 
EREF               .m        84                            : 100.8
Gorizont           .         15                            : 14
Interpretator      .         Ткачева И.Г.                  : 
Kupol              .         Основной                      : osnovnoi
Mud                .         0                             : 
Mud_density        .         0                             : 
Mud_resistivity    .         0                             : 
NGDU               .         НГДУ-2                        : 
ORIGINALWELLNAME   .         4719                          : 
Spud_date          .         1990                          : 1961
Uslovie            .         15                            : 
Viscosity          .         0                             : 
X                  .m        42234.2                       : 46154
Y                  .m        83713.33                      : 85761.93
YEAR               .         2019                          : 
~Parameter Information Block
#_______________________________________________________________________________
#
#PARAMETER_NAME    .UNIT     VALUE                         : DESCRIPTION
#_______________________________________________________________________________
SET                .         LQC_KAZNIPI_Petrel            : 
TLFamily_CALI      .         Caliper                       : 
TLFamily_CILD      .         Conductivity                  : 
TLFamily_COLL      .         Net Reservoir Flag            : 
TLFamily_CSAT      .         Fluid Code                    : 
TLFamily_DEPT      .         Measured Depth                : 
TLFamily_GR        .         Russian Gamma Ray             : 
TLFamily_GZ1       .         Gradient 045                  : 
TLFamily_GZ2       .         Gradient 105                  : 
TLFamily_GZ3       .         Gradient 225                  : 
TLFamily_GZ4       .         Gradient 425                  : 
TLFamily_GZ5       .         Gradient 850                  : 
TLFamily_LLS       .         Lateral Log Resistivity       : 
TLFamily_MINV      .         Micro Gradient Resistivity    : 
TLFamily_MNOR      .         Micro Resistivity             : 
TLFamily_NGLD      .         Neutron Gamma                 : 
TLFamily_PHIE      .         Effective Porosity            : 
TLFamily_PHIEN     .         Effective Porosity            : 
TLFamily_PHIT      .         Porosity                      : 
TLFamily_PRMB      .         Permeability                  : 
TLFamily_PRMB_DGR  .         Permeability                  : 
TLFamily_RT        .         Formation Resistivity         : 
TLFamily_SOIL_ARCHIE .         Oil Saturation                : 
TLFamily_SOIL_DW   .         Oil Saturation                : 
TLFamily_SP        .         Spontaneous Potential         : 
TLFamily_VSH_FIN   .         Shale Volume                  : 
TLFamily_VSH_GR    .         Shale Volume                  : 
TLFamily_VSH_SP    .         Shale Volume                  : 
~Curve Information
#_______________________________________________________________________________
#
#LOGNAME           .UNIT     LOG_ID                        : DESCRIPTION
#_______________________________________________________________________________
DEPT               .M                                      : Колонка глубины 
CALI               .м                                      : Каверномер 
CILD               .мСм/м                                  : Индукционный каротаж 
COLL               .unitless                               : Описание 
CSAT               .unitless                               : Описание 
GR                 .uR/h                                   : Гамма каротаж 
GZ1                .Ohmm                                   : Градиент-зонд  длиной 0.45м 
GZ2                .Ohmm                                   : Градиент-зонд  длиной 1.05м 
GZ3                .Ohmm                                   : Градиент-зонд  длиной 2.25м 
GZ4                .Ohmm                                   : Градиент-зонд  длиной 4.5м 
GZ5                .Ohmm                                   : Градиент-зонд  длиной 8.5м 
LLS                .Ohmm                                   : Боковой каротаж 
MINV               .Ohmm                                   : Микро-градиент зонд 
MNOR               .Ohmm                                   : Микро-потенциал зонд 
NGLD               .у.е.                                   : Показания зонда НГК-60 аппаратуры ДРСТ-3-90 
PHIE               .v/v                                    : Описание 
PHIEN              .v/v                                    :  
PHIT               .v/v                                    : Описание 
PRMB               .mD                                     :  
PRMB_DGR           .mD                                     :  
RT                 .ohmm                                   : УЭС пласта 
SOIL_ARCHIE        .v/v                                    :  
SOIL_DW            .v/v                                    :  
SP                 .мВ                                     : Потенциал самополяризации 
VSH_FIN            .v/v                                    : Описание 
VSH_GR             .v/v                                    : Shale volume 
VSH_SP             .v/v                                    : Shale Volume 
~Ascii
# ...
1139.8     -9999      499        -9999      -9999      10.204     1.521      2.018      1.992      2.02       0.947      1.952      1.395      1.369      1.527      0.1220987  0.1220987  0.31974    0.5113538  2.567876   1.843      0          0.3831698  63.743     0.5989132  0.4414398  0.7563865 
1140       -9999      488.5      -9999      -9999      10.271     1.669      1.941      1.992      1.994      0.967      2.016      1.417      1.402      1.536      0.1122325  0.1122325  0.31632    0.3357199  2.397606   1.836      0          0.3586369  64.279     0.6184468  0.4539815  0.7829121 
1140.2     -9999      486        -9999      -9999      10.164     1.689      1.982      1.823      1.852      0.987      1.907      1.322      1.364      1.548      0.1081306  0.1081306  0.31176    0.2818375  2.675242   1.828      0          0.3425762  64.841     0.6170589  0.4341177  0.8       
1140.4     -9999      483.4      -9999      -9999      10.112     1.587      1.9        1.679      1.684      0.962      1.893      1.217      1.177      1.504      0.1263912  0.1263912  0.32848    0.6140868  2.821553   1.818      0          0.3971277  65.147     0.6123903  0.4247807  0.8       
1140.6     -9999      479.3      -9999      -9999      10.153     1.674      1.823      1.551      1.572      0.937      1.927      1.419      1.221      1.482      0.1335393  0.1335393  0.33684    0.8329701  2.705546   1.857      0.04755535 0.4245959  65.326     0.6160628  0.4321257  0.8       
1140.8     -9999      471.4      -9999      -9999      10.583     1.715      1.844      1.474      1.47       0.977      1.984      1.491      1.354      1.483      0.1191147  0.1191147  0.33646    0.4502474  1.741907   1.866      0          0.4014256  65.071     0.6586221  0.5172441  0.8       
1141       -9999      457.8      -9999      -9999      10.731     1.7        1.905      1.449      1.419      0.987      2.019      1.402      1.34       1.483      0.1146991  0.1146991  0.33646    0.3729609  1.496947   1.876      0          0.395021   64.535     0.6720027  0.5502644  0.793741  
1141.2     -9999      444.3      -9999      -9999      10.833     1.72       1.905      1.469      1.394      0.998      2.008      1.333      1.349      1.503      0.1089863  0.1089863  0.32886    0.2923139  1.348481   1.892      0          0.3775569  63.845     0.6662838  0.5742409  0.7583267 
1141.4     -9999      429.2      -9999      -9999      10.557     1.674      1.905      1.393      1.369      0.947      1.978      1.312      1.382      1.529      0.1140414  0.1140414  0.31898    0.3626446  1.788907   1.924      0          0.3803781  63.284     0.621026   0.5116513  0.7304007 
1141.6     -9999      400.6      -9999      -9999      9.995      1.674      1.854      1.316      1.313      0.896      1.949      1.179      1.387      1.495      0.1477296  0.1477296  0.3319     1.525701   3.180684   1.981      0.1538107  0.4583988  62.901     0.558092   0.4044997  0.7116843 
1141.8     -9999      395.7      -9999      -9999      10.204     1.649      1.875      1.321      1.287      0.881      1.975      1.146      1.256      1.511      0.1387759  0.1387759  0.32582    1.041418   2.567876   2.041      0.1188781  0.4474159  62.492     0.5668002  0.4414398  0.6921606 
1142       -9999      382.6      -9999      -9999      9.888      1.582      2.085      1.398      1.262      0.916      1.944      1.092      1.241      1.549      0.1385686  0.1385686  0.31138    1.032247   3.548998   2.113      0.1319671  0.4409879  61.803     0.523671   0.386801   0.6605411 
1142.2     -9999      369.4      -9999      -9999      8.896      1.771      2.202      1.418      1.211      0.906      2.157      1.189      1.354      1.586      0.1524504  0.1524504  0.29732    1.86599    9.800947   2.264      0.2266857  0.4643084  60.935     0.4389988  0.2554738  0.6225238 
1142.4     -9999      350.7      -9999      -9999      8.901      1.756      2.038      1.265      1.033      0.926      2.286      1.015      1.213      1.645      0.1340294  0.1340294  0.2749     0.8505655  9.750893   2.292      0.139874   0.4128213  60.348     0.4268806  0.2560085  0.5977528 
1142.6     -9999      326.7      -9999      -9999      8.84       1.689      2.038      1.239      0.956      1.043      2.222      1.223      1.405      1.61       0.1523411  0.1523411  0.2882     1.857313   10.3794    2.371      0.2427904  0.466357   59.761     0.4116936  0.2495612  0.573826  
1142.8     -9999      313.4      -9999      -9999      8.549      1.894      2.284      1.295      1.038      1.252      2.499      1.207      1.625      1.676      0.1433557  0.1433557  0.26312    1.266055   13.98254   2.455      0.2145545  0.432374   57.923     0.3629223  0.2209699  0.5048746 
1143       -9999      302.4      8          2          8.497      2.002      2.397      1.454      1.175      1.44       2.611      1.281      1.714      1.742      0.1235985  0.1235985  0.23804    0.5451316  14.74726   2.586      0.1278074  0.3770064  57.132     0.3467926  0.2162172  0.4773679 
1143.2     -9999      287.8      8          2          8.385      2.507      2.952      1.925      1.348      1.68       2.78       1.215      1.658      1.742      0.1266838  0.1266838  0.23804    0.6217989  16.5394    2.776      0.1742719  0.4044833  56.876     0.337443   0.206325   0.468561  
1143.4     -9999      291.7      8          2          8.002      3.012      3.507      2.12       1.501      1.832      3.725      1.31       2.116      1.742      0.139936   0.139936   0.23804    1.094237   24.48206   2.947      0.2637549  0.4443938  55.294     0.297285   0.1757929  0.4187771 
1143.6     -9999      295.5      8          2          7.971      3.517      4.062      2.34       1.643      1.934      4.992      1.113      1.817      1.791      0.1283938  0.1283938  0.21942    0.6688399  25.27167   3.152      0.2310856  0.4160928  53.864     0.275837   0.1735289  0.3781452 
1143.8     -9999      293.5      8          2          7.869      3.625      4.128      2.396      1.704      1.995      3.969      1.079      1.844      1.767      0.1441434  0.1441434  0.22854    1.309315   28.05405   3.109      0.3003011  0.4523508  52.588     0.2557472  0.1662835  0.3452109 
1144       -9999      281.2      8          2          8.262      3.655      4.077      2.34       1.572      1.909      3.156      1.752      2.004      1.723      0.1523354  0.1523354  0.24526    1.856858   18.75947   3.069      0.329124   0.4831653  53.468     0.2815897  0.1959818  0.3671976 
1144.2     -9999      257.7      1          2          8.431      2.954      3.703      2.15       1.389      1.944      2.51       1.069      1.841      1.722      0.1427607  0.1427607  0.24564    1.234336   15.77841   3.079      0.2911846  0.4708326  55.14      0.3117553  0.2103319  0.4131788 
1144.4     -9999      239.3      1          2          8.334      2.493      3.626      2.099      1.389      2.357      2.37       1.391      1.738      1.686      0.1567444  0.1567444  0.25932    2.241016   17.42613   3.09       0.3476807  0.5074646  55.37      0.3108351  0.2019717  0.4196986 
1144.6     -9999      233.1      1          2          7.854      2.125      3.57       2.67       1.917      2.474      2.681      1.665      2.011      1.807      0.1195662  0.1195662  0.21334    0.4590019  28.48829   3.226      0.1907327  0.3960817  54.809     0.2841629  0.1652439  0.403082  
1144.8     -9999      240.6      6          6          7.486      2.171      4.384      3.241      2.444      2.86       3.395      2.773      2.106      1.943      0.06421189 0.06421189 0.16166    0.04330301 41.52632   3.52       0          0.1297866  56.34      0.2952974  0.1416768  0.4489179 
1145       -9999      248        6          6          7.434      3.374      5.199      3.811      2.972      3.095      5.194      3.882      3.536      1.972      0.04794286 0.04794286 0.15064    0.02163596 43.79745   3.79       0          0.02639584 57.412     0.3112034  0.1386296  0.4837773 
