~Version
 VERS              .         2.0                           : CWLS LOG ASCII STANDARD - VERSION 2.0
 WRAP              .         NO                            : ONE LINE PER DEPTH STEP
 DLM               .         SPACE                         : DELIMITING CHARACTER(SPACE TAB OR COMMA)
~Well Information
#_______________________________________________________________________________
#
#PARAMETER_NAME    .UNIT     VALUE                         : DESCRIPTION
#_______________________________________________________________________________
STRT               .M        832                           : First reference value
STOP               .M        1164                          : Last reference value
STEP               .M        0.2                           : Step increment
NULL               .         -9999                         : Missing value
COMP               .                                       : Company
WELL               .         4719                          : Well name
FLD                .         УЗЕНЬ                         : Field
LOC                .                                       : Location
CNTY               .                                       : County
STAT               .                                       : State
CTRY               .                                       : Country
SRVC               .                                       : Service Company
DATE               .                                       : Date
UWI                .                                       : Unique Well ID
Block              .         7                             : 
Category           .         Нефтяная                      : 
Condition          .         В работе                      : 
Date               .         24.09.1990                    : 
EREF               .m        84                            : 100.8
Gorizont           .         15                            : 14
Interpretator      .         Ткачева И.Г.                  : 
Kupol              .         Основной                      : osnovnoi
Mud                .         0                             : 
Mud_density        .         0                             : 
Mud_resistivity    .         0                             : 
NGDU               .         НГДУ-2                        : 
ORIGINALWELLNAME   .         4719                          : 
Spud_date          .         1990                          : 1961
Uslovie            .         15                            : 
Viscosity          .         0                             : 
X                  .m        42234.2                       : 46154
Y                  .m        83713.33                      : 85761.93
YEAR               .         2019                          : 
~Parameter Information Block
#_______________________________________________________________________________
#
#PARAMETER_NAME    .UNIT     VALUE                         : DESCRIPTION
#_______________________________________________________________________________
SET                .         LQC_KAZNIPI_Petrel            : 
TLFamily_CALI      .         Caliper                       : 
TLFamily_CILD      .         Conductivity                  : 
TLFamily_COLL      .         Net Reservoir Flag            : 
TLFamily_CSAT      .         Fluid Code                    : 
TLFamily_DEPT      .         Measured Depth                : 
TLFamily_GR        .         Russian Gamma Ray             : 
TLFamily_GZ1       .         Gradient 045                  : 
TLFamily_GZ2       .         Gradient 105                  : 
TLFamily_GZ3       .         Gradient 225                  : 
TLFamily_GZ4       .         Gradient 425                  : 
TLFamily_GZ5       .         Gradient 850                  : 
TLFamily_LLS       .         Lateral Log Resistivity       : 
TLFamily_MINV      .         Micro Gradient Resistivity    : 
TLFamily_MNOR      .         Micro Resistivity             : 
TLFamily_NGLD      .         Neutron Gamma                 : 
TLFamily_PHIE      .         Effective Porosity            : 
TLFamily_PHIEN     .         Effective Porosity            : 
TLFamily_PHIT      .         Porosity                      : 
TLFamily_PRMB      .         Permeability                  : 
TLFamily_PRMB_DGR  .         Permeability                  : 
TLFamily_RT        .         Formation Resistivity         : 
TLFamily_SOIL_ARCHIE .         Oil Saturation                : 
TLFamily_SOIL_DW   .         Oil Saturation                : 
TLFamily_SP        .         Spontaneous Potential         : 
TLFamily_VSH_FIN   .         Shale Volume                  : 
TLFamily_VSH_GR    .         Shale Volume                  : 
TLFamily_VSH_SP    .         Shale Volume                  : 
~Curve Information
#_______________________________________________________________________________
#
#LOGNAME           .UNIT     LOG_ID                        : DESCRIPTION
#_______________________________________________________________________________
DEPT               .M                                      : Колонка глубины 
CALI               .м                                      : Каверномер 
CILD               .мСм/м                                  : Индукционный каротаж 
COLL               .unitless                               : Описание 
CSAT               .unitless                               : Описание 
GR                 .uR/h                                   : Гамма каротаж 
GZ1                .Ohmm                                   : Градиент-зонд  длиной 0.45м 
GZ2                .Ohmm                                   : Градиент-зонд  длиной 1.05м 
GZ3                .Ohmm                                   : Градиент-зонд  длиной 2.25м 
GZ4                .Ohmm                                   : Градиент-зонд  длиной 4.5м 
GZ5                .Ohmm                                   : Градиент-зонд  длиной 8.5м 
LLS                .Ohmm                                   : Боковой каротаж 
MINV               .Ohmm                                   : Микро-градиент зонд 
MNOR               .Ohmm                                   : Микро-потенциал зонд 
NGLD               .у.е.                                   : Показания зонда НГК-60 аппаратуры ДРСТ-3-90 
PHIE               .v/v                                    : Описание 
PHIEN              .v/v                                    :  
PHIT               .v/v                                    : Описание 
PRMB               .mD                                     :  
PRMB_DGR           .mD                                     :  
RT                 .ohmm                                   : УЭС пласта 
SOIL_ARCHIE        .v/v                                    :  
SOIL_DW            .v/v                                    :  
SP                 .мВ                                     : Потенциал самополяризации 
VSH_FIN            .v/v                                    : Описание 
VSH_GR             .v/v                                    : Shale volume 
VSH_SP             .v/v                                    : Shale Volume 
~Ascii
# ...
886        0.273      213        -9999      -9999      9.033      -9999      -9999      4.445      -9999      -9999      3.831      1.192      1.945      1.523      -9999      -9999      -9999      -9999      -9999      3.949      -9999      -9999      67.573     -9999      0.3936237  0.7204149 
886.2000000000001 0.276      201        -9999      -9999      8.447      -9999      -9999      3.877      -9999      -9999      3.517      1.193      1.534      1.522      -9999      -9999      -9999      -9999      -9999      3.937      -9999      -9999      67.19      -9999      0.3111804  0.6983028 
886.4      0.281      196.4      -9999      -9999      8.025      -9999      -9999      3.514      -9999      -9999      3.655      1.457      1.641      1.567      -9999      -9999      -9999      -9999      -9999      3.889      -9999      -9999      66.807     -9999      0.2627293  0.6767504 
886.6      0.255      194.4      -9999      -9999      7.872      -9999      -9999      3.448      -9999      -9999      4.005      1.739      1.869      1.595      -9999      -9999      -9999      -9999      -9999      4.258      -9999      -9999      66.424     -9999      0.2470923  0.6557503 
886.8      0.23       202.6      -9999      -9999      7.684      -9999      -9999      4.026      -9999      -9999      4.992      2.022      2.283      1.665      -9999      -9999      -9999      -9999      -9999      4.513      -9999      -9999      66.092     -9999      0.2291467  0.6378062 
887        0.225      211.7      -9999      -9999      8.544      -9999      -9999      4.358      -9999      -9999      6.123      1.91       2.698      1.697      -9999      -9999      -9999      -9999      -9999      4.618      -9999      -9999      65.76      -9999      0.3235248  0.6202748 
887.2000000000001 0.247      221.2      -9999      -9999      8.916      -9999      -9999      4.578      -9999      -9999      5.176      1.64       2.019      1.697      -9999      -9999      -9999      -9999      -9999      4.666      -9999      -9999      65.632     -9999      0.37558    0.6128139 
887.4      0.259      228.6      -9999      -9999      8.956      -9999      -9999      4.614      -9999      -9999      4.566      1.09       1.896      1.683      -9999      -9999      -9999      -9999      -9999      4.477      -9999      -9999      65.977     -9999      0.3816538  0.6281028 
887.6      0.272      232.1      -9999      -9999      8.982      -9999      -9999      4.409      -9999      -9999      4.108      1.101      1.195      1.519      -9999      -9999      -9999      -9999      -9999      4.285      -9999      -9999      66.322     -9999      0.3856543  0.6437117 
887.8      0.29       220.2      -9999      -9999      8.692      -9999      -9999      4.425      -9999      -9999      3.434      0.735      1.118      1.472      -9999      -9999      -9999      -9999      -9999      4.1        -9999      -9999      66.526     -9999      0.3433098  0.6525245 
888        0.295      225        -9999      -9999      9.145      -9999      -9999      4.292      -9999      -9999      3.14       1.138      1.105      1.461      -9999      -9999      -9999      -9999      -9999      3.968      -9999      -9999      66.373     -9999      0.4117081  0.6434956 
888.2000000000001 0.243      252.6      -9999      -9999      9.598      -9999      -9999      4.476      -9999      -9999      3.818      1.54       1.576      1.486      -9999      -9999      -9999      -9999      -9999      3.908      -9999      -9999      66.219     -9999      0.4937334  0.6345227 
888.4      0.234      259.7      -9999      -9999      10.051     -9999      -9999      4.706      -9999      -9999      3.866      1.716      2.047      1.436      -9999      -9999      -9999      -9999      -9999      4.119      -9999      -9999      65.658     -9999      0.5921009  0.6061663 
888.6      0.265      263.5      -9999      -9999      9.97       -9999      -9999      4.757      -9999      -9999      3.229      0.761      1.509      1.409      -9999      -9999      -9999      -9999      -9999      4.031      -9999      -9999      64.688     -9999      0.573175   0.5605695 
888.8      0.271      261.9      -9999      -9999      9.921      -9999      -9999      4.404      -9999      -9999      3.096      1.134      1.322      1.422      -9999      -9999      -9999      -9999      -9999      3.591      -9999      -9999      64.56      -9999      0.5620208  0.5537277 
889        0.26       260.2      -9999      -9999      9.873      -9999      -9999      4.133      -9999      -9999      3.058      1.31       1.422      1.447      -9999      -9999      -9999      -9999      -9999      3.493      -9999      -9999      64.433     -9999      0.5513049  0.5470025 
889.2000000000001 0.231      260.8      -9999      -9999      9.639      -9999      -9999      4.107      -9999      -9999      3.112      1.479      1.414      1.461      -9999      -9999      -9999      -9999      -9999      3.442      -9999      -9999      64.56      -9999      0.5019193  0.5513128 
889.4      0.224      261.5      -9999      -9999      9.608      -9999      -9999      4.281      -9999      -9999      3.131      1.592      1.646      1.499      -9999      -9999      -9999      -9999      -9999      3.463      -9999      -9999      65.377     -9999      0.4957176  0.5866269 
889.6      0.222      263        -9999      -9999      9.684      -9999      -9999      4.118      -9999      -9999      3.225      1.705      1.877      1.518      -9999      -9999      -9999      -9999      -9999      3.486      -9999      -9999      65.683     -9999      0.5110601  0.5995335 
889.8      0.22       253.8      -9999      -9999      9.725      -9999      -9999      3.888      -9999      -9999      3.575      1.553      1.705      1.562      -9999      -9999      -9999      -9999      -9999      3.478      -9999      -9999      66.015     -9999      0.5195333  0.6139218 
890        0.217      229.1      -9999      -9999      9.756      -9999      -9999      3.606      -9999      -9999      3.21       1.134      1.414      1.592      -9999      -9999      -9999      -9999      -9999      3.469      -9999      -9999      66.347     -9999      0.5260327  0.6286007 
890.2000000000001 0.217      220.4      -9999      -9999      9.303      -9999      -9999      3.427      -9999      -9999      3.301      1.175      1.539      1.528      0.07969435 0.07969435 0.31936    0.08380903 0.02285425 3.449      0          0.4727432  66.858     0.7262595  0.8        0.652519  
890.4      0.217      214.8      -9999      -9999      8.677      -9999      -9999      3.294      -9999      -9999      3.698      1.872      1.84       1.579      0.06012085 0.06012085 0.29998    0.03636989 0.06041002 3.574      0          0.4112428  66.909     0.7268459  0.8        0.6536918 
890.6      0.217      218.6      -9999      -9999      8.366      -9999      -9999      3.535      -9999      -9999      4.076      1.961      2.141      1.611      0.04776695 0.04776695 0.28782    0.02147424 0.09791088 3.959      0          0.3860438  66.96      0.7274336  0.8        0.6548671 
890.8      0.22       214.8      -9999      -9999      8.076      -9999      -9999      3.657      -9999      -9999      5.025      1.905      2.474      1.644      0.0420646  0.0420646  0.27528    0.01683823 0.1536002  4.115      0          0.3568495  66.143     0.7067133  0.8        0.6134265 
891        0.226      205.6      -9999      -9999      8.346      -9999      -9999      3.831      -9999      -9999      5.016      2.592      3.19       1.682      0.03597441 0.03597441 0.26084    0.01298648 0.1009992  4.223      0          0.3129004  65.071     0.6814108  0.8        0.5628217 
891.2000000000001 0.235      193.6      -9999      -9999      7.278      -9999      -9999      3.708      -9999      -9999      4.054      1.879      2.471      1.684      0.05248224 0.05248224 0.26008    0.02625768 0.5302998  4.149      0          0.370962   62.518     0.6290841  0.8        0.4581682 
