~Version
 VERS              .         2.0                           : CWLS LOG ASCII STANDARD - VERSION 2.0
 WRAP              .         NO                            : ONE LINE PER DEPTH STEP
 DLM               .         SPACE                         : DELIMITING CHARACTER(SPACE TAB OR COMMA)
~Well Information
#_______________________________________________________________________________
#
#PARAMETER_NAME    .UNIT     VALUE                         : DESCRIPTION
#_______________________________________________________________________________
STRT               .M        832                           : First reference value
STOP               .M        1164                          : Last reference value
STEP               .M        0.2                           : Step increment
NULL               .         -9999                         : Missing value
COMP               .                                       : Company
WELL               .         4719                          : Well name
FLD                .         УЗЕНЬ                         : Field
LOC                .                                       : Location
CNTY               .                                       : County
STAT               .                                       : State
CTRY               .                                       : Country
SRVC               .                                       : Service Company
DATE               .                                       : Date
UWI                .                                       : Unique Well ID
Block              .         7                             : 
Category           .         Нефтяная                      : 
Condition          .         В работе                      : 
Date               .         24.09.1990                    : 
EREF               .m        84                            : 100.8
Gorizont           .         15                            : 14
Interpretator      .         Ткачева И.Г.                  : 
Kupol              .         Основной                      : osnovnoi
Mud                .         0                             : 
Mud_density        .         0                             : 
Mud_resistivity    .         0                             : 
NGDU               .         НГДУ-2                        : 
ORIGINALWELLNAME   .         4719                          : 
Spud_date          .         1990                          : 1961
Uslovie            .         15                            : 
Viscosity          .         0                             : 
X                  .m        42234.2                       : 46154
Y                  .m        83713.33                      : 85761.93
YEAR               .         2019                          : 
~Parameter Information Block
#_______________________________________________________________________________
#
#PARAMETER_NAME    .UNIT     VALUE                         : DESCRIPTION
#_______________________________________________________________________________
SET                .         LQC_KAZNIPI_Petrel            : 
TLFamily_CALI      .         Caliper                       : 
TLFamily_CILD      .         Conductivity                  : 
TLFamily_COLL      .         Net Reservoir Flag            : 
TLFamily_CSAT      .         Fluid Code                    : 
TLFamily_DEPT      .         Measured Depth                : 
TLFamily_GR        .         Russian Gamma Ray             : 
TLFamily_GZ1       .         Gradient 045                  : 
TLFamily_GZ2       .         Gradient 105                  : 
TLFamily_GZ3       .         Gradient 225                  : 
TLFamily_GZ4       .         Gradient 425                  : 
TLFamily_GZ5       .         Gradient 850                  : 
TLFamily_LLS       .         Lateral Log Resistivity       : 
TLFamily_MINV      .         Micro Gradient Resistivity    : 
TLFamily_MNOR      .         Micro Resistivity             : 
TLFamily_NGLD      .         Neutron Gamma                 : 
TLFamily_PHIE      .         Effective Porosity            : 
TLFamily_PHIEN     .         Effective Porosity            : 
TLFamily_PHIT      .         Porosity                      : 
TLFamily_PRMB      .         Permeability                  : 
TLFamily_PRMB_DGR  .         Permeability                  : 
TLFamily_RT        .         Formation Resistivity         : 
TLFamily_SOIL_ARCHIE .         Oil Saturation                : 
TLFamily_SOIL_DW   .         Oil Saturation                : 
TLFamily_SP        .         Spontaneous Potential         : 
TLFamily_VSH_FIN   .         Shale Volume                  : 
TLFamily_VSH_GR    .         Shale Volume                  : 
TLFamily_VSH_SP    .         Shale Volume                  : 
~Curve Information
#_______________________________________________________________________________
#
#LOGNAME           .UNIT     LOG_ID                        : DESCRIPTION
#_______________________________________________________________________________
DEPT               .M                                      : Колонка глубины 
CALI               .м                                      : Каверномер 
CILD               .мСм/м                                  : Индукционный каротаж 
COLL               .unitless                               : Описание 
CSAT               .unitless                               : Описание 
GR                 .uR/h                                   : Гамма каротаж 
GZ1                .Ohmm                                   : Градиент-зонд  длиной 0.45м 
GZ2                .Ohmm                                   : Градиент-зонд  длиной 1.05м 
GZ3                .Ohmm                                   : Градиент-зонд  длиной 2.25м 
GZ4                .Ohmm                                   : Градиент-зонд  длиной 4.5м 
GZ5                .Ohmm                                   : Градиент-зонд  длиной 8.5м 
LLS                .Ohmm                                   : Боковой каротаж 
MINV               .Ohmm                                   : Микро-градиент зонд 
MNOR               .Ohmm                                   : Микро-потенциал зонд 
NGLD               .у.е.                                   : Показания зонда НГК-60 аппаратуры ДРСТ-3-90 
PHIE               .v/v                                    : Описание 
PHIEN              .v/v                                    :  
PHIT               .v/v                                    : Описание 
PRMB               .mD                                     :  
PRMB_DGR           .mD                                     :  
RT                 .ohmm                                   : УЭС пласта 
SOIL_ARCHIE        .v/v                                    :  
SOIL_DW            .v/v                                    :  
SP                 .мВ                                     : Потенциал самополяризации 
VSH_FIN            .v/v                                    : Описание 
VSH_GR             .v/v                                    : Shale volume 
VSH_SP             .v/v                                    : Shale Volume 
~Ascii
# ...
902.2000000000001 0.215      534.7      1          3          2.033      -9999      -9999      1.519      -9999      -9999      2.103      1.216      1.674      1.796      0.1885793  0.1885793  0.21752    8.71174    1825.892   1.757      0.2660574  0.3199478  47.776     0.08769898 0.03022353 0.1451744 
902.4      0.216      539.7      1          3          2.033      -9999      -9999      1.519      -9999      -9999      1.997      1.216      1.618      1.796      0.1886739  0.1886739  0.21752    8.746934   1825.892   1.735      0.262027   0.315796   47.712     0.08741252 0.03022353 0.1446015 
902.6      0.217      544.6      1          3          2.074      -9999      -9999      1.494      -9999      -9999      2.012      1.208      1.514      1.796      0.1882917  0.1882917  0.21752    8.605526   1713.274   1.696      0.2527934  0.3073759  47.98      0.08857056 0.0310195  0.1461216 
902.8      0.217      549.6      1          3          2.217      -9999      -9999      1.443      -9999      -9999      1.997      1.182      1.48       1.779      0.1940053  0.1940053  0.22398    10.98012   1372.13    1.681      0.268955   0.3245385  48.248     0.09083235 0.0339634  0.1477013 
903        0.219      554.6      1          3          2.278      -9999      -9999      1.391      -9999      -9999      1.911      1.198      1.524      1.7        0.2235919  0.2235919  0.254      38.78135   1248.13    1.665      0.3510586  0.4056263  48.465     0.09214564 0.03530271 0.1489886 
903.2000000000001 0.219      559.9      1          3          2.212      -9999      -9999      1.366      -9999      -9999      1.866      1.297      1.511      1.658      0.2395719  0.2395719  0.26996    76.66743   1382.824   1.65       0.3863243  0.4401683  48.682     0.09208518 0.0338559  0.1503145 
903.4      0.218      562.5      1          3          2.212      -9999      -9999      1.34       -9999      -9999      1.787      1.353      1.473      1.64       0.2464443  0.2464443  0.2768     102.7789   1382.824   1.635      0.3986847  0.4522677  48.682     0.09198704 0.0338559  0.1501182 
903.6      0.216      562        1          3          2.232      -9999      -9999      1.289      -9999      -9999      1.755      1.364      1.478      1.65       0.2426052  0.2426052  0.273      87.25608   1340.54    1.62       0.3877634  0.4416304  48.682     0.09210537 0.03428795 0.1499228 
903.8      0.216      561.5      1          3          2.089      -9999      -9999      1.263      -9999      -9999      1.746      1.366      1.493      1.665      0.2375744  0.2375744  0.2673     70.40656   1673.831   1.612      0.3750371  0.4283458  48.554     0.09007749 0.03131592 0.1488391 
904        0.215      558.4      1          3          2.069      -9999      -9999      1.263      -9999      -9999      1.753      1.216      1.455      1.699      0.2250333  0.2250333  0.25438    41.24017   1726.627   1.614      0.3451903  0.3984788  48.299     0.08892942 0.03092132 0.1469375 
904.2000000000001 0.215      557.9      1          3          2.13       -9999      -9999      1.263      -9999      -9999      1.774      1.236      1.422      1.725      0.2152521  0.2152521  0.2445     27.17371   1570.592   1.615      0.3195477  0.373075   48.044     0.08863001 0.03214067 0.1451193 
904.4      0.215      557.4      1          3          2.079      -9999      -9999      1.304      -9999      -9999      1.812      1.222      1.457      1.723      0.2163403  0.2163403  0.24526    28.46462   1700.024   1.624      0.3242941  0.3772679  47.916     0.08763541 0.031118   0.1441528 
904.6      0.215      554.1      1          3          2.028      -9999      -9999      1.335      -9999      -9999      1.857      1.21       1.457      1.74       0.2101992  0.2101992  0.2388     21.90568   1840.123   1.626      0.3075326  0.3602405  47.788     0.08666913 0.03012787 0.1432104 
904.8      0.214      545.7      1          3          1.977      -9999      -9999      1.366      -9999      -9999      1.897      1.218      1.478      1.764      0.2010345  0.2010345  0.22968    14.8185    1991.767   1.627      0.2803255  0.333439   48.018     0.08680457 0.02916924 0.1444399 
905        0.214      537.2      1          3          2.084      -9999      -9999      1.376      -9999      -9999      1.839      1.18       1.446      1.758      0.2027046  0.2027046  0.23196    15.91252   1686.876   1.637      0.2875441  0.3415593  48.307     0.08865274 0.03121681 0.1460887 
905.2000000000001 0.214      532.7      1          3          2.008      -9999      -9999      1.386      -9999      -9999      1.812      1.41       1.427      1.754      0.2041821  0.2041821  0.23348    16.94755   1898.164   1.662      0.297054   0.350987   48.597     0.08878142 0.02974823 0.1478146 
905.4      0.214      521.4      1          3          2.049      -9999      -9999      1.34       -9999      -9999      1.799      1.54       1.448      1.795      0.1881772  0.1881772  0.2179     8.563615   1781.089   1.688      0.250737   0.3062523  48.886     0.090069   0.03053169 0.1496063 
905.6      0.214      517        1          3          2.049      -9999      -9999      1.263      -9999      -9999      1.809      1.601      1.488      1.764      0.1996433  0.1996433  0.22968    13.96488   1781.089   1.703      0.2913064  0.34655    49.18      0.09102011 0.03053169 0.1515085 
905.8      0.214      512.5      1          3          2.049      -9999      -9999      1.212      -9999      -9999      1.877      1.573      1.524      1.761      0.2004577  0.2004577  0.23082    14.45841   1781.089   1.74       0.3009014  0.3564863  49.473     0.09200697 0.03053169 0.1534823 
906        0.214      507.4      1          3          2.135      -9999      -9999      1.258      -9999      -9999      1.979      1.532      1.501      1.756      0.2020461  0.2020461  0.23272    15.47185   1558.446   1.754      0.3082968  0.3642098  49.524     0.09295113 0.03224272 0.1536595 
906.2000000000001 0.215      502.3      1          3          2.181      -9999      -9999      1.289      -9999      -9999      2.051      1.463      1.455      1.738      0.2086993  0.2086993  0.23956    20.54828   1451.014   1.77       0.3304016  0.3860595  49.575     0.09351724 0.03319695 0.1538375 
906.4      0.215      500.8      1          3          2.176      -9999      -9999      1.32       -9999      -9999      2.1        1.504      1.559      1.703      0.2226979  0.2226979  0.25286    37.33052   1462.323   1.788      0.3702101  0.4239698  49.039     0.0914003  0.03309188 0.1497087 
906.6      0.215      499.2      1          3          2.151      -9999      -9999      1.33       -9999      -9999      2.123      1.66       1.669      1.743      0.2077606  0.2077606  0.23766    19.74187   1520.205   1.806      0.3340891  0.3882523  48.912     0.09060422 0.03257148 0.148637  
906.8      0.215      502.8      1          3          2.359      -9999      -9999      1.34       -9999      -9999      2.057      1.412      1.766      1.735      0.2102167  0.2102167  0.2407     21.92206   1100.621   1.811      0.3417251  0.3965665  48.784     0.09237362 0.03716311 0.1475841 
907        0.215      506.4      1          3          2.252      -9999      -9999      1.34       -9999      -9999      2.067      1.256      1.593      1.761      0.2005418  0.2005418  0.23082    14.51038   1299.55    1.817      0.315214   0.3703818  48.988     0.09175204 0.03472552 0.1487786 
907.2000000000001 0.214      513.3      1          3          2.196      -9999      -9999      1.315      -9999      -9999      2.125      1.2        1.567      1.773      0.1958131  0.1958131  0.22626    11.8602    1417.609   1.804      0.2984735  0.354308   49.333     0.09226333 0.03351418 0.1510125 
907.4      0.215      517.1      1          3          2.212      -9999      -9999      1.263      -9999      -9999      1.991      1.292      1.664      1.803      0.183971   0.183971   0.21486    7.157265   1382.824   1.791      0.2567855  0.3144754  49.677     0.09360311 0.0338559  0.1533503 
