~Version
 VERS              .         2.0                           : CWLS LOG ASCII STANDARD - VERSION 2.0
 WRAP              .         NO                            : ONE LINE PER DEPTH STEP
 DLM               .         SPACE                         : DELIMITING CHARACTER(SPACE TAB OR COMMA)
~Well Information
#_______________________________________________________________________________
#
#PARAMETER_NAME    .UNIT     VALUE                         : DESCRIPTION
#_______________________________________________________________________________
STRT               .M        832                           : First reference value
STOP               .M        1164                          : Last reference value
STEP               .M        0.2                           : Step increment
NULL               .         -9999                         : Missing value
COMP               .                                       : Company
WELL               .         4719                          : Well name
FLD                .         УЗЕНЬ                         : Field
LOC                .                                       : Location
CNTY               .                                       : County
STAT               .                                       : State
CTRY               .                                       : Country
SRVC               .                                       : Service Company
DATE               .                                       : Date
UWI                .                                       : Unique Well ID
Block              .         7                             : 
Category           .         Нефтяная                      : 
Condition          .         В работе                      : 
Date               .         24.09.1990                    : 
EREF               .m        84                            : 100.8
Gorizont           .         15                            : 14
Interpretator      .         Ткачева И.Г.                  : 
Kupol              .         Основной                      : osnovnoi
Mud                .         0                             : 
Mud_density        .         0                             : 
Mud_resistivity    .         0                             : 
NGDU               .         НГДУ-2                        : 
ORIGINALWELLNAME   .         4719                          : 
Spud_date          .         1990                          : 1961
Uslovie            .         15                            : 
Viscosity          .         0                             : 
X                  .m        42234.2                       : 46154
Y                  .m        83713.33                      : 85761.93
YEAR               .         2019                          : 
~Parameter Information Block
#_______________________________________________________________________________
#
#PARAMETER_NAME    .UNIT     VALUE                         : DESCRIPTION
#_______________________________________________________________________________
SET                .         LQC_KAZNIPI_Petrel            : 
TLFamily_CALI      .         Caliper                       : 
TLFamily_CILD      .         Conductivity                  : 
TLFamily_COLL      .         Net Reservoir Flag            : 
TLFamily_CSAT      .         Fluid Code                    : 
TLFamily_DEPT      .         Measured Depth                : 
TLFamily_GR        .         Russian Gamma Ray             : 
TLFamily_GZ1       .         Gradient 045                  : 
TLFamily_GZ2       .         Gradient 105                  : 
TLFamily_GZ3       .         Gradient 225                  : 
TLFamily_GZ4       .         Gradient 425                  : 
TLFamily_GZ5       .         Gradient 850                  : 
TLFamily_LLS       .         Lateral Log Resistivity       : 
TLFamily_MINV      .         Micro Gradient Resistivity    : 
TLFamily_MNOR      .         Micro Resistivity             : 
TLFamily_NGLD      .         Neutron Gamma                 : 
TLFamily_PHIE      .         Effective Porosity            : 
TLFamily_PHIEN     .         Effective Porosity            : 
TLFamily_PHIT      .         Porosity                      : 
TLFamily_PRMB      .         Permeability                  : 
TLFamily_PRMB_DGR  .         Permeability                  : 
TLFamily_RT        .         Formation Resistivity         : 
TLFamily_SOIL_ARCHIE .         Oil Saturation                : 
TLFamily_SOIL_DW   .         Oil Saturation                : 
TLFamily_SP        .         Spontaneous Potential         : 
TLFamily_VSH_FIN   .         Shale Volume                  : 
TLFamily_VSH_GR    .         Shale Volume                  : 
TLFamily_VSH_SP    .         Shale Volume                  : 
~Curve Information
#_______________________________________________________________________________
#
#LOGNAME           .UNIT     LOG_ID                        : DESCRIPTION
#_______________________________________________________________________________
DEPT               .M                                      : Колонка глубины 
CALI               .м                                      : Каверномер 
CILD               .мСм/м                                  : Индукционный каротаж 
COLL               .unitless                               : Описание 
CSAT               .unitless                               : Описание 
GR                 .uR/h                                   : Гамма каротаж 
GZ1                .Ohmm                                   : Градиент-зонд  длиной 0.45м 
GZ2                .Ohmm                                   : Градиент-зонд  длиной 1.05м 
GZ3                .Ohmm                                   : Градиент-зонд  длиной 2.25м 
GZ4                .Ohmm                                   : Градиент-зонд  длиной 4.5м 
GZ5                .Ohmm                                   : Градиент-зонд  длиной 8.5м 
LLS                .Ohmm                                   : Боковой каротаж 
MINV               .Ohmm                                   : Микро-градиент зонд 
MNOR               .Ohmm                                   : Микро-потенциал зонд 
NGLD               .у.е.                                   : Показания зонда НГК-60 аппаратуры ДРСТ-3-90 
PHIE               .v/v                                    : Описание 
PHIEN              .v/v                                    :  
PHIT               .v/v                                    : Описание 
PRMB               .mD                                     :  
PRMB_DGR           .mD                                     :  
RT                 .ohmm                                   : УЭС пласта 
SOIL_ARCHIE        .v/v                                    :  
SOIL_DW            .v/v                                    :  
SP                 .мВ                                     : Потенциал самополяризации 
VSH_FIN            .v/v                                    : Описание 
VSH_GR             .v/v                                    : Shale volume 
VSH_SP             .v/v                                    : Shale Volume 
~Ascii
# ...
1048       0.238      311.8      -9999      -9999      9.649      1.676      2.908      2.241      1.794      1.94       2.533      1.187      1.471      1.468      0.1366658  0.1366658  0.34216    0.9517895  1.320737   2.689      0.2043497  0.5246429  70.659     0.6227095  0.5791364  0.6662827 
1048.2     0.236      312        -9999      -9999      9.552      2.193      3.138      2.359      1.902      2.001      3.057      1.044      1.251      1.464      0.1382304  0.1382304  0.34368    1.017469   1.461814   2.812      0.2285616  0.5383794  71.171     0.6225744  0.5556268  0.6895221 
1048.4     0.236      315.9      -9999      -9999      9.003      2.525      3.362      2.446      2.03       2.062      3.688      1.461      1.749      1.539      0.126554   0.126554   0.31518    0.6183649  2.596283   2.862      0.1737887  0.5007477  71.477     0.5715939  0.439461   0.7037269 
1048.6     0.237      317.1      -9999      -9999      8.455      2.78       3.449      2.528      2.132      2.149      3.969      1.546      2.247      1.591      0.1221302  0.1221302  0.29542    0.5120424  4.606362   2.909      0.1542732  0.477271   71.451     0.5251206  0.3477306  0.7025107 
1048.8     0.238      310.2      -9999      -9999      7.907      2.831      3.444      2.569      2.153      2.016      3.232      1.323      2.139      1.644      0.1197519  0.1197519  0.27528    0.4626507  8.172666   2.907      0.1393851  0.4492864  70.685     0.4712973  0.2751476  0.667447  
1049       0.237      305.5      -9999      -9999      8.059      2.341      3.316      2.354      1.948      2.016      2.344      1.177      1.471      1.551      0.1548478  0.1548478  0.31062    2.066877   6.971021   2.871      0.3079613  0.5335353  70.302     0.472037   0.2936082  0.6504659 
1049.2     0.236      300.8      -9999      -9999      9.124      2.09       3.286      2.251      1.871      1.96       2.399      1.293      1.487      1.458      0.1641146  0.1641146  0.34596    3.068735   2.287553   2.86       0.3409356  0.5723519  70.046     0.5510466  0.4627761  0.6393172 
1049.4     0.23       293.1      -9999      -9999      9.414      1.968      3.372      2.262      1.845      1.975      2.577      1.315      1.502      1.534      0.1260659  0.1260659  0.31708    0.6056245  1.688877   2.924      0.1792987  0.5072647  69.919     0.5788307  0.5238153  0.6338461 
1049.6     0.229      286.5      -9999      -9999      9.012      2.172      3.347      2.364      1.912      1.996      2.955      1.346      1.502      1.553      0.1302988  0.1302988  0.30986    0.7254519  2.571951   2.969      0.208264   0.5097679  70.225     0.5441248  0.441154   0.6470956 
1049.8     0.236      270.9      -9999      -9999      8.375      2.305      3.393      2.405      1.979      1.945      3.387      1.353      1.688      1.577      0.1370357  0.1370357  0.30074    0.9669225  5.008518   3.015      0.2477206  0.5135218  70.43      0.4960736  0.3360466  0.6561006 
1050       0.235      268.9      -9999      -9999      7.739      2.545      3.628      2.446      2.055      1.97       3.314      1.356      1.992      1.624      0.1308728  0.1308728  0.28288    0.7434282  9.74319    3.095      0.2265226  0.4924505  70.634     0.4606281  0.2560911  0.665165  
1050.2     0.232      267.3      -9999      -9999      7.102      2.801      3.934      2.569      2.122      2.093      3.592      1.466      2.004      1.637      0.1369407  0.1369407  0.27794    0.9630129  18.9735    3.166      0.2643317  0.5013312  70.506     0.4272707  0.195076   0.6594653 
1050.4     0.23       284.2      -9999      -9999      6.465      2.944      4.209      2.918      2.204      2.155      3.624      1.466      2.034      1.701      0.1221431  0.1221431  0.25362    0.5123228  36.94825   3.348      0.2083273  0.4639281  70.251     0.398415   0.1485981  0.6482319 
1050.6     0.239      302.6      -9999      -9999      6.083      3.077      4.424      3.108      2.245      2.175      4.128      1.323      2.144      1.765      0.1065719  0.1065719  0.2293     0.2637114  55.10245   3.373      0.1115919  0.4012482  69.536     0.3719032  0.1262223  0.6175842 
1050.8     0.241      307.9      -9999      -9999      6.032      3.072      4.5        3.215      2.286      2.175      3.798      1.714      2.697      1.74       0.1174046  0.1174046  0.2388     0.4185768  58.12257   3.393      0.1856877  0.4388888  69.408     0.367865   0.1235018  0.6122282 
1051       0.244      313.3      -9999      -9999      6.241      2.831      4.25       3.297      2.286      2.093      2.824      1.487      1.597      1.698      0.1319898  0.1319898  0.25476    0.779702   46.70652   3.192      0.2432651  0.4685695  69.331     0.3720311  0.1350367  0.6090255 
1051.2     0.239      331.7      -9999      -9999      7.326      2.745      4.424      3.01       2.286      1.863      3.035      1.506      1.694      1.53       0.1832169  0.1832169  0.3186     6.930735   15.00943   2.997      0.4142063  0.5790207  69.254     0.4102519  0.2146671  0.6058367 
1051.4     0.242      338.8      -9999      -9999      8.411      2.586      4.163      2.949      2.158      1.837      3.251      1.517      1.975      1.514      0.1692725  0.1692725  0.32468    3.823802   4.823375   2.946      0.3673185  0.567006   69.127     0.4709318  0.3412551  0.6006084 
1051.6     0.246      354.9      -9999      -9999      8.823      2.371      3.755      2.836      2.081      1.781      2.482      2.492      2.505      1.478      0.1696745  0.1696745  0.33836    3.889925   3.134313   2.895      0.3634289  0.5745223  69.484     0.5111682  0.4069327  0.6154036 
1051.8     0.243      360.3      -9999      -9999      9.333      2.147      3.526      2.703      2.037      1.704      2.399      1.523      1.54       1.441      0.1638915  0.1638915  0.35242    3.039668   1.838245   2.734      0.3260544  0.5673844  69.983     0.5712985  0.5059987  0.6365984 
1052       0.246      358.5      -9999      -9999      9.419      1.993      3.286      2.677      1.994      1.704      2.37       1.505      1.497      1.405      0.1647265  0.1647265  0.3661     3.149866   1.421001   2.677      0.322364   0.5738813  70.481     0.6102228  0.5620885  0.6583571 
1052.2     0.241      350.6      -9999      -9999      9.506      1.942      3.026      2.621      1.943      1.704      2.31       1.377      1.497      1.439      0.1466318  0.1466318  0.35318    1.455908   1.292008   2.556      0.2336332  0.5342705  70.685     0.6259037  0.5843604  0.667447  
1052.4     0.237      342.7      -9999      -9999      9.715      1.917      2.924      2.636      2.014      1.699      2.259      1.272      1.484      1.485      0.1135304  0.1135304  0.3357     0.3548263  1.027969   2.517      0.03540042 0.4687636  71.503     0.6732413  0.6415378  0.7049448 
1052.6     0.232      329.1      -9999      -9999      9.572      1.945      2.872      2.662      2.143      1.74       2.417      1.201      1.356      1.509      0.1095766  0.1095766  0.32658    0.2997655  1.202021   2.53       0.007558411 0.4538432  71.681     0.6575863  0.6018431  0.7133294 
1052.8     0.236      323        -9999      -9999      8.966      1.973      2.837      2.749      2.184      1.789      2.624      1.167      1.474      1.56       0.1113272  0.1113272  0.3072     0.3230039  2.332338   2.587      0.03134505 0.4410624  71.988     0.593554   0.4591268  0.7279813 
1053       0.237      316.9      -9999      -9999      8.625      2.101      2.929      2.61       2.184      1.837      2.738      1.301      1.558      1.55       0.1206683  0.1206683  0.311      0.4810918  3.386745   2.647      0.1066533  0.4673223  72.627     0.5767627  0.3942632  0.7592622 
1053.2     0.237      313.8      -9999      -9999      8.39       2.085      2.832      2.456      2.158      1.919      2.575      1.384      1.535      1.56       0.1225102  0.1225102  0.3072     0.520408   4.379442   2.756      0.1349004  0.4767244  72.729     0.5596662  0.3549781  0.7643543 
