~Version
 VERS              .         2.0                           : CWLS LOG ASCII STANDARD - VERSION 2.0
 WRAP              .         NO                            : ONE LINE PER DEPTH STEP
 DLM               .         SPACE                         : DELIMITING CHARACTER(SPACE TAB OR COMMA)
~Well Information
#_______________________________________________________________________________
#
#PARAMETER_NAME    .UNIT     VALUE                         : DESCRIPTION
#_______________________________________________________________________________
STRT               .M        832                           : First reference value
STOP               .M        1164                          : Last reference value
STEP               .M        0.2                           : Step increment
NULL               .         -9999                         : Missing value
COMP               .                                       : Company
WELL               .         4719                          : Well name
FLD                .         УЗЕНЬ                         : Field
LOC                .                                       : Location
CNTY               .                                       : County
STAT               .                                       : State
CTRY               .                                       : Country
SRVC               .                                       : Service Company
DATE               .                                       : Date
UWI                .                                       : Unique Well ID
Block              .         7                             : 
Category           .         Нефтяная                      : 
Condition          .         В работе                      : 
Date               .         24.09.1990                    : 
EREF               .m        84                            : 100.8
Gorizont           .         15                            : 14
Interpretator      .         Ткачева И.Г.                  : 
Kupol              .         Основной                      : osnovnoi
Mud                .         0                             : 
Mud_density        .         0                             : 
Mud_resistivity    .         0                             : 
NGDU               .         НГДУ-2                        : 
ORIGINALWELLNAME   .         4719                          : 
Spud_date          .         1990                          : 1961
Uslovie            .         15                            : 
Viscosity          .         0                             : 
X                  .m        42234.2                       : 46154
Y                  .m        83713.33                      : 85761.93
YEAR               .         2019                          : 
~Parameter Information Block
#_______________________________________________________________________________
#
#PARAMETER_NAME    .UNIT     VALUE                         : DESCRIPTION
#_______________________________________________________________________________
SET                .         LQC_KAZNIPI_Petrel            : 
TLFamily_CALI      .         Caliper                       : 
TLFamily_CILD      .         Conductivity                  : 
TLFamily_COLL      .         Net Reservoir Flag            : 
TLFamily_CSAT      .         Fluid Code                    : 
TLFamily_DEPT      .         Measured Depth                : 
TLFamily_GR        .         Russian Gamma Ray             : 
TLFamily_GZ1       .         Gradient 045                  : 
TLFamily_GZ2       .         Gradient 105                  : 
TLFamily_GZ3       .         Gradient 225                  : 
TLFamily_GZ4       .         Gradient 425                  : 
TLFamily_GZ5       .         Gradient 850                  : 
TLFamily_LLS       .         Lateral Log Resistivity       : 
TLFamily_MINV      .         Micro Gradient Resistivity    : 
TLFamily_MNOR      .         Micro Resistivity             : 
TLFamily_NGLD      .         Neutron Gamma                 : 
TLFamily_PHIE      .         Effective Porosity            : 
TLFamily_PHIEN     .         Effective Porosity            : 
TLFamily_PHIT      .         Porosity                      : 
TLFamily_PRMB      .         Permeability                  : 
TLFamily_PRMB_DGR  .         Permeability                  : 
TLFamily_RT        .         Formation Resistivity         : 
TLFamily_SOIL_ARCHIE .         Oil Saturation                : 
TLFamily_SOIL_DW   .         Oil Saturation                : 
TLFamily_SP        .         Spontaneous Potential         : 
TLFamily_VSH_FIN   .         Shale Volume                  : 
TLFamily_VSH_GR    .         Shale Volume                  : 
TLFamily_VSH_SP    .         Shale Volume                  : 
~Curve Information
#_______________________________________________________________________________
#
#LOGNAME           .UNIT     LOG_ID                        : DESCRIPTION
#_______________________________________________________________________________
DEPT               .M                                      : Колонка глубины 
CALI               .м                                      : Каверномер 
CILD               .мСм/м                                  : Индукционный каротаж 
COLL               .unitless                               : Описание 
CSAT               .unitless                               : Описание 
GR                 .uR/h                                   : Гамма каротаж 
GZ1                .Ohmm                                   : Градиент-зонд  длиной 0.45м 
GZ2                .Ohmm                                   : Градиент-зонд  длиной 1.05м 
GZ3                .Ohmm                                   : Градиент-зонд  длиной 2.25м 
GZ4                .Ohmm                                   : Градиент-зонд  длиной 4.5м 
GZ5                .Ohmm                                   : Градиент-зонд  длиной 8.5м 
LLS                .Ohmm                                   : Боковой каротаж 
MINV               .Ohmm                                   : Микро-градиент зонд 
MNOR               .Ohmm                                   : Микро-потенциал зонд 
NGLD               .у.е.                                   : Показания зонда НГК-60 аппаратуры ДРСТ-3-90 
PHIE               .v/v                                    : Описание 
PHIEN              .v/v                                    :  
PHIT               .v/v                                    : Описание 
PRMB               .mD                                     :  
PRMB_DGR           .mD                                     :  
RT                 .ohmm                                   : УЭС пласта 
SOIL_ARCHIE        .v/v                                    :  
SOIL_DW            .v/v                                    :  
SP                 .мВ                                     : Потенциал самополяризации 
VSH_FIN            .v/v                                    : Описание 
VSH_GR             .v/v                                    : Shale volume 
VSH_SP             .v/v                                    : Shale Volume 
~Ascii
# ...
956.2000000000001 0.229      276.5      -9999      -9999      5.881      -9999      -9999      3.198      -9999      -9999      3.359      1.937      2.485      1.613      0.121263   0.121263   0.28706    0.4934493  9.059902   3.445      0.2139316  0.5095719  74.202     0.5024152  0.2638084  0.741022  
956.4      0.231      286.7      -9999      -9999      6.212      -9999      -9999      3.173      -9999      -9999      3.247      1.948      2.177      1.567      0.1306745  0.1306745  0.30454    0.7371671  5.670445   3.425      0.2614607  0.5390443  74.074     0.5268652  0.3194384  0.7342921 
956.6      0.225      303.1      -9999      -9999      6.635      -9999      -9999      3.142      -9999      -9999      3.652      1.613      1.746      1.555      0.1217281  0.1217281  0.3091     0.5033351  3.115636   3.28       0.1982945  0.521112   73.947     0.5677938  0.4079271  0.7276605 
956.8      0.227      318.7      -9999      -9999      6.829      -9999      -9999      3.357      -9999      -9999      3.891      1.622      1.963      1.571      0.1107573  0.1107573  0.30302    0.3152478  2.367397   3.164      0.1147255  0.4891694  73.563     0.5826142  0.4563381  0.7088904 
957        0.232      347.3      -9999      -9999      7.144      -9999      -9999      3.444      -9999      -9999      3.84       1.651      2.18       1.494      0.1260499  0.1260499  0.33228    0.605212   1.51566    2.993      0.1881427  0.5273256  73.435     0.6249398  0.5474802  0.7023994 
957.2000000000001 0.241      346.5      -9999      -9999      7.343      -9999      -9999      3.48       -9999      -9999      2.514      1.84       2.194      1.417      0.1437819  0.1437819  0.36154    1.289284   1.143542   2.846      0.2587614  0.5620201  73.512     0.6598728  0.6142256  0.7055202 
957.4      0.243      349.3      -9999      -9999      7.2        -9999      -9999      3.142      -9999      -9999      2.269      1.449      1.471      1.432      0.1446083  0.1446083  0.35584    1.335535   1.400141   2.612      0.232151   0.539139   73.717     0.6400959  0.5654931  0.7146987 
957.6      0.244      359        -9999      -9999      6.711      -9999      -9999      2.983      -9999      -9999      2.206      1.204      1.33       1.448      0.1607852  0.1607852  0.34976    2.662501   2.797824   2.618      0.3006437  0.5525951  73.819     0.572651   0.4262481  0.7190539 
957.8      0.245      366.4      -9999      -9999      6.579      -9999      -9999      2.835      -9999      -9999      2.326      1.291      1.251      1.447      0.16561    0.16561    0.35014    3.270817   3.372695   2.597      0.315842   0.5560825  73.921     0.5591819  0.3949331  0.7234308 
958        0.239      389.9      -9999      -9999      6.579      -9999      -9999      2.753      -9999      -9999      2.574      1.163      1.46       1.408      0.1780678  0.1780678  0.36496    5.564246   3.372695   2.527      0.3494347  0.5733286  74.228     0.5663399  0.3949331  0.7377468 
958.2000000000001 0.24       398.8      -9999      -9999      6.65       -9999      -9999      2.753      -9999      -9999      2.738      1.321      1.611      1.375      0.1871402  0.1871402  0.3775     8.19311    3.050172   2.476      0.3710018  0.5858063  74.33      0.5768479  0.4114796  0.7422162 
958.4      0.241      370.5      -9999      -9999      6.732      -9999      -9999      2.702      -9999      -9999      2.452      1.46       1.644      1.382      0.1833176  0.1833176  0.37484    6.960566   2.71587    2.326      0.3405346  0.5673851  74.074     0.580371   0.4314541  0.7292878 
958.6      0.24       362.1      -9999      -9999      6.844      -9999      -9999      2.528      -9999      -9999      2.041      1.454      1.203      1.36       0.189011   0.189011   0.3832     8.873624   2.317656   2.274      0.3510206  0.5734067  73.819     0.5884514  0.4603122  0.7165905 
958.8      0.246      356.2      -9999      -9999      6.854      -9999      -9999      2.339      -9999      -9999      2.086      1.253      1.158      1.366      0.1873711  0.1873711  0.38092    8.274206   2.285076   2.448      0.3683148  0.5859506  73.691     0.5865116  0.4629809  0.7100422 
959        0.244      347.5      -9999      -9999      6.533      -9999      -9999      2.257      -9999      -9999      2.385      1.194      1.121      1.4        0.1874696  0.1874696  0.368      8.309006   3.599639   2.505      0.3753867  0.581986   73.691     0.547062   0.3845697  0.7095542 
959.2000000000001 0.24       344.2      -9999      -9999      6.365      -9999      -9999      2.308      -9999      -9999      2.555      1.086      1.124      1.454      0.1729027  0.1729027  0.34748    4.464118   4.566142   2.546      0.3348827  0.5568871  73.691     0.5290221  0.3489781  0.7090661 
959.4      0.243      332.2      -9999      -9999      6.645      -9999      -9999      2.39       -9999      -9999      2.824      1.536      1.789      1.486      0.1502396  0.1502396  0.33532    1.698088   3.071841   2.61       0.257012   0.5280854  73.751     0.5608497  0.410292   0.7114075 
959.6      0.243      325.4      -9999      -9999      6.808      -9999      -9999      2.364      -9999      -9999      2.96       1.649      1.819      1.479      0.145831   0.145831   0.33798    1.407026   2.438835   2.635      0.2408905  0.5274381  73.81      0.5822697  0.4508319  0.7137076 
959.8      0.242      318.7      -9999      -9999      6.849      -9999      -9999      2.282      -9999      -9999      2.82       1.621      1.848      1.526      0.1257984  0.1257984  0.32012    0.5987561  2.301308   2.73       0.15086    0.4927619  73.87      0.5888532  0.4616446  0.7160618 
960        0.241      317.6      -9999      -9999      6.839      -9999      -9999      2.277      -9999      -9999      2.895      1.621      1.878      1.546      0.1160957  0.1160957  0.31252    0.3958509  2.334118   2.787      0.09816174 0.4752872  74.202     0.5952252  0.4589838  0.7314667 
960.2000000000001 0.235      323        -9999      -9999      6.701      -9999      -9999      2.287      -9999      -9999      2.943      1.61       1.908      1.51       0.1323708  0.1323708  0.3262     0.792477   2.837713   2.846      0.2034083  0.518119   74.611     0.5873612  0.4237913  0.750931  
960.4      0.24       309.7      -9999      -9999      6.976      -9999      -9999      2.298      -9999      -9999      3.048      1.702      1.938      1.455      0.1408911  0.1408911  0.3471     1.139735   1.922614   2.856      0.2467736  0.547974   74.662     0.6248752  0.4968113  0.7529392 
960.6      0.24       299.5      -9999      -9999      7.104      -9999      -9999      2.241      -9999      -9999      2.388      1.782      1.968      1.4        0.1551636  0.1551636  0.368      2.094909   1.603964   2.808      0.3019581  0.5759705  74.713     0.6449587  0.5349662  0.7549512 
960.8      0.244      293.4      -9999      -9999      6.711      -9999      -9999      2.165      -9999      -9999      2.496      1.417      1.348      1.484      0.1412668  0.1412668  0.33608    1.158143   2.797824   2.929      0.2573663  0.54487    74.713     0.590343   0.4262481  0.7544379 
961        0.247      289.4      -9999      -9999      6.232      -9999      -9999      2.211      -9999      -9999      2.734      1.355      1.348      1.569      0.1271041  0.1271041  0.30378    0.6330451  5.512145   3.028      0.1983959  0.5039384  74.585     0.5353814  0.323153   0.7476099 
961.2000000000001 0.248      285.5      -9999      -9999      5.85       -9999      -9999      2.328      -9999      -9999      2.951      1.518      1.687      1.653      0.1068594  0.1068594  0.27186    0.2669641  9.466363   3.091      0.07660632 0.4387282  74.458     0.5000019  0.259123   0.7408808 
961.4      0.24       276.4      -9999      -9999      5.596      -9999      -9999      2.451      -9999      -9999      3.053      1.741      1.906      1.638      0.1189957  0.1189957  0.27756    0.4479686  13.56277   3.134      0.1646249  0.4711104  74.394     0.4804978  0.2237374  0.7372581 
