~Version
 VERS              .         2.0                           : CWLS LOG ASCII STANDARD - VERSION 2.0
 WRAP              .         NO                            : ONE LINE PER DEPTH STEP
 DLM               .         SPACE                         : DELIMITING CHARACTER(SPACE TAB OR COMMA)
~Well Information
#_______________________________________________________________________________
#
#PARAMETER_NAME    .UNIT     VALUE                         : DESCRIPTION
#_______________________________________________________________________________
STRT               .M        832                           : First reference value
STOP               .M        1164                          : Last reference value
STEP               .M        0.2                           : Step increment
NULL               .         -9999                         : Missing value
COMP               .                                       : Company
WELL               .         4719                          : Well name
FLD                .         УЗЕНЬ                         : Field
LOC                .                                       : Location
CNTY               .                                       : County
STAT               .                                       : State
CTRY               .                                       : Country
SRVC               .                                       : Service Company
DATE               .                                       : Date
UWI                .                                       : Unique Well ID
Block              .         7                             : 
Category           .         Нефтяная                      : 
Condition          .         В работе                      : 
Date               .         24.09.1990                    : 
EREF               .m        84                            : 100.8
Gorizont           .         15                            : 14
Interpretator      .         Ткачева И.Г.                  : 
Kupol              .         Основной                      : osnovnoi
Mud                .         0                             : 
Mud_density        .         0                             : 
Mud_resistivity    .         0                             : 
NGDU               .         НГДУ-2                        : 
ORIGINALWELLNAME   .         4719                          : 
Spud_date          .         1990                          : 1961
Uslovie            .         15                            : 
Viscosity          .         0                             : 
X                  .m        42234.2                       : 46154
Y                  .m        83713.33                      : 85761.93
YEAR               .         2019                          : 
~Parameter Information Block
#_______________________________________________________________________________
#
#PARAMETER_NAME    .UNIT     VALUE                         : DESCRIPTION
#_______________________________________________________________________________
SET                .         LQC_KAZNIPI_Petrel            : 
TLFamily_CALI      .         Caliper                       : 
TLFamily_CILD      .         Conductivity                  : 
TLFamily_COLL      .         Net Reservoir Flag            : 
TLFamily_CSAT      .         Fluid Code                    : 
TLFamily_DEPT      .         Measured Depth                : 
TLFamily_GR        .         Russian Gamma Ray             : 
TLFamily_GZ1       .         Gradient 045                  : 
TLFamily_GZ2       .         Gradient 105                  : 
TLFamily_GZ3       .         Gradient 225                  : 
TLFamily_GZ4       .         Gradient 425                  : 
TLFamily_GZ5       .         Gradient 850                  : 
TLFamily_LLS       .         Lateral Log Resistivity       : 
TLFamily_MINV      .         Micro Gradient Resistivity    : 
TLFamily_MNOR      .         Micro Resistivity             : 
TLFamily_NGLD      .         Neutron Gamma                 : 
TLFamily_PHIE      .         Effective Porosity            : 
TLFamily_PHIEN     .         Effective Porosity            : 
TLFamily_PHIT      .         Porosity                      : 
TLFamily_PRMB      .         Permeability                  : 
TLFamily_PRMB_DGR  .         Permeability                  : 
TLFamily_RT        .         Formation Resistivity         : 
TLFamily_SOIL_ARCHIE .         Oil Saturation                : 
TLFamily_SOIL_DW   .         Oil Saturation                : 
TLFamily_SP        .         Spontaneous Potential         : 
TLFamily_VSH_FIN   .         Shale Volume                  : 
TLFamily_VSH_GR    .         Shale Volume                  : 
TLFamily_VSH_SP    .         Shale Volume                  : 
~Curve Information
#_______________________________________________________________________________
#
#LOGNAME           .UNIT     LOG_ID                        : DESCRIPTION
#_______________________________________________________________________________
DEPT               .M                                      : Колонка глубины 
CALI               .м                                      : Каверномер 
CILD               .мСм/м                                  : Индукционный каротаж 
COLL               .unitless                               : Описание 
CSAT               .unitless                               : Описание 
GR                 .uR/h                                   : Гамма каротаж 
GZ1                .Ohmm                                   : Градиент-зонд  длиной 0.45м 
GZ2                .Ohmm                                   : Градиент-зонд  длиной 1.05м 
GZ3                .Ohmm                                   : Градиент-зонд  длиной 2.25м 
GZ4                .Ohmm                                   : Градиент-зонд  длиной 4.5м 
GZ5                .Ohmm                                   : Градиент-зонд  длиной 8.5м 
LLS                .Ohmm                                   : Боковой каротаж 
MINV               .Ohmm                                   : Микро-градиент зонд 
MNOR               .Ohmm                                   : Микро-потенциал зонд 
NGLD               .у.е.                                   : Показания зонда НГК-60 аппаратуры ДРСТ-3-90 
PHIE               .v/v                                    : Описание 
PHIEN              .v/v                                    :  
PHIT               .v/v                                    : Описание 
PRMB               .mD                                     :  
PRMB_DGR           .mD                                     :  
RT                 .ohmm                                   : УЭС пласта 
SOIL_ARCHIE        .v/v                                    :  
SOIL_DW            .v/v                                    :  
SP                 .мВ                                     : Потенциал самополяризации 
VSH_FIN            .v/v                                    : Описание 
VSH_GR             .v/v                                    : Shale volume 
VSH_SP             .v/v                                    : Shale Volume 
~Ascii
# ...
1064.2     -9999      332.2      -9999      -9999      7.759      2.085      3.122      2.708      2.081      1.894      2.883      1.175      1.477      1.476      0.2000829  0.2000829  0.33912    14.22916   8.73322    2.641      0.4242861  0.5829513  68.028     0.4213245  0.2677943  0.5748548 
1064.4     -9999      328.1      -9999      -9999      7.998      2.126      3.097      2.6        2.086      1.929      2.947      1.282      1.54       1.512      0.1817798  0.1817798  0.32544    6.518696   6.724154   2.691      0.3795995  0.5600348  67.965     0.435334   0.2979628  0.5727052 
1064.6     -9999      329.4      -9999      -9999      8.243      2.029      3.015      2.426      1.902      1.945      2.857      1.342      1.515      1.544      0.1642943  0.1642943  0.31328    3.092345   5.143408   2.711      0.3248225  0.5332732  67.901     0.4514717  0.3324196  0.5705237 
1064.8     -9999      329.6      -9999      -9999      8.34       2.024      2.959      2.344      1.799      1.894      2.73       1.218      1.387      1.581      0.148577   0.148577   0.29922    1.581845   4.625632   2.73       0.2654352  0.5026625  67.773     0.4564941  0.3471383  0.5658498 
1065       -9999      318.7      -9999      -9999      8.115      2.203      3.189      2.344      1.743      1.817      3.171      1.052      1.313      1.581      0.1548191  0.1548191  0.29922    2.064352   5.916396   2.764      0.2954027  0.5135118  67.645     0.4375785  0.3139478  0.5612091 
1065.2     -9999      321        -9999      -9999      8.227      2.106      3.163      2.487      1.856      1.817      2.783      0.96       1.343      1.561      0.1590539  0.1590539  0.30682    2.472988   5.234214   2.754      0.3105983  0.525052   67.747     0.4477761  0.3300525  0.5654997 
1065.4     -9999      329.1      -9999      -9999      8.299      2.044      3.388      2.359      2.014      1.853      2.556      0.888      1.279      1.577      0.1506432  0.1506432  0.30074    1.727568   4.837803   2.752      0.2769466  0.5088106  67.824     0.4548389  0.3408391  0.5688387 
1065.6     -9999      326.8      -9999      -9999      8.029      2.305      3.551      2.282      2.184      1.873      2.754      0.949      1.361      1.592      0.154367   0.154367   0.29504    2.024931   6.499968   2.846      0.3032308  0.5158761  67.339     0.4262817  0.3021172  0.5504462 
1065.8     -9999      304.4      -9999      -9999      8.161      2.187      3.296      2.39       2.245      1.873      3.256      1.011      1.515      1.598      0.1524771  0.1524771  0.29276    1.868117   5.626064   2.826      0.2933804  0.5095148  66.777     0.4250996  0.3204649  0.5297343 
1066       -9999      289.6      -9999      -9999      8.294      2.141      3.061      2.615      2.137      1.986      2.624      0.755      1.39       1.58       0.157572   0.157572   0.2996     2.321527   4.864337   2.756      0.3051917  0.5165029  66.521     0.4303878  0.3400787  0.5206969 
1066.2     -9999      273.7      -9999      -9999      9.078      1.835      2.934      2.774      2.058      2.07       2.414      0.681      1.157      1.539      0.1510858  0.1510858  0.31518    1.760489   2.063411   2.775      0.281603   0.5253446  66.266     0.4972552  0.4826789  0.5118315 
1066.4     -9999      263        -9999      -9999      8.727      1.86       2.913      2.959      1.979      2.155      2.431      0.769      1.004      1.508      0.174372   0.174372   0.32696    4.752809   3.029197   2.98       0.3867752  0.5762411  66.266     0.4623879  0.4126407  0.5121351 
1066.6     -9999      256.4      -9999      -9999      8.212      2.011      3.505      3.062      2.204      2.262      2.518      0.888      1.141      1.515      0.1856526  0.1856526  0.3243     7.689424   5.320806   3.132      0.4327558  0.5947055  66.266     0.4201438  0.3278486  0.512439  
1066.8     -9999      252.5      -9999      -9999      7.759      2.162      3.592      3.154      2.378      2.349      2.99       1.213      1.492      1.512      0.1966514  0.1966514  0.32544    12.29188   8.73322    3.314      0.4746021  0.6157305  66.266     0.3902687  0.2677943  0.5127431 
1067       -9999      249.5      -9999      -9999      7.438      2.581      3.878      3.267      2.594      2.615      3.55       1.349      1.842      1.577      0.1734893  0.1734893  0.30074    4.57721    12.40694   3.449      0.4248886  0.5847858  66.981     0.3856081  0.2320248  0.5391914 
1067.2     -9999      249.5      -9999      -9999      7.331      2.791      4.061      3.349      2.655      2.636      4.215      1.333      2.062      1.642      0.1485616  0.1485616  0.27604    1.580805   13.94745   3.538      0.3495221  0.5409842  67.296     0.3862984  0.2211967  0.5514    
1067.4     -9999      261.5      -9999      -9999      7.464      2.974      4.48       3.267      2.696      2.636      4.106      1.355      2.155      1.596      0.1617537  0.1617537  0.29352    2.774781   12.05906   3.592      0.4002562  0.5755324  67.611     0.3992919  0.234735   0.5638489 
1067.6     -9999      264.3      -9999      -9999      7.713      3.164      4.842      3.123      2.742      2.462      4.425      1.436      1.899      1.629      0.1425635  0.1425635  0.28098    1.223995   9.183886   3.635      0.3342538  0.5448127  67.926     0.419444   0.2623483  0.5765397 
1067.8     -9999      267.1      -9999      -9999      7.922      3.015      4.801      3.015      2.717      2.385      4.166      1.566      2.21       1.633      0.1360834  0.1360834  0.27946    0.9284393  7.307039   3.635      0.3067265  0.5350608  68.028     0.4344744  0.2880181  0.5809307 
1068       -9999      271.4      -9999      -9999      8.141      2.867      4.612      3.036      2.465      2.196      3.157      1.39       2.521      1.619      0.1357841  0.1357841  0.28478    0.9166623  5.750505   3.469      0.2899914  0.5291948  68.131     0.4515027  0.3176149  0.5853905 
1068.2     -9999      274        -9999      -9999      8.243      2.571      4.52       3.164      2.427      2.144      3.035      1.256      1.607      1.535      0.165205   0.165205   0.3167     3.214811   5.143408   3.432      0.3984576  0.588815   68.131     0.4590758  0.3324196  0.585732  
1068.4     -9999      274.6      -9999      -9999      8.049      2.469      4.515      3.231      2.389      2.203      3.012      1.39       1.589      1.49       0.185441   0.185441   0.3338     7.620372   6.359315   3.396      0.453351   0.6173487  68.335     0.4495726  0.304828   0.5943171 
1068.6     -9999      275.3      -9999      -9999      7.774      2.433      4.541      3.297      2.363      2.262      3.139      1.295      1.735      1.477      0.1940657  0.1940657  0.33874    11.00844   8.591095   3.342      0.4706047  0.6244836  68.641     0.4384069  0.2695945  0.6072194 
1068.8     -9999      269.6      -9999      -9999      7.728      2.331      4.071      3.41       2.491      2.303      3.201      1.36       1.819      1.492      0.1881551  0.1881551  0.33304    8.555537   9.034426   3.31       0.4536887  0.6140904  68.795     0.4390451  0.2641119  0.6139783 
1069       -9999      266.3      -9999      -9999      7.728      2.315      4.02       3.497      2.619      2.29       3.048      1.446      1.86       1.514      0.1786763  0.1786763  0.32468    5.710527   9.034426   3.303      0.4279635  0.5996146  68.948     0.4424354  0.2641119  0.620759  
1069.2     -9999      272.7      -9999      -9999      7.509      2.499      4.158      3.549      2.66       2.277      3.373      1.331      1.729      1.542      0.1700656  0.1700656  0.31404    3.955355   11.47985   3.295      0.402139   0.5829277  69.229     0.436286   0.2395007  0.6330713 
1069.4     -9999      274        -9999      -9999      7.438      2.586      4.036      3.544      2.635      2.252      3.815      1.331      1.725      1.559      0.1625867  0.1625867  0.30758    2.875133   12.40694   3.364      0.3842739  0.5745608  69.536     0.4393736  0.2320248  0.6467224 
