~Version
 VERS              .         2.0                           : CWLS LOG ASCII STANDARD - VERSION 2.0
 WRAP              .         NO                            : ONE LINE PER DEPTH STEP
 DLM               .         SPACE                         : DELIMITING CHARACTER(SPACE TAB OR COMMA)
~Well Information
#_______________________________________________________________________________
#
#PARAMETER_NAME    .UNIT     VALUE                         : DESCRIPTION
#_______________________________________________________________________________
STRT               .M        832                           : First reference value
STOP               .M        1164                          : Last reference value
STEP               .M        0.2                           : Step increment
NULL               .         -9999                         : Missing value
COMP               .                                       : Company
WELL               .         4719                          : Well name
FLD                .         УЗЕНЬ                         : Field
LOC                .                                       : Location
CNTY               .                                       : County
STAT               .                                       : State
CTRY               .                                       : Country
SRVC               .                                       : Service Company
DATE               .                                       : Date
UWI                .                                       : Unique Well ID
Block              .         7                             : 
Category           .         Нефтяная                      : 
Condition          .         В работе                      : 
Date               .         24.09.1990                    : 
EREF               .m        84                            : 100.8
Gorizont           .         15                            : 14
Interpretator      .         Ткачева И.Г.                  : 
Kupol              .         Основной                      : osnovnoi
Mud                .         0                             : 
Mud_density        .         0                             : 
Mud_resistivity    .         0                             : 
NGDU               .         НГДУ-2                        : 
ORIGINALWELLNAME   .         4719                          : 
Spud_date          .         1990                          : 1961
Uslovie            .         15                            : 
Viscosity          .         0                             : 
X                  .m        42234.2                       : 46154
Y                  .m        83713.33                      : 85761.93
YEAR               .         2019                          : 
~Parameter Information Block
#_______________________________________________________________________________
#
#PARAMETER_NAME    .UNIT     VALUE                         : DESCRIPTION
#_______________________________________________________________________________
SET                .         LQC_KAZNIPI_Petrel            : 
TLFamily_CALI      .         Caliper                       : 
TLFamily_CILD      .         Conductivity                  : 
TLFamily_COLL      .         Net Reservoir Flag            : 
TLFamily_CSAT      .         Fluid Code                    : 
TLFamily_DEPT      .         Measured Depth                : 
TLFamily_GR        .         Russian Gamma Ray             : 
TLFamily_GZ1       .         Gradient 045                  : 
TLFamily_GZ2       .         Gradient 105                  : 
TLFamily_GZ3       .         Gradient 225                  : 
TLFamily_GZ4       .         Gradient 425                  : 
TLFamily_GZ5       .         Gradient 850                  : 
TLFamily_LLS       .         Lateral Log Resistivity       : 
TLFamily_MINV      .         Micro Gradient Resistivity    : 
TLFamily_MNOR      .         Micro Resistivity             : 
TLFamily_NGLD      .         Neutron Gamma                 : 
TLFamily_PHIE      .         Effective Porosity            : 
TLFamily_PHIEN     .         Effective Porosity            : 
TLFamily_PHIT      .         Porosity                      : 
TLFamily_PRMB      .         Permeability                  : 
TLFamily_PRMB_DGR  .         Permeability                  : 
TLFamily_RT        .         Formation Resistivity         : 
TLFamily_SOIL_ARCHIE .         Oil Saturation                : 
TLFamily_SOIL_DW   .         Oil Saturation                : 
TLFamily_SP        .         Spontaneous Potential         : 
TLFamily_VSH_FIN   .         Shale Volume                  : 
TLFamily_VSH_GR    .         Shale Volume                  : 
TLFamily_VSH_SP    .         Shale Volume                  : 
~Curve Information
#_______________________________________________________________________________
#
#LOGNAME           .UNIT     LOG_ID                        : DESCRIPTION
#_______________________________________________________________________________
DEPT               .M                                      : Колонка глубины 
CALI               .м                                      : Каверномер 
CILD               .мСм/м                                  : Индукционный каротаж 
COLL               .unitless                               : Описание 
CSAT               .unitless                               : Описание 
GR                 .uR/h                                   : Гамма каротаж 
GZ1                .Ohmm                                   : Градиент-зонд  длиной 0.45м 
GZ2                .Ohmm                                   : Градиент-зонд  длиной 1.05м 
GZ3                .Ohmm                                   : Градиент-зонд  длиной 2.25м 
GZ4                .Ohmm                                   : Градиент-зонд  длиной 4.5м 
GZ5                .Ohmm                                   : Градиент-зонд  длиной 8.5м 
LLS                .Ohmm                                   : Боковой каротаж 
MINV               .Ohmm                                   : Микро-градиент зонд 
MNOR               .Ohmm                                   : Микро-потенциал зонд 
NGLD               .у.е.                                   : Показания зонда НГК-60 аппаратуры ДРСТ-3-90 
PHIE               .v/v                                    : Описание 
PHIEN              .v/v                                    :  
PHIT               .v/v                                    : Описание 
PRMB               .mD                                     :  
PRMB_DGR           .mD                                     :  
RT                 .ohmm                                   : УЭС пласта 
SOIL_ARCHIE        .v/v                                    :  
SOIL_DW            .v/v                                    :  
SP                 .мВ                                     : Потенциал самополяризации 
VSH_FIN            .v/v                                    : Описание 
VSH_GR             .v/v                                    : Shale volume 
VSH_SP             .v/v                                    : Shale Volume 
~Ascii
# ...
977.8      0.259      364.9      -9999      -9999      7.16       -9999      -9999      2.154      -9999      -9999      2.362      1.467      1.371      1.359      0.1698887  0.1698887  0.38358    3.925622   1.481715   2.465      0.314292   0.5736623  74.585     0.6475495  0.5525673  0.7425317 
978        0.26       361.6      -9999      -9999      7.2        -9999      -9999      2.124      -9999      -9999      2.311      0.951      1.159      1.302      0.1926722  0.1926722  0.40524    10.37324   1.400141   2.463      0.3852437  0.6069237  74.177     0.6441448  0.5654931  0.7227966 
978.2000000000001 0.26       356.7      -9999      -9999      7.058      -9999      -9999      2.073      -9999      -9999      2.324      1.012      1.147      1.397      0.1659324  0.1659324  0.36914    3.316115   1.711893   2.486      0.3028554  0.5612961  73.921     0.6157805  0.5209282  0.7106328 
978.4      0.259      351.9      -9999      -9999      6.772      -9999      -9999      2.073      -9999      -9999      2.392      1.12       1.004      1.435      0.1650878  0.1650878  0.3547     3.198778   2.566352   2.508      0.3026389  0.5513561  73.857     0.5745826  0.4415467  0.7076184 
978.6      0.263      346        -9999      -9999      6.854      -9999      -9999      2.093      -9999      -9999      2.498      0.992      0.976      1.478      0.1457068  0.1457068  0.33836    1.399592   2.285076   2.543      0.2275517  0.5191541  73.793     0.5837975  0.4629809  0.7046141 
978.8      0.266      345        -9999      -9999      6.849      -9999      -9999      2.113      -9999      -9999      2.593      1.127      1.188      1.498      0.1388213  0.1388213  0.33076    1.043434   2.301308   2.578      0.1994392  0.5067987  73.729     0.5816324  0.4616446  0.7016203 
979        0.265      343.9      -9999      -9999      6.793      -9999      -9999      2.134      -9999      -9999      2.593      1.189      1.109      1.48       0.1485721  0.1485721  0.3376     1.58152    2.491177   2.621      0.2512338  0.5291132  73.666     0.5728117  0.4469397  0.6986837 
979.2000000000001 0.259      344.7      -9999      -9999      6.966      -9999      -9999      2.134      -9999      -9999      2.624      1.176      1.137      1.464      0.1482635  0.1482635  0.34368    1.56084    1.950025   2.629      0.2509485  0.5347143  73.487     0.5921711  0.4939477  0.6903946 
979.4      0.255      345.5      -9999      -9999      7.221      -9999      -9999      2.195      -9999      -9999      2.598      1.286      1.208      1.469      0.1326412  0.1326412  0.34178    0.8016695  1.359128   2.637      0.1758465  0.5144159  73.589     0.6337539  0.5723999  0.6951079 
979.6      0.252      350.8      -9999      -9999      7.175      -9999      -9999      2.308      -9999      -9999      2.546      1.143      1.019      1.482      0.128611   0.128611   0.33684    0.6750661  1.450581   2.631      0.1524929  0.5038347  73.793     0.6309969  0.5573796  0.7046141 
979.8      0.258      359.5      -9999      -9999      7.282      -9999      -9999      2.328      -9999      -9999      2.469      1.178      0.989      1.501      0.113929   0.113929   0.32962    0.3609111  1.246683   2.625      0.05711466 0.4742033  73.998     0.6536089  0.592944   0.7142738 
980        0.267      359.5      -9999      -9999      7.231      -9999      -9999      2.303      -9999      -9999      2.404      1.204      1.027      1.509      0.1121276  0.1121276  0.32658    0.3342204  1.340023   2.586      0.03719538 0.4640791  74.202     0.6498559  0.5757182  0.7239935 
980.2000000000001 0.269      353.1      -9999      -9999      7.017      -9999      -9999      2.221      -9999      -9999      2.395      1.044      1.007      1.467      0.1375197  0.1375197  0.34254    0.9870909  1.814196   2.523      0.1846344  0.5107096  74.406     0.6212735  0.508727   0.7338201 
980.4      0.269      353.1      -9999      -9999      6.885      -9999      -9999      2.195      -9999      -9999      2.485      0.885      1.086      1.44       0.153121   0.153121   0.3528     1.920133   2.186961   2.523      0.2574851  0.5383555  74.509     0.6050877  0.4713525  0.7388229 
980.6      0.279      353.1      -9999      -9999      6.885      -9999      -9999      2.216      -9999      -9999      2.524      0.726      1.134      1.422      0.159961   0.159961   0.35964    2.570542   2.186961   2.569      0.2912504  0.5552849  74.509     0.6050877  0.4713525  0.7388229 
980.8      0.288      355        -9999      -9999      7.155      -9999      -9999      2.247      -9999      -9999      2.552      1.121      1.037      1.441      0.1396037  0.1396037  0.35242    1.078841   1.49224    2.569      0.20204    0.5264063  74.509     0.6448978  0.5509726  0.7388229 
981        0.298      357        -9999      -9999      7.527      -9999      -9999      2.277      -9999      -9999      2.503      1.278      1.137      1.402      0.132613   0.132613   0.36724    0.8007061  0.8813013  2.569      0.1655261  0.5302185  74.509     0.7109908  0.6831588  0.7388229 
981.2000000000001 0.283      359.5      -9999      -9999      7.669      -9999      -9999      2.298      -9999      -9999      2.436      1.038      1.177      1.383      0.132233   0.132233   0.37446    0.787833   0.7208077  2.555      0.1612898  0.5343709  74.253     0.7340212  0.7416025  0.7264399 
981.4      0.277      362.1      -9999      -9999      7.863      -9999      -9999      2.247      -9999      -9999      2.381      0.844      1.106      1.378      0.1278975  0.1278975  0.37636    0.6548322  0.5477015  2.541      0.1343523  0.529187   73.819     0.7529166  0.8        0.7058333 
981.6      0.276      367.4      -9999      -9999      7.985      -9999      -9999      2.221      -9999      -9999      2.343      0.941      0.902      1.428      0.1092919  0.1092919  0.35736    0.2961477  0.4608242  2.523      0.004013103 0.4841842  73.768     0.7517217  0.8        0.7034433 
981.8      0.262      374.3      -9999      -9999      7.542      -9999      -9999      2.241      -9999      -9999      2.42       1.137      0.918      1.44       0.1208426  0.1208426  0.3528     0.4846821  0.8627843  2.505      0.08438891 0.4955356  74.049     0.702901   0.6891081  0.7166938 
982        0.257      376.9      -9999      -9999      7.465      -9999      -9999      2.262      -9999      -9999      2.478      1.252      1.208      1.435      0.1244508  0.1244508  0.3547     0.5653116  0.9621513  2.469      0.1014697  0.4988135  74.458     0.6977251  0.6591077  0.7363424 
982.2000000000001 0.262      378.2      -9999      -9999      7.302      -9999      -9999      2.282      -9999      -9999      2.424      1.079      1.04       1.413      0.1392845  0.1392845  0.36306    1.064255   1.21188    2.423      0.1781904  0.5211357  74.866     0.6781075  0.5998391  0.756376  
982.4      0.266      378.6      -9999      -9999      7.476      -9999      -9999      2.277      -9999      -9999      2.226      1.261      1.129      1.387      0.1397281  0.1397281  0.37294    1.08458    0.9472848  2.407      0.1779111  0.5282953  74.739     0.7067027  0.6633121  0.7500933 
982.6      0.263      379        -9999      -9999      7.562      -9999      -9999      2.19       -9999      -9999      2.294      1.206      1.218      1.398      0.1332608  0.1332608  0.36876    0.8231341  0.8386981  2.398      0.141762   0.515888   74.33      0.7136341  0.6971214  0.7301467 
982.8      0.263      379.4      -9999      -9999      7.516      -9999      -9999      2.165      -9999      -9999      2.307      1.311      1.323      1.448      0.1204989  0.1204989  0.34976    0.4776288  0.8951333  2.396      0.06275083 0.4807546  73.921     0.6947306  0.6788284  0.7106328 
983        0.265      383.3      -9999      -9999      7.562      -9999      -9999      2.236      -9999      -9999      2.282      1.229      1.241      1.497      0.1003476  0.1003476  0.33114    0.2022272  0.8386981  2.393      0          0.4266627  73.729     0.6993709  0.6971214  0.7016203 
