~Version
 VERS              .         2.0                           : CWLS LOG ASCII STANDARD - VERSION 2.0
 WRAP              .         NO                            : ONE LINE PER DEPTH STEP
 DLM               .         SPACE                         : DELIMITING CHARACTER(SPACE TAB OR COMMA)
~Well Information
#_______________________________________________________________________________
#
#PARAMETER_NAME    .UNIT     VALUE                         : DESCRIPTION
#_______________________________________________________________________________
STRT               .M        832                           : First reference value
STOP               .M        1164                          : Last reference value
STEP               .M        0.2                           : Step increment
NULL               .         -9999                         : Missing value
COMP               .                                       : Company
WELL               .         4719                          : Well name
FLD                .         УЗЕНЬ                         : Field
LOC                .                                       : Location
CNTY               .                                       : County
STAT               .                                       : State
CTRY               .                                       : Country
SRVC               .                                       : Service Company
DATE               .                                       : Date
UWI                .                                       : Unique Well ID
Block              .         7                             : 
Category           .         Нефтяная                      : 
Condition          .         В работе                      : 
Date               .         24.09.1990                    : 
EREF               .m        84                            : 100.8
Gorizont           .         15                            : 14
Interpretator      .         Ткачева И.Г.                  : 
Kupol              .         Основной                      : osnovnoi
Mud                .         0                             : 
Mud_density        .         0                             : 
Mud_resistivity    .         0                             : 
NGDU               .         НГДУ-2                        : 
ORIGINALWELLNAME   .         4719                          : 
Spud_date          .         1990                          : 1961
Uslovie            .         15                            : 
Viscosity          .         0                             : 
X                  .m        42234.2                       : 46154
Y                  .m        83713.33                      : 85761.93
YEAR               .         2019                          : 
~Parameter Information Block
#_______________________________________________________________________________
#
#PARAMETER_NAME    .UNIT     VALUE                         : DESCRIPTION
#_______________________________________________________________________________
SET                .         LQC_KAZNIPI_Petrel            : 
TLFamily_CALI      .         Caliper                       : 
TLFamily_CILD      .         Conductivity                  : 
TLFamily_COLL      .         Net Reservoir Flag            : 
TLFamily_CSAT      .         Fluid Code                    : 
TLFamily_DEPT      .         Measured Depth                : 
TLFamily_GR        .         Russian Gamma Ray             : 
TLFamily_GZ1       .         Gradient 045                  : 
TLFamily_GZ2       .         Gradient 105                  : 
TLFamily_GZ3       .         Gradient 225                  : 
TLFamily_GZ4       .         Gradient 425                  : 
TLFamily_GZ5       .         Gradient 850                  : 
TLFamily_LLS       .         Lateral Log Resistivity       : 
TLFamily_MINV      .         Micro Gradient Resistivity    : 
TLFamily_MNOR      .         Micro Resistivity             : 
TLFamily_NGLD      .         Neutron Gamma                 : 
TLFamily_PHIE      .         Effective Porosity            : 
TLFamily_PHIEN     .         Effective Porosity            : 
TLFamily_PHIT      .         Porosity                      : 
TLFamily_PRMB      .         Permeability                  : 
TLFamily_PRMB_DGR  .         Permeability                  : 
TLFamily_RT        .         Formation Resistivity         : 
TLFamily_SOIL_ARCHIE .         Oil Saturation                : 
TLFamily_SOIL_DW   .         Oil Saturation                : 
TLFamily_SP        .         Spontaneous Potential         : 
TLFamily_VSH_FIN   .         Shale Volume                  : 
TLFamily_VSH_GR    .         Shale Volume                  : 
TLFamily_VSH_SP    .         Shale Volume                  : 
~Curve Information
#_______________________________________________________________________________
#
#LOGNAME           .UNIT     LOG_ID                        : DESCRIPTION
#_______________________________________________________________________________
DEPT               .M                                      : Колонка глубины 
CALI               .м                                      : Каверномер 
CILD               .мСм/м                                  : Индукционный каротаж 
COLL               .unitless                               : Описание 
CSAT               .unitless                               : Описание 
GR                 .uR/h                                   : Гамма каротаж 
GZ1                .Ohmm                                   : Градиент-зонд  длиной 0.45м 
GZ2                .Ohmm                                   : Градиент-зонд  длиной 1.05м 
GZ3                .Ohmm                                   : Градиент-зонд  длиной 2.25м 
GZ4                .Ohmm                                   : Градиент-зонд  длиной 4.5м 
GZ5                .Ohmm                                   : Градиент-зонд  длиной 8.5м 
LLS                .Ohmm                                   : Боковой каротаж 
MINV               .Ohmm                                   : Микро-градиент зонд 
MNOR               .Ohmm                                   : Микро-потенциал зонд 
NGLD               .у.е.                                   : Показания зонда НГК-60 аппаратуры ДРСТ-3-90 
PHIE               .v/v                                    : Описание 
PHIEN              .v/v                                    :  
PHIT               .v/v                                    : Описание 
PRMB               .mD                                     :  
PRMB_DGR           .mD                                     :  
RT                 .ohmm                                   : УЭС пласта 
SOIL_ARCHIE        .v/v                                    :  
SOIL_DW            .v/v                                    :  
SP                 .мВ                                     : Потенциал самополяризации 
VSH_FIN            .v/v                                    : Описание 
VSH_GR             .v/v                                    : Shale volume 
VSH_SP             .v/v                                    : Shale Volume 
~Ascii
# ...
923.8      0.218      147.3      -9999      -9999      3.937      -9999      -9999      8.556      -9999      -9999      5.747      2.832      3.622      2.1        0.01       0          0.102      0.004289259 94.95481   7.004      0          0          72.324     0.4161819  0.1010713  0.7312924 
924        0.218      149.9      -9999      -9999      3.947      -9999      -9999      8.843      -9999      -9999      7.661      2.252      3.057      2.103      0.01       0          0.10086    0.004289259 93.49179   6.739      0          0          72.26      0.4147112  0.1017142  0.7277082 
924.2000000000001 0.217      147.8      -9999      -9999      3.947      -9999      -9999      9.129      -9999      -9999      4.717      2.316      3.734      1.863      0.05629941 0.05629941 0.19206    0.03090008 93.49179   6.158      0          0.3769388  72.132     0.4113957  0.1017142  0.7210771 
924.4      0.216      158.6      -9999      -9999      4.21       -9999      -9999      8.541      -9999      -9999      5.03       1.828      2.363      1.804      0.07625865 0.07625865 0.21448    0.07238579 62.14699   6.051      0.09613283 0.4730142  72.068     0.4188525  0.1201713  0.7175338 
924.6      0.216      165.5      -9999      -9999      4.495      -9999      -9999      8.152      -9999      -9999      5.703      1.862      2.329      1.777      0.08316613 0.08316613 0.22474    0.0971844  39.92372   6.137      0.1674109  0.5076157  72.005     0.4290118  0.143972   0.7140515 
924.8      0.217      166.7      -9999      -9999      4.699      -9999      -9999      7.753      -9999      -9999      5.352      2.125      2.715      1.779      0.07840779 0.07840779 0.22398    0.07933421 29.08468   5.719      0.09407463 0.4780884  72.107     0.4411279  0.1638518  0.7184039 
925        0.217      172.1      -9999      -9999      4.622      -9999      -9999      7.328      -9999      -9999      4.634      2.388      2.663      1.717      0.101727   0.101727   0.24754    0.2144812  32.77848   5.481      0.2633345  0.544527   72.311     0.4418575  0.1560446  0.7276704 
925.2000000000001 0.215      174.7      -9999      -9999      4.582      -9999      -9999      7.302      -9999      -9999      4.526      2.651      2.449      1.691      0.1111072  0.1111072  0.25742    0.3199881  34.87891   5.441      0.3154576  0.5682762  72.465     0.443372   0.1521368  0.7346072 
925.4      0.214      170.6      -9999      -9999      4.979      -9999      -9999      7.568      -9999      -9999      5.01       1.72       2.696      1.722      0.09099685 0.09099685 0.24564    0.135719   18.82985   5.27       0.1731368  0.514047   72.618     0.4686156  0.1956824  0.7415488 
925.6      0.214      169.5      -9999      -9999      5.106      -9999      -9999      7.65       -9999      -9999      4.742      2.3        3.16       1.752      0.0736421  0.0736421  0.23424    0.06474233 15.45982   5.192      0          0.4565038  73.027     0.4866603  0.212091   0.7612297 
925.8      0.214      168.5      -9999      -9999      5.331      -9999      -9999      7.384      -9999      -9999      4.042      3.382      2.947      1.772      0.06097511 0.06097511 0.22664    0.03771942 10.90126   5.317      0          0.4156873  73.001     0.5020149  0.2446121  0.7594176 
926        0.214      159.1      -9999      -9999      5.346      -9999      -9999      7.2        -9999      -9999      5.883      2.499      2.057      1.878      0.02473405 0.02473405 0.18636    0.008040679 10.65028   5.351      0          0.1378507  72.465     0.4897756  0.2469496  0.7326015 
926.2000000000001 0.214      157.2      -9999      -9999      4.429      -9999      -9999      7.338      -9999      -9999      5.251      2.645      3.452      1.901      0.03707315 0.03707315 0.17762    0.01360952 44.23215   5.383      0          0.199205   72.081     0.4258995  0.1380716  0.7137274 
926.4      0.216      155.2      -9999      -9999      4.368      -9999      -9999      7.732      -9999      -9999      5.528      3.819      2.551      1.93       0.03209076 0.03209076 0.1666     0.01100416 48.62652   5.701      0          0.1511446  71.417     0.4076038  0.1328335  0.6823741 
926.6      0.216      167.2      -9999      -9999      4.378      -9999      -9999      7.118      -9999      -9999      5.439      2.129      2.989      1.952      0.03169261 0.03169261 0.15824    0.01081887 47.87733   5.77       0          0.121413   70.318     0.3834769  0.1336784  0.6332755 
926.8      0.214      172.4      -9999      -9999      4.082      -9999      -9999      6.791      -9999      -9999      6.163      2.673      2.837      1.969      0.02670972 0.02670972 0.15178    0.008747558 75.81178   5.844      0          0.05655948 70.65      0.3790009  0.1108039  0.6471978 
927        0.214      171.8      -9999      -9999      3.95       -9999      -9999      6.305      -9999      -9999      6.145      3.217      3.16       1.984      0.0178661  0.0178661  0.14608    0.005999038 93.05732   5.425      0          0          71.289     0.388527   0.1019079  0.6751462 
927.2000000000001 0.215      174.4      -9999      -9999      4.2        -9999      -9999      6.079      -9999      -9999      4.513      2.717      3.955      1.773      0.0944721  0.0944721  0.22626    0.1574021  63.11951   5.261      0.1990502  0.4943345  71.391     0.3993573  0.1194118  0.6793028 
927.4      0.215      178.2      -9999      -9999      4.628      -9999      -9999      5.972      -9999      -9999      5.926      2.473      2.875      1.737      0.1013127  0.1013127  0.23994    0.2107247  32.47453   5.28       0.2476357  0.5259823  71.494     0.4200827  0.1566393  0.6835261 
927.6      0.215      173.9      -9999      -9999      4.801      -9999      -9999      5.514      -9999      -9999      4.331      3.529      4.008      1.71       0.1105703  0.1105703  0.2502     0.3127438  24.82451   5.201      0.2978557  0.5496558  71.238     0.4231202  0.1747986  0.6714417 
927.8      0.215      171.8      -9999      -9999      4.434      -9999      -9999      5.056      -9999      -9999      4.5        4.585      2.327      1.826      0.07536909 0.07536909 0.20612    0.06969096 43.89006   5.09       0.009649498 0.4079936  70.855     0.3962149  0.13851    0.6539198 
928        0.215      174.4      -9999      -9999      4.179      -9999      -9999      5.312      -9999      -9999      5.235      2.472      2.069      1.943      0.04472217 0.04472217 0.16166    0.0188591  65.2116    5.216      0          0.1803227  69.373     0.3543571  0.1178324  0.5908818 
928.2000000000001 0.215      179        -9999      -9999      3.792      -9999      -9999      5.762      -9999      -9999      5.635      2.932      2.789      1.934      0.05430056 0.05430056 0.16508    0.02837502 118.9317   5.28       0          0.2469535  69.092     0.3356953  0.09219366 0.5791969 
928.4      0.216      183.6      -9999      -9999      3.787      -9999      -9999      6.166      -9999      -9999      4.668      3.346      3.509      1.869      0.07995286 0.07995286 0.18978    0.08473814 119.8586   5.201      0.06876239 0.3956609  68.964     0.3328096  0.09190184 0.5737173 
928.6      0.216      176.4      -9999      -9999      4.093      -9999      -9999      6.381      -9999      -9999      5.313      3.065      3.222      1.805      0.100428   0.100428   0.2141     0.2029217  74.52789   5.067      0.2270746  0.4786198  69.066     0.3444606  0.1115794  0.5773419 
928.8      0.216      168.3      -9999      -9999      4.154      -9999      -9999      6.156      -9999      -9999      4.593      3.881      4.401      1.74       0.1215886  0.1215886  0.2388     0.5003499  67.79282   4.94       0.3378009  0.5411916  69.501     0.3551861  0.1159794  0.5943927 
929        0.216      179.5      -9999      -9999      4.215      -9999      -9999      5.788      -9999      -9999      4.342      3.664      2.12       1.755      0.1088759  0.1088759  0.2331     0.29094    61.66635   5.142      0.2845276  0.5238565  70.42      0.3764367  0.1205529  0.6323205 
