~Version
 VERS              .         2.0                           : CWLS LOG ASCII STANDARD - VERSION 2.0
 WRAP              .         NO                            : ONE LINE PER DEPTH STEP
 DLM               .         SPACE                         : DELIMITING CHARACTER(SPACE TAB OR COMMA)
~Well Information
#_______________________________________________________________________________
#
#PARAMETER_NAME    .UNIT     VALUE                         : DESCRIPTION
#_______________________________________________________________________________
STRT               .M        832                           : First reference value
STOP               .M        1164                          : Last reference value
STEP               .M        0.2                           : Step increment
NULL               .         -9999                         : Missing value
COMP               .                                       : Company
WELL               .         4719                          : Well name
FLD                .         УЗЕНЬ                         : Field
LOC                .                                       : Location
CNTY               .                                       : County
STAT               .                                       : State
CTRY               .                                       : Country
SRVC               .                                       : Service Company
DATE               .                                       : Date
UWI                .                                       : Unique Well ID
Block              .         7                             : 
Category           .         Нефтяная                      : 
Condition          .         В работе                      : 
Date               .         24.09.1990                    : 
EREF               .m        84                            : 100.8
Gorizont           .         15                            : 14
Interpretator      .         Ткачева И.Г.                  : 
Kupol              .         Основной                      : osnovnoi
Mud                .         0                             : 
Mud_density        .         0                             : 
Mud_resistivity    .         0                             : 
NGDU               .         НГДУ-2                        : 
ORIGINALWELLNAME   .         4719                          : 
Spud_date          .         1990                          : 1961
Uslovie            .         15                            : 
Viscosity          .         0                             : 
X                  .m        42234.2                       : 46154
Y                  .m        83713.33                      : 85761.93
YEAR               .         2019                          : 
~Parameter Information Block
#_______________________________________________________________________________
#
#PARAMETER_NAME    .UNIT     VALUE                         : DESCRIPTION
#_______________________________________________________________________________
SET                .         LQC_KAZNIPI_Petrel            : 
TLFamily_CALI      .         Caliper                       : 
TLFamily_CILD      .         Conductivity                  : 
TLFamily_COLL      .         Net Reservoir Flag            : 
TLFamily_CSAT      .         Fluid Code                    : 
TLFamily_DEPT      .         Measured Depth                : 
TLFamily_GR        .         Russian Gamma Ray             : 
TLFamily_GZ1       .         Gradient 045                  : 
TLFamily_GZ2       .         Gradient 105                  : 
TLFamily_GZ3       .         Gradient 225                  : 
TLFamily_GZ4       .         Gradient 425                  : 
TLFamily_GZ5       .         Gradient 850                  : 
TLFamily_LLS       .         Lateral Log Resistivity       : 
TLFamily_MINV      .         Micro Gradient Resistivity    : 
TLFamily_MNOR      .         Micro Resistivity             : 
TLFamily_NGLD      .         Neutron Gamma                 : 
TLFamily_PHIE      .         Effective Porosity            : 
TLFamily_PHIEN     .         Effective Porosity            : 
TLFamily_PHIT      .         Porosity                      : 
TLFamily_PRMB      .         Permeability                  : 
TLFamily_PRMB_DGR  .         Permeability                  : 
TLFamily_RT        .         Formation Resistivity         : 
TLFamily_SOIL_ARCHIE .         Oil Saturation                : 
TLFamily_SOIL_DW   .         Oil Saturation                : 
TLFamily_SP        .         Spontaneous Potential         : 
TLFamily_VSH_FIN   .         Shale Volume                  : 
TLFamily_VSH_GR    .         Shale Volume                  : 
TLFamily_VSH_SP    .         Shale Volume                  : 
~Curve Information
#_______________________________________________________________________________
#
#LOGNAME           .UNIT     LOG_ID                        : DESCRIPTION
#_______________________________________________________________________________
DEPT               .M                                      : Колонка глубины 
CALI               .м                                      : Каверномер 
CILD               .мСм/м                                  : Индукционный каротаж 
COLL               .unitless                               : Описание 
CSAT               .unitless                               : Описание 
GR                 .uR/h                                   : Гамма каротаж 
GZ1                .Ohmm                                   : Градиент-зонд  длиной 0.45м 
GZ2                .Ohmm                                   : Градиент-зонд  длиной 1.05м 
GZ3                .Ohmm                                   : Градиент-зонд  длиной 2.25м 
GZ4                .Ohmm                                   : Градиент-зонд  длиной 4.5м 
GZ5                .Ohmm                                   : Градиент-зонд  длиной 8.5м 
LLS                .Ohmm                                   : Боковой каротаж 
MINV               .Ohmm                                   : Микро-градиент зонд 
MNOR               .Ohmm                                   : Микро-потенциал зонд 
NGLD               .у.е.                                   : Показания зонда НГК-60 аппаратуры ДРСТ-3-90 
PHIE               .v/v                                    : Описание 
PHIEN              .v/v                                    :  
PHIT               .v/v                                    : Описание 
PRMB               .mD                                     :  
PRMB_DGR           .mD                                     :  
RT                 .ohmm                                   : УЭС пласта 
SOIL_ARCHIE        .v/v                                    :  
SOIL_DW            .v/v                                    :  
SP                 .мВ                                     : Потенциал самополяризации 
VSH_FIN            .v/v                                    : Описание 
VSH_GR             .v/v                                    : Shale volume 
VSH_SP             .v/v                                    : Shale Volume 
~Ascii
# ...
1156       -9999      374.5      -9999      -9999      10.445     -9999      -9999      1.971      1.506      1.298      2.199      1.476      1.804      1.681      0.08489558 0.08489558 0.26122    0.1046237  1.379947   2.272      0          0.2800541  54.757     0.5343164  0.5688577  0.4997752 
1156.2     -9999      371.4      -9999      -9999      9.816      -9999      -9999      1.741      1.664      1.222      2.261      1.238      1.676      1.718      0.08107086 0.08107086 0.24716    0.08887651 2.704133   2.257      0          0.2390082  56.672     0.5033004  0.4322178  0.574383  
1156.4     -9999      369.6      -9999      -9999      9.014      -9999      -9999      1.587      1.684      1.12       2.342      1.261      1.392      1.724      0.08863559 0.08863559 0.24488    0.1227168  4.795669   2.293      0          0.2639111  57.336     0.4734679  0.3420588  0.6048771 
1156.6     -9999      365.3      -9999      -9999      8.717      -9999      -9999      1.51       1.633      1.038      2.577      1.476      1.464      1.678      0.09877804 0.09877804 0.26236    0.1891329  6.739989   2.422      0          0.340881   59.276     0.495703   0.2976768  0.6937291 
1156.8     -9999      342.3      -9999      -9999      8.564      -9999      -9999      1.505      1.577      1.038      2.819      1.609      1.604      1.74       0.06502566 0.06502566 0.2388     0.0448323  8.031629   2.442      0          0.1938725  60.884     0.5265889  0.2771103  0.7760675 
1157       -9999      318.8      -9999      -9999      8.513      -9999      -9999      1.526      1.552      1.12       2.56       1.376      1.668      1.761      0.05692875 0.05692875 0.23082    0.0317407  8.515016   2.454      0          0.1412423  60.935     0.5269431  0.2705755  0.7833109 
1157.2     -9999      279.9      -9999      -9999      8.554      -9999      -9999      1.5        1.613      1.232      2.324      1.289      1.761      1.759      0.07204544 0.07204544 0.23158    0.06048036 8.124199   2.483      0          0.2114464  58.944     0.4834381  0.2758166  0.6910596 
1157.4     -9999      257.4      -9999      -9999      8.477      -9999      -9999      1.741      1.633      1.232      2.11       1.356      1.858      1.828      0.06391484 0.06391484 0.20536    0.04275787 8.873632   2.65       0          0.1393624  56.544     0.4286217  0.2660558  0.5911877 
1157.6     -9999      246.4      8          2          8.39       -9999      -9999      2.053      1.633      1.232      2.585      1.409      2.073      1.762      0.1071953  0.1071953  0.23044    0.2708165  9.803908   2.845      0.05590214 0.3598663  53.787     0.3734688  0.2554423  0.4914954 
1157.8     -9999      219.8      8          2          8.334      -9999      -9999      2.273      1.633      1.242      2.981      1.366      2.165      1.695      0.1366534  0.1366534  0.2559     0.9512839  10.45369   3.044      0.2597114  0.4717007  53.175     0.3613533  0.2488355  0.4738711 
1158       -9999      200.9      8          2          8.375      -9999      -9999      2.473      1.608      1.986      3.555      1.246      1.825      1.762      0.1154884  0.1154884  0.23044    0.3857296  9.973889   3.241      0.1677151  0.417178   52.128     0.3483383  0.2536556  0.443021  
1158.2     -9999      176.4      8          2          8.661      -9999      -9999      -9999      1.608      2.731      4.142      1.665      2.162      1.766      0.1088151  0.1088151  0.22892    0.2901865  7.186689   3.524      0.1572     0.4257741  51.873     0.3639543  0.2899778  0.4379307 
1158.4     -9999      154.4      8          2          8.554      -9999      -9999      -9999      1.694      3.475      3.732      1.266      2.203      1.754      0.1152435  0.1152435  0.23348    0.3817228  8.124199   3.681      0.2145281  0.4570504  51.873     0.3582923  0.2758166  0.4407681 
1158.6     -9999      126        8          2          8.794      -9999      -9999      -9999      1.694      4.219      3.397      1.33       2.149      1.703      0.1271461  0.1271461  0.25286    0.6341799  6.170755   4.127      0.316647   0.5299147  52.179     0.3809512  0.3085977  0.4533047 
1158.8     -9999      111.2      8          2          8.717      -9999      -9999      -9999      1.643      4.24       5.004      1.453      2.37       1.756      0.1075731  0.1075731  0.23272    0.2752153  6.739989   4.515      0.2421843  0.4956254  52.32      0.379233   0.2976768  0.4607893 
1159       -9999      97.7       8          2          8.119      -9999      -9999      -9999      1.643      4.316      7.37       1.504      2.454      1.77       0.1129932  0.1129932  0.2274     0.3467903  13.37426   5.142      0.3169249  0.5295466  52.46      0.3466872  0.2250198  0.4683546 
1159.2     -9999      86.4       8          2          7.981      -9999      -9999      -9999      1.684      4.377      8.737      1.471      2.492      1.79       0.1066573  0.1066573  0.2198     0.264673   15.66568   5.875      0.3252588  0.5404691  52.562     0.3428568  0.2109485  0.474765  
1159.4     -9999      76.4       8          2          7.828      -9999      -9999      -9999      1.684      4.51       8.035      1.299      2.111      1.804      0.1026711  0.1026711  0.21448    0.2232936  18.66783   7.199      0.365947   0.5723481  52.664     0.3388148  0.1963741  0.4812555 
1159.6     -9999      71.1       8          2          7.777      -9999      -9999      -9999      1.684      4.759      13.696     1.22       2.037      1.739      0.1273383  0.1273383  0.23918    0.6393989  19.79136   8.157      0.5042979  0.6542999  52.715     0.3389144  0.1917432  0.4860855 
1159.8     -9999      66.5       8          2          7.664      -9999      -9999      -9999      1.658      4.861      14.377     1.335      2.198      1.723      0.1342434  0.1342434  0.24526    0.8583624  22.5275    9.284      0.5544754  0.6874239  52.766     0.336414   0.181868   0.49096   
1160       -9999      66.5       8          2          7.624      -9999      -9999      -9999      1.653      5.008      15.202     1.463      2.344      1.758      0.1225634  0.1225634  0.23196    0.5215904  23.58414   10.498     0.5447427  0.6848531  52.486     0.3315048  0.1784957  0.484514  
1160.2     -9999      100.7      8          2          7.434      -9999      -9999      -9999      -9999      -9999      17.048     1.578      2.544      1.813      0.1057883  0.1057883  0.21106    0.2550438  29.32098   11.872     0.5115006  0.6675354  52.103     0.3190051  0.1633113  0.4746989 
1160.4     -9999      125.3      8          2          7.276      -9999      -9999      -9999      -9999      -9999      22.144     1.657      2.497      1.799      0.1139295  0.1139295  0.21638    0.3609189  35.14079   12.757     0.5572404  0.6931069  51.847     0.3104559  0.1516728  0.4692389 
1160.6     -9999      140.1      8          2          7.123      -9999      -9999      -9999      -9999      -9999      22.144     1.928      2.807      1.732      0.1406195  0.1406195  0.24184    1.126608   41.87511   13.64      0.6427968  0.7446837  51.847     0.3067287  0.1411937  0.4722637 
1160.8     -9999      164.4      8          2          7.036      -9999      -9999      -9999      -9999      -9999      18.391     1.839      2.815      1.683      0.157959   0.157959   0.26046    2.36016    46.26516   13.64      0.6772001  0.7669114  52.154     0.3106092  0.1355612  0.4856573 
1161       -9999      188.1      -9999      -9999      7.036      -9999      -9999      -9999      -9999      -9999      13.454     2.051      2.912      1.683      0.1558478  0.1558478  0.26046    2.15694    46.26516   8.123      0.5834635  0.6963148  52.434     0.3170066  0.1355612  0.498452  
1161.2     -9999      201.4      -9999      -9999      7.222      -9999      -9999      -9999      -9999      -9999      9.842      2.095      2.912      1.58       0.1915316  0.1915316  0.2996     9.880699   37.38403   6.474      0.6128215  0.7120876  52.588     0.32748    0.1478884  0.5070717 
