~Version
 VERS              .         2.0                           : CWLS LOG ASCII STANDARD - VERSION 2.0
 WRAP              .         NO                            : ONE LINE PER DEPTH STEP
 DLM               .         SPACE                         : DELIMITING CHARACTER(SPACE TAB OR COMMA)
~Well Information
#_______________________________________________________________________________
#
#PARAMETER_NAME    .UNIT     VALUE                         : DESCRIPTION
#_______________________________________________________________________________
STRT               .M        832                           : First reference value
STOP               .M        1164                          : Last reference value
STEP               .M        0.2                           : Step increment
NULL               .         -9999                         : Missing value
COMP               .                                       : Company
WELL               .         4719                          : Well name
FLD                .         УЗЕНЬ                         : Field
LOC                .                                       : Location
CNTY               .                                       : County
STAT               .                                       : State
CTRY               .                                       : Country
SRVC               .                                       : Service Company
DATE               .                                       : Date
UWI                .                                       : Unique Well ID
Block              .         7                             : 
Category           .         Нефтяная                      : 
Condition          .         В работе                      : 
Date               .         24.09.1990                    : 
EREF               .m        84                            : 100.8
Gorizont           .         15                            : 14
Interpretator      .         Ткачева И.Г.                  : 
Kupol              .         Основной                      : osnovnoi
Mud                .         0                             : 
Mud_density        .         0                             : 
Mud_resistivity    .         0                             : 
NGDU               .         НГДУ-2                        : 
ORIGINALWELLNAME   .         4719                          : 
Spud_date          .         1990                          : 1961
Uslovie            .         15                            : 
Viscosity          .         0                             : 
X                  .m        42234.2                       : 46154
Y                  .m        83713.33                      : 85761.93
YEAR               .         2019                          : 
~Parameter Information Block
#_______________________________________________________________________________
#
#PARAMETER_NAME    .UNIT     VALUE                         : DESCRIPTION
#_______________________________________________________________________________
SET                .         LQC_KAZNIPI_Petrel            : 
TLFamily_CALI      .         Caliper                       : 
TLFamily_CILD      .         Conductivity                  : 
TLFamily_COLL      .         Net Reservoir Flag            : 
TLFamily_CSAT      .         Fluid Code                    : 
TLFamily_DEPT      .         Measured Depth                : 
TLFamily_GR        .         Russian Gamma Ray             : 
TLFamily_GZ1       .         Gradient 045                  : 
TLFamily_GZ2       .         Gradient 105                  : 
TLFamily_GZ3       .         Gradient 225                  : 
TLFamily_GZ4       .         Gradient 425                  : 
TLFamily_GZ5       .         Gradient 850                  : 
TLFamily_LLS       .         Lateral Log Resistivity       : 
TLFamily_MINV      .         Micro Gradient Resistivity    : 
TLFamily_MNOR      .         Micro Resistivity             : 
TLFamily_NGLD      .         Neutron Gamma                 : 
TLFamily_PHIE      .         Effective Porosity            : 
TLFamily_PHIEN     .         Effective Porosity            : 
TLFamily_PHIT      .         Porosity                      : 
TLFamily_PRMB      .         Permeability                  : 
TLFamily_PRMB_DGR  .         Permeability                  : 
TLFamily_RT        .         Formation Resistivity         : 
TLFamily_SOIL_ARCHIE .         Oil Saturation                : 
TLFamily_SOIL_DW   .         Oil Saturation                : 
TLFamily_SP        .         Spontaneous Potential         : 
TLFamily_VSH_FIN   .         Shale Volume                  : 
TLFamily_VSH_GR    .         Shale Volume                  : 
TLFamily_VSH_SP    .         Shale Volume                  : 
~Curve Information
#_______________________________________________________________________________
#
#LOGNAME           .UNIT     LOG_ID                        : DESCRIPTION
#_______________________________________________________________________________
DEPT               .M                                      : Колонка глубины 
CALI               .м                                      : Каверномер 
CILD               .мСм/м                                  : Индукционный каротаж 
COLL               .unitless                               : Описание 
CSAT               .unitless                               : Описание 
GR                 .uR/h                                   : Гамма каротаж 
GZ1                .Ohmm                                   : Градиент-зонд  длиной 0.45м 
GZ2                .Ohmm                                   : Градиент-зонд  длиной 1.05м 
GZ3                .Ohmm                                   : Градиент-зонд  длиной 2.25м 
GZ4                .Ohmm                                   : Градиент-зонд  длиной 4.5м 
GZ5                .Ohmm                                   : Градиент-зонд  длиной 8.5м 
LLS                .Ohmm                                   : Боковой каротаж 
MINV               .Ohmm                                   : Микро-градиент зонд 
MNOR               .Ohmm                                   : Микро-потенциал зонд 
NGLD               .у.е.                                   : Показания зонда НГК-60 аппаратуры ДРСТ-3-90 
PHIE               .v/v                                    : Описание 
PHIEN              .v/v                                    :  
PHIT               .v/v                                    : Описание 
PRMB               .mD                                     :  
PRMB_DGR           .mD                                     :  
RT                 .ohmm                                   : УЭС пласта 
SOIL_ARCHIE        .v/v                                    :  
SOIL_DW            .v/v                                    :  
SP                 .мВ                                     : Потенциал самополяризации 
VSH_FIN            .v/v                                    : Описание 
VSH_GR             .v/v                                    : Shale volume 
VSH_SP             .v/v                                    : Shale Volume 
~Ascii
# ...
1085.8     -9999      299        -9999      -9999      9.116      2.401      4.374      2.882      1.679      1.079      3.397      1.434      1.782      1.699      0.04612013 0.04612013 0.25438    0.02001772 1.626939   3.282      0          0.2548967  73.776     0.6310905  0.5318684  0.7303127 
1086       -9999      303.3      -9999      -9999      9.053      2.299      3.923      3.221      1.496      1.054      3.438      1.561      1.927      1.638      0.07166182 0.07166182 0.27756    0.05949889 1.745803   3.16       0          0.372942   73.827     0.6239339  0.5167724  0.7310953 
1086.2     -9999      302.3      -9999      -9999      9.124      2.089      3.662      3.462      1.409      1.054      3.169      1.466      1.697      1.651      0.06089802 0.06089802 0.27262    0.03759561 1.612437   3.034      0          0.318802   74.236     0.6415817  0.5338165  0.749347  
1086.4     -9999      297.7      -9999      -9999      9.195      2.038      3.432      3.482      1.307      1.094      2.968      1.638      1.73       1.694      0.03963856 0.03963856 0.25628    0.0151831  1.489258   2.991      0          0.1921704  74.517     0.6564892  0.5514228  0.7615556 
1086.6     -9999      289.6      -9999      -9999      9.032      2.079      3.498      3.482      1.328      1.181      2.904      1.528      1.622      1.639      0.06395817 0.06395817 0.27718    0.04283695 1.787326   3          0          0.3327639  74.926     0.6461267  0.5118361  0.7804173 
1086.8     -9999      286.5      -9999      -9999      8.925      2.227      3.616      3.503      1.414      1.288      2.862      1.415      1.686      1.611      0.07720146 0.07720146 0.28782    0.07535573 2.014726   3.047      0          0.3916151  75.13      0.6382381  0.487408   0.7890681 
1087       -9999      284.4      -9999      -9999      8.818      2.37       3.867      3.544      1.608      1.328      3.166      1.459      1.763      1.632      0.07248931 0.07248931 0.27984    0.0616362  2.271059   3.132      0          0.3759284  75.232     0.6283355  0.4641455  0.7925254 
1087.2     -9999      286        -9999      -9999      8.767      2.606      4.067      3.667      1.707      1.369      3.592      1.198      1.697      1.648      0.06760129 0.06760129 0.27376    0.05003776 2.404469   3.166      0          0.3559136  75.334     0.6247234  0.453452   0.7959948 
1087.4     -9999      289.8      -9999      -9999      9.042      2.667      3.959      3.733      1.806      1.242      3.975      1.865      2.075      1.711      0.03393761 0.03393761 0.24982    0.01190597 1.767432   3.189      0          0.1714594  75.334     0.6541891  0.5141808  0.7941974 
1087.6     -9999      301.4      -9999      -9999      9.2        2.565      3.846      3.092      1.938      1.16       4.347      1.786      2.239      1.734      0.02944233 0.02944233 0.24108    0.009828821 1.480947   3.171      0          0.1175825  74.082     0.6413263  0.5526844  0.7299682 
1087.8     -9999      301.3      -9999      -9999      9.282      2.324      3.764      3.036      1.959      1.11       3.823      1.52       1.942      1.744      0.02294391 0.02294391 0.23728    0.007449633 1.351076   3.13       0          0.05230447 74.018     0.6495034  0.5737905  0.7252162 
1088       -9999      301.1      -9999      -9999      9.455      2.207      3.734      2.98       1.959      1.059      3.438      1.516      1.721      1.757      0.01098627 0.01098627 0.23234    0.00447353 1.113229   3.009      0          0          73.955     0.6707689  0.6210007  0.7205371 
1088.2     -9999      301.1      -9999      -9999      9.577      2.278      3.898      2.754      2.065      1.033      3.129      1.501      1.73       1.669      0.03982682 0.03982682 0.26578    0.0153055  0.9711379  3.01       0          0.2173006  73.827     0.6847066  0.6566104  0.7128026 
1088.4     -9999      301.1      -9999      -9999      9.241      2.34       3.898      2.642      2.172      0.982      3.017      1.627      1.661      1.646      0.06185735 0.06185735 0.27452    0.03916572 1.414521   3.012      0          0.3228132  74.133     0.6444322  0.5631387  0.7257258 
1088.6     -9999      297        -9999      -9999      9.165      2.109      3.626      2.534      2.289      0.982      3.017      1.735      1.978      1.637      0.06710324 0.06710324 0.27794    0.04898609 1.540113   3.012      0          0.3450312  74.337     0.6388993  0.5439138  0.7338848 
1088.8     -9999      293.7      -9999      -9999      9.226      2.15       3.493      2.37       2.381      1.13       3.171      1.564      1.848      1.628      0.06517686 0.06517686 0.28136    0.04512234 1.43847    3.012      0          0.3447633  74.72      0.6551004  0.5592912  0.7509096 
1089       -9999      276.1      -9999      -9999      9.211      2.125      3.416      2.237      2.422      1.257      3.19       1.507      1.74       1.658      0.05112243 0.05112243 0.26996    0.02477818 1.462824   3.054      0          0.2808523  75.154     0.6631442  0.5554702  0.7708182 
1089.2     -9999      265.3      -9999      -9999      9.195      1.992      3.344      2.104      2.284      1.766      3.048      1.464      1.763      1.696      0.03744069 0.03744069 0.25552    0.01382453 1.489258   3.088      0          0.1917381  75.052     0.6608464  0.5514228  0.77027   
1089.4     -9999      229.3      -9999      -9999      9.19       2.038      3.396      2.089      2.106      2.102      2.99       1.356      1.668      1.697      0.0365092  0.0365092  0.25514    0.01328608 1.497616   3.285      0          0.2106055  75.052     0.6625175  0.5501642  0.7748709 
1089.6     -9999      192.5      -9999      -9999      8.813      2.079      3.432      2.114      2.127      3.46       3.021      1.413      1.906      1.69       0.05277435 0.05277435 0.2578     0.02658686 2.283805   3.419      0          0.3038036  75.052     0.6212898  0.4630861  0.7794935 
1089.8     -9999      154.7      -9999      -9999      8.447      1.945      4.541      2.242      3.46       4.818      3.143      1.303      1.753      1.719      0.05275759 0.05275759 0.24678    0.02656786 3.440096   3.956      0          0.3323511  75.052     0.5879467  0.3917549  0.7841385 
1090       -9999      130.9      6          6          7.973      2.14       5.651      2.396      4.794      6.176      3.403      1.515      2.487      1.771      0.0432945  0.0432945  0.22702    0.01774505 5.847636   4.712      0          0.3128805  75.231     0.5567439  0.31545    0.7980378 
1090.2     -9999      119.4      6          6          6.749      3.253      6.761      3.66       6.128      7.534      3.524      1.627      2.692      1.833      0.04171165 0.04171165 0.20346    0.01658666 23.01246   5.863      0          0.3266495  75.639     0.4901466  0.1802931  0.8       
1090.4     -9999      96.9       6          6          5.525      4.366      7.87       4.923      7.461      8.893      7.9        1.674      3.088      1.967      0.01       0.003537533 0.15254    0.004289259 90.56199   6.929      0          0          75.844     0.4515226  0.1030452  0.8       
1090.6     -9999      86.1       6          6          4.301      5.479      8.98       6.187      8.795      10.251     17.706     1.691      3.288      2.102      0.01       0          0.10124    0.004289259 356.3926   7.597      0          0          75.946     0.4294474  0.05889475 0.8       
1090.8     -9999      75.4       6          6          4.051      6.592      10.09      7.451      10.129     13.157     39.687     2.642      3.478      2.236      0.01       0          0.05031998 0.004289259 471.4688   9.36       0          0          75.69      0.4262678  0.05253566 0.8       
1091       -9999      72.9       6          6          3.659      7.706      19.334     8.714      12.337     13.971     88.955     2.739      4.209      2.371      0.01       0          0.01       0.004289259 731.1443   10.535     0          0          75.154     0.4219592  0.04391837 0.8       
