~Version
 VERS              .         2.0                           : CWLS LOG ASCII STANDARD - VERSION 2.0
 WRAP              .         NO                            : ONE LINE PER DEPTH STEP
 DLM               .         SPACE                         : DELIMITING CHARACTER(SPACE TAB OR COMMA)
~Well Information
#_______________________________________________________________________________
#
#PARAMETER_NAME    .UNIT     VALUE                         : DESCRIPTION
#_______________________________________________________________________________
STRT               .M        832                           : First reference value
STOP               .M        1164                          : Last reference value
STEP               .M        0.2                           : Step increment
NULL               .         -9999                         : Missing value
COMP               .                                       : Company
WELL               .         4719                          : Well name
FLD                .         УЗЕНЬ                         : Field
LOC                .                                       : Location
CNTY               .                                       : County
STAT               .                                       : State
CTRY               .                                       : Country
SRVC               .                                       : Service Company
DATE               .                                       : Date
UWI                .                                       : Unique Well ID
Block              .         7                             : 
Category           .         Нефтяная                      : 
Condition          .         В работе                      : 
Date               .         24.09.1990                    : 
EREF               .m        84                            : 100.8
Gorizont           .         15                            : 14
Interpretator      .         Ткачева И.Г.                  : 
Kupol              .         Основной                      : osnovnoi
Mud                .         0                             : 
Mud_density        .         0                             : 
Mud_resistivity    .         0                             : 
NGDU               .         НГДУ-2                        : 
ORIGINALWELLNAME   .         4719                          : 
Spud_date          .         1990                          : 1961
Uslovie            .         15                            : 
Viscosity          .         0                             : 
X                  .m        42234.2                       : 46154
Y                  .m        83713.33                      : 85761.93
YEAR               .         2019                          : 
~Parameter Information Block
#_______________________________________________________________________________
#
#PARAMETER_NAME    .UNIT     VALUE                         : DESCRIPTION
#_______________________________________________________________________________
SET                .         LQC_KAZNIPI_Petrel            : 
TLFamily_CALI      .         Caliper                       : 
TLFamily_CILD      .         Conductivity                  : 
TLFamily_COLL      .         Net Reservoir Flag            : 
TLFamily_CSAT      .         Fluid Code                    : 
TLFamily_DEPT      .         Measured Depth                : 
TLFamily_GR        .         Russian Gamma Ray             : 
TLFamily_GZ1       .         Gradient 045                  : 
TLFamily_GZ2       .         Gradient 105                  : 
TLFamily_GZ3       .         Gradient 225                  : 
TLFamily_GZ4       .         Gradient 425                  : 
TLFamily_GZ5       .         Gradient 850                  : 
TLFamily_LLS       .         Lateral Log Resistivity       : 
TLFamily_MINV      .         Micro Gradient Resistivity    : 
TLFamily_MNOR      .         Micro Resistivity             : 
TLFamily_NGLD      .         Neutron Gamma                 : 
TLFamily_PHIE      .         Effective Porosity            : 
TLFamily_PHIEN     .         Effective Porosity            : 
TLFamily_PHIT      .         Porosity                      : 
TLFamily_PRMB      .         Permeability                  : 
TLFamily_PRMB_DGR  .         Permeability                  : 
TLFamily_RT        .         Formation Resistivity         : 
TLFamily_SOIL_ARCHIE .         Oil Saturation                : 
TLFamily_SOIL_DW   .         Oil Saturation                : 
TLFamily_SP        .         Spontaneous Potential         : 
TLFamily_VSH_FIN   .         Shale Volume                  : 
TLFamily_VSH_GR    .         Shale Volume                  : 
TLFamily_VSH_SP    .         Shale Volume                  : 
~Curve Information
#_______________________________________________________________________________
#
#LOGNAME           .UNIT     LOG_ID                        : DESCRIPTION
#_______________________________________________________________________________
DEPT               .M                                      : Колонка глубины 
CALI               .м                                      : Каверномер 
CILD               .мСм/м                                  : Индукционный каротаж 
COLL               .unitless                               : Описание 
CSAT               .unitless                               : Описание 
GR                 .uR/h                                   : Гамма каротаж 
GZ1                .Ohmm                                   : Градиент-зонд  длиной 0.45м 
GZ2                .Ohmm                                   : Градиент-зонд  длиной 1.05м 
GZ3                .Ohmm                                   : Градиент-зонд  длиной 2.25м 
GZ4                .Ohmm                                   : Градиент-зонд  длиной 4.5м 
GZ5                .Ohmm                                   : Градиент-зонд  длиной 8.5м 
LLS                .Ohmm                                   : Боковой каротаж 
MINV               .Ohmm                                   : Микро-градиент зонд 
MNOR               .Ohmm                                   : Микро-потенциал зонд 
NGLD               .у.е.                                   : Показания зонда НГК-60 аппаратуры ДРСТ-3-90 
PHIE               .v/v                                    : Описание 
PHIEN              .v/v                                    :  
PHIT               .v/v                                    : Описание 
PRMB               .mD                                     :  
PRMB_DGR           .mD                                     :  
RT                 .ohmm                                   : УЭС пласта 
SOIL_ARCHIE        .v/v                                    :  
SOIL_DW            .v/v                                    :  
SP                 .мВ                                     : Потенциал самополяризации 
VSH_FIN            .v/v                                    : Описание 
VSH_GR             .v/v                                    : Shale volume 
VSH_SP             .v/v                                    : Shale Volume 
~Ascii
# ...
1031.8     0.259      368.5      -9999      -9999      9.404      1.906      2.617      2.097      1.825      1.694      2.345      1.136      1.405      1.44       0.1602879  0.1602879  0.3528     2.606627   1.70664    2.457      0.2775544  0.5401201  67.824     0.5833699  0.5215824  0.6451574 
1032       0.255      366.4      -9999      -9999      9.175      1.901      2.592      2.105      1.866      1.735      2.323      1.093      1.366      1.481      0.1529488  0.1529488  0.33722    1.906078   2.168688   2.448      0.2461568  0.5176811  67.824     0.5583977  0.4729701  0.6438254 
1032.2     0.252      367.8      -9999      -9999      9.231      1.845      2.806      2.113      1.815      1.735      2.414      1.026      1.457      1.493      0.1467185  0.1467185  0.33266    1.461307   2.045274   2.455      0.2193985  0.5066305  67.824     0.5634589  0.4844222  0.6424957 
1032.4     0.252      369.2      -9999      -9999      9.45       1.84       2.821      2.174      1.83       1.75       2.382      1.123      1.5        1.451      0.1550582  0.1550582  0.34862    2.085507   1.626447   2.461      0.2569456  0.5312673  67.824     0.586551   0.5319341  0.6411679 
1032.6     0.252      370.5      -9999      -9999      9.491      1.968      2.735      2.195      1.891      1.75       2.396      1.228      1.517      1.425      0.1613952  0.1613952  0.3585     2.732684   1.558152   2.476      0.2844646  0.5476226  68.131     0.5972872  0.5413338  0.6532407 
1032.8     0.258      367.2      -9999      -9999      9.44       2.095      2.699      2.144      1.891      1.75       2.306      1.418      1.617      1.454      0.1512253  0.1512253  0.34748    1.770999   1.643554   2.466      0.2412926  0.5263832  68.309     0.5947111  0.5296663  0.6597558 
1033       0.263      357.2      -9999      -9999      9.389      1.932      2.643      2.092      1.84       1.75       2.22       1.456      1.369      1.452      0.1525855  0.1525855  0.34824    1.876775   1.733635   2.457      0.2458937  0.5277424  68.514     0.5928923  0.5182505  0.6675342 
1033.2     0.251      356.2      -9999      -9999      9.465      1.876      2.737      2.092      1.84       1.771      2.364      1.123      1.346      1.468      0.1439096  0.1439096  0.34216    1.296322   1.60112    2.448      0.2050805  0.5111158  68.514     0.6007587  0.535354   0.6661636 
1033.4     0.248      365.6      -9999      -9999      9.409      1.932      2.832      2.21       1.861      1.781      2.64       1.072      1.346      1.496      0.1352072  0.1352072  0.33152    0.8943813  1.697735   2.47       0.1642161  0.4919732  68.565     0.5948873  0.5226978  0.6670768 
1033.6     0.247      366.7      -9999      -9999      9.032      2.065      2.893      2.254      1.881      1.791      2.754      1.1        1.517      1.514      0.1410465  0.1410465  0.32468    1.147311   2.518692   2.539      0.2047824  0.5001274  68.616     0.5564651  0.4449395  0.6679909 
1033.8     0.251      385.3      -9999      -9999      8.864      2.147      2.913      2.297      1.902      1.791      2.853      1.413      1.848      1.484      0.156242   0.156242   0.33608    2.193504   3.002702   2.546      0.2735199  0.5298426  68.82      0.5449638  0.4141236  0.675804  
1034       0.255      397.1      -9999      -9999      9.175      2.167      2.934      2.318      1.938      1.725      2.663      1.725      1.771      1.507      0.1404741  0.1404741  0.32734    1.119642   2.168688   2.481      0.19326    0.4961486  68.488     0.5662603  0.4729701  0.6595506 
1034.2     0.262      403.7      -9999      -9999      9.582      2.162      2.934      2.236      1.861      1.74       2.385      1.32       1.54       1.394      0.1733975  0.1733975  0.37028    4.559323   1.416643   2.473      0.3274165  0.5682036  67.85      0.5966136  0.562794   0.6304332 
1034.4     0.256      403.7      -9999      -9999      9.817      1.942      2.908      2.159      1.779      1.74       2.173      1.241      1.41       1.28       0.2071259  0.2071259  0.4136     19.21464   1.107844   2.354      0.4103878  0.6137924  67.85      0.6256791  0.6222315  0.6291267 
1034.6     0.254      399.6      -9999      -9999      9.975      1.835      2.806      2.108      1.727      1.638      2.109      1.19       1.4        1.316      0.1864916  0.1864916  0.39992    7.969559   0.9390417  2.284      0.3447416  0.5833312  67.85      0.6467528  0.6656834  0.6278222 
1034.8     0.263      391.9      -9999      -9999      10.163     1.794      2.617      2.056      1.727      1.638      2.033      1.274      1.292      1.356      0.1610656  0.1610656  0.38472    2.694535   0.7713647  2.247      0.2497902  0.5453977  68.028     0.6777406  0.7213562  0.6341252 
1035       0.263      388.9      -9999      -9999      10.265     1.753      2.48       2.005      1.676      1.638      2.069      1.036      1.216      1.377      0.1465424  0.1465424  0.37674    1.450373   0.6932853  2.247      0.1854343  0.5231672  68.233     0.6975684  0.7534859  0.6416509 
1035.2     0.256      384.5      -9999      -9999      10.071     1.773      2.469      2.026      1.663      1.638      2.2        1.047      1.291      1.357      0.1620453  0.1620453  0.38434    2.809511   0.8493049  2.27       0.2573     0.5484334  68.539     0.6736202  0.6935533  0.6536872 
1035.4     0.256      378.9      -9999      -9999      9.119      1.773      2.48       2.064      1.65       1.653      2.27       1.082      1.379      1.415      0.1770682  0.1770682  0.3623     5.332008   2.299549   2.314      0.318657   0.5511392  68.731     0.5613085  0.4617887  0.6608282 
1035.6     0.257      373.3      -9999      -9999      8.717      1.773      2.49       2.103      1.65       1.694      2.382      1.177      1.477      1.442      0.1776509  0.1776509  0.35204    5.466167   3.501933   2.332      0.3230696  0.5454621  68.922     0.5284519  0.3889154  0.6679885 
1035.8     0.244      369.2      -9999      -9999      8.793      1.835      2.464      2.123      1.65       1.735      2.382      1.162      1.528      1.475      0.1609322  0.1609322  0.3395     2.679247   3.234253   2.359      0.266191   0.5200317  69.229     0.5411145  0.4017505  0.6804786 
1036       0.239      365.1      -9999      -9999      8.946      1.922      2.485      2.144      1.712      1.73       2.334      1.088      1.395      1.509      0.1422255  0.1422255  0.32658    1.206476   2.755829   2.394      0.188438   0.4886799  69.433     0.5586502  0.4288885  0.688412  
1036.2     0.239      359.8      -9999      -9999      8.701      1.942      2.612      2.144      1.748      1.694      2.442      1.024      1.43       1.418      0.1859876  0.1859876  0.36116    7.800083   3.561049   2.43       0.3620183  0.5693517  69.178     0.5308256  0.386266   0.6753851 
1036.4     0.239      354.4      -9999      -9999      8.941      1.963      2.702      2.144      1.748      1.714      2.446      1.226      1.574      1.399      0.1865542  0.1865542  0.36838    7.99088    2.770284   2.457      0.3669972  0.5773929  69.178     0.5509872  0.4279733  0.674001  
1036.6     0.238      350.1      -9999      -9999      9.02       2.009      2.791      2.113      1.702      1.714      2.487      1.4        1.615      1.417      0.1775181  0.1775181  0.36154    5.435302   2.550513   2.484      0.3424055  0.5666298  69.178     0.5576421  0.4426644  0.6726197 
1036.8     0.238      350.1      -9999      -9999      9.099      1.978      2.842      2.087      1.753      1.663      2.593      1.558      1.699      1.467      0.1573703  0.1573703  0.34254    2.301638   2.348177   2.521      0.2747076  0.5343521  69.025     0.5611205  0.4578597  0.6643813 
1037       0.239      353.9      -9999      -9999      9.139      2.039      2.929      2.087      1.758      1.638      2.71       1.671      1.778      1.505      0.1418534  0.1418534  0.3281     1.187483   2.251932   2.559      0.2116317  0.506401   69.025     0.5643836  0.4657513  0.663016  
