~Version
 VERS              .         2.0                           : CWLS LOG ASCII STANDARD - VERSION 2.0
 WRAP              .         NO                            : ONE LINE PER DEPTH STEP
 DLM               .         SPACE                         : DELIMITING CHARACTER(SPACE TAB OR COMMA)
~Well Information
#_______________________________________________________________________________
#
#PARAMETER_NAME    .UNIT     VALUE                         : DESCRIPTION
#_______________________________________________________________________________
STRT               .M        832                           : First reference value
STOP               .M        1164                          : Last reference value
STEP               .M        0.2                           : Step increment
NULL               .         -9999                         : Missing value
COMP               .                                       : Company
WELL               .         4719                          : Well name
FLD                .         УЗЕНЬ                         : Field
LOC                .                                       : Location
CNTY               .                                       : County
STAT               .                                       : State
CTRY               .                                       : Country
SRVC               .                                       : Service Company
DATE               .                                       : Date
UWI                .                                       : Unique Well ID
Block              .         7                             : 
Category           .         Нефтяная                      : 
Condition          .         В работе                      : 
Date               .         24.09.1990                    : 
EREF               .m        84                            : 100.8
Gorizont           .         15                            : 14
Interpretator      .         Ткачева И.Г.                  : 
Kupol              .         Основной                      : osnovnoi
Mud                .         0                             : 
Mud_density        .         0                             : 
Mud_resistivity    .         0                             : 
NGDU               .         НГДУ-2                        : 
ORIGINALWELLNAME   .         4719                          : 
Spud_date          .         1990                          : 1961
Uslovie            .         15                            : 
Viscosity          .         0                             : 
X                  .m        42234.2                       : 46154
Y                  .m        83713.33                      : 85761.93
YEAR               .         2019                          : 
~Parameter Information Block
#_______________________________________________________________________________
#
#PARAMETER_NAME    .UNIT     VALUE                         : DESCRIPTION
#_______________________________________________________________________________
SET                .         LQC_KAZNIPI_Petrel            : 
TLFamily_CALI      .         Caliper                       : 
TLFamily_CILD      .         Conductivity                  : 
TLFamily_COLL      .         Net Reservoir Flag            : 
TLFamily_CSAT      .         Fluid Code                    : 
TLFamily_DEPT      .         Measured Depth                : 
TLFamily_GR        .         Russian Gamma Ray             : 
TLFamily_GZ1       .         Gradient 045                  : 
TLFamily_GZ2       .         Gradient 105                  : 
TLFamily_GZ3       .         Gradient 225                  : 
TLFamily_GZ4       .         Gradient 425                  : 
TLFamily_GZ5       .         Gradient 850                  : 
TLFamily_LLS       .         Lateral Log Resistivity       : 
TLFamily_MINV      .         Micro Gradient Resistivity    : 
TLFamily_MNOR      .         Micro Resistivity             : 
TLFamily_NGLD      .         Neutron Gamma                 : 
TLFamily_PHIE      .         Effective Porosity            : 
TLFamily_PHIEN     .         Effective Porosity            : 
TLFamily_PHIT      .         Porosity                      : 
TLFamily_PRMB      .         Permeability                  : 
TLFamily_PRMB_DGR  .         Permeability                  : 
TLFamily_RT        .         Formation Resistivity         : 
TLFamily_SOIL_ARCHIE .         Oil Saturation                : 
TLFamily_SOIL_DW   .         Oil Saturation                : 
TLFamily_SP        .         Spontaneous Potential         : 
TLFamily_VSH_FIN   .         Shale Volume                  : 
TLFamily_VSH_GR    .         Shale Volume                  : 
TLFamily_VSH_SP    .         Shale Volume                  : 
~Curve Information
#_______________________________________________________________________________
#
#LOGNAME           .UNIT     LOG_ID                        : DESCRIPTION
#_______________________________________________________________________________
DEPT               .M                                      : Колонка глубины 
CALI               .м                                      : Каверномер 
CILD               .мСм/м                                  : Индукционный каротаж 
COLL               .unitless                               : Описание 
CSAT               .unitless                               : Описание 
GR                 .uR/h                                   : Гамма каротаж 
GZ1                .Ohmm                                   : Градиент-зонд  длиной 0.45м 
GZ2                .Ohmm                                   : Градиент-зонд  длиной 1.05м 
GZ3                .Ohmm                                   : Градиент-зонд  длиной 2.25м 
GZ4                .Ohmm                                   : Градиент-зонд  длиной 4.5м 
GZ5                .Ohmm                                   : Градиент-зонд  длиной 8.5м 
LLS                .Ohmm                                   : Боковой каротаж 
MINV               .Ohmm                                   : Микро-градиент зонд 
MNOR               .Ohmm                                   : Микро-потенциал зонд 
NGLD               .у.е.                                   : Показания зонда НГК-60 аппаратуры ДРСТ-3-90 
PHIE               .v/v                                    : Описание 
PHIEN              .v/v                                    :  
PHIT               .v/v                                    : Описание 
PRMB               .mD                                     :  
PRMB_DGR           .mD                                     :  
RT                 .ohmm                                   : УЭС пласта 
SOIL_ARCHIE        .v/v                                    :  
SOIL_DW            .v/v                                    :  
SP                 .мВ                                     : Потенциал самополяризации 
VSH_FIN            .v/v                                    : Описание 
VSH_GR             .v/v                                    : Shale volume 
VSH_SP             .v/v                                    : Shale Volume 
~Ascii
# ...
940        0.216      261.5      -9999      -9999      5.259      -9999      -9999      3.638      -9999      -9999      4.765      2.234      2.385      1.723      0.1008493  0.1008493  0.24526    0.2066009  21.85465   3.819      0.1206128  0.4493915  72.311     0.437608   0.1841339  0.6910822 
940.2000000000001 0.213      264.5      -9999      -9999      5.596      -9999      -9999      3.807      -9999      -9999      4.036      2.357      2.597      1.527      0.1663255  0.1663255  0.31974    3.372176   13.56277   3.779      0.4284157  0.6114524  72.643     0.4648924  0.2237374  0.7060474 
940.4      0.229      262.5      -9999      -9999      5.794      -9999      -9999      3.986      -9999      -9999      3.459      1.787      2.359      1.499      0.1699681  0.1699681  0.33038    3.938947   10.24739   3.469      0.416112   0.6058367  72.976     0.4860966  0.250869   0.7213242 
940.6      0.246      266.6      -9999      -9999      6.181      -9999      -9999      3.833      -9999      -9999      2.791      1.633      1.886      1.477      0.1676296  0.1676296  0.33874    3.565037   5.924839   3.429      0.4057987  0.6075003  73.027     0.5185165  0.313765   0.7232679 
940.8      0.246      269.4      -9999      -9999      6.304      -9999      -9999      3.449      -9999      -9999      3.035      1.784      1.478      1.526      0.1448731  0.1448731  0.32012    1.350699   4.977983   3.455      0.3276734  0.5719682  73.078     0.5310513  0.3368868  0.7252159 
941        0.246      253        -9999      -9999      6.579      -9999      -9999      3.296      -9999      -9999      2.904      1.373      1.654      1.552      0.1294847  0.1294847  0.31024    0.7006942  3.372695   3.402      0.2531962  0.5413253  72.567     0.5477433  0.3949331  0.7005536 
941.2000000000001 0.229      243.6      -9999      -9999      5.932      -9999      -9999      3.464      -9999      -9999      2.828      1.511      1.829      1.575      0.1426264  0.1426264  0.3015     1.227285   8.428836   3.367      0.3101573  0.5472637  72.375     0.481435   0.2717017  0.6911684 
941.4      0.226      247.4      -9999      -9999      5.932      -9999      -9999      3.7        -9999      -9999      3.002      1.562      1.72       1.586      0.1399779  0.1399779  0.29732    1.096197   8.428836   3.585      0.3191453  0.5542688  72.183     0.4767942  0.2717017  0.6818868 
941.6      0.225      254.8      -9999      -9999      5.56       -9999      -9999      4.063      -9999      -9999      3.555      1.327      1.736      1.601      0.1440793  0.1440793  0.29162    1.305738   14.27191   3.723      0.3477213  0.5621816  72.043     0.4470931  0.2191294  0.6750568 
941.8      0.223      262.2      -9999      -9999      5.718      -9999      -9999      4.304      -9999      -9999      4.211      1.488      2.087      1.617      0.1356664  0.1356664  0.28554    0.912071   11.41142   3.666      0.3076353  0.5426248  71.902     0.4541625  0.2400861  0.6682389 
942        0.229      250        -9999      -9999      5.937      -9999      -9999      4.406      -9999      -9999      4.988      1.457      2.449      1.528      0.1626916  0.1626916  0.31936    2.888028   8.369388   3.56       0.4007576  0.5959488  72.107     0.4747527  0.2724881  0.6770173 
942.2000000000001 0.23       244.5      -9999      -9999      6.314      -9999      -9999      4.467      -9999      -9999      2.934      2.72       3.025      1.439      0.1815734  0.1815734  0.35318    6.461558   4.908006   3.459      0.4480053  0.6306519  72.643     0.5200201  0.3388399  0.7012003 
942.4      0.224      239        -9999      -9999      6.472      -9999      -9999      3.551      -9999      -9999      3.093      1.725      1.756      1.591      0.1155596  0.1155596  0.29542    0.3869035  3.924308   3.628      0.1999183  0.5224116  73.027     0.5450315  0.3712453  0.7188177 
942.6      0.226      241.6      -9999      -9999      5.764      -9999      -9999      3.388      -9999      -9999      3.413      1.812      1.934      1.604      0.1282353  0.1282353  0.29048    0.6643354  10.69198   3.71       0.276879   0.5405443  73.41      0.4916506  0.2465559  0.7367452 
942.8      0.228      246.9      -9999      -9999      5.448      -9999      -9999      3.464      -9999      -9999      4.132      1.587      2.238      1.62       0.1283156  0.1283156  0.2844     0.6666124  16.72408   3.795      0.2849147  0.5397705  73.499     0.4729832  0.2053916  0.7405748 
943        0.226      254.3      -9999      -9999      5.163      -9999      -9999      3.623      -9999      -9999      3.625      1.799      2.131      1.68       0.1100206  0.1100206  0.2616     0.3054967  25.0361    3.754      0.1782195  0.4836253  73.589     0.4593316  0.1741938  0.7444693 
943.2000000000001 0.228      265.3      -9999      -9999      5.101      -9999      -9999      3.715      -9999      -9999      4.274      1.84       2.404      1.74       0.09458247 0.09458247 0.2388     0.1581448  27.33292   3.674      0.05303152 0.4155244  72.797     0.4370228  0.1680612  0.7059844 
943.4      0.233      265.3      -9999      -9999      5.101      -9999      -9999      3.823      -9999      -9999      3.879      1.782      2.541      1.748      0.09552277 0.09552277 0.23576    0.1646158  27.33292   3.567      0.04804334 0.4041123  72.286     0.4249613  0.1680612  0.6818613 
943.6      0.232      278.3      -9999      -9999      5.229      -9999      -9999      3.771      -9999      -9999      3.583      2.408      2.551      1.644      0.1339504  0.1339504  0.27528    0.8477054  22.80281   3.419      0.2766221  0.5131843  72.158     0.4282714  0.1809682  0.6755746 
943.8      0.232      295.7      -9999      -9999      5.417      -9999      -9999      3.618      -9999      -9999      3.723      1.623      1.873      1.705      0.1083719  0.1083719  0.2521     0.2847526  17.47438   3.419      0.1300046  0.4430501  72.03      0.4355398  0.2017437  0.6693358 
944        0.233      302.6      -9999      -9999      5.58       -9999      -9999      3.505      -9999      -9999      3.176      1.544      1.702      1.586      0.1496218  0.1496218  0.29732    1.653928   13.87348   3.259      0.3281336  0.5442529  72.132     0.4475704  0.2216776  0.6734632 
944.2000000000001 0.233      306.7      -9999      -9999      5.59       -9999      -9999      3.644      -9999      -9999      3.315      1.742      1.62       1.519      0.1741778  0.1741778  0.32278    4.713607   13.67846   3.067      0.3944129  0.5788227  72.235     0.4503096  0.2229627  0.6776565 
944.4      0.228      315.3      -9999      -9999      5.743      -9999      -9999      3.72       -9999      -9999      3.631      1.94       1.924      1.491      0.1782065  0.1782065  0.33342    5.597241   11.01461   2.997      0.3998874  0.585985   72.669     0.470344   0.243581   0.697107  
944.6      0.238      307.2      -9999      -9999      5.942      -9999      -9999      3.869      -9999      -9999      2.986      1.757      2.062      1.493      0.1706591  0.1706591  0.33266    4.056747   8.310354   2.957      0.3728956  0.5755372  72.924     0.4909119  0.2732768  0.708547  
944.8      0.247      302.8      -9999      -9999      6.248      -9999      -9999      3.352      -9999      -9999      2.431      2.173      2.225      1.433      0.1828134  0.1828134  0.35546    6.812494   5.388693   2.877      0.4017172  0.5976683  73.18      0.5231715  0.3261558  0.7201872 
945        0.248      298.5      -9999      -9999      6.462      -9999      -9999      3.219      -9999      -9999      2.371      1.245      1.175      1.373      0.1975345  0.1975345  0.37826    12.76367   3.98026    2.953      0.447543   0.6290191  73.316     0.5476531  0.3691053  0.7262009 
945.2000000000001 0.237      299.8      -9999      -9999      6.003      -9999      -9999      3.111      -9999      -9999      2.71       0.9        1.413      1.449      0.1818408  0.1818408  0.34938    6.535675   7.622814   2.995      0.4101624  0.6006594  73.453     0.5076946  0.2830851  0.7323041 
