~Version
 VERS              .         2.0                           : CWLS LOG ASCII STANDARD - VERSION 2.0
 WRAP              .         NO                            : ONE LINE PER DEPTH STEP
 DLM               .         SPACE                         : DELIMITING CHARACTER(SPACE TAB OR COMMA)
~Well Information
#_______________________________________________________________________________
#
#PARAMETER_NAME    .UNIT     VALUE                         : DESCRIPTION
#_______________________________________________________________________________
STRT               .M        832                           : First reference value
STOP               .M        1164                          : Last reference value
STEP               .M        0.2                           : Step increment
NULL               .         -9999                         : Missing value
COMP               .                                       : Company
WELL               .         4719                          : Well name
FLD                .         УЗЕНЬ                         : Field
LOC                .                                       : Location
CNTY               .                                       : County
STAT               .                                       : State
CTRY               .                                       : Country
SRVC               .                                       : Service Company
DATE               .                                       : Date
UWI                .                                       : Unique Well ID
Block              .         7                             : 
Category           .         Нефтяная                      : 
Condition          .         В работе                      : 
Date               .         24.09.1990                    : 
EREF               .m        84                            : 100.8
Gorizont           .         15                            : 14
Interpretator      .         Ткачева И.Г.                  : 
Kupol              .         Основной                      : osnovnoi
Mud                .         0                             : 
Mud_density        .         0                             : 
Mud_resistivity    .         0                             : 
NGDU               .         НГДУ-2                        : 
ORIGINALWELLNAME   .         4719                          : 
Spud_date          .         1990                          : 1961
Uslovie            .         15                            : 
Viscosity          .         0                             : 
X                  .m        42234.2                       : 46154
Y                  .m        83713.33                      : 85761.93
YEAR               .         2019                          : 
~Parameter Information Block
#_______________________________________________________________________________
#
#PARAMETER_NAME    .UNIT     VALUE                         : DESCRIPTION
#_______________________________________________________________________________
SET                .         LQC_KAZNIPI_Petrel            : 
TLFamily_CALI      .         Caliper                       : 
TLFamily_CILD      .         Conductivity                  : 
TLFamily_COLL      .         Net Reservoir Flag            : 
TLFamily_CSAT      .         Fluid Code                    : 
TLFamily_DEPT      .         Measured Depth                : 
TLFamily_GR        .         Russian Gamma Ray             : 
TLFamily_GZ1       .         Gradient 045                  : 
TLFamily_GZ2       .         Gradient 105                  : 
TLFamily_GZ3       .         Gradient 225                  : 
TLFamily_GZ4       .         Gradient 425                  : 
TLFamily_GZ5       .         Gradient 850                  : 
TLFamily_LLS       .         Lateral Log Resistivity       : 
TLFamily_MINV      .         Micro Gradient Resistivity    : 
TLFamily_MNOR      .         Micro Resistivity             : 
TLFamily_NGLD      .         Neutron Gamma                 : 
TLFamily_PHIE      .         Effective Porosity            : 
TLFamily_PHIEN     .         Effective Porosity            : 
TLFamily_PHIT      .         Porosity                      : 
TLFamily_PRMB      .         Permeability                  : 
TLFamily_PRMB_DGR  .         Permeability                  : 
TLFamily_RT        .         Formation Resistivity         : 
TLFamily_SOIL_ARCHIE .         Oil Saturation                : 
TLFamily_SOIL_DW   .         Oil Saturation                : 
TLFamily_SP        .         Spontaneous Potential         : 
TLFamily_VSH_FIN   .         Shale Volume                  : 
TLFamily_VSH_GR    .         Shale Volume                  : 
TLFamily_VSH_SP    .         Shale Volume                  : 
~Curve Information
#_______________________________________________________________________________
#
#LOGNAME           .UNIT     LOG_ID                        : DESCRIPTION
#_______________________________________________________________________________
DEPT               .M                                      : Колонка глубины 
CALI               .м                                      : Каверномер 
CILD               .мСм/м                                  : Индукционный каротаж 
COLL               .unitless                               : Описание 
CSAT               .unitless                               : Описание 
GR                 .uR/h                                   : Гамма каротаж 
GZ1                .Ohmm                                   : Градиент-зонд  длиной 0.45м 
GZ2                .Ohmm                                   : Градиент-зонд  длиной 1.05м 
GZ3                .Ohmm                                   : Градиент-зонд  длиной 2.25м 
GZ4                .Ohmm                                   : Градиент-зонд  длиной 4.5м 
GZ5                .Ohmm                                   : Градиент-зонд  длиной 8.5м 
LLS                .Ohmm                                   : Боковой каротаж 
MINV               .Ohmm                                   : Микро-градиент зонд 
MNOR               .Ohmm                                   : Микро-потенциал зонд 
NGLD               .у.е.                                   : Показания зонда НГК-60 аппаратуры ДРСТ-3-90 
PHIE               .v/v                                    : Описание 
PHIEN              .v/v                                    :  
PHIT               .v/v                                    : Описание 
PRMB               .mD                                     :  
PRMB_DGR           .mD                                     :  
RT                 .ohmm                                   : УЭС пласта 
SOIL_ARCHIE        .v/v                                    :  
SOIL_DW            .v/v                                    :  
SP                 .мВ                                     : Потенциал самополяризации 
VSH_FIN            .v/v                                    : Описание 
VSH_GR             .v/v                                    : Shale volume 
VSH_SP             .v/v                                    : Shale Volume 
~Ascii
# ...
1118.2     -9999      207.8      1          2          6.76       3.189      6.633      5.437      4.411      4.627      3.71       1.107      1.782      1.648      0.2281855  0.2281855  0.27376    47.17452   37.64068   4.348      0.5936605  0.6507254  36.531     0.1381045  0.1474758  0.1287331 
1118.4     -9999      210.4      1          2          7.051      3.507      6.295      5.201      4.818      4.691      3.894      1.128      1.883      1.697      0.205381   0.205381   0.25514    17.83664   26.03661   4.357      0.5550673  0.6200703  36.939     0.1507847  0.1714288  0.1301406 
1118.6     -9999      211.7      1          2          7.072      3.891      6.187      5.304      4.869      4.756      4.912      1.148      1.975      1.746      0.1863026  0.1863026  0.23652    7.905604   25.3532    4.365      0.5160531  0.5867797  37.169     0.1521737  0.1733008  0.1310466 
1118.8     -9999      211.7      1          2          7.276      3.968      6.074      5.319      4.919      4.82       5.126      1.189      2.006      1.742      0.1844845  0.1844845  0.23804    7.315749   19.58019   4.311      0.5090422  0.5840369  37.399     0.1622894  0.1925849  0.1319938 
1119       -9999      193.8      1          2          7.562      3.916      5.782      4.741      4.986      4.983      5.186      1.228      1.991      1.74       0.1799057  0.1799057  0.2388     6.017931   13.62996   4.285      0.4967503  0.579155   37.807     0.1784677  0.2232864  0.1336491 
1119.2     -9999      185.8      1          2          7.133      3.804      5.618      4.5        4.456      4.693      4.707      1.228      2.004      1.747      0.184484   0.184484   0.23614    7.315605   23.46811   4.285      0.5076454  0.5808293  37.909     0.1565332  0.1788554  0.1342109 
1119.4     -9999      174.6      1          2          7.363      3.609      5.793      4.398      4.278      4.856      4.465      1.215      2.06       1.749      0.1802224  0.1802224  0.23538    6.09977    17.5372    4.68       0.5178881  0.5942056  37.501     0.1671444  0.2014484  0.1328405 
1119.6     -9999      164.9      1          2          7.332      3.451      5.859      4.372      4.319      5.619      4.361      1.327      2.08       1.69       0.2032591  0.2032591  0.2578     16.29332   18.23949   4.882      0.5743661  0.6416683  37.309     0.1652754  0.1982443  0.1323065 
1119.8     -9999      157.7      1          2          7.189      3.348      5.834      4.341      4.95       6.383      4.297      1.46       2.052      1.717      0.1954165  0.1954165  0.24754    11.66126   21.86119   5.195      0.5721856  0.6384251  37.118     0.15795    0.1841114  0.1317886 
1120       -9999      151.8      1          2          7.414      3.44       5.931      4.459      5.581      7.146      4.504      1.463      2.111      1.702      0.1975574  0.1975574  0.25324    12.77617   16.44016   5.5        0.5874212  0.6547882  36.735     0.1687351  0.2068327  0.1306375 
1120.2     -9999      144.9      1          2          7.394      3.931      6.707      5.596      6.212      7.909      5.277      1.34       2.321      1.679      0.2066242  0.2066242  0.26198    18.80789   16.86194   5.625      0.6073967  0.6715447  36.735     0.1677448  0.2047043  0.1307853 
1120.4     -9999      142.9      1          2          6.658      4.421      7.484      6.732      6.842      8.673      6.869      1.458      2.531      1.65       0.2280792  0.2280792  0.273      46.96118   42.83174   5.752      0.6435193  0.6957827  37.143     0.1361235  0.1398975  0.1323496 
1120.6     -9999      153.1      1          2          6.724      4.912      8.26       6.983      7.473      7.78       8.226      1.575      2.741      1.634      0.2332779  0.2332779  0.27908    58.61797   39.39676   5.975      0.6566323  0.7080796  37.232     0.1387943  0.1447553  0.1328333 
1120.8     -9999      166.7      1          2          6.341      5.402      9.037      6.829      7.463      6.886      9.064      1.693      2.321      1.623      0.2416678  0.2416678  0.28326    83.83636   63.99419   6.26       0.6742396  0.7214409  37.322     0.1260369  0.1187427  0.1333311 
1121       -9999      188.7      1          2          6.438      5.893      9.813      6.328      7          5.993      9.348      1.294      2.073      1.615      0.2436723  0.2436723  0.2863     91.31868   56.59562   6.347      0.6786627  0.7260131  37.322     0.1291749  0.1248517  0.1334982 
1121.2     -9999      197.1      1          2          6.678      4.474      9.414      5.386      5.718      5.1        6.465      1.242      2.088      1.604      0.2451813  0.2451813  0.29048    97.38906   41.76034   5.924      0.6698723  0.7194914  37.194     0.1372689  0.1413521  0.1331857 
1121.4     -9999      205.5      1          2          6.918      4.065      8.801      5.002      5.454      4.973      5.317      1.223      1.853      1.616      0.2374479  0.2374479  0.28592    70.02774   30.81378   5.441      0.646705   0.7005854  37.296     0.1468849  0.1600331  0.1337367 
1121.6     -9999      215.5      1          2          7.107      3.922      8.188      4.756      4.512      4.642      4.064      1.253      1.927      1.647      0.2227296  0.2227296  0.27414    37.38101   24.25383   4.807      0.6040958  0.6646721  37.603     0.1557891  0.1764665  0.1351117 
1121.8     -9999      215.9      1          2          7.266      3.819      7.575      4.981      4.174      4.454      4.07       1.082      1.796      1.644      0.2210631  0.2210631  0.27528    34.81628   19.82978   4.602      0.5932636  0.6570224  38.011     0.1642937  0.1915914  0.136996  
1122       -9999      216.4      1          2          7.388      3.604      6.962      5.104      3.836      4.428      3.815      1.133      1.84       1.649      0.2168383  0.2168383  0.27338    29.07565   16.99057   4.414      0.5781946  0.6455206  38.33      0.1713384  0.20407    0.1386068 
1122.2     -9999      216.8      1          2          7.578      3.369      6.349      5.381      3.709      4.438      3.897      1.184      1.883      1.654      0.2111808  0.2111808  0.27148    22.84222   13.35651   4.209      0.5586289  0.6314524  38.649     0.1827249  0.2251418  0.140308  
1122.4     -9999      217        1          2          7.639      3.548      5.736      5.59       3.709      4.601      4.011      1.269      1.925      1.644      0.2128992  0.2128992  0.27528    24.57919   12.36341   4.201      0.5613418  0.6353099  39.645     0.1890327  0.232358   0.1457074 
1122.6     -9999      221.1      1          2          7.588      3.686      5.977      5.718      3.709      4.555      4.7        1.215      1.854      1.665      0.2056843  0.2056843  0.2673     18.06883   13.18841   4.191      0.5474645  0.6231778  39.849     0.1867143  0.2263092  0.1471195 
1122.8     -9999      223.7      1          2          7.629      3.932      6.079      5.406      3.683      4.454      4.923      1.184      1.784      1.703      0.1902029  0.1902029  0.25286    9.336337   12.521     4.184      0.5151674  0.5975272  40.053     0.1898702  0.2311594  0.148581  
1123       -9999      225        8          2          8.176      3.906      5.951      5.237      3.576      4.179      4.659      1.251      2.042      1.71       0.1750521  0.1750521  0.2502     4.892684   6.262478   4.18       0.4785839  0.5806624  40.028     0.2277209  0.306744   0.1486979 
1123.2     -9999      231.5      8          2          8.63       3.829      6.141      5.084      3.388      4.046      4.335      1.192      1.858      1.717      0.159202   0.159202   0.24754    2.488658   3.52379    4.102      0.4286229  0.5571735  39.773     0.2676909  0.3879285  0.1474533 
1123.4     -9999      238        8          2          8.932      3.829      6.218      4.771      3.429      4.021      4.524      1.286      1.999      1.716      0.1485182  0.1485182  0.24792    1.577887   2.403734   4.055      0.3896949  0.5424072  39.977     0.3012176  0.4535086  0.1489265 
