~Version
 VERS              .         2.0                           : CWLS LOG ASCII STANDARD - VERSION 2.0
 WRAP              .         YES                            : ONE LINE PER DEPTH STEP
 DLM               .         SPACE                         : DELIMITING CHARACTER(SPACE TAB OR COMMA)
~Well Information
#_______________________________________________________________________________
#
#PARAMETER_NAME    .UNIT     VALUE                         : DESCRIPTION
#_______________________________________________________________________________
STRT               .M        3.3                           : First reference value
STOP               .M        1269.1                        : Last reference value
STEP               .M        0.2                           : Step increment
NULL               .         -9999                         : Missing value
COMP               .                                       : Company
WELL               .         4766                          : Well name
FLD                .         Узень                         : Field
LOC                .                                       : Location
CNTY               .                                       : County
STAT               .                                       : State
CTRY               .                                       : Country
SRVC               .                                       : Service Company
DATE               .                                       : Date
UWI                .                                       : Unique Well ID
Block              .         7                             : 
Category           .         Нефтяная                      : 
Condition          .         В работе                      : 
Date               .         30.06.2012                    : 
EREF               .m        83.1                          : 100.8
GRP                .                                       : Group name
Gorizont           .         15                            : 14
ISS                .                                       : Well surveys
Interpretator      .         Торегалиев А.Е.               : 
Kupol              .         Основной                      : osnovnoi
Mud                .         0                             : 
Mud_density        .         0                             : 
Mud_resistivity    .         0                             : 
NGDU               .         НГДУ-2                        : 
ORIGINALWELLNAME   .         4766                          : 
Person             .         Almas                         : 
Spud_date          .         2012                          : 1961
TIME               .                                       : LOG TIME
Viscosity          .         0                             : 
X                  .m        43034.77                      : 46154
Y                  .m        83958.33                      : 85761.93
YEAR               .         2019                          : 
~Parameter Information Block
#_______________________________________________________________________________
#
#PARAMETER_NAME    .UNIT     VALUE                         : DESCRIPTION
#_______________________________________________________________________________
SET                .         LQC_KAZNIPI_Petrel            : 
TLFamily_CALI      .         Caliper                       : 
TLFamily_COLL      .         Net Reservoir Flag            : 
TLFamily_CSAT      .         Fluid Code                    : 
TLFamily_DEPT      .         Measured Depth                : 
TLFamily_DT        .         Compressional Slowness        : 
TLFamily_GR        .         Russian Gamma Ray             : 
TLFamily_GZ3       .         Gradient 225                  : 
TLFamily_IK1       .         Resistivity 05                : 
TLFamily_IK2       .         Resistivity 07                : 
TLFamily_IK3       .         Resistivity 10                : 
TLFamily_IK4       .         Resistivity 14                : 
TLFamily_IK5       .         Resistivity 20                : 
TLFamily_LLS       .         Lateral Log Resistivity       : 
TLFamily_MBK       .         Micro Lateral Log Resistivity : 
TLFamily_MINV      .         Micro Gradient Resistivity    : 
TLFamily_MNOR      .         Micro Resistivity             : 
TLFamily_NNKTb     .         Neutron Far                   : 
TLFamily_NNKTm     .         Neutron Near                  : 
TLFamily_NPHI      .         Neutron Porosity              : 
TLFamily_PHIE      .         Effective Porosity            : 
TLFamily_PHIED     .         Effective Porosity            : 
TLFamily_PHIEN     .         Effective Porosity            : 
TLFamily_PHIES     .         Effective Porosity            : 
TLFamily_PHIT      .         Porosity                      : 
TLFamily_PRMB      .         Permeability                  : 
TLFamily_PRMB_DGR  .         Permeability                  : 
TLFamily_RHOB      .         Bulk Density                  : 
TLFamily_RT        .         Formation Resistivity         : 
TLFamily_SOIL_ARCHIE .         Oil Saturation                : 
TLFamily_SOIL_DW   .         Oil Saturation                : 
TLFamily_SP        .         Spontaneous Potential         : 
TLFamily_VSH_FIN   .         Shale Volume                  : 
TLFamily_VSH_GR    .         Shale Volume                  : 
TLFamily_VSH_SP    .         Shale Volume                  : 
~Curve Information
#_______________________________________________________________________________
#
#LOGNAME           .UNIT     LOG_ID                        : DESCRIPTION
#_______________________________________________________________________________
DEPT               .M                                      : Колонка глубины 
CALI               .м                                      : Каверномер 
COLL               .unitless                               : Описание 
CSAT               .unitless                               : Описание 
DT                 .мкс/м                                  : Интервальное время пробега продольной волны 
GR                 .uR/h                                   : Гамма каротаж 
GZ3                .Ohmm                                   : Градиент-зонд  длиной 2.25м 
IK1                .Ohmm                                   : И0.10И0.40 
IK2                .Ohmm                                   : И0.14И0.56 
IK3                .Ohmm                                   : И0.20И0.8 
IK4                .Ohmm                                   : И0.28И1.12 
IK5                .Ohmm                                   : И0.40И1.60 
LLS                .Ohmm                                   : Боковой каротаж 
MBK                .Ohmm                                   : Микробоковой каротаж 
MINV               .Ohmm                                   : Микро-градиент зонд 
MNOR               .Ohmm                                   : Микро-потенциал зонд 
NNKTb              .у.е.                                   : Показания большого зонда 2ННКт аппаратуры СРК 
NNKTm              .у.е.                                   : Показания малого зонда 2ННКт аппаратуры СРК 
NPHI               .v/v                                    : Total porosity 
PHIE               .v/v                                    : Описание 
PHIED              .v/v                                    :  
PHIEN              .v/v                                    :  
PHIES              .v/v                                    :  
PHIT               .v/v                                    : Описание 
PRMB               .mD                                     :  
PRMB_DGR           .mD                                     :  
RHOB               .G/C3                                   : Плотность по ГГК-П 
RT                 .ohmm                                   : Description 
SOIL_ARCHIE        .v/v                                    :  
SOIL_DW            .v/v                                    :  
SP                 .мВ                                     : Потенциал самополяризации 
VSH_FIN            .v/v                                    : Описание 
VSH_GR             .v/v                                    : Shale volume 
VSH_SP             .v/v                                    : Shale Volume 
~Ascii
# ...
1145.7     
  0.212      1          2          319.627    6.833326   8.93       
  5.263599   4.584      5.9064     7.962      9.3412     8.3        
  5.47       4.05       4.26       2.41       1.7        0.2796373  
  0.2361736  0.2586827  0.2171365  0.2327015  0.2768009  66.32326   
  13.05244   2.238      9.3412     0.7283925  0.7700327  293.7      
  0.1893962  0.2272689  0.1515236 
1145.9     
  0.211      1          2          317.117    6.98206    9.98       
  4.7339     4.5447     5.9843     8.074      9.6843     7.41       
  5.26       3.99       4.21       2.6        1.67       0.2606373  
  0.224795   0.2526947  0.1948984  0.226792   0.2675273  40.82323   
  10.59332   2.248      9.6843     0.7212161  0.7647831  293.9      
  0.1992089  0.2474909  0.1509269 
1146.1     
  0.213      1          2          315.56     7.093937   11.04      
  4.8276     5.1141     6.705699   8.893699   10.3401    7.6        
  5.15       3.93       4.18       2.29       1.65       0.2356373  
  0.2084008  0.2347305  0.1676223  0.2228495  0.2526126  20.2883    
  9.053969   2.278      10.3401    0.7112264  0.7570327  294.8      
  0.2061062  0.263879   0.1483334 
1146.3     
  0.212      1          2          330.156    7.172774   11.9       
  5.5157     5.873      7.6509     9.8608     11.2175    9.39       
  5.42       3.89       4.18       2.34       1.66       0.2926373  
  0.249      0.2874251  0.2226099  0.2369649  0.2945198  114.615    
  8.105591   2.19       11.2175    0.7619686  0.8019973  294.8      
  0.2122042  0.276075   0.1483334 
1146.5     
  0.215      1          2          331.235    7.29786    12.81      
  5.6878     5.905      7.7855     10.1603    11.6365    9.91       
  5.46       3.77       4.06       2.36       1.7        0.2756374  
  0.2416275  0.2874251  0.2024069  0.2350504  0.2892295  83.69226   
  6.80048    2.19       11.6365    0.7598242  0.8010296  295.2      
  0.2219104  0.2965927  0.147228  
1146.7     
  0.211      1          2          330.631    7.530684   13.72      
  6.3834     6.2399     8.1904     10.6285    11.948     10.35      
  4.72       3.39       3.88       2.27       1.64       0.2816373  
  0.2409015  0.2934131  0.2014662  0.2278252  0.2930152  81.14072   
  4.904835   2.18       11.948     0.7621607  0.8048526  295.3      
  0.2429428  0.3389294  0.1469563 
1146.9     
  0.211      8          2          310.474    7.829743   14.62      
  6.2136     6.2679     8.232599   10.8995    12.3116    10.42      
  5.81       3.95       4.27       2.54       1.63       0.1636373  
  0.1952096  0.3173652  0.07292105 0.1953426  0.2541779  11.55882   
  3.223562   2.14       12.3116    0.7183398  0.7719079  295.1      
  0.2748979  0.402294   0.1475017 
1147.1     
  0.211      8          2          312.813    8.090159   15.22      
  5.9        6.2961     8.3504     11.0804    12.6108    10.23      
  5.92       4.05       4.38       2.56       1.71       0.2966373  
  0.2118098  0.2526947  0.1950066  0.1877281  0.2778727  23.46332   
  2.23667    2.248      12.6108    0.7406052  0.7931958  294.6      
  0.3079717  0.4670464  0.1488969 
1147.3     
  0.211      8          2          311.434    8.220524   15.68      
  5.7738     6.499      8.5377     11.1474    12.7336    9.87       
  5.83       4.1        4.43       2.42       1.69       0.3056373  
  0.2183681  0.2766467  0.1980286  0.1804291  0.288317   31.03599   
  1.862685   2.208      12.7336    0.7485498  0.8011169  294.6      
  0.326087   0.5032771  0.1488969 
1147.5     
  0.211      8          2          315.027    8.153782   16.11      
  5.792399   6.6193     8.6967     11.3347    12.9636    9.98       
  5.6        4.09       4.42       2.27       1.66       0.2966373  
  0.2125846  0.2586827  0.1918099  0.1872612  0.2807255  24.25163   
  2.045603   2.238      12.9636    0.7447552  0.7975453  293.9      
  0.3176586  0.4843903  0.1509269 
1147.7     
  0.21       8          2          316.811    7.902445   16.53      
  5.5741     6.447299   8.5714     11.3175    13.0917    9.96       
  5.49       4.16       4.51       2.37       1.67       0.2976373  
  0.2225968  0.2646707  0.2035805  0.1995391  0.2837365  37.1698    
  2.910859   2.228      13.0917    0.7559127  0.8036184  294        
  0.2850206  0.41941    0.1506313 
1147.9     
  0.211      8          2          315.939    7.57899    17.1       
  5.4925     6.2469     8.560101   11.3866    13.2219    9.62       
  5.34       4.2        4.56       2.71       1.67       0.3056373  
  0.2303862  0.2586827  0.223043   0.2094328  0.2840749  51.81659   
  4.583317   2.238      13.2219    0.7642138  0.8075421  293.5      
  0.2502857  0.3484435  0.1521279 
1148.1     
  0.211      1          2          313.739    7.292577   17.7       
  5.269      6.1638     8.6166     11.6339    13.4432    9.12       
  5.28       4.24       4.64       2.46       1.66       0.2586373  
  0.2256155  0.2766467  0.1848955  0.2153044  0.2735499  42.27709   
  6.851089   2.208      13.4432    0.7617404  0.8032001  293.8      
  0.2234602  0.2956961  0.1512243 
1148.3     
  0.211      1          2          309.647    7.066514   18.68      
  5.3401     6.425399   9.1144     12.2309    13.9035    8.97       
  5.24       4.18       4.72       2.45       1.71       0.2646374  
  0.2257415  0.2646707  0.1966248  0.2159291  0.2699517  42.50487   
  9.409232   2.228      13.9035    0.7655891  0.8050539  293.4      
  0.2060986  0.2597643  0.152433  
1148.5     
  0.211      1          2          311.994    6.850868   20.03      
  5.8936     7.2396     9.9614     13.0245    14.5392    9.03       
  5.26       4.14       4.66       2.62       1.67       0.2526373  
  0.2299317  0.2766467  0.189658   0.2234903  0.2708701  50.82181   
  12.73501   2.208      14.5392    0.7741033  0.8112208  293.5      
  0.1908466  0.2295652  0.1521279 
1148.7     
  0.212      1          2          318.931    6.622463   21.18      
  6.6133     7.962      10.7096    13.5077    14.5899    9.81       
  5.27       4.07       4.44       2.75       1.62       0.2796373  
  0.242483   0.2706587  0.2211022  0.2356881  0.2805326  86.80238   
  17.54772   2.218      14.5899    0.7846739  0.8194422  293.1      
  0.1773792  0.201399   0.1533595 
1148.9     
  0.21       1          2          320.48     6.446913   21.84      
  7.294      8.5245     10.902     13.0032    13.7629    9.93       
  5.34       4.03       4.39       2.36       1.67       0.2846373  
  0.2406373  0.2526947  0.2290216  0.2401956  0.2767891  80.23136   
  22.45049   2.248      13.7629    0.7772186  0.8120491  292.6      
  0.1685325  0.1821225  0.1549424 
1149.1     
  0.211      1          2          312.646    6.376346   21.71      
  8.0247     8.9778     10.4307    11.8524    12.3116    9.18       
  5.4        4.03       4.37       2.69       1.69       0.2926373  
  0.2413985  0.2526947  0.238677   0.2328239  0.2764743  82.87899   
  24.78785   2.248      12.3116    0.7659037  0.8014194  293.5      
  0.163516   0.174904   0.1521279 
1149.3     
  0.21       1          2          309.244    6.368927   21         
  8.9197     9.2246     9.8631     10.6129    10.7096    9.01       
  5.34       3.99       4.3        2.39       1.68       0.3016373  
  0.2472889  0.2646707  0.2480464  0.2291494  0.2821245  106.5486   
  25.04732   2.228      10.7096    0.755271   0.7916951  294        
  0.1623966  0.174162   0.1506313 
1149.5     
  0.21       1          2          312.962    6.332335   20.24      
  9.4972     9.1495     9.0774     9.2372     9.379801   9.12       
  5.58       4.05       4.36       2.86       1.67       0.2666374  
  0.2411407  0.2766467  0.2131411  0.2336342  0.2759148  81.97256   
  26.36731   2.208      9.379801   0.7337874  0.7721239  293        
  0.1621099  0.1705476  0.1536722 
1149.7     
  0.211      1          2          316.918    6.206845   19.28      
  9.8214     8.87       8.264499   8.1257     8.1799     8.81       
  6          4.07       4.38       2.31       1.64       0.2856373  
  0.2466612  0.2646707  0.2346921  0.2406209  0.2797771  103.7344   
  31.44538   2.228      8.1799     0.7216685  0.7602507  294.2      
  0.1543792  0.1587127  0.1500458 
