~Version
 VERS              .         2.0                           : CWLS LOG ASCII STANDARD - VERSION 2.0
 WRAP              .         YES                            : ONE LINE PER DEPTH STEP
 DLM               .         SPACE                         : DELIMITING CHARACTER(SPACE TAB OR COMMA)
~Well Information
#_______________________________________________________________________________
#
#PARAMETER_NAME    .UNIT     VALUE                         : DESCRIPTION
#_______________________________________________________________________________
STRT               .M        3.3                           : First reference value
STOP               .M        1269.1                        : Last reference value
STEP               .M        0.2                           : Step increment
NULL               .         -9999                         : Missing value
COMP               .                                       : Company
WELL               .         4766                          : Well name
FLD                .         Узень                         : Field
LOC                .                                       : Location
CNTY               .                                       : County
STAT               .                                       : State
CTRY               .                                       : Country
SRVC               .                                       : Service Company
DATE               .                                       : Date
UWI                .                                       : Unique Well ID
Block              .         7                             : 
Category           .         Нефтяная                      : 
Condition          .         В работе                      : 
Date               .         30.06.2012                    : 
EREF               .m        83.1                          : 100.8
GRP                .                                       : Group name
Gorizont           .         15                            : 14
ISS                .                                       : Well surveys
Interpretator      .         Торегалиев А.Е.               : 
Kupol              .         Основной                      : osnovnoi
Mud                .         0                             : 
Mud_density        .         0                             : 
Mud_resistivity    .         0                             : 
NGDU               .         НГДУ-2                        : 
ORIGINALWELLNAME   .         4766                          : 
Person             .         Almas                         : 
Spud_date          .         2012                          : 1961
TIME               .                                       : LOG TIME
Viscosity          .         0                             : 
X                  .m        43034.77                      : 46154
Y                  .m        83958.33                      : 85761.93
YEAR               .         2019                          : 
~Parameter Information Block
#_______________________________________________________________________________
#
#PARAMETER_NAME    .UNIT     VALUE                         : DESCRIPTION
#_______________________________________________________________________________
SET                .         LQC_KAZNIPI_Petrel            : 
TLFamily_CALI      .         Caliper                       : 
TLFamily_COLL      .         Net Reservoir Flag            : 
TLFamily_CSAT      .         Fluid Code                    : 
TLFamily_DEPT      .         Measured Depth                : 
TLFamily_DT        .         Compressional Slowness        : 
TLFamily_GR        .         Russian Gamma Ray             : 
TLFamily_GZ3       .         Gradient 225                  : 
TLFamily_IK1       .         Resistivity 05                : 
TLFamily_IK2       .         Resistivity 07                : 
TLFamily_IK3       .         Resistivity 10                : 
TLFamily_IK4       .         Resistivity 14                : 
TLFamily_IK5       .         Resistivity 20                : 
TLFamily_LLS       .         Lateral Log Resistivity       : 
TLFamily_MBK       .         Micro Lateral Log Resistivity : 
TLFamily_MINV      .         Micro Gradient Resistivity    : 
TLFamily_MNOR      .         Micro Resistivity             : 
TLFamily_NNKTb     .         Neutron Far                   : 
TLFamily_NNKTm     .         Neutron Near                  : 
TLFamily_NPHI      .         Neutron Porosity              : 
TLFamily_PHIE      .         Effective Porosity            : 
TLFamily_PHIED     .         Effective Porosity            : 
TLFamily_PHIEN     .         Effective Porosity            : 
TLFamily_PHIES     .         Effective Porosity            : 
TLFamily_PHIT      .         Porosity                      : 
TLFamily_PRMB      .         Permeability                  : 
TLFamily_PRMB_DGR  .         Permeability                  : 
TLFamily_RHOB      .         Bulk Density                  : 
TLFamily_RT        .         Formation Resistivity         : 
TLFamily_SOIL_ARCHIE .         Oil Saturation                : 
TLFamily_SOIL_DW   .         Oil Saturation                : 
TLFamily_SP        .         Spontaneous Potential         : 
TLFamily_VSH_FIN   .         Shale Volume                  : 
TLFamily_VSH_GR    .         Shale Volume                  : 
TLFamily_VSH_SP    .         Shale Volume                  : 
~Curve Information
#_______________________________________________________________________________
#
#LOGNAME           .UNIT     LOG_ID                        : DESCRIPTION
#_______________________________________________________________________________
DEPT               .M                                      : Колонка глубины 
CALI               .м                                      : Каверномер 
COLL               .unitless                               : Описание 
CSAT               .unitless                               : Описание 
DT                 .мкс/м                                  : Интервальное время пробега продольной волны 
GR                 .uR/h                                   : Гамма каротаж 
GZ3                .Ohmm                                   : Градиент-зонд  длиной 2.25м 
IK1                .Ohmm                                   : И0.10И0.40 
IK2                .Ohmm                                   : И0.14И0.56 
IK3                .Ohmm                                   : И0.20И0.8 
IK4                .Ohmm                                   : И0.28И1.12 
IK5                .Ohmm                                   : И0.40И1.60 
LLS                .Ohmm                                   : Боковой каротаж 
MBK                .Ohmm                                   : Микробоковой каротаж 
MINV               .Ohmm                                   : Микро-градиент зонд 
MNOR               .Ohmm                                   : Микро-потенциал зонд 
NNKTb              .у.е.                                   : Показания большого зонда 2ННКт аппаратуры СРК 
NNKTm              .у.е.                                   : Показания малого зонда 2ННКт аппаратуры СРК 
NPHI               .v/v                                    : Total porosity 
PHIE               .v/v                                    : Описание 
PHIED              .v/v                                    :  
PHIEN              .v/v                                    :  
PHIES              .v/v                                    :  
PHIT               .v/v                                    : Описание 
PRMB               .mD                                     :  
PRMB_DGR           .mD                                     :  
RHOB               .G/C3                                   : Плотность по ГГК-П 
RT                 .ohmm                                   : Description 
SOIL_ARCHIE        .v/v                                    :  
SOIL_DW            .v/v                                    :  
SP                 .мВ                                     : Потенциал самополяризации 
VSH_FIN            .v/v                                    : Описание 
VSH_GR             .v/v                                    : Shale volume 
VSH_SP             .v/v                                    : Shale Volume 
~Ascii
# ...
952.5      
  0.296      -9999      -9999      336.901    6.089833   2.32       
  1.6452     1.8252     1.9271     1.8907     1.876      1.89       
  1.63       1.89       1.77       2.8        1.68       -9999      
  0.1459167  0.1333452  -9999      0.1584882  0.2218898  1.412176   
  2.75351    2.268      1.876      0.1101413  0.2760664  241.5      
  0.4846314  0.429036   0.5402269 
952.7000000000001 
  0.278      -9999      -9999      337.127    6.244423   2.22       
  1.485      1.6828     1.8437     1.8455     1.7828     1.97       
  1.72       2.05       1.83       2.42       1.67       -9999      
  0.1116901  0.07683826 -9999      0.146542   0.1937501  0.3280428  
  2.000464   2.348      1.7828     0          0.1033168  240.5      
  0.5234596  0.4888238  0.5580954 
952.9      
  0.288      -9999      -9999      337.368    6.32459    2.14       
  1.2632     1.42       1.5462     1.6419     1.6558     1.7        
  1.58       1.67       1.65       2.38       1.64       -9999      
  0.1156126  0.08700342 -9999      0.1442218  0.1989539  0.3877792  
  1.695022   2.328      1.6558     0          0.09677712 241.5      
  0.531633   0.5230392  0.5402269 
953.1      
  0.277      -9999      -9999      348.183    6.371779   2.14       
  1.2043     1.3941     1.5585     1.6948     1.6973     1.64       
  1.43       1.64       1.61       2.49       1.52       -9999      
  0.1520578  0.1549267  -9999      0.1491888  0.2381819  1.835002   
  1.537516   2.208      1.6973     0.1002359  0.2823943  240.7      
  0.549385   0.5442889  0.5544811 
953.3      
  0.25       -9999      -9999      352.308    6.394455   2.31       
  1.6471     1.8919     1.9442     1.9735     1.8912     1.97       
  1.53       1.99       1.78       2.73       1.63       -9999      
  0.1349113  0.1215914  -9999      0.1482312  0.2234378  0.8831666  
  1.467121   2.258      1.8912     0.05084282 0.2588747  239.6      
  0.5647092  0.5548053  0.5746132 
953.5      
  0.267      -9999      -9999      336.934    6.41943    2.28       
  1.4312     1.6015     1.7165     1.8207     1.9223     1.92       
  1.88       2.3        1.85       2.3        1.76       -9999      
  0.09671039 0.06451377 -9999      0.128907   0.1874907  0.1731686  
  1.393316   2.348      1.9223     0          0.06790373 238.7      
  0.5790864  0.5666226  0.5915502 
953.7000000000001 
  0.278      -9999      -9999      344.379    6.472138   2.36       
  1.459      1.585      1.6655     1.7201     1.8347     1.83       
  1.6        1.82       1.73       2.45       1.63       -9999      
  0.1129168  0.0924384  -9999      0.1333951  0.2051231  0.345661   
  1.24951    2.298      1.8347     0          0.1497652  239.1      
  0.5881832  0.5923959  0.5839704 
953.9      
  0.263      -9999      -9999      358.471    6.52474    2.5        
  1.425      1.6191     1.6932     1.7566     1.8471     1.84       
  1.63       1.91       1.68       2.49       1.64       -9999      
  0.1285784  0.1140355  -9999      0.1431213  0.2224512  0.6741268  
  1.120795   2.258      1.8471     0          0.2335351  239.4      
  0.5988131  0.6192855  0.5783408 
954.1      
  0.27       -9999      -9999      347.293    6.526696   2.54       
  1.601      1.8074     1.8552     1.8581     1.8842     1.96       
  1.68       1.97       1.73       2.5        1.69       -9999      
  0.1197373  0.1109671  -9999      0.1285075  0.2157811  0.4623625  
  1.116274   2.258      1.8842     0          0.2049499  238        
  0.6126624  0.6203086  0.6050163 
954.3      
  0.261      -9999      -9999      327.087    6.462741   2.5        
  1.5401     1.715      1.8302     1.8696     1.8842     1.99       
  1.86       2.39       1.8        2.82       1.78       -9999      
  0.1038956  0.09574808 -9999      0.1120431  0.197997   0.2352644  
  1.274016   2.288      1.8842     0          0.1143923  237.6      
  0.6002719  0.5877164  0.6128274 
954.5      
  0.257      -9999      -9999      334.009    6.357644   2.41       
  1.476      1.6314     1.7382     1.8151     1.8403     1.91       
  1.74       2.14       1.72       2.8        1.72       -9999      
  0.1135336  0.09721965 -9999      0.1298476  0.2023569  0.3548754  
  1.583096   2.298      1.8403     0          0.145873   238.5      
  0.5666029  0.5378346  0.5953713 
954.7000000000001 
  0.242      -9999      -9999      330.06     6.269011   2.36       
  1.7175     1.8884     1.9566     1.9511     1.8865     2.03       
  1.67       2.11       1.72       2.64       1.7        -9999      
  0.1213676  0.1124212  -9999      0.1303141  0.2079087  0.4956568  
  1.901347   2.278      1.8865     0          0.191715   238        
  0.5520447  0.499073   0.6050163 
954.9      
  0.243      -9999      -9999      326.092    6.274673   2.36       
  1.7165     1.8569     1.909      1.9181     1.8971     2.1        
  1.97       2.38       1.8        2.64       1.82       -9999      
  0.117103   0.1106359  -9999      0.1235702  0.2049073  0.4132287  
  1.879229   2.278      1.8971     0          0.175254   237.3      
  0.5601025  0.5014632  0.6187417 
955.1      
  0.241      -9999      -9999      343.994    6.366566   2.21       
  1.4266     1.5475     1.6452     1.7253     1.8013     1.81       
  1.8        2.15       1.71       2.84       1.76       -9999      
  0.119924   0.1019038  -9999      0.1379442  0.2096699  0.4660588  
  1.55417    2.288      1.8013     0          0.1731028  238.1      
  0.5724882  0.5418997  0.6030766 
955.3      
  0.248      -9999      -9999      349.631    6.425064   2.21       
  1.5541     1.7408     1.8002     1.8627     1.8807     1.87       
  1.65       1.88       1.63       2.64       1.65       -9999      
  0.1209867  0.1005637  -9999      0.1414097  0.2116808  0.4876684  
  1.377185   2.288      1.8807     0          0.1982044  238.9      
  0.5785366  0.5693232  0.58775   
955.5      
  0.249      -9999      -9999      337.681    6.367044   2.21       
  1.8123     1.99       2.0624     2.1082     2.0759     2.19       
  1.92       2.46       1.95       2.97       1.72       -9999      
  0.11978    0.1078675  -9999      0.1316925  0.2095431  0.4632069  
  1.552634   2.278      2.0759     0          0.2290851  238.1      
  0.5725976  0.5421185  0.6030766 
955.7000000000001 
  0.254      -9999      -9999      340.109    6.250239   2.34       
  1.8415     2.0028     2.1088     2.1648     2.1741     2.15       
  2.05       2.54       1.87       3.18       1.82       -9999      
  0.1082654  0.0762789  -9999      0.1402519  0.1949581  0.283463   
  1.976563   2.338      2.1741     0          0.1810458  237.5      
  0.5530113  0.491229   0.6147936 
955.9      
  0.267      -9999      -9999      335.949    6.210144   2.36       
  2.0678     2.1591     2.2064     2.2357     2.1872     2.33       
  2.13       2.8        2.03       3.29       1.81       -9999      
  0.09912343 0.05990698 -9999      0.1383399  0.1846896  0.1919395  
  2.147331   2.368      2.1872     0          0.1265038  237.4      
  0.5458252  0.4748853  0.6167651 
956.1      
  0.28       -9999      -9999      344.581    6.284517   2.45       
  1.7903     1.9462     2.0175     2.074      2.0909     2.15       
  2.12       2.75       1.99       2.84       1.82       -9999      
  0.1197021  0.09797683 -9999      0.1414274  0.2079897  0.46167    
  1.841379   2.298      2.0909     0          0.2281969  237.2      
  0.5631854  0.5056468  0.6207239 
956.3      
  0.275      -9999      -9999      353.876    6.397032   2.43       
  1.6853     1.8489     1.9357     1.9648     1.988      2.01       
  1.91       2.37       1.85       2.72       1.73       -9999      
  0.1233127  0.1043734  -9999      0.1422521  0.2155482  0.5385291  
  1.459328   2.278      1.988      0          0.2344193  237.2      
  0.5883685  0.556013   0.6207239 
956.5      
  0.28       -9999      -9999      366.517    6.48776    2.45       
  1.6214     1.792      1.8795     1.9097     1.9308     1.97       
  1.84       2.16       1.83       2.65       1.72       -9999      
  0.1222653  0.0971351  -9999      0.1473955  0.2175038  0.515001   
  1.209814   2.283      1.9308     0          0.2247853  237.5      
  0.6075254  0.6002572  0.6147936 
