~Version
 VERS              .         2.0                           : CWLS LOG ASCII STANDARD - VERSION 2.0
 WRAP              .         YES                            : ONE LINE PER DEPTH STEP
 DLM               .         SPACE                         : DELIMITING CHARACTER(SPACE TAB OR COMMA)
~Well Information
#_______________________________________________________________________________
#
#PARAMETER_NAME    .UNIT     VALUE                         : DESCRIPTION
#_______________________________________________________________________________
STRT               .M        3.3                           : First reference value
STOP               .M        1269.1                        : Last reference value
STEP               .M        0.2                           : Step increment
NULL               .         -9999                         : Missing value
COMP               .                                       : Company
WELL               .         4766                          : Well name
FLD                .         Узень                         : Field
LOC                .                                       : Location
CNTY               .                                       : County
STAT               .                                       : State
CTRY               .                                       : Country
SRVC               .                                       : Service Company
DATE               .                                       : Date
UWI                .                                       : Unique Well ID
Block              .         7                             : 
Category           .         Нефтяная                      : 
Condition          .         В работе                      : 
Date               .         30.06.2012                    : 
EREF               .m        83.1                          : 100.8
GRP                .                                       : Group name
Gorizont           .         15                            : 14
ISS                .                                       : Well surveys
Interpretator      .         Торегалиев А.Е.               : 
Kupol              .         Основной                      : osnovnoi
Mud                .         0                             : 
Mud_density        .         0                             : 
Mud_resistivity    .         0                             : 
NGDU               .         НГДУ-2                        : 
ORIGINALWELLNAME   .         4766                          : 
Person             .         Almas                         : 
Spud_date          .         2012                          : 1961
TIME               .                                       : LOG TIME
Viscosity          .         0                             : 
X                  .m        43034.77                      : 46154
Y                  .m        83958.33                      : 85761.93
YEAR               .         2019                          : 
~Parameter Information Block
#_______________________________________________________________________________
#
#PARAMETER_NAME    .UNIT     VALUE                         : DESCRIPTION
#_______________________________________________________________________________
SET                .         LQC_KAZNIPI_Petrel            : 
TLFamily_CALI      .         Caliper                       : 
TLFamily_COLL      .         Net Reservoir Flag            : 
TLFamily_CSAT      .         Fluid Code                    : 
TLFamily_DEPT      .         Measured Depth                : 
TLFamily_DT        .         Compressional Slowness        : 
TLFamily_GR        .         Russian Gamma Ray             : 
TLFamily_GZ3       .         Gradient 225                  : 
TLFamily_IK1       .         Resistivity 05                : 
TLFamily_IK2       .         Resistivity 07                : 
TLFamily_IK3       .         Resistivity 10                : 
TLFamily_IK4       .         Resistivity 14                : 
TLFamily_IK5       .         Resistivity 20                : 
TLFamily_LLS       .         Lateral Log Resistivity       : 
TLFamily_MBK       .         Micro Lateral Log Resistivity : 
TLFamily_MINV      .         Micro Gradient Resistivity    : 
TLFamily_MNOR      .         Micro Resistivity             : 
TLFamily_NNKTb     .         Neutron Far                   : 
TLFamily_NNKTm     .         Neutron Near                  : 
TLFamily_NPHI      .         Neutron Porosity              : 
TLFamily_PHIE      .         Effective Porosity            : 
TLFamily_PHIED     .         Effective Porosity            : 
TLFamily_PHIEN     .         Effective Porosity            : 
TLFamily_PHIES     .         Effective Porosity            : 
TLFamily_PHIT      .         Porosity                      : 
TLFamily_PRMB      .         Permeability                  : 
TLFamily_PRMB_DGR  .         Permeability                  : 
TLFamily_RHOB      .         Bulk Density                  : 
TLFamily_RT        .         Formation Resistivity         : 
TLFamily_SOIL_ARCHIE .         Oil Saturation                : 
TLFamily_SOIL_DW   .         Oil Saturation                : 
TLFamily_SP        .         Spontaneous Potential         : 
TLFamily_VSH_FIN   .         Shale Volume                  : 
TLFamily_VSH_GR    .         Shale Volume                  : 
TLFamily_VSH_SP    .         Shale Volume                  : 
~Curve Information
#_______________________________________________________________________________
#
#LOGNAME           .UNIT     LOG_ID                        : DESCRIPTION
#_______________________________________________________________________________
DEPT               .M                                      : Колонка глубины 
CALI               .м                                      : Каверномер 
COLL               .unitless                               : Описание 
CSAT               .unitless                               : Описание 
DT                 .мкс/м                                  : Интервальное время пробега продольной волны 
GR                 .uR/h                                   : Гамма каротаж 
GZ3                .Ohmm                                   : Градиент-зонд  длиной 2.25м 
IK1                .Ohmm                                   : И0.10И0.40 
IK2                .Ohmm                                   : И0.14И0.56 
IK3                .Ohmm                                   : И0.20И0.8 
IK4                .Ohmm                                   : И0.28И1.12 
IK5                .Ohmm                                   : И0.40И1.60 
LLS                .Ohmm                                   : Боковой каротаж 
MBK                .Ohmm                                   : Микробоковой каротаж 
MINV               .Ohmm                                   : Микро-градиент зонд 
MNOR               .Ohmm                                   : Микро-потенциал зонд 
NNKTb              .у.е.                                   : Показания большого зонда 2ННКт аппаратуры СРК 
NNKTm              .у.е.                                   : Показания малого зонда 2ННКт аппаратуры СРК 
NPHI               .v/v                                    : Total porosity 
PHIE               .v/v                                    : Описание 
PHIED              .v/v                                    :  
PHIEN              .v/v                                    :  
PHIES              .v/v                                    :  
PHIT               .v/v                                    : Описание 
PRMB               .mD                                     :  
PRMB_DGR           .mD                                     :  
RHOB               .G/C3                                   : Плотность по ГГК-П 
RT                 .ohmm                                   : Description 
SOIL_ARCHIE        .v/v                                    :  
SOIL_DW            .v/v                                    :  
SP                 .мВ                                     : Потенциал самополяризации 
VSH_FIN            .v/v                                    : Описание 
VSH_GR             .v/v                                    : Shale volume 
VSH_SP             .v/v                                    : Shale Volume 
~Ascii
# ...
1036.5     
  0.25       -9999      -9999      268.742    5.957867   3.59       
  2.2561     2.5754     2.6157     2.6017     2.563      2.71       
  1.66       2.68       2.58       2.56       1.63       -9999      
  0.1032294  0.1017258  -9999      0.1047329  0.1630194  0.2286738  
  36.63999   2.359      2.563      0          0.143968   244.2      
  0.3813997  0.1491073  0.613692  
1036.7     
  0.261      -9999      -9999      305.933    5.869229   3.7        
  2.0033     2.1334     2.2981     2.4582     2.6005     2.4        
  1.9        3.64       3.21       2.74       1.71       -9999      
  0.1706302  0.1802395  -9999      0.1610209  0.2281507  4.051762   
  41.68511   2.369      2.6005     0.3338284  0.4328413  245.3      
  0.3669226  0.1414562  0.5923889 
1036.9     
  0.276      -9999      -9999      319.951    5.841258   3.61       
  1.9691     2.2571     2.3973     2.4687     2.5391     2.32       
  1.64       1.95       2.5        2.43       1.69       -9999      
  0.1975635  0.2161677  -9999      0.1789594  0.2543064  12.77951   
  43.41712   2.309      2.5391     0.407049   0.4931714  245.7      
  0.3619622  0.1391242  0.5848003 
1037.1     
  0.249      -9999      -9999      325.769    6.035886   3.24       
  2.6138     2.8296     2.5686     2.533      2.445      3.05       
  1.8        3.37       3.17       2.81       1.68       -9999      
  0.1896308  0.1928143  -9999      0.1864473  0.2458226  9.111306   
  32.70704   2.348      2.445      0.3745159  0.4641057  247        
  0.358447   0.1561837  0.5607103 
1037.3     
  0.292      -9999      -9999      310.101    6.517574   2.66       
  1.5891     1.7039     1.7838     1.8673     2.0085     1.89       
  1.64       1.67       2.19       2.67       1.71       -9999      
  0.1971395  0.2281437  -9999      0.1661354  0.2546158  12.55048   
  16.22474   2.289      2.0085     0.3368585  0.430034   249        
  0.3666406  0.2079497  0.5253314 
1037.5     
  0.298      -9999      -9999      317.555    7.119402   2.24       
  1.4336     1.5616     1.6028     1.6295     1.7043     1.76       
  1.38       1.14       1.82       2.5        1.53       -9999      
  0.1640225  0.1635709  -9999      0.1644742  0.2266592  3.056704   
  6.757341   2.249      1.7043     0.1593021  0.2850985  250.4      
  0.3995582  0.2973644  0.501752  
1037.7     
  0.297      -9999      -9999      319.107    7.575184   2.06       
  1.3236     1.5301     1.5782     1.607      1.649      1.73       
  1.39       1.18       1.78       1.95       1.48       -9999      
  0.1438395  0.1391143  -9999      0.1485648  0.2153069  1.292454   
  3.48086    2.269      1.649      0.04274289 0.2093366  249.2      
  0.4558894  0.389875   0.5219039 
1037.9     
  0.291      -9999      -9999      345.419    7.790337   2.14       
  1.354      1.4707     1.5514     1.5786     1.6102     1.76       
  1.35       1.24       1.83       1.94       1.48       -9999      
  0.1561392  0.1450098  -9999      0.1672686  0.2319089  2.183907   
  2.545034   2.249      1.6102     0.09874845 0.2595007  249.1      
  0.4833341  0.4430532  0.523615  
1038.1     
  0.295      -9999      -9999      320.145    7.861474   2.2        
  1.2869     1.4009     1.4598     1.5181     1.555      1.69       
  1.36       1.37       1.94       1.92       1.52       -9999      
  0.1435706  0.1492871  -9999      0.1378541  0.2209745  1.277716   
  2.294721   2.238      1.555      0.01440599 0.1976265  249        
  0.4937584  0.4621853  0.5253314 
1038.3     
  0.289      -9999      -9999      320.833    7.844028   2.24       
  1.3174     1.4395     1.4638     1.5122     1.5288     1.71       
  1.42       1.3        1.82       2.17       1.5        -9999      
  0.1456602  0.153858   -9999      0.1374625  0.2236431  1.396815   
  2.353729   2.229      1.5288     0.01894007 0.2012298  248.3      
  0.4974516  0.4574183  0.5374849 
1038.5     
  0.278      -9999      -9999      330.155    7.682033   2.38       
  1.3348     1.4238     1.4549     1.4987     1.5523     1.72       
  1.41       1.38       1.86       2.18       1.48       -9999      
  0.1406986  0.1297917  -9999      0.1516056  0.2166439  1.130416   
  2.979545   2.274      1.5523     0          0.1807381  247.4      
  0.4844538  0.4154348  0.5534729 
1038.7     
  0.268      -9999      -9999      318.009    7.362026   2.83       
  1.2889     1.4505     1.5374     1.6051     1.6862     1.75       
  1.38       1.48       1.94       2.08       1.54       -9999      
  0.1252917  0.1032153  -9999      0.1473682  0.1967385  0.5859559  
  4.746996   2.329      1.6862     0          0.1275077  246.6      
  0.4557581  0.3434865  0.5680296 
1038.9     
  0.249      -9999      -9999      331.293    7.017413   3.19       
  1.8234     2.0917     2.1074     2.0105     1.9405     2.31       
  1.57       1.9        2.4        2.24       1.59       -9999      
  0.1335359  0.09705252 -9999      0.1700193  0.2008694  0.8328499  
  7.838641   2.349      1.9405     0.05382914 0.2171823  246        
  0.4295198  0.2798761  0.5791634 
1039.1     
  0.251      -9999      -9999      308.811    6.8167     3.14       
  1.7838     1.9085     1.9031     1.971      1.9766     2.25       
  1.96       2.13       2.76       2.6        1.69       -9999      
  0.1290508  0.110063   -9999      0.1480385  0.194805   0.6878465  
  10.49801   2.331      1.9766     0.03364721 0.1990731  245.4      
  0.419445   0.248406   0.5904841 
1039.3     
  0.254      -9999      -9999      290.699    6.748098   2.89       
  1.5237     1.6641     1.7455     1.8274     1.8748     1.92       
  1.56       1.69       1.94       2.51       1.57       -9999      
  0.1224306  0.118348   -9999      0.1265131  0.1874069  0.518644   
  11.60028   2.319      1.8748     0          0.1402864  245.4      
  0.4144832  0.2384823  0.5904841 
1039.5     
  0.247      -9999      -9999      313.514    6.672534   2.65       
  1.8079     2.118      2.1785     2.1391     2.0214     2.25       
  1.64       2.04       2.07       2.92       1.58       -9999      
  0.139665   0.1207623  -9999      0.1585678  0.2029331  1.081665   
  12.94884   2.319      2.0214     0.107371   0.2514925  246        
  0.4035865  0.2280096  0.5791634 
1039.7     
  0.245      -9999      -9999      310.258    6.601609   2.51       
  2.002      2.191      2.2531     2.1721     2.0786     2.44       
  1.84       3.78       2.6        2.58       1.67       -9999      
  0.1265312  0.097437   -9999      0.1556254  0.1893558  0.6177639  
  14.3569    2.359      2.0786     0.03984947 0.1993262  245.8      
  0.4007574  0.2185987  0.582916  
1039.9     
  0.252      -9999      -9999      328.816    6.639059   2.24       
  1.6075     1.7191     1.8168     1.879      1.9455     1.96       
  1.59       2          2.05       2.4        1.65       -9999      
  0.1629571  0.1470542  -9999      0.17886    0.2245696  2.920915   
  13.59534   2.279      1.9455     0.2054353  0.3254218  246.9      
  0.3930255  0.2235184  0.5625326 
1040.1     
  0.252      -9999      -9999      331.02     6.72613    2.24       
  1.6539     1.966      2.028      2.1        2.0306     2.02       
  1.49       1.95       2.11       2.31       1.55       -9999      
  0.168271   0.1575128  -9999      0.1790291  0.2309572  3.66391    
  11.97715   2.259      2.0306     0.2427023  0.3590443  246.8      
  0.3998744  0.2353891  0.5643597 
1040.3     
  0.249      -9999      -9999      307.932    6.765864   2.27       
  2.1741     2.3213     2.3155     2.3117     2.1916     2.61       
  1.88       2.75       2.53       2.75       1.61       -9999      
  0.1386078  0.1261342  -9999      0.1510814  0.2023118  1.033978   
  11.30419   2.309      2.1916     0.1348935  0.2775953  246.4      
  0.406367   0.2410136  0.5717204 
1040.5     
  0.271      -9999      -9999      318.691    6.834034   2.05       
  1.733      1.8604     1.9554     2.0274     2.0759     2.04       
  1.63       1.43       2.43       2.79       1.62       -9999      
  0.149461   0.1334374  -9999      0.1654846  0.2122345  1.642623   
  10.23647   2.299      2.0759     0.1689866  0.3003932  247.6      
  0.4004313  0.2509783  0.5498844 
