~Version
 VERS              .         2.0                           : CWLS LOG ASCII STANDARD - VERSION 2.0
 WRAP              .         YES                            : ONE LINE PER DEPTH STEP
 DLM               .         SPACE                         : DELIMITING CHARACTER(SPACE TAB OR COMMA)
~Well Information
#_______________________________________________________________________________
#
#PARAMETER_NAME    .UNIT     VALUE                         : DESCRIPTION
#_______________________________________________________________________________
STRT               .M        3.3                           : First reference value
STOP               .M        1269.1                        : Last reference value
STEP               .M        0.2                           : Step increment
NULL               .         -9999                         : Missing value
COMP               .                                       : Company
WELL               .         4766                          : Well name
FLD                .         Узень                         : Field
LOC                .                                       : Location
CNTY               .                                       : County
STAT               .                                       : State
CTRY               .                                       : Country
SRVC               .                                       : Service Company
DATE               .                                       : Date
UWI                .                                       : Unique Well ID
Block              .         7                             : 
Category           .         Нефтяная                      : 
Condition          .         В работе                      : 
Date               .         30.06.2012                    : 
EREF               .m        83.1                          : 100.8
GRP                .                                       : Group name
Gorizont           .         15                            : 14
ISS                .                                       : Well surveys
Interpretator      .         Торегалиев А.Е.               : 
Kupol              .         Основной                      : osnovnoi
Mud                .         0                             : 
Mud_density        .         0                             : 
Mud_resistivity    .         0                             : 
NGDU               .         НГДУ-2                        : 
ORIGINALWELLNAME   .         4766                          : 
Person             .         Almas                         : 
Spud_date          .         2012                          : 1961
TIME               .                                       : LOG TIME
Viscosity          .         0                             : 
X                  .m        43034.77                      : 46154
Y                  .m        83958.33                      : 85761.93
YEAR               .         2019                          : 
~Parameter Information Block
#_______________________________________________________________________________
#
#PARAMETER_NAME    .UNIT     VALUE                         : DESCRIPTION
#_______________________________________________________________________________
SET                .         LQC_KAZNIPI_Petrel            : 
TLFamily_CALI      .         Caliper                       : 
TLFamily_COLL      .         Net Reservoir Flag            : 
TLFamily_CSAT      .         Fluid Code                    : 
TLFamily_DEPT      .         Measured Depth                : 
TLFamily_DT        .         Compressional Slowness        : 
TLFamily_GR        .         Russian Gamma Ray             : 
TLFamily_GZ3       .         Gradient 225                  : 
TLFamily_IK1       .         Resistivity 05                : 
TLFamily_IK2       .         Resistivity 07                : 
TLFamily_IK3       .         Resistivity 10                : 
TLFamily_IK4       .         Resistivity 14                : 
TLFamily_IK5       .         Resistivity 20                : 
TLFamily_LLS       .         Lateral Log Resistivity       : 
TLFamily_MBK       .         Micro Lateral Log Resistivity : 
TLFamily_MINV      .         Micro Gradient Resistivity    : 
TLFamily_MNOR      .         Micro Resistivity             : 
TLFamily_NNKTb     .         Neutron Far                   : 
TLFamily_NNKTm     .         Neutron Near                  : 
TLFamily_NPHI      .         Neutron Porosity              : 
TLFamily_PHIE      .         Effective Porosity            : 
TLFamily_PHIED     .         Effective Porosity            : 
TLFamily_PHIEN     .         Effective Porosity            : 
TLFamily_PHIES     .         Effective Porosity            : 
TLFamily_PHIT      .         Porosity                      : 
TLFamily_PRMB      .         Permeability                  : 
TLFamily_PRMB_DGR  .         Permeability                  : 
TLFamily_RHOB      .         Bulk Density                  : 
TLFamily_RT        .         Formation Resistivity         : 
TLFamily_SOIL_ARCHIE .         Oil Saturation                : 
TLFamily_SOIL_DW   .         Oil Saturation                : 
TLFamily_SP        .         Spontaneous Potential         : 
TLFamily_VSH_FIN   .         Shale Volume                  : 
TLFamily_VSH_GR    .         Shale Volume                  : 
TLFamily_VSH_SP    .         Shale Volume                  : 
~Curve Information
#_______________________________________________________________________________
#
#LOGNAME           .UNIT     LOG_ID                        : DESCRIPTION
#_______________________________________________________________________________
DEPT               .M                                      : Колонка глубины 
CALI               .м                                      : Каверномер 
COLL               .unitless                               : Описание 
CSAT               .unitless                               : Описание 
DT                 .мкс/м                                  : Интервальное время пробега продольной волны 
GR                 .uR/h                                   : Гамма каротаж 
GZ3                .Ohmm                                   : Градиент-зонд  длиной 2.25м 
IK1                .Ohmm                                   : И0.10И0.40 
IK2                .Ohmm                                   : И0.14И0.56 
IK3                .Ohmm                                   : И0.20И0.8 
IK4                .Ohmm                                   : И0.28И1.12 
IK5                .Ohmm                                   : И0.40И1.60 
LLS                .Ohmm                                   : Боковой каротаж 
MBK                .Ohmm                                   : Микробоковой каротаж 
MINV               .Ohmm                                   : Микро-градиент зонд 
MNOR               .Ohmm                                   : Микро-потенциал зонд 
NNKTb              .у.е.                                   : Показания большого зонда 2ННКт аппаратуры СРК 
NNKTm              .у.е.                                   : Показания малого зонда 2ННКт аппаратуры СРК 
NPHI               .v/v                                    : Total porosity 
PHIE               .v/v                                    : Описание 
PHIED              .v/v                                    :  
PHIEN              .v/v                                    :  
PHIES              .v/v                                    :  
PHIT               .v/v                                    : Описание 
PRMB               .mD                                     :  
PRMB_DGR           .mD                                     :  
RHOB               .G/C3                                   : Плотность по ГГК-П 
RT                 .ohmm                                   : Description 
SOIL_ARCHIE        .v/v                                    :  
SOIL_DW            .v/v                                    :  
SP                 .мВ                                     : Потенциал самополяризации 
VSH_FIN            .v/v                                    : Описание 
VSH_GR             .v/v                                    : Shale volume 
VSH_SP             .v/v                                    : Shale Volume 
~Ascii
# ...
1229.7     
  0.239      -9999      -9999      314.104    8.002038   1.19       
  1.7216     1.551      1.3469     1.1571     0.9742     1.48       
  2.07       2.2        2.61       2.79       1.64       0.1236373  
  0.06878539 0.08149143 0          0.1248648  0.1636394  0.05262964 
  1.350073   2.344      0.9742     0          0          250.2      
  0.5132682  0.5739644  0.452572  
1229.9     
  0.238      -9999      -9999      314.615    8.150676   1.28       
  1.6853     1.5449     1.3975     1.2661     1.0632     1.62       
  2.05       2.3        2.71       2.48       1.61       0.1366373  
  0.06170782 0.07596354 0          0.1091599  0.1663273  0.03891675 
  1.07845    2.334      1.0632     0          0          247.1      
  0.5652453  0.6291018  0.5013889 
1230.1     
  0.242      -9999      -9999      316.962    8.171837   1.32       
  1.51       1.4001     1.3447     1.2667     1.1405     1.45       
  1.91       2.25       2.65       2.24       1.61       0.1506373  
  0.06481989 0.08573177 0          0.1087279  0.1751475  0.04444058 
  1.044506   2.314      1.1405     0          0          246.4      
  0.5752109  0.6373709  0.5130509 
1230.3     
  0.243      -9999      -9999      318.165    8.112804   1.32       
  1.5016     1.3755     1.3195     1.2779     1.1989     1.58       
  1.88       2.14       2.6        2.39       1.62       0.1876373  
  0.06222167 0.07843064 0          0.1082344  0.185502   0.03977905 
  1.141974   2.324      1.1989     0          0          244.4      
  0.5811377  0.6145697  0.5477058 
1230.5     
  0.243      -9999      -9999      317.936    8.05221    1.27       
  1.4111     1.3331     1.2816     1.2693     1.2251     1.44       
  1.58       2.03       2.36       2.19       1.59       0.1746373  
  0.06802963 0.09627827 0          0.1078106  0.1870316  0.05096029 
  1.25149    2.294      1.2251     0          0          243.1      
  0.5816632  0.5920131  0.5713133 
1230.7     
  0.24       -9999      -9999      320.059    8.052696   1.27       
  1.415      1.3408     1.2704     1.2648     1.237      1.49       
  1.57       2.07       2.4        2.2        1.58       0.1996373  
  0.0617651  0.07106686 0.005812976 0.1084155  0.1877567  0.03901195 
  1.25057    2.334      1.237      0          0          242.5      
  0.5873466  0.5921909  0.5825023 
1230.9     
  0.24       -9999      -9999      314.522    8.129008   1.24       
  1.2849     1.2532     1.2202     1.2348     1.2465     1.42       
  1.48       2.24       2.33       2.29       1.59       0.1556373  
  0.05301945 0.06170695 0          0.09735141 0.1678726  0.02686624 
  1.114349   2.344      1.2465     0          0          242.4      
  0.6025656  0.6207459  0.5843854 
1231.1     
  0.241      -9999      -9999      317.433    8.227531   1.23       
  1.2717     1.2812     1.2638     1.2779     1.2862     1.4        
  1.33       2.15       2.17       2.32       1.6        0.1696373  
  0.05459759 0.07281214 0          0.09098063 0.1773528  0.02873676 
  0.9601875  2.314      1.2862     0          0          241.2      
  0.6335239  0.6596579  0.6073898 
1231.3     
  0.241      -9999      -9999      318.591    8.243655   1.3        
  1.396      1.3807     1.3505     1.3331     1.3398     1.52       
  1.33       2.12       2.24       2.15       1.59       0.1366373  
  0.05339474 0.07077561 0          0.08940861 0.1661106  0.02729972 
  0.9370724  2.314      1.3398     0          0          240.6      
  0.6427158  0.6662543  0.6191772 
1231.5     
  0.244      -9999      -9999      318.767    8.130524   1.34       
  1.3462     1.3718     1.3569     1.3537     1.3678     1.46       
  1.36       2.17       2.25       2.28       1.6        0.1496373  
  0.0548733  0.0655128  0          0.09910709 0.1687558  0.02907667 
  1.111799   2.334      1.3678     0          0          241.4      
  0.6124149  0.6213267  0.6035031 
1231.7     
  0.244      -9999      -9999      322.058    8.015647   1.46       
  1.3937     1.4138     1.4073     1.3963     1.3766     1.51       
  1.37       2.08       2.19       2.37       1.56       0.2426373  
  0.08400319 0.09438993 0.04787588 0.1097438  0.2106039  0.1007166  
  1.32259    2.294      1.3766     0          0          241.5      
  0.5901862  0.5788049  0.6015676 
1231.9     
  0.246      -9999      -9999      320.344    8.035877   1.43       
  1.332      1.374      1.3729     1.3755     1.3707     1.47       
  1.32       2.16       2.15       2          1.58       0.1596373  
  0.05296261 0.05188198 0          0.1070059  0.1681344  0.02680119 
  1.282765   2.364      1.3707     0          0          241.6      
  0.5928568  0.5860762  0.5996373 
1232.1     
  0.241      -9999      -9999      327.457    8.116316   1.49       
  1.3223     1.3733     1.3773     1.366      1.3469     1.43       
  1.17       1.85       2          2.11       1.57       0.1806373  
  0.06971013 0.09754249 0          0.1115879  0.1929403  0.0547468  
  1.13593    2.284      1.3469     0          0          242.1      
  0.6029841  0.6159028  0.5900654 
1232.3     
  0.234      -9999      -9999      326.744    8.157672   1.54       
  1.2942     1.3689     1.3722     1.3616     1.3334     1.43       
  1.2        2.13       2.1        2.33       1.57       0.1636373  
  0.05007206 0.04188649 0          0.1083297  0.1684676  0.02369268 
  1.067107   2.374      1.3334     0          0          242.1      
  0.6109446  0.6318237  0.5900654 
1232.5     
  0.233      -9999      -9999      324.6      8.205223   1.62       
  1.325      1.3631     1.3483     1.3458     1.3334     1.39       
  1.1        2.16       2.06       2.2        1.57       0.2056373  
  0.05110449 0.05114374 0          0.1021697  0.1847824  0.02475924 
  0.9931111  2.354      1.3334     0          0          241.8      
  0.6232159  0.6506388  0.5957928 
1232.7     
  0.231      -9999      -9999      329.578    8.272931   1.73       
  1.3098     1.3458     1.3398     1.3529     1.3512     1.41       
  1.17       2.15       2.08       1.82       1.59       0.1236373  
  0.04110313 0.01897302 0          0.1043364  0.1485     0.01616172 
  0.8965163  2.404      1.3512     0          0          242.2      
  0.6332838  0.6784006  0.588167  
1232.9     
  0.23       -9999      -9999      326.465    8.284155   1.71       
  1.3098     1.3829     1.3656     1.3918     1.3982     1.39       
  1.16       2.1        2.05       2.07       1.54       0.1676373  
  0.04140605 0.02422841 0          0.09998973 0.1638151  0.01637188 
  0.8814375  2.394      1.3982     0          0          242.1      
  0.6365905  0.6831157  0.5900654 
1233.1     
  0.229      -9999      -9999      324.103    8.227466   1.73       
  1.3223     1.3799     1.381      1.4138     1.4549     1.36       
  1.14       2.04       2.04       2.08       1.56       0.1666373  
  0.04931167 0.04563188 0          0.1023031  0.169765   0.02293664 
  0.9602831  2.364      1.4549     0          0          242.5      
  0.6210667  0.6596311  0.5825023 
1233.3     
  0.228      -9999      -9999      326.836    8.110252   1.72       
  1.3174     1.4001     1.4281     1.4821     1.5194     1.32       
  1.14       1.98       2.06       2.4        1.62       0.1406373  
  0.05254945 0.04141439 0          0.116234   0.1606764  0.02633306 
  1.146387   2.384      1.5194     0          0          243.8      
  0.5860484  0.6136025  0.5584942 
1233.5     
  0.228      -9999      -9999      327.295    7.860301   1.5        
  1.4013     1.5258     1.58       1.5914     1.5506     1.29       
  1.25       1.98       2.11       2.4        1.58       0.1916373  
  0.06960044 0.05929427 0.01595381 0.1335532  0.1838     0.05449129 
  1.672576   2.374      1.5506     0          0          244.9      
  0.5323743  0.525894   0.5388545 
1233.7     
  0.22       -9999      -9999      332.247    7.400788   1.46       
  1.8865     1.8813     1.7784     1.6116     1.4493     1.6        
  1.58       2          2.43       2.36       1.58       0.1876373  
  0.1160904  0.1098492  0.05692891 0.1814932  0.2010548  0.3957626  
  3.349531   2.34       1.4493     0          0.05521366 254.2      
  0.3960862  0.396046   0.3961262 
