~Version
 VERS              .         2.0                           : CWLS LOG ASCII STANDARD - VERSION 2.0
 WRAP              .         YES                            : ONE LINE PER DEPTH STEP
 DLM               .         SPACE                         : DELIMITING CHARACTER(SPACE TAB OR COMMA)
~Well Information
#_______________________________________________________________________________
#
#PARAMETER_NAME    .UNIT     VALUE                         : DESCRIPTION
#_______________________________________________________________________________
STRT               .M        3.3                           : First reference value
STOP               .M        1269.1                        : Last reference value
STEP               .M        0.2                           : Step increment
NULL               .         -9999                         : Missing value
COMP               .                                       : Company
WELL               .         4766                          : Well name
FLD                .         Узень                         : Field
LOC                .                                       : Location
CNTY               .                                       : County
STAT               .                                       : State
CTRY               .                                       : Country
SRVC               .                                       : Service Company
DATE               .                                       : Date
UWI                .                                       : Unique Well ID
Block              .         7                             : 
Category           .         Нефтяная                      : 
Condition          .         В работе                      : 
Date               .         30.06.2012                    : 
EREF               .m        83.1                          : 100.8
GRP                .                                       : Group name
Gorizont           .         15                            : 14
ISS                .                                       : Well surveys
Interpretator      .         Торегалиев А.Е.               : 
Kupol              .         Основной                      : osnovnoi
Mud                .         0                             : 
Mud_density        .         0                             : 
Mud_resistivity    .         0                             : 
NGDU               .         НГДУ-2                        : 
ORIGINALWELLNAME   .         4766                          : 
Person             .         Almas                         : 
Spud_date          .         2012                          : 1961
TIME               .                                       : LOG TIME
Viscosity          .         0                             : 
X                  .m        43034.77                      : 46154
Y                  .m        83958.33                      : 85761.93
YEAR               .         2019                          : 
~Parameter Information Block
#_______________________________________________________________________________
#
#PARAMETER_NAME    .UNIT     VALUE                         : DESCRIPTION
#_______________________________________________________________________________
SET                .         LQC_KAZNIPI_Petrel            : 
TLFamily_CALI      .         Caliper                       : 
TLFamily_COLL      .         Net Reservoir Flag            : 
TLFamily_CSAT      .         Fluid Code                    : 
TLFamily_DEPT      .         Measured Depth                : 
TLFamily_DT        .         Compressional Slowness        : 
TLFamily_GR        .         Russian Gamma Ray             : 
TLFamily_GZ3       .         Gradient 225                  : 
TLFamily_IK1       .         Resistivity 05                : 
TLFamily_IK2       .         Resistivity 07                : 
TLFamily_IK3       .         Resistivity 10                : 
TLFamily_IK4       .         Resistivity 14                : 
TLFamily_IK5       .         Resistivity 20                : 
TLFamily_LLS       .         Lateral Log Resistivity       : 
TLFamily_MBK       .         Micro Lateral Log Resistivity : 
TLFamily_MINV      .         Micro Gradient Resistivity    : 
TLFamily_MNOR      .         Micro Resistivity             : 
TLFamily_NNKTb     .         Neutron Far                   : 
TLFamily_NNKTm     .         Neutron Near                  : 
TLFamily_NPHI      .         Neutron Porosity              : 
TLFamily_PHIE      .         Effective Porosity            : 
TLFamily_PHIED     .         Effective Porosity            : 
TLFamily_PHIEN     .         Effective Porosity            : 
TLFamily_PHIES     .         Effective Porosity            : 
TLFamily_PHIT      .         Porosity                      : 
TLFamily_PRMB      .         Permeability                  : 
TLFamily_PRMB_DGR  .         Permeability                  : 
TLFamily_RHOB      .         Bulk Density                  : 
TLFamily_RT        .         Formation Resistivity         : 
TLFamily_SOIL_ARCHIE .         Oil Saturation                : 
TLFamily_SOIL_DW   .         Oil Saturation                : 
TLFamily_SP        .         Spontaneous Potential         : 
TLFamily_VSH_FIN   .         Shale Volume                  : 
TLFamily_VSH_GR    .         Shale Volume                  : 
TLFamily_VSH_SP    .         Shale Volume                  : 
~Curve Information
#_______________________________________________________________________________
#
#LOGNAME           .UNIT     LOG_ID                        : DESCRIPTION
#_______________________________________________________________________________
DEPT               .M                                      : Колонка глубины 
CALI               .м                                      : Каверномер 
COLL               .unitless                               : Описание 
CSAT               .unitless                               : Описание 
DT                 .мкс/м                                  : Интервальное время пробега продольной волны 
GR                 .uR/h                                   : Гамма каротаж 
GZ3                .Ohmm                                   : Градиент-зонд  длиной 2.25м 
IK1                .Ohmm                                   : И0.10И0.40 
IK2                .Ohmm                                   : И0.14И0.56 
IK3                .Ohmm                                   : И0.20И0.8 
IK4                .Ohmm                                   : И0.28И1.12 
IK5                .Ohmm                                   : И0.40И1.60 
LLS                .Ohmm                                   : Боковой каротаж 
MBK                .Ohmm                                   : Микробоковой каротаж 
MINV               .Ohmm                                   : Микро-градиент зонд 
MNOR               .Ohmm                                   : Микро-потенциал зонд 
NNKTb              .у.е.                                   : Показания большого зонда 2ННКт аппаратуры СРК 
NNKTm              .у.е.                                   : Показания малого зонда 2ННКт аппаратуры СРК 
NPHI               .v/v                                    : Total porosity 
PHIE               .v/v                                    : Описание 
PHIED              .v/v                                    :  
PHIEN              .v/v                                    :  
PHIES              .v/v                                    :  
PHIT               .v/v                                    : Описание 
PRMB               .mD                                     :  
PRMB_DGR           .mD                                     :  
RHOB               .G/C3                                   : Плотность по ГГК-П 
RT                 .ohmm                                   : Description 
SOIL_ARCHIE        .v/v                                    :  
SOIL_DW            .v/v                                    :  
SP                 .мВ                                     : Потенциал самополяризации 
VSH_FIN            .v/v                                    : Описание 
VSH_GR             .v/v                                    : Shale volume 
VSH_SP             .v/v                                    : Shale Volume 
~Ascii
# ...
1091.1     
  0.215      -9999      -9999      285.714    8.083607   3.08       
  3.1689     2.9491     2.9114     3.2535     3.6768     3.72       
  4.12       3.29       3.53       2.78       1.65       0.2206373  
  0.1059341  0.1333466  0.07408955 0.1103661  0.2011945  0.2566342  
  1.491733   2.283      3.6768     0.1423551  0.3769303  269        
  0.4440842  0.551049   0.3371194 
1091.3     
  0.213      -9999      -9999      304.828    7.959431   3.73       
  3.6673     3.5018     3.4188     3.9639     4.634      4.28       
  3.79       3.25       3.6        2.62       1.65       0.2336373  
  0.1165544  0.1183837  0.09155963 0.1397199  0.2089092  0.4036721  
  1.791262   2.313      4.634      0.2920303  0.4774728  267.9      
  0.4305385  0.5113765  0.3497005 
1091.5     
  0.213      -9999      -9999      305.277    7.661329   4.74       
  4.4224     4.6688     4.5285     5.1193     6.0438     5.45       
  4.55       3.55       3.88       2.76       1.68       0.2296373  
  0.1206761  0.1090703  0.1004444  0.1525136  0.2046553  0.4812514  
  2.779287   2.343      6.0438     0.393629   0.5430704  267.4      
  0.3914937  0.4274067  0.3555807 
1091.7     
  0.213      6          6          295.815    7.254822   6.16       
  5.7183     6.469399   6.369      6.44       7.4556     7.15       
  5.37       3.81       4.15       2.54       1.72       0.2056373  
  0.1375977  0.1718563  0.0887337  0.1522029  0.2135885  0.9903772  
  5.059206   2.383      7.4556     0.5098612  0.6195813  265.9      
  0.3542534  0.3346677  0.3738391 
1091.9     
  0.216      6          6          274.484    6.913492   7.84       
  7.556901   8.799199   8.4049     7.725599   8.383      9.55       
  7.08       4.26       4.53       3.31       1.74       0.1746373  
  0.1094505  0.1359281  0.0641645  0.1282589  0.1812611  0.2981584  
  8.366056   2.443      8.383      0.4337705  0.5660857  264.1      
  0.3347661  0.2725324  0.3969999 
1092.1     
  0.218      6          6          279.63     6.779476   8.99       
  8.992      9.5611     8.9317     8.033      8.3396     12.78      
  9.84       4.83       4.98       3.42       1.9        0.2116373  
  0.1285828  0.1538921  0.09847887 0.1333773  0.2021392  0.6742536  
  10.19263   2.413      8.3396     0.5066966  0.617981   261.4      
  0.3429044  0.2514185  0.4343904 
1092.3     
  0.21       1          2          302.999    6.857202   9.37       
  7.943699   8.3161     8.2432     7.7063     7.737      9.38       
  6.78       4.01       4.36       3.1        1.9        0.2116373  
  0.1556186  0.1970059  0.1017816  0.1680683  0.2270281  2.135956   
  9.089595   2.341      7.737      0.5672712  0.6574466  263.7      
  0.3328961  0.2634563  0.4023361 
1092.5     
  0.21       1          2          340.863    7.007146   9.23       
  6.9207     7.5365     7.9538     7.8326     7.4647     8.16       
  5.84       3.99       4.3        2.28       1.71       0.2836373  
  0.2089197  0.2257485  0.1826122  0.2183984  0.274589   20.74233   
  7.287622   2.293      7.4647     0.6595077  0.7238438  270.2      
  0.3061368  0.2883311  0.3239425 
1092.7     
  0.21       1          2          331.015    7.100686   8.95       
  6.0371     7.0597     8.0862     8.3919     7.7082     7.56       
  5.35       3.87       4.23       2.43       1.64       0.2696373  
  0.217883   0.2676646  0.1732062  0.2127781  0.2805661  30.40041   
  6.349275   2.223      7.7082     0.6766478  0.7362975  274.7      
  0.2922157  0.3050248  0.2794066 
1092.9     
  0.211      1          2          317.5      7.158384   8.89       
  6.2136     7.1445     8.5826     9.002001   8.0043     7.75       
  5.44       3.8        4.18       2.59       1.61       0.2646374  
  0.1960472  0.2227544  0.167752   0.1976353  0.2590256  11.97921   
  5.831756   2.298      8.0043     0.6517124  0.7166713  275.6      
  0.2935921  0.3158005  0.2713837 
1093.1     
  0.21       1          2          322.248    7.251536   8.98       
  6.636199   7.3366     8.448799   9.002001   7.9337     8.39       
  5.51       4.05       4.36       2.47       1.67       0.2536373  
  0.1854111  0.2023952  0.1537479  0.2000901  0.2503422  7.610634   
  5.083766   2.332      7.9337     0.6328509  0.7028722  275.6      
  0.3026952  0.3340066  0.2713837 
1093.3     
  0.21       8          2          324.873    7.374043   9.12       
  6.5453     6.9027     7.3831     7.872      7.2852     8.43       
  5.61       4.18       4.5        2.47       1.7        0.2306373  
  0.1717795  0.1904192  0.1262419  0.1986774  0.2396396  4.255307   
  4.2441     2.352      7.2852     0.5915811  0.6716657  275.4      
  0.3163498  0.3595575  0.2731421 
1093.5     
  0.21       8          2          333.761    7.508338   8.96       
  5.5506     5.5201     5.6696     6.1844     6.1997     6.52       
  4.74       4.06       4.35       2.38       1.67       0.2906373  
  0.1894736  0.1844312  0.1809564  0.2030331  0.2607694  9.05041    
  3.482101   2.362      6.1997     0.5955129  0.6747472  275.2      
  0.3323663  0.3898183  0.2749143 
1093.7     
  0.21       8          2          339.336    7.662979   8.76       
  4.1901     4.0871     4.312      4.8694     5.3346     4.78       
  4.1        3.89       4.11       2.4        1.64       0.2896373  
  0.1950195  0.2083832  0.1738307  0.2028445  0.2702972  11.46547   
  2.772536   2.322      5.3346     0.5767272  0.6607378  275.3      
  0.350929   0.4278314  0.2740266 
1093.9     
  0.209      8          2          344.833    7.776671   8.78       
  3.636      3.6854     4.0222     4.6194     5.146599   4.49       
  3.66       3.78       4          2.43       1.67       0.2796373  
  0.1854641  0.1964072  0.1576443  0.2023409  0.2647632  7.627877   
  2.344868   2.342      5.146599   0.5502877  0.6430508  274.5      
  0.3696759  0.4581234  0.2812285 
1094.1     
  0.21       8          2          348.732    7.761484   9.4        
  3.9297     4.0649     4.4141     4.9326     5.412701   5.04       
  4.21       3.87       4.09       2.19       1.69       0.2796373  
  0.1833589  0.1862276  0.1577237  0.2061256  0.2626064  6.972847   
  2.397938   2.359      5.412701   0.5564129  0.6486093  274.1      
  0.3694353  0.4539559  0.2849147 
1094.3     
  0.208      8          2          347.899    7.663119   9.63       
  4.3934     4.2317     4.368701   4.9326     5.4753     5.57       
  4.74       4.01       4.19       2.61       1.61       0.2556373  
  0.1733044  0.1724551  0.1380283  0.2094299  0.2497538  4.541261   
  2.771965   2.382      5.4753     0.5365881  0.6317046  274.1      
  0.356391   0.4278673  0.2849147 
1094.5     
  0.213      8          2          347.47     7.61881    8.97       
  3.6991     3.6102     3.6705     4.2434     5.0896     4.29       
  3.97       3.83       3.94       2.35       1.63       0.2336373  
  0.1731305  0.1904192  0.1180386  0.2109338  0.2482731  4.507705   
  2.958992   2.352      5.0896     0.520008   0.6165062  274.2      
  0.3502992  0.4166107  0.2839877 
1094.7     
  0.209      8          2          349.005    7.666073   8.33       
  3.7055     3.5949     3.5145     4.0649     4.8851     4.21       
  3.17       3.4        3.67       2.39       1.63       0.2216373  
  0.1763616  0.2197605  0.1013741  0.2079502  0.2545363  5.173713   
  2.759924   2.303      4.8851     0.5184985  0.6171839  272.5      
  0.3644342  0.4286286  0.3002397 
1094.9     
  0.209      8          2          339.09     7.703879   8.7        
  3.4822     3.5166     3.754      4.3799     5.2421     4.63       
  3.97       3.65       3.85       2.56       1.69       0.2226373  
  0.1709252  0.2161677  0.1002554  0.1963527  0.2504771  4.103061   
  2.610373   2.309      5.2421     0.5212969  0.6221059  272.2      
  0.3708544  0.4384909  0.303218  
1095.1     
  0.208      8          2          309.492    7.670114   9.47       
  4.1519     4.2317     4.8658     5.3499     5.8936     5.63       
  4.62       3.68       3.92       2.53       1.65       0.1726373  
  0.1440764  0.2137725  0.05236449 0.1660921  0.2222573  1.305575   
  2.743539   2.313      5.8936     0.4741902  0.5898543  272.6      
  0.3644632  0.429672   0.2992544 
