~Version
 VERS              .         2.0                           : CWLS LOG ASCII STANDARD - VERSION 2.0
 WRAP              .         YES                            : ONE LINE PER DEPTH STEP
 DLM               .         SPACE                         : DELIMITING CHARACTER(SPACE TAB OR COMMA)
~Well Information
#_______________________________________________________________________________
#
#PARAMETER_NAME    .UNIT     VALUE                         : DESCRIPTION
#_______________________________________________________________________________
STRT               .M        3.3                           : First reference value
STOP               .M        1269.1                        : Last reference value
STEP               .M        0.2                           : Step increment
NULL               .         -9999                         : Missing value
COMP               .                                       : Company
WELL               .         4766                          : Well name
FLD                .         Узень                         : Field
LOC                .                                       : Location
CNTY               .                                       : County
STAT               .                                       : State
CTRY               .                                       : Country
SRVC               .                                       : Service Company
DATE               .                                       : Date
UWI                .                                       : Unique Well ID
Block              .         7                             : 
Category           .         Нефтяная                      : 
Condition          .         В работе                      : 
Date               .         30.06.2012                    : 
EREF               .m        83.1                          : 100.8
GRP                .                                       : Group name
Gorizont           .         15                            : 14
ISS                .                                       : Well surveys
Interpretator      .         Торегалиев А.Е.               : 
Kupol              .         Основной                      : osnovnoi
Mud                .         0                             : 
Mud_density        .         0                             : 
Mud_resistivity    .         0                             : 
NGDU               .         НГДУ-2                        : 
ORIGINALWELLNAME   .         4766                          : 
Person             .         Almas                         : 
Spud_date          .         2012                          : 1961
TIME               .                                       : LOG TIME
Viscosity          .         0                             : 
X                  .m        43034.77                      : 46154
Y                  .m        83958.33                      : 85761.93
YEAR               .         2019                          : 
~Parameter Information Block
#_______________________________________________________________________________
#
#PARAMETER_NAME    .UNIT     VALUE                         : DESCRIPTION
#_______________________________________________________________________________
SET                .         LQC_KAZNIPI_Petrel            : 
TLFamily_CALI      .         Caliper                       : 
TLFamily_COLL      .         Net Reservoir Flag            : 
TLFamily_CSAT      .         Fluid Code                    : 
TLFamily_DEPT      .         Measured Depth                : 
TLFamily_DT        .         Compressional Slowness        : 
TLFamily_GR        .         Russian Gamma Ray             : 
TLFamily_GZ3       .         Gradient 225                  : 
TLFamily_IK1       .         Resistivity 05                : 
TLFamily_IK2       .         Resistivity 07                : 
TLFamily_IK3       .         Resistivity 10                : 
TLFamily_IK4       .         Resistivity 14                : 
TLFamily_IK5       .         Resistivity 20                : 
TLFamily_LLS       .         Lateral Log Resistivity       : 
TLFamily_MBK       .         Micro Lateral Log Resistivity : 
TLFamily_MINV      .         Micro Gradient Resistivity    : 
TLFamily_MNOR      .         Micro Resistivity             : 
TLFamily_NNKTb     .         Neutron Far                   : 
TLFamily_NNKTm     .         Neutron Near                  : 
TLFamily_NPHI      .         Neutron Porosity              : 
TLFamily_PHIE      .         Effective Porosity            : 
TLFamily_PHIED     .         Effective Porosity            : 
TLFamily_PHIEN     .         Effective Porosity            : 
TLFamily_PHIES     .         Effective Porosity            : 
TLFamily_PHIT      .         Porosity                      : 
TLFamily_PRMB      .         Permeability                  : 
TLFamily_PRMB_DGR  .         Permeability                  : 
TLFamily_RHOB      .         Bulk Density                  : 
TLFamily_RT        .         Formation Resistivity         : 
TLFamily_SOIL_ARCHIE .         Oil Saturation                : 
TLFamily_SOIL_DW   .         Oil Saturation                : 
TLFamily_SP        .         Spontaneous Potential         : 
TLFamily_VSH_FIN   .         Shale Volume                  : 
TLFamily_VSH_GR    .         Shale Volume                  : 
TLFamily_VSH_SP    .         Shale Volume                  : 
~Curve Information
#_______________________________________________________________________________
#
#LOGNAME           .UNIT     LOG_ID                        : DESCRIPTION
#_______________________________________________________________________________
DEPT               .M                                      : Колонка глубины 
CALI               .м                                      : Каверномер 
COLL               .unitless                               : Описание 
CSAT               .unitless                               : Описание 
DT                 .мкс/м                                  : Интервальное время пробега продольной волны 
GR                 .uR/h                                   : Гамма каротаж 
GZ3                .Ohmm                                   : Градиент-зонд  длиной 2.25м 
IK1                .Ohmm                                   : И0.10И0.40 
IK2                .Ohmm                                   : И0.14И0.56 
IK3                .Ohmm                                   : И0.20И0.8 
IK4                .Ohmm                                   : И0.28И1.12 
IK5                .Ohmm                                   : И0.40И1.60 
LLS                .Ohmm                                   : Боковой каротаж 
MBK                .Ohmm                                   : Микробоковой каротаж 
MINV               .Ohmm                                   : Микро-градиент зонд 
MNOR               .Ohmm                                   : Микро-потенциал зонд 
NNKTb              .у.е.                                   : Показания большого зонда 2ННКт аппаратуры СРК 
NNKTm              .у.е.                                   : Показания малого зонда 2ННКт аппаратуры СРК 
NPHI               .v/v                                    : Total porosity 
PHIE               .v/v                                    : Описание 
PHIED              .v/v                                    :  
PHIEN              .v/v                                    :  
PHIES              .v/v                                    :  
PHIT               .v/v                                    : Описание 
PRMB               .mD                                     :  
PRMB_DGR           .mD                                     :  
RHOB               .G/C3                                   : Плотность по ГГК-П 
RT                 .ohmm                                   : Description 
SOIL_ARCHIE        .v/v                                    :  
SOIL_DW            .v/v                                    :  
SP                 .мВ                                     : Потенциал самополяризации 
VSH_FIN            .v/v                                    : Описание 
VSH_GR             .v/v                                    : Shale volume 
VSH_SP             .v/v                                    : Shale Volume 
~Ascii
# ...
1007.1     
  0.297      -9999      -9999      355.855    7.144466   1.76       
  1.275      1.3956     1.4438     1.492      1.5254     1.55       
  1.71       2.32       1.81       2.51       1.59       -9999      
  0.1709753  0.1430992  -9999      0.1988515  0.23581    4.11184    
  6.51529    2.278      1.5254     0.1458434  0.2742446  249        
  0.4135791  0.3018269  0.5253314 
1007.3     
  0.287      -9999      -9999      336.155    7.245286   1.81       
  1.3591     1.5012     1.5585     1.5923     1.571      1.62       
  1.62       2.14       1.7        2.35       1.54       -9999      
  0.152844   0.1288678  -9999      0.1768201  0.2192743  1.897576   
  5.626107   2.298      1.571      0.07116843 0.218319   248.9      
  0.4237584  0.320464   0.5270528 
1007.5     
  0.27       -9999      -9999      321.718    7.235326   1.87       
  1.5629     1.7694     1.8268     1.8444     1.7666     1.8        
  1.88       2.54       1.9        2.63       1.62       -9999      
  0.1382077  0.1195621  -9999      0.1568534  0.2069856  1.016484   
  5.70825    2.308      1.7666     0.04038533 0.2052257  247.1      
  0.438733   0.3185728  0.5588931 
1007.7     
  0.26       -9999      -9999      333.5      7.313872   1.85       
  1.7403     1.8297     1.8807     1.9121     1.8324     1.96       
  2.08       3.05       2.17       2.71       1.68       -9999      
  0.1352423  0.1048875  -9999      0.1655971  0.2059295  0.8957226  
  5.091623   2.328      1.8324     0.03872374 0.2103091  246.6      
  0.4509129  0.3337961  0.5680296 
1007.9     
  0.257      -9999      -9999      348.368    7.568429   1.91       
  1.4493     1.5519     1.5701     1.6201     1.6685     1.72       
  1.87       2.57       1.86       2.25       1.67       -9999      
  0.1362487  0.09965905 -9999      0.1728383  0.2106353  0.9350048  
  3.515249   2.328      1.6685     0.001977708 0.185915   247        
  0.4745117  0.3883131  0.5607103 
1008.1     
  0.267      -9999      -9999      343.882    7.806436   1.85       
  1.3057     1.4146     1.4266     1.461      1.5058     1.57       
  1.68       2.2        1.63       2.16       1.55       -9999      
  0.129789   0.0960835  -9999      0.1634945  0.2067056  0.7098485  
  2.486098   2.328      1.5058     0          0.1162029  248.5      
  0.49065    0.4473124  0.5339876 
1008.3     
  0.266      -9999      -9999      340.255    7.797235   1.89       
  1.2177     1.3359     1.3885     1.4184     1.4581     1.52       
  1.64       2.12       1.55       2.39       1.49       -9999      
  0.1448947  0.1311129  -9999      0.1586765  0.2224473  1.351947   
  2.519612   2.268      1.4581     0          0.1777276  247.9      
  0.4947067  0.4448732  0.5445403 
1008.5     
  0.271      -9999      -9999      338.276    7.565571   1.98       
  1.2769     1.4069     1.4719     1.4929     1.5271     1.57       
  1.64       2.09       1.55       2.39       1.54       -9999      
  0.1458144  0.1256717  -9999      0.1659572  0.2187431  1.40603    
  3.529904   2.288      1.5271     0.01933173 0.1905665  248        
  0.4652114  0.387654   0.5427688 
1008.7     
  0.281      -9999      -9999      341.938    7.333695   2.12       
  1.4142     1.5405     1.6065     1.6457     1.6328     1.71       
  1.78       2.29       1.72       2.48       1.57       -9999      
  0.1311858  0.08749741 -9999      0.1748742  0.2014669  0.7534199  
  4.946825   2.358      1.6328     0          0.1419274  247.1      
  0.4483224  0.3377517  0.5588931 
1008.9     
  0.286      -9999      -9999      337.412    7.254344   2.13       
  1.5271     1.638      1.6626     1.712      1.6963     1.78       
  1.86       2.57       1.82       2.38       1.59       -9999      
  0.1323012  0.0937879  -9999      0.1708144  0.2023683  0.790126   
  5.552416   2.348      1.6963     0          0.1632527  246.4      
  0.4469572  0.3221939  0.5717204 
1009.1     
  0.296      -9999      -9999      335.422    7.307282   2.08       
  1.4817     1.5996     1.6121     1.6769     1.6912     1.78       
  1.91       2.53       1.82       2.42       1.6        -9999      
  0.1393936  0.1110201  -9999      0.1677672  0.2099786  1.069218   
  5.140692   2.318      1.6912     0.02780247 0.1973799  246.6      
  0.4502605  0.3324914  0.5680296 
1009.3     
  0.295      -9999      -9999      328.837    7.408107   1.94       
  1.4776     1.6295     1.6695     1.7018     1.732      1.72       
  1.83       2.4        1.82       2.31       1.58       -9999      
  0.1272441  0.09676956 -9999      0.1577187  0.1994384  0.6368366  
  4.439073   2.338      1.732      0          0.1514044  246.6      
  0.4605264  0.3530231  0.5680296 
1009.5     
  0.268      -9999      -9999      326.012    7.55158    1.96       
  1.6813     1.8074     1.8494     1.8241     1.7991     1.93       
  1.99       2.65       1.92       2.51       1.6        -9999      
  0.1220315  0.09720971 -9999      0.1468532  0.1981512  0.5098904  
  3.60252    2.328      1.7991     0          0.1499388  245.6      
  0.4855668  0.3844441  0.5866895 
1009.7     
  0.284      -9999      -9999      331.113    7.758774   2.02       
  1.5612     1.6908     1.7309     1.7482     1.7403     1.83       
  1.95       2.65       1.9        2.66       1.64       -9999      
  0.119998   0.09328739 -9999      0.1467086  0.198893   0.4675327  
  2.664671   2.328      1.7403     0          0.1317988  246.4      
  0.5032703  0.4348201  0.5717204 
1009.9     
  0.308      -9999      -9999      341.839    7.940325   1.94       
  1.4776     1.5598     1.5809     1.6033     1.6037     1.73       
  1.82       2.6        1.86       2.07       1.61       -9999      
  0.1304549  0.1079841  -9999      0.1529258  0.2116618  0.7302975  
  2.045926   2.298      1.6037     0          0.1573782  247.5      
  0.5180176  0.4843591  0.5516761 
1010.1     
  0.321      -9999      -9999      332.645    7.960225   1.95       
  1.2159     1.3609     1.4227     1.5029     1.534      1.55       
  1.64       2.18       1.68       2.09       1.57       -9999      
  0.1241886  0.09960751 -9999      0.1487698  0.2028487  0.5590272  
  1.987521   2.318      1.534      0          0.09859494 249.7      
  0.5017713  0.4901212  0.5134213 
1010.3     
  0.31       -9999      -9999      326.162    7.828875   1.99       
  1.4304     1.5941     1.6309     1.6467     1.6093     1.7        
  1.64       2.19       1.72       2.25       1.53       -9999      
  0.105444   0.06586339 -9999      0.1450246  0.1825587  0.2513254  
  2.406216   2.378      1.6093     0          0          248.7      
  0.4919139  0.4533175  0.5305102 
1010.5     
  0.288      -9999      -9999      327.662    7.698501   2.05       
  1.4801     1.6409     1.6922     1.7242     1.7175     1.77       
  1.85       2.49       1.81       2.49       1.59       -9999      
  0.1231462  0.09740121 -9999      0.1488912  0.1991305  0.534718   
  2.908982   2.328      1.7175     0          0.1357059  247.6      
  0.4847025  0.4195205  0.5498844 
1010.7     
  0.291      -9999      -9999      339.875    7.709191   2.01       
  1.5016     1.6015     1.6452     1.6858     1.6983     1.8        
  1.88       2.54       1.84       2.34       1.58       -9999      
  0.1238846  0.09281793 -9999      0.1549513  0.2031118  0.5518255  
  2.864074   2.328      1.6983     0          0.143129   245.5      
  0.5053892  0.4221942  0.5885841 
1010.9     
  0.292      -9999      -9999      357.852    7.866638   1.97       
  1.4234     1.5741     1.601      1.6486     1.6675     1.7        
  1.75       2.46       1.79       2.04       1.59       -9999      
  0.1342977  0.1014571  -9999      0.1671383  0.2158859  0.8603525  
  2.277539   2.308      1.6675     0          0.1928394  246.1      
  0.5204504  0.4636059  0.5772948 
1011.1     
  0.291      -9999      -9999      352.598    8.039869   2.04       
  1.4297     1.5768     1.6196     1.6486     1.6655     1.72       
  1.77       2.48       1.83       2.39       1.52       -9999      
  0.1246903  0.09547346 -9999      0.1539072  0.2105123  0.5711173  
  1.769987   2.308      1.6655     0          0.1553096  245.9      
  0.5474574  0.5138776  0.5810373 
