~Version
 VERS              .         2.0                           : CWLS LOG ASCII STANDARD - VERSION 2.0
 WRAP              .         YES                            : ONE LINE PER DEPTH STEP
 DLM               .         SPACE                         : DELIMITING CHARACTER(SPACE TAB OR COMMA)
~Well Information
#_______________________________________________________________________________
#
#PARAMETER_NAME    .UNIT     VALUE                         : DESCRIPTION
#_______________________________________________________________________________
STRT               .M        3.3                           : First reference value
STOP               .M        1269.1                        : Last reference value
STEP               .M        0.2                           : Step increment
NULL               .         -9999                         : Missing value
COMP               .                                       : Company
WELL               .         4766                          : Well name
FLD                .         Узень                         : Field
LOC                .                                       : Location
CNTY               .                                       : County
STAT               .                                       : State
CTRY               .                                       : Country
SRVC               .                                       : Service Company
DATE               .                                       : Date
UWI                .                                       : Unique Well ID
Block              .         7                             : 
Category           .         Нефтяная                      : 
Condition          .         В работе                      : 
Date               .         30.06.2012                    : 
EREF               .m        83.1                          : 100.8
GRP                .                                       : Group name
Gorizont           .         15                            : 14
ISS                .                                       : Well surveys
Interpretator      .         Торегалиев А.Е.               : 
Kupol              .         Основной                      : osnovnoi
Mud                .         0                             : 
Mud_density        .         0                             : 
Mud_resistivity    .         0                             : 
NGDU               .         НГДУ-2                        : 
ORIGINALWELLNAME   .         4766                          : 
Person             .         Almas                         : 
Spud_date          .         2012                          : 1961
TIME               .                                       : LOG TIME
Viscosity          .         0                             : 
X                  .m        43034.77                      : 46154
Y                  .m        83958.33                      : 85761.93
YEAR               .         2019                          : 
~Parameter Information Block
#_______________________________________________________________________________
#
#PARAMETER_NAME    .UNIT     VALUE                         : DESCRIPTION
#_______________________________________________________________________________
SET                .         LQC_KAZNIPI_Petrel            : 
TLFamily_CALI      .         Caliper                       : 
TLFamily_COLL      .         Net Reservoir Flag            : 
TLFamily_CSAT      .         Fluid Code                    : 
TLFamily_DEPT      .         Measured Depth                : 
TLFamily_DT        .         Compressional Slowness        : 
TLFamily_GR        .         Russian Gamma Ray             : 
TLFamily_GZ3       .         Gradient 225                  : 
TLFamily_IK1       .         Resistivity 05                : 
TLFamily_IK2       .         Resistivity 07                : 
TLFamily_IK3       .         Resistivity 10                : 
TLFamily_IK4       .         Resistivity 14                : 
TLFamily_IK5       .         Resistivity 20                : 
TLFamily_LLS       .         Lateral Log Resistivity       : 
TLFamily_MBK       .         Micro Lateral Log Resistivity : 
TLFamily_MINV      .         Micro Gradient Resistivity    : 
TLFamily_MNOR      .         Micro Resistivity             : 
TLFamily_NNKTb     .         Neutron Far                   : 
TLFamily_NNKTm     .         Neutron Near                  : 
TLFamily_NPHI      .         Neutron Porosity              : 
TLFamily_PHIE      .         Effective Porosity            : 
TLFamily_PHIED     .         Effective Porosity            : 
TLFamily_PHIEN     .         Effective Porosity            : 
TLFamily_PHIES     .         Effective Porosity            : 
TLFamily_PHIT      .         Porosity                      : 
TLFamily_PRMB      .         Permeability                  : 
TLFamily_PRMB_DGR  .         Permeability                  : 
TLFamily_RHOB      .         Bulk Density                  : 
TLFamily_RT        .         Formation Resistivity         : 
TLFamily_SOIL_ARCHIE .         Oil Saturation                : 
TLFamily_SOIL_DW   .         Oil Saturation                : 
TLFamily_SP        .         Spontaneous Potential         : 
TLFamily_VSH_FIN   .         Shale Volume                  : 
TLFamily_VSH_GR    .         Shale Volume                  : 
TLFamily_VSH_SP    .         Shale Volume                  : 
~Curve Information
#_______________________________________________________________________________
#
#LOGNAME           .UNIT     LOG_ID                        : DESCRIPTION
#_______________________________________________________________________________
DEPT               .M                                      : Колонка глубины 
CALI               .м                                      : Каверномер 
COLL               .unitless                               : Описание 
CSAT               .unitless                               : Описание 
DT                 .мкс/м                                  : Интервальное время пробега продольной волны 
GR                 .uR/h                                   : Гамма каротаж 
GZ3                .Ohmm                                   : Градиент-зонд  длиной 2.25м 
IK1                .Ohmm                                   : И0.10И0.40 
IK2                .Ohmm                                   : И0.14И0.56 
IK3                .Ohmm                                   : И0.20И0.8 
IK4                .Ohmm                                   : И0.28И1.12 
IK5                .Ohmm                                   : И0.40И1.60 
LLS                .Ohmm                                   : Боковой каротаж 
MBK                .Ohmm                                   : Микробоковой каротаж 
MINV               .Ohmm                                   : Микро-градиент зонд 
MNOR               .Ohmm                                   : Микро-потенциал зонд 
NNKTb              .у.е.                                   : Показания большого зонда 2ННКт аппаратуры СРК 
NNKTm              .у.е.                                   : Показания малого зонда 2ННКт аппаратуры СРК 
NPHI               .v/v                                    : Total porosity 
PHIE               .v/v                                    : Описание 
PHIED              .v/v                                    :  
PHIEN              .v/v                                    :  
PHIES              .v/v                                    :  
PHIT               .v/v                                    : Описание 
PRMB               .mD                                     :  
PRMB_DGR           .mD                                     :  
RHOB               .G/C3                                   : Плотность по ГГК-П 
RT                 .ohmm                                   : Description 
SOIL_ARCHIE        .v/v                                    :  
SOIL_DW            .v/v                                    :  
SP                 .мВ                                     : Потенциал самополяризации 
VSH_FIN            .v/v                                    : Описание 
VSH_GR             .v/v                                    : Shale volume 
VSH_SP             .v/v                                    : Shale Volume 
~Ascii
# ...
839.1      
  0.221      -9999      -9999      307.952    7.967049   5.38       
  -9999      -9999      -9999      -9999      -9999      -9999      
  -9999      -9999      -9999      2.51       1.74       -9999      
  -9999      -9999      -9999      -9999      -9999      -9999      
  -9999      -9999      -9999      -9999      -9999      248        
  -9999      0.2128455  0.02      
839.3      
  0.22       -9999      -9999      296.168    8.019383   5.49       
  -9999      -9999      -9999      -9999      -9999      -9999      
  -9999      -9999      -9999      2.66       1.72       -9999      
  -9999      -9999      -9999      -9999      -9999      -9999      
  -9999      -9999      -9999      -9999      -9999      248.4      
  -9999      0.2566541  0.02      
839.5      
  0.217      -9999      -9999      335.624    7.972423   5.49       
  -9999      -9999      -9999      -9999      -9999      -9999      
  -9999      -9999      -9999      2.54       1.62       -9999      
  -9999      -9999      -9999      -9999      -9999      -9999      
  -9999      -9999      -9999      -9999      -9999      250.1      
  -9999      0.2465643  0.02      
839.7000000000001 
  0.212      -9999      -9999      350.5      7.80207    5.47       
  -9999      -9999      -9999      -9999      -9999      -9999      
  -9999      -9999      -9999      2.53       1.66       -9999      
  -9999      -9999      -9999      -9999      -9999      -9999      
  -9999      -9999      -9999      -9999      -9999      250.3      
  -9999      0.2171568  0.02      
839.9      
  0.214      -9999      -9999      334.905    7.570001   6.03       
  -9999      -9999      -9999      -9999      -9999      -9999      
  -9999      -9999      -9999      2.43       1.73       -9999      
  -9999      -9999      -9999      -9999      -9999      -9999      
  -9999      -9999      -9999      -9999      -9999      254.1      
  -9999      0.1523755  0.02      
840.1      
  0.211      -9999      -9999      344.684    7.358716   7.21       
  3.2229     3.4321     3.8001     4.0067     3.9649     -9999      
  -9999      -9999      -9999      2.94       1.75       -9999      
  -9999      -9999      -9999      -9999      -9999      -9999      
  -9999      -9999      -9999      -9999      -9999      257.6      
  -9999      0.1513604  0.02      
840.3      
  0.211      -9999      -9999      345.567    7.232123   8.37       
  5.849      6.0224     5.6395     5.23       4.594      5.91       
  3.23       3.15       3.99       3.69       1.84       -9999      
  -9999      -9999      -9999      -9999      -9999      -9999      
  -9999      2.494      4.59       -9999      -9999      258.2      
  -9999      0.1297907  0.02      
840.5      
  0.211      -9999      -9999      354.567    7.28564    8.09       
  6.6439     5.9502     4.9733     4.6869     4.2721     9.07       
  5.59       4.68       5.16       3.78       2.07       -9999      
  -9999      -9999      -9999      -9999      -9999      -9999      
  -9999      2.594      4.27       -9999      -9999      255.2      
  -9999      0.100677   0.02      
840.7000000000001 
  0.216      -9999      -9999      399.302    7.570768   6.07       
  2.907      3.086      3.0505     3.1404     3.2597     3.3        
  2.98       2.78       3.36       3.05       1.96       -9999      
  -9999      -9999      -9999      -9999      -9999      -9999      
  -9999      2.474      3.26       -9999      -9999      255.9      
  -9999      0.1640016  0.02      
840.9      
  0.223      -9999      -9999      430.241    7.96295    4.68       
  2.5318     2.8274     2.8026     2.7746     2.8346     2.55       
  1.78       2.33       2.6        2.38       1.62       -9999      
  -9999      -9999      -9999      -9999      -9999      -9999      
  -9999      2.464      2.83       -9999      -9999      251.5      
  -9999      0.2432901  0.02      
841.1      
  0.219      -9999      -9999      421.205    8.259255   4.35       
  2.2731     2.6732     2.8389     2.8468     2.8325     2.66       
  1.86       2.6        2.76       2.23       1.65       -9999      
  -9999      -9999      -9999      -9999      -9999      -9999      
  -9999      2.474      2.83       -9999      -9999      249.7      
  -9999      0.3375753  0.02      
841.3      
  0.222      -9999      -9999      416.228    8.377622   4.18       
  2.0624     2.3933     2.7058     2.8061     2.8218     2.62       
  1.73       2.42       2.65       2.09       1.6        -9999      
  -9999      -9999      -9999      -9999      -9999      -9999      
  -9999      2.424      2.82       -9999      -9999      249.1      
  -9999      0.3053696  0.02      
841.5      
  0.223      -9999      -9999      417.924    8.373934   3.95       
  1.8877     2.1764     2.4519     2.703      2.7629     2.48       
  1.63       2.24       2.53       2.15       1.56       -9999      
  -9999      -9999      -9999      -9999      -9999      -9999      
  -9999      2.414      2.76       -9999      -9999      250        
  -9999      0.2725682  0.02      
841.7000000000001 
  0.228      -9999      -9999      402.208    8.285431   3.61       
  1.8771     2.2342     2.4159     2.699      2.7732     2.34       
  1.39       2.1        2.26       2.23       1.52       -9999      
  -9999      -9999      -9999      -9999      -9999      -9999      
  -9999      2.394      2.77       -9999      -9999      250.4      
  -9999      0.328669   0.02      
841.9      
  0.229      -9999      -9999      389.13     8.095187   3.56       
  2.0937     2.5642     2.7629     2.9196     2.9613     2.44       
  1.47       2.11       2.36       2.19       1.51       -9999      
  -9999      -9999      -9999      -9999      -9999      -9999      
  -9999      2.354      2.96       -9999      -9999      250.6      
  -9999      0.263609   0.02      
842.1      
  0.219      -9999      -9999      358.395    7.878241   3.51       
  3.2412     3.3925     3.2623     3.1304     3.1362     3.19       
  1.77       2.19       2.74       2.41       1.65       -9999      
  -9999      -9999      -9999      -9999      -9999      -9999      
  -9999      2.334      3.14       -9999      -9999      251.8      
  -9999      0.1812979  0.02      
842.3      
  0.22       -9999      -9999      339.677    7.781796   3.51       
  2.7423     2.7788     2.7341     2.7539     2.9728     3.03       
  2.31       2.79       3.24       2.72       1.71       -9999      
  -9999      -9999      -9999      -9999      -9999      -9999      
  -9999      2.364      2.97       -9999      -9999      253.2      
  -9999      0.1523755  0.02      
842.5      
  0.233      -9999      -9999      351.378    7.812062   3.5        
  2.3092     2.3916     2.3873     2.4757     2.6523     2.66       
  2.04       2.58       2.95       2.59       1.68       -9999      
  -9999      -9999      -9999      -9999      -9999      -9999      
  -9999      2.414      2.65       -9999      -9999      253.3      
  -9999      0.2384598  0.02      
842.7000000000001 
  0.245      -9999      -9999      352.989    7.836153   3.61       
  2.2762     2.4288     2.4023     2.4582     2.5761     2.47       
  1.77       2.48       2.79       2.37       1.62       -9999      
  -9999      -9999      -9999      -9999      -9999      -9999      
  -9999      2.364      2.58       -9999      -9999      251.1      
  -9999      0.2200794  0.02      
842.9      
  0.225      -9999      -9999      357.226    7.793089   3.78       
  2.4091     2.5439     2.5446     2.5661     2.6582     2.68       
  1.9        2.74       3.15       2.25       1.66       -9999      
  -9999      -9999      -9999      -9999      -9999      -9999      
  -9999      2.304      2.66       -9999      -9999      249.9      
  -9999      0.1837379  0.02      
843.1      
  0.228      -9999      -9999      357.294    7.715745   4.24       
  2.4658     2.6693     2.728      2.7663     2.826      2.7        
  2          2.9        3.07       2.4        1.68       -9999      
  -9999      -9999      -9999      -9999      -9999      -9999      
  -9999      2.354      2.83       -9999      -9999      249.9      
  -9999      0.20723    0.02      
