~Version
 VERS              .         2.0                           : CWLS LOG ASCII STANDARD - VERSION 2.0
 WRAP              .         YES                            : ONE LINE PER DEPTH STEP
 DLM               .         SPACE                         : DELIMITING CHARACTER(SPACE TAB OR COMMA)
~Well Information
#_______________________________________________________________________________
#
#PARAMETER_NAME    .UNIT     VALUE                         : DESCRIPTION
#_______________________________________________________________________________
STRT               .M        3.3                           : First reference value
STOP               .M        1269.1                        : Last reference value
STEP               .M        0.2                           : Step increment
NULL               .         -9999                         : Missing value
COMP               .                                       : Company
WELL               .         4766                          : Well name
FLD                .         Узень                         : Field
LOC                .                                       : Location
CNTY               .                                       : County
STAT               .                                       : State
CTRY               .                                       : Country
SRVC               .                                       : Service Company
DATE               .                                       : Date
UWI                .                                       : Unique Well ID
Block              .         7                             : 
Category           .         Нефтяная                      : 
Condition          .         В работе                      : 
Date               .         30.06.2012                    : 
EREF               .m        83.1                          : 100.8
GRP                .                                       : Group name
Gorizont           .         15                            : 14
ISS                .                                       : Well surveys
Interpretator      .         Торегалиев А.Е.               : 
Kupol              .         Основной                      : osnovnoi
Mud                .         0                             : 
Mud_density        .         0                             : 
Mud_resistivity    .         0                             : 
NGDU               .         НГДУ-2                        : 
ORIGINALWELLNAME   .         4766                          : 
Person             .         Almas                         : 
Spud_date          .         2012                          : 1961
TIME               .                                       : LOG TIME
Viscosity          .         0                             : 
X                  .m        43034.77                      : 46154
Y                  .m        83958.33                      : 85761.93
YEAR               .         2019                          : 
~Parameter Information Block
#_______________________________________________________________________________
#
#PARAMETER_NAME    .UNIT     VALUE                         : DESCRIPTION
#_______________________________________________________________________________
SET                .         LQC_KAZNIPI_Petrel            : 
TLFamily_CALI      .         Caliper                       : 
TLFamily_COLL      .         Net Reservoir Flag            : 
TLFamily_CSAT      .         Fluid Code                    : 
TLFamily_DEPT      .         Measured Depth                : 
TLFamily_DT        .         Compressional Slowness        : 
TLFamily_GR        .         Russian Gamma Ray             : 
TLFamily_GZ3       .         Gradient 225                  : 
TLFamily_IK1       .         Resistivity 05                : 
TLFamily_IK2       .         Resistivity 07                : 
TLFamily_IK3       .         Resistivity 10                : 
TLFamily_IK4       .         Resistivity 14                : 
TLFamily_IK5       .         Resistivity 20                : 
TLFamily_LLS       .         Lateral Log Resistivity       : 
TLFamily_MBK       .         Micro Lateral Log Resistivity : 
TLFamily_MINV      .         Micro Gradient Resistivity    : 
TLFamily_MNOR      .         Micro Resistivity             : 
TLFamily_NNKTb     .         Neutron Far                   : 
TLFamily_NNKTm     .         Neutron Near                  : 
TLFamily_NPHI      .         Neutron Porosity              : 
TLFamily_PHIE      .         Effective Porosity            : 
TLFamily_PHIED     .         Effective Porosity            : 
TLFamily_PHIEN     .         Effective Porosity            : 
TLFamily_PHIES     .         Effective Porosity            : 
TLFamily_PHIT      .         Porosity                      : 
TLFamily_PRMB      .         Permeability                  : 
TLFamily_PRMB_DGR  .         Permeability                  : 
TLFamily_RHOB      .         Bulk Density                  : 
TLFamily_RT        .         Formation Resistivity         : 
TLFamily_SOIL_ARCHIE .         Oil Saturation                : 
TLFamily_SOIL_DW   .         Oil Saturation                : 
TLFamily_SP        .         Spontaneous Potential         : 
TLFamily_VSH_FIN   .         Shale Volume                  : 
TLFamily_VSH_GR    .         Shale Volume                  : 
TLFamily_VSH_SP    .         Shale Volume                  : 
~Curve Information
#_______________________________________________________________________________
#
#LOGNAME           .UNIT     LOG_ID                        : DESCRIPTION
#_______________________________________________________________________________
DEPT               .M                                      : Колонка глубины 
CALI               .м                                      : Каверномер 
COLL               .unitless                               : Описание 
CSAT               .unitless                               : Описание 
DT                 .мкс/м                                  : Интервальное время пробега продольной волны 
GR                 .uR/h                                   : Гамма каротаж 
GZ3                .Ohmm                                   : Градиент-зонд  длиной 2.25м 
IK1                .Ohmm                                   : И0.10И0.40 
IK2                .Ohmm                                   : И0.14И0.56 
IK3                .Ohmm                                   : И0.20И0.8 
IK4                .Ohmm                                   : И0.28И1.12 
IK5                .Ohmm                                   : И0.40И1.60 
LLS                .Ohmm                                   : Боковой каротаж 
MBK                .Ohmm                                   : Микробоковой каротаж 
MINV               .Ohmm                                   : Микро-градиент зонд 
MNOR               .Ohmm                                   : Микро-потенциал зонд 
NNKTb              .у.е.                                   : Показания большого зонда 2ННКт аппаратуры СРК 
NNKTm              .у.е.                                   : Показания малого зонда 2ННКт аппаратуры СРК 
NPHI               .v/v                                    : Total porosity 
PHIE               .v/v                                    : Описание 
PHIED              .v/v                                    :  
PHIEN              .v/v                                    :  
PHIES              .v/v                                    :  
PHIT               .v/v                                    : Описание 
PRMB               .mD                                     :  
PRMB_DGR           .mD                                     :  
RHOB               .G/C3                                   : Плотность по ГГК-П 
RT                 .ohmm                                   : Description 
SOIL_ARCHIE        .v/v                                    :  
SOIL_DW            .v/v                                    :  
SP                 .мВ                                     : Потенциал самополяризации 
VSH_FIN            .v/v                                    : Описание 
VSH_GR             .v/v                                    : Shale volume 
VSH_SP             .v/v                                    : Shale Volume 
~Ascii
# ...
923.1      
  0.223      -9999      -9999      325.827    5.885784   3.06       
  1.9455     2.0931     2.2288     2.3585     2.4588     2.14       
  1.81       2.59       2.06       2.89       1.64       -9999      
  0.1431104  0.1322912  -9999      0.1539296  0.2155923  1.252881   
  4.19793    2.278      2.4588     0.2028638  0.3516643  240.2      
  0.4623611  0.3611671  0.5635552 
923.3      
  0.217      -9999      -9999      299.412    5.335084   3.12       
  2.5779     2.7871     3.0031     3.1081     2.9476     3.08       
  2.22       3.66       2.74       3.82       1.93       -9999      
  0.1271206  0.1143324  -9999      0.1399089  0.1911251  0.6334911  
  13.10171   2.328      2.9476     0.1883006  0.3325911  238.8      
  0.4082834  0.2269195  0.5896474 
923.5      
  0.216      -9999      -9999      296.36     4.78795    3.24       
  3.1287     3.2351     3.2783     3.4379     3.3626     3.49       
  2.53       3.94       3.01       4.26       2.13       -9999      
  0.152258   0.1568862  -9999      0.1476298  0.2104346  1.850742   
  40.59013   2.408      3.3626     0.3479231  0.4517665  238.3      
  0.3711078  0.1430021  0.5992134 
923.7000000000001 
  0.217      -9999      -9999      285.535    4.532696   3.44       
  3.099      3.158      3.2783     3.4065     3.3905     3.47       
  3.09       4.55       3.4        4.6        2.18       -9999      
  0.144119   0.1508982  -9999      0.1373398  0.2001234  1.307951   
  68.7907    2.418      3.3905     0.3186115  0.4247793  238.3      
  0.3572514  0.1152894  0.5992134 
923.9      
  0.217      -9999      -9999      303.854    4.662965   3.59       
  2.9682     3.0641     3.0266     3.0235     3.077      3.37       
  3.02       4.83       3.51       3.82       2.18       -9999      
  0.1590388  0.1568862  -9999      0.1611914  0.2151948  2.471398   
  52.55376   2.408      3.077      0.3455043  0.4444716  238.9      
  0.3582184  0.1286869  0.58775   
924.1      
  0.217      -9999      -9999      344.881    5.0339     3.43       
  2.6562     2.699      2.6504     2.6036     2.7078     2.81       
  2.44       3.92       2.75       3.34       2.05       -9999      
  0.205115   0.2107784  -9999      0.1994516  0.2645349  17.6354    
  24.41532   2.318      2.7078     0.4431724  0.5278099  239.2      
  0.3790388  0.1759889  0.5820888 
924.3      
  0.218      -9999      -9999      346.293    5.37153    3.34       
  1.7849     1.9548     2.1326     2.2509     2.374      2.28       
  2.07       3.26       2.31       2.91       1.83       -9999      
  0.1829868  0.1742648  -9999      0.1917088  0.2469544  6.863063   
  12.15109   2.228      2.374      0.3457974  0.4494783  239.2      
  0.4080481  0.2340074  0.5820888 
924.5      
  0.224      -9999      -9999      347.026    5.475518   3.21       
  1.8302     2.0821     2.2153     2.2601     2.2997     2.21       
  1.63       2.51       1.97       2.48       1.69       -9999      
  0.1619962  0.1355413  -9999      0.188451   0.2279415  2.803628   
  9.801188   2.288      2.2997     0.2616215  0.3834371  239        
  0.4206644  0.2554712  0.5858576 
924.7000000000001 
  0.221      -9999      -9999      332.643    5.343415   3.18       
  2.2394     2.3487     2.4159     2.422      2.3707     2.58       
  1.87       3.11       2.35       3.07       1.85       -9999      
  0.1532417  0.1271763  -9999      0.179307   0.216632   1.930036   
  12.87806   2.308      2.3707     0.2359944  0.3598059  239.3      
  0.4043663  0.2285205  0.5802121 
924.9      
  0.231      -9999      -9999      317.925    5.085798   3.39       
  1.7013     1.8252     1.9578     2.1822     2.351      2.08       
  1.81       2.75       2.07       3.14       1.87       -9999      
  0.2001485  0.2287425  -9999      0.1715545  0.2594546  14.26901   
  21.93213   2.288      2.351      0.3921618  0.482213   239.7      
  0.3783127  0.183868   0.5727574 
925.1      
  0.221      -9999      -9999      310.451    4.79346    3.79       
  2.1468     2.2709     2.3973     2.5735     2.6138     2.47       
  1.71       3.15       2.27       3.22       1.77       -9999      
  0.199281   0.2347305  -9999      0.1638316  0.2581171  13.75073   
  40.13052   2.278      2.6138     0.4194554  0.5065582  237.9      
  0.375315   0.1436687  0.6069613 
925.3      
  0.218      -9999      -9999      288.778    4.603106   4.27       
  3.4159     3.5796     3.399      3.3535     3.2438     3.34       
  2.36       4.41       2.97       3.95       1.96       -9999      
  0.1687004  0.1988024  -9999      0.1385985  0.2263252  3.731633   
  59.47453   2.338      3.2438     0.3934864  0.4873762  237.6      
  0.3675875  0.1223477  0.6128274 
925.5      
  0.216      -9999      -9999      254.866    4.714947   4.42       
  3.7055     3.4522     3.4705     3.3897     3.2756     4.07       
  3.75       6.84       4.24       4.33       2.26       -9999      
  0.1394686  0.1928143  -9999      0.08612292 0.1969755  1.072643   
  47.20047   2.348      3.2756     0.28743    0.4012495  238.3      
  0.3668356  0.1344578  0.5992134 
925.7000000000001 
  0.218      -9999      -9999      314.575    5.125227   4.04       
  2.3641     2.4634     2.4641     2.5131     2.6858     2.7        
  2.71       4          2.59       3          2.03       -9999      
  0.1652081  0.1663167  -9999      0.1640996  0.2263257  3.21524    
  20.21576   2.248      2.6858     0.3251252  0.4317216  238.8      
  0.3898682  0.1900892  0.5896474 
925.9      
  0.22       -9999      -9999      338.52     5.499205   3.61       
  1.8268     2.0066     2.0964     2.1969     2.3543     2.28       
  2.06       2.82       1.89       2.62       1.65       -9999      
  0.1930927  0.2068263  -9999      0.1793591  0.2594423  10.56095   
  9.332932   2.168      2.3543     0.3732747  0.4747564  239        
  0.4232435  0.2606294  0.5858576 
926.1      
  0.224      -9999      -9999      321.994    5.515674   3.18       
  2.0451     2.3213     2.399      2.434      2.4658     2.34       
  1.79       2.76       2.13       2.92       1.7        -9999      
  0.1574906  0.1529476  -9999      0.1620336  0.2238307  2.313478   
  9.020611   2.258      2.4658     0.2676208  0.3911226  239.2      
  0.4231829  0.264277   0.5820888 
926.3      
  0.221      -9999      -9999      354.137    5.220113   3.24       
  2.4364     2.596      2.8541     2.8796     2.7879     2.96       
  2.44       4.32       3.06       3.57       2.02       -9999      
  0.1642054  0.1241041  -9999      0.2043067  0.2255326  3.080639   
  16.61586   2.318      2.7879     0.3333126  0.4396648  239.5      
  0.3912056  0.2059368  0.5764744 
926.5      
  0.224      -9999      -9999      360.514    4.898314   3.39       
  2.5538     2.7642     2.943      3.0164     2.9636     2.78       
  2.29       3.79       2.76       3.78       2.03       -9999      
  0.2156009  0.2167664  -9999      0.2144354  0.2747208  27.581     
  32.31182   2.308      2.9636     0.4889477  0.5675774  238.4      
  0.3771254  0.1569609  0.5972899 
926.7000000000001 
  0.217      -9999      -9999      349.953    4.734764   3.25       
  3.3079     3.0982     3.0148     3.0497     2.9137     3.61       
  2.81       6.05       4.11       3.59       2.15       -9999      
  0.1975792  0.1868263  -9999      0.208332   0.2549626  12.78803   
  45.30637   2.358      2.9137     0.4441683  0.5275958  238.5      
  0.3660483  0.1367254  0.5953713 
926.9      
  0.223      -9999      -9999      331.839    4.719773   3.09       
  1.8324     1.9989     2.1172     2.3487     2.5986     2.18       
  2.17       3.59       2.48       3.55       2.03       -9999      
  0.2106434  0.2287425  -9999      0.1925443  0.2669985  22.32462   
  46.73198   2.288      2.5986     0.4453104  0.5258952  239.1      
  0.3594885  0.1350066  0.5839704 
927.1      
  0.224      -9999      -9999      303.285    4.746811   3.16       
  2.3873     2.5275     2.61       2.555      2.6195     2.52       
  1.81       2.94       2.24       3.03       1.82       -9999      
  0.1940225  0.2287425  -9999      0.1593025  0.2507697  10.98816   
  44.19223   2.288      2.6195     0.4063824  0.493107   239        
  0.3619901  0.1381225  0.5858576 
