~Version
 VERS              .         2.0                           : CWLS LOG ASCII STANDARD - VERSION 2.0
 WRAP              .         YES                            : ONE LINE PER DEPTH STEP
 DLM               .         SPACE                         : DELIMITING CHARACTER(SPACE TAB OR COMMA)
~Well Information
#_______________________________________________________________________________
#
#PARAMETER_NAME    .UNIT     VALUE                         : DESCRIPTION
#_______________________________________________________________________________
STRT               .M        3.3                           : First reference value
STOP               .M        1269.1                        : Last reference value
STEP               .M        0.2                           : Step increment
NULL               .         -9999                         : Missing value
COMP               .                                       : Company
WELL               .         4766                          : Well name
FLD                .         Узень                         : Field
LOC                .                                       : Location
CNTY               .                                       : County
STAT               .                                       : State
CTRY               .                                       : Country
SRVC               .                                       : Service Company
DATE               .                                       : Date
UWI                .                                       : Unique Well ID
Block              .         7                             : 
Category           .         Нефтяная                      : 
Condition          .         В работе                      : 
Date               .         30.06.2012                    : 
EREF               .m        83.1                          : 100.8
GRP                .                                       : Group name
Gorizont           .         15                            : 14
ISS                .                                       : Well surveys
Interpretator      .         Торегалиев А.Е.               : 
Kupol              .         Основной                      : osnovnoi
Mud                .         0                             : 
Mud_density        .         0                             : 
Mud_resistivity    .         0                             : 
NGDU               .         НГДУ-2                        : 
ORIGINALWELLNAME   .         4766                          : 
Person             .         Almas                         : 
Spud_date          .         2012                          : 1961
TIME               .                                       : LOG TIME
Viscosity          .         0                             : 
X                  .m        43034.77                      : 46154
Y                  .m        83958.33                      : 85761.93
YEAR               .         2019                          : 
~Parameter Information Block
#_______________________________________________________________________________
#
#PARAMETER_NAME    .UNIT     VALUE                         : DESCRIPTION
#_______________________________________________________________________________
SET                .         LQC_KAZNIPI_Petrel            : 
TLFamily_CALI      .         Caliper                       : 
TLFamily_COLL      .         Net Reservoir Flag            : 
TLFamily_CSAT      .         Fluid Code                    : 
TLFamily_DEPT      .         Measured Depth                : 
TLFamily_DT        .         Compressional Slowness        : 
TLFamily_GR        .         Russian Gamma Ray             : 
TLFamily_GZ3       .         Gradient 225                  : 
TLFamily_IK1       .         Resistivity 05                : 
TLFamily_IK2       .         Resistivity 07                : 
TLFamily_IK3       .         Resistivity 10                : 
TLFamily_IK4       .         Resistivity 14                : 
TLFamily_IK5       .         Resistivity 20                : 
TLFamily_LLS       .         Lateral Log Resistivity       : 
TLFamily_MBK       .         Micro Lateral Log Resistivity : 
TLFamily_MINV      .         Micro Gradient Resistivity    : 
TLFamily_MNOR      .         Micro Resistivity             : 
TLFamily_NNKTb     .         Neutron Far                   : 
TLFamily_NNKTm     .         Neutron Near                  : 
TLFamily_NPHI      .         Neutron Porosity              : 
TLFamily_PHIE      .         Effective Porosity            : 
TLFamily_PHIED     .         Effective Porosity            : 
TLFamily_PHIEN     .         Effective Porosity            : 
TLFamily_PHIES     .         Effective Porosity            : 
TLFamily_PHIT      .         Porosity                      : 
TLFamily_PRMB      .         Permeability                  : 
TLFamily_PRMB_DGR  .         Permeability                  : 
TLFamily_RHOB      .         Bulk Density                  : 
TLFamily_RT        .         Formation Resistivity         : 
TLFamily_SOIL_ARCHIE .         Oil Saturation                : 
TLFamily_SOIL_DW   .         Oil Saturation                : 
TLFamily_SP        .         Spontaneous Potential         : 
TLFamily_VSH_FIN   .         Shale Volume                  : 
TLFamily_VSH_GR    .         Shale Volume                  : 
TLFamily_VSH_SP    .         Shale Volume                  : 
~Curve Information
#_______________________________________________________________________________
#
#LOGNAME           .UNIT     LOG_ID                        : DESCRIPTION
#_______________________________________________________________________________
DEPT               .M                                      : Колонка глубины 
CALI               .м                                      : Каверномер 
COLL               .unitless                               : Описание 
CSAT               .unitless                               : Описание 
DT                 .мкс/м                                  : Интервальное время пробега продольной волны 
GR                 .uR/h                                   : Гамма каротаж 
GZ3                .Ohmm                                   : Градиент-зонд  длиной 2.25м 
IK1                .Ohmm                                   : И0.10И0.40 
IK2                .Ohmm                                   : И0.14И0.56 
IK3                .Ohmm                                   : И0.20И0.8 
IK4                .Ohmm                                   : И0.28И1.12 
IK5                .Ohmm                                   : И0.40И1.60 
LLS                .Ohmm                                   : Боковой каротаж 
MBK                .Ohmm                                   : Микробоковой каротаж 
MINV               .Ohmm                                   : Микро-градиент зонд 
MNOR               .Ohmm                                   : Микро-потенциал зонд 
NNKTb              .у.е.                                   : Показания большого зонда 2ННКт аппаратуры СРК 
NNKTm              .у.е.                                   : Показания малого зонда 2ННКт аппаратуры СРК 
NPHI               .v/v                                    : Total porosity 
PHIE               .v/v                                    : Описание 
PHIED              .v/v                                    :  
PHIEN              .v/v                                    :  
PHIES              .v/v                                    :  
PHIT               .v/v                                    : Описание 
PRMB               .mD                                     :  
PRMB_DGR           .mD                                     :  
RHOB               .G/C3                                   : Плотность по ГГК-П 
RT                 .ohmm                                   : Description 
SOIL_ARCHIE        .v/v                                    :  
SOIL_DW            .v/v                                    :  
SP                 .мВ                                     : Потенциал самополяризации 
VSH_FIN            .v/v                                    : Описание 
VSH_GR             .v/v                                    : Shale volume 
VSH_SP             .v/v                                    : Shale Volume 
~Ascii
# ...
977.7000000000001 
  0.221      -9999      -9999      357.959    6.890226   1.29       
  0.9017     1.0153     1.0784     1.1011     1.1003     1.34       
  1.21       1.45       1.26       1.96       1.5        -9999      
  0.1099134  0.1057849  -9999      0.1140418  0.2180976  0.3041027  
  0.5265942  2.238      1.1003     0          0          239.3      
  0.690106   0.8        0.5802121 
977.9      
  0.217      -9999      -9999      358.155    6.829776   1.22       
  0.9676     1.0995     1.1717     1.1932     1.1557     1.42       
  1.26       1.49       1.31       2.02       1.49       -9999      
  0.09248886 0.07373977 -9999      0.1112379  0.2021625  0.1446359  
  0.5966696  2.288      1.1557     0          0          238.3      
  0.6996067  0.8        0.5992134 
978.1      
  0.218      -9999      -9999      361.423    6.723918   1.32       
  1.0527     1.1714     1.2289     1.2455     1.2092     1.47       
  1.33       1.53       1.36       2.19       1.54       -9999      
  0.1129508  0.1000148  -9999      0.1258869  0.2167441  0.3461637  
  0.7425908  2.258      1.2092     0          0          238.7      
  0.6620958  0.7326414  0.5915502 
978.3      
  0.216      -9999      -9999      365.012    6.577989   1.35       
  1.0483     1.1703     1.208      1.2366     1.2478     1.49       
  1.36       1.64       1.4        2.7        1.63       -9999      
  0.1025825  0.06557944 -9999      0.1395856  0.2010825  0.2224512  
  1.003994   2.328      1.2478     0          0          237.8      
  0.6283305  0.6477497  0.6089112 
978.5      
  0.218      -9999      -9999      353.692    6.296865   1.46       
  1.0409     1.1998     1.3003     1.3616     1.4181     1.53       
  1.36       1.67       1.44       2.49       1.57       -9999      
  0.1186002  0.08650601 -9999      0.1506945  0.2065304  0.4404761  
  1.794984   2.318      1.4181     0          0.05537937 237.7      
  0.5609051  0.5109434  0.6108668 
978.7000000000001 
  0.21       -9999      -9999      344.763    5.823549   1.61       
  1.7539     2.0472     2.1284     1.9849     1.8702     2.03       
  1.5        2.31       1.78       3.09       1.65       -9999      
  0.1219496  0.07520502 -9999      0.1686942  0.1966914  0.5081128  
  4.774142   2.368      1.8702     0          0.1623337  237.7      
  0.4767773  0.3426877  0.6108668 
978.9      
  0.211      -9999      -9999      340.985    5.36502    1.79       
  2.2561     2.4495     2.5892     2.5293     2.3235     2.72       
  2.52       4.64       2.43       3.94       2.06       -9999      
  0.125054   0.07578948 -9999      0.1743185  0.1951454  0.5800448  
  12.31568   2.378      2.3235     0.07937645 0.2525526  235.2      
  0.4471123  0.2327253  0.6614993 
979.1      
  0.212      -9999      -9999      348.876    5.263422   1.8        
  2.314      2.5059     2.5101     2.3983     2.2363     2.52       
  2.47       3.03       2.14       3.7        2.05       -9999      
  0.1415025  0.0967946  -9999      0.1862104  0.2094422  1.169843   
  15.19322   2.348      2.2363     0.1583398  0.305236   235.6      
  0.4333864  0.2136029  0.6531699 
979.3      
  0.219      -9999      -9999      424.315    5.611802   1.79       
  1.59       1.8364     1.8912     1.8743     1.7969     2.18       
  1.97       3.66       2.33       3.13       1.96       -9999      
  0.1565093  0.07455685 -9999      0.2384618  0.2274729  2.218658   
  7.395275   2.378      1.7969     0.1457347  0.2916718  237.3      
  0.4526758  0.2866099  0.6187417 
979.5      
  0.225      -9999      -9999      407.905    6.189331   1.71       
  1.0537     1.2131     1.3023     1.3465     1.396      1.52       
  1.25       1.53       1.46       2.55       1.66       -9999      
  0.1637844  0.1131415  -9999      0.2144272  0.241342   3.02581    
  2.241712   2.298      1.396      0.07560784 0.2382765  242.5      
  0.4947394  0.4666172  0.5228615 
979.7000000000001 
  0.227      -9999      -9999      407.802    6.666098   1.54       
  0.9428     1.1274     1.2408     1.268      1.258      1.41       
  1.11       1.37       1.27       2.1        1.5        -9999      
  0.1490379  0.1149936  -9999      0.1830821  0.2422327  1.613247   
  0.8368486  2.258      1.258      0          0.1681084  244.4      
  0.5944884  0.6977502  0.4912267 
979.9      
  0.228      -9999      -9999      446.302    6.829882   1.64       
  0.9559     1.1525     1.2723     1.304      1.2875     1.42       
  1.13       1.45       1.39       2.16       1.49       -9999      
  0.1318369  0.07318596 -9999      0.1904879  0.2334286  0.7746355  
  0.5965397  2.308      1.2875     0          0.1170783  244.1      
  0.6480523  0.8        0.4961046 
980.1      
  0.224      -9999      -9999      415.272    6.724803   1.67       
  0.9572     1.1064     1.2567     1.3602     1.3693     1.46       
  1.2        1.48       1.36       2.23       1.43       -9999      
  0.1393651  0.1013854  -9999      0.1773448  0.2379517  1.067917   
  0.7412331  2.268      1.3693     0          0.17214    242.4      
  0.6288824  0.7331891  0.5245758 
980.3      
  0.223      -9999      -9999      399.687    6.542385   1.56       
  1.1971     1.3594     1.4801     1.5652     1.51       1.64       
  1.27       1.7        1.54       2.35       1.58       -9999      
  0.14613    0.1114353  -9999      0.1808247  0.2376057  1.425083   
  1.080658   2.268      1.51       0.0159905  0.2257747  241.6      
  0.5835221  0.6285764  0.5384678 
980.5      
  0.223      -9999      -9999      384.982    6.404575   1.6        
  1.1427     1.3268     1.4446     1.5607     1.5818     1.72       
  1.53       2.24       1.7        2.26       1.64       -9999      
  0.1378016  0.09853924 -9999      0.1770639  0.2256912  0.9990283  
  1.436754   2.298      1.5818     0          0.2012996  240.3      
  0.560647   0.5595638  0.5617301 
980.7000000000001 
  0.225      -9999      -9999      356.859    6.322617   1.61       
  1.3634     1.4731     1.516      1.5164     1.5576     1.76       
  1.43       1.68       1.61       2.15       1.61       -9999      
  0.1532635  0.1456004  -9999      0.1609266  0.2375128  1.931834   
  1.701947   2.228      1.5576     0.06965091 0.2520464  240.8      
  0.5374253  0.5221691  0.5526816 
980.9      
  0.224      -9999      -9999      329.056    6.244724   1.64       
  1.1643     1.3254     1.3997     1.4223     1.4983     1.64       
  1.5        1.88       1.55       2.58       1.64       -9999      
  0.1177742  0.09935738 -9999      0.136191   0.2008481  0.4252282  
  1.999221   2.308      1.4983     0          0.06282207 239.8      
  0.5299273  0.488948   0.5709066 
981.1      
  0.215      -9999      -9999      334.715    6.093495   1.68       
  1.2074     1.3616     1.4422     1.4529     1.476      1.63       
  1.4        1.79       1.45       2.33       1.59       -9999      
  0.1250602  0.09944858 -9999      0.1506717  0.2038326  0.5801971  
  2.732749   2.318      1.476      0          0.08628161 239.6      
  0.5024886  0.430364   0.5746132 
981.3      
  0.214      -9999      -9999      353.622    5.851564   1.72       
  1.4525     1.5996     1.6414     1.6182     1.5827     1.83       
  1.53       2.11       1.6        2.52       1.72       -9999      
  0.1298195  0.08178885 -9999      0.1778502  0.2041398  0.7107721  
  4.505569   2.358      1.5827     0          0.1315805  238.4      
  0.474088   0.3508862  0.5972899 
981.5      
  0.224      -9999      -9999      328.054    5.560545   1.67       
  1.3751     1.5475     1.6423     1.7335     1.7413     1.84       
  1.73       2.58       1.77       3.08       1.73       -9999      
  0.1305524  0.09985305 -9999      0.1612518  0.200565   0.733341   
  8.221682   2.338      1.7413     0          0.1652343  237.3      
  0.4466091  0.2744765  0.6187417 
981.7000000000001 
  0.219      -9999      -9999      270.684    5.215822   1.83       
  1.9247     2.1505     2.1785     2.1634     2.0398     2.22       
  1.81       2.94       2.05       3.11       1.72       -9999      
  0.08874837 0.08180291 -9999      0.09569383 0.1545849  0.1233085  
  16.76387   2.378      2.0398     0          0          236.5      
  0.4199706  0.2051924  0.6347487 
