~Version
 VERS              .         2.0                           : CWLS LOG ASCII STANDARD - VERSION 2.0
 WRAP              .         YES                            : ONE LINE PER DEPTH STEP
 DLM               .         SPACE                         : DELIMITING CHARACTER(SPACE TAB OR COMMA)
~Well Information
#_______________________________________________________________________________
#
#PARAMETER_NAME    .UNIT     VALUE                         : DESCRIPTION
#_______________________________________________________________________________
STRT               .M        3.3                           : First reference value
STOP               .M        1269.1                        : Last reference value
STEP               .M        0.2                           : Step increment
NULL               .         -9999                         : Missing value
COMP               .                                       : Company
WELL               .         4766                          : Well name
FLD                .         Узень                         : Field
LOC                .                                       : Location
CNTY               .                                       : County
STAT               .                                       : State
CTRY               .                                       : Country
SRVC               .                                       : Service Company
DATE               .                                       : Date
UWI                .                                       : Unique Well ID
Block              .         7                             : 
Category           .         Нефтяная                      : 
Condition          .         В работе                      : 
Date               .         30.06.2012                    : 
EREF               .m        83.1                          : 100.8
GRP                .                                       : Group name
Gorizont           .         15                            : 14
ISS                .                                       : Well surveys
Interpretator      .         Торегалиев А.Е.               : 
Kupol              .         Основной                      : osnovnoi
Mud                .         0                             : 
Mud_density        .         0                             : 
Mud_resistivity    .         0                             : 
NGDU               .         НГДУ-2                        : 
ORIGINALWELLNAME   .         4766                          : 
Person             .         Almas                         : 
Spud_date          .         2012                          : 1961
TIME               .                                       : LOG TIME
Viscosity          .         0                             : 
X                  .m        43034.77                      : 46154
Y                  .m        83958.33                      : 85761.93
YEAR               .         2019                          : 
~Parameter Information Block
#_______________________________________________________________________________
#
#PARAMETER_NAME    .UNIT     VALUE                         : DESCRIPTION
#_______________________________________________________________________________
SET                .         LQC_KAZNIPI_Petrel            : 
TLFamily_CALI      .         Caliper                       : 
TLFamily_COLL      .         Net Reservoir Flag            : 
TLFamily_CSAT      .         Fluid Code                    : 
TLFamily_DEPT      .         Measured Depth                : 
TLFamily_DT        .         Compressional Slowness        : 
TLFamily_GR        .         Russian Gamma Ray             : 
TLFamily_GZ3       .         Gradient 225                  : 
TLFamily_IK1       .         Resistivity 05                : 
TLFamily_IK2       .         Resistivity 07                : 
TLFamily_IK3       .         Resistivity 10                : 
TLFamily_IK4       .         Resistivity 14                : 
TLFamily_IK5       .         Resistivity 20                : 
TLFamily_LLS       .         Lateral Log Resistivity       : 
TLFamily_MBK       .         Micro Lateral Log Resistivity : 
TLFamily_MINV      .         Micro Gradient Resistivity    : 
TLFamily_MNOR      .         Micro Resistivity             : 
TLFamily_NNKTb     .         Neutron Far                   : 
TLFamily_NNKTm     .         Neutron Near                  : 
TLFamily_NPHI      .         Neutron Porosity              : 
TLFamily_PHIE      .         Effective Porosity            : 
TLFamily_PHIED     .         Effective Porosity            : 
TLFamily_PHIEN     .         Effective Porosity            : 
TLFamily_PHIES     .         Effective Porosity            : 
TLFamily_PHIT      .         Porosity                      : 
TLFamily_PRMB      .         Permeability                  : 
TLFamily_PRMB_DGR  .         Permeability                  : 
TLFamily_RHOB      .         Bulk Density                  : 
TLFamily_RT        .         Formation Resistivity         : 
TLFamily_SOIL_ARCHIE .         Oil Saturation                : 
TLFamily_SOIL_DW   .         Oil Saturation                : 
TLFamily_SP        .         Spontaneous Potential         : 
TLFamily_VSH_FIN   .         Shale Volume                  : 
TLFamily_VSH_GR    .         Shale Volume                  : 
TLFamily_VSH_SP    .         Shale Volume                  : 
~Curve Information
#_______________________________________________________________________________
#
#LOGNAME           .UNIT     LOG_ID                        : DESCRIPTION
#_______________________________________________________________________________
DEPT               .M                                      : Колонка глубины 
CALI               .м                                      : Каверномер 
COLL               .unitless                               : Описание 
CSAT               .unitless                               : Описание 
DT                 .мкс/м                                  : Интервальное время пробега продольной волны 
GR                 .uR/h                                   : Гамма каротаж 
GZ3                .Ohmm                                   : Градиент-зонд  длиной 2.25м 
IK1                .Ohmm                                   : И0.10И0.40 
IK2                .Ohmm                                   : И0.14И0.56 
IK3                .Ohmm                                   : И0.20И0.8 
IK4                .Ohmm                                   : И0.28И1.12 
IK5                .Ohmm                                   : И0.40И1.60 
LLS                .Ohmm                                   : Боковой каротаж 
MBK                .Ohmm                                   : Микробоковой каротаж 
MINV               .Ohmm                                   : Микро-градиент зонд 
MNOR               .Ohmm                                   : Микро-потенциал зонд 
NNKTb              .у.е.                                   : Показания большого зонда 2ННКт аппаратуры СРК 
NNKTm              .у.е.                                   : Показания малого зонда 2ННКт аппаратуры СРК 
NPHI               .v/v                                    : Total porosity 
PHIE               .v/v                                    : Описание 
PHIED              .v/v                                    :  
PHIEN              .v/v                                    :  
PHIES              .v/v                                    :  
PHIT               .v/v                                    : Описание 
PRMB               .mD                                     :  
PRMB_DGR           .mD                                     :  
RHOB               .G/C3                                   : Плотность по ГГК-П 
RT                 .ohmm                                   : Description 
SOIL_ARCHIE        .v/v                                    :  
SOIL_DW            .v/v                                    :  
SP                 .мВ                                     : Потенциал самополяризации 
VSH_FIN            .v/v                                    : Описание 
VSH_GR             .v/v                                    : Shale volume 
VSH_SP             .v/v                                    : Shale Volume 
~Ascii
# ...
1204.5     
  0.251      -9999      -9999      327.066    8.372016   1.57       
  1.1923     1.2805     1.2929     1.3115     1.3044     1.42       
  1.25       2.29       1.77       1.96       1.56       0.1436373  
  0.06929977 0.09124094 0          0.1166584  0.1783673  0.05379699 
  1.50591    2.301      1.3044     0          0          247.1      
  0.5854798  0.5489248  0.6220348 
1204.7     
  0.245      -9999      -9999      328.355    8.37066    1.59       
  1.2289     1.3006     1.3209     1.3205     1.3037     1.42       
  1.22       2.12       1.82       2.23       1.57       0.1656373  
  0.06345186 0.07288238 0          0.1174732  0.1800388  0.04192185 
  1.508779   2.331      1.3037     0          0          246.9      
  0.5872604  0.5484983  0.6260224 
1204.9     
  0.25       -9999      -9999      324.001    8.362895   1.56       
  1.1864     1.2759     1.2949     1.3102     1.2929     1.4        
  1.24       2.17       1.9        2.24       1.57       0.1636373  
  0.06481372 0.08002126 0          0.1144199  0.1801911  0.04442888 
  1.525311   2.321      1.2929     0          0          247.3      
  0.5820659  0.5460629  0.618069  
1205.1     
  0.25       -9999      -9999      325.443    8.374304   1.58       
  1.2165     1.2932     1.3098     1.3074     1.2822     1.39       
  1.18       1.86       1.83       2.24       1.61       0.1646373  
  0.08203346 0.1288325  0          0.1172678  0.1973163  0.09260124 
  1.501082   2.241      1.2822     0          0          247.9      
  0.5779722  0.549645   0.6062994 
1205.3     
  0.246      -9999      -9999      327.602    8.423446   1.64       
  1.2092     1.2707     1.2882     1.2885     1.273      1.41       
  1.14       1.59       1.85       2.38       1.56       0.1526373  
  0.06802616 0.08942194 0          0.1146565  0.1809517  0.05095273 
  1.40104    2.301      1.273      0          0          247.1      
  0.5936899  0.5653449  0.6220348 
1205.5     
  0.255      -9999      -9999      323.588    8.504344   1.5        
  1.1965     1.27       1.2796     1.2759     1.2625     1.4        
  0.99       1.53       1.67       2.09       1.55       0.1406373  
  0.05241247 0.05427745 0          0.10296    0.1637929  0.02617966 
  1.250662   2.351      1.2625     0          0          246.1      
  0.61718    0.5921731  0.6421868 
1205.7     
  0.243      -9999      -9999      323.657    8.548271   1.55       
  1.2307     1.2733     1.2829     1.2838     1.2613     1.42       
  1.2        1.75       1.81       2.31       1.58       0.1066373  
  0.06288493 0.08830673 0          0.1003481  0.1638278  0.04092036 
  1.175884   2.291      1.2613     0          0          246        
  0.625751   0.6072702  0.6442319 
1205.9     
  0.24       -9999      -9999      324.924    8.467305   1.68       
  1.2104     1.2674     1.2769     1.2792     1.2671     1.44       
  1.23       1.99       1.87       2.13       1.57       0.1376373  
  0.06761306 0.09711783 0          0.1057213  0.1775576  0.05006289 
  1.317397   2.281      1.2671     0          0          245.9      
  0.613009   0.5797355  0.6462824 
1206.1     
  0.24       -9999      -9999      325.41     8.271687   1.53       
  1.2153     1.2792     1.2956     1.3026     1.2875     1.46       
  1.26       2.03       1.94       1.93       1.59       0.1756373  
  0.07341211 0.1076122  0          0.1126242  0.1938977  0.0641104  
  1.73362    2.271      1.2875     0          0          244.9      
  0.5926696  0.5182524  0.6670868 
1206.3     
  0.24       -9999      -9999      324.798    8.090573   1.5        
  1.2574     1.3026     1.3174     1.317      1.3064     1.49       
  1.27       2.07       2.03       2.13       1.56       0.2136373  
  0.07810665 0.08449212 0.02821474 0.1216131  0.1986368  0.07832181 
  2.23537    2.321      1.3064     0          0          245.4      
  0.5618867  0.4671572  0.6566161 
1206.5     
  0.24       -9999      -9999      321.532    8.021914   1.45       
  1.2671     1.324      1.3348     1.3394     1.3243     1.5        
  1.33       2.17       2.06       1.97       1.58       0.1816373  
  0.07036664 0.09155023 0          0.1195497  0.1891303  0.05630137 
  2.461503   2.311      1.3243     0          0          245        
  0.5570568  0.449132   0.6649816 
1206.7     
  0.239      -9999      -9999      318.464    8.034296   1.42       
  1.3271     1.3704     1.3678     1.3602     1.3398     1.51       
  1.37       2.12       2.09       2.16       1.6        0.2016373  
  0.07131176 0.07968444 0.0179728  0.116278   0.1906992  0.05861716 
  2.419093   2.331      1.3398     0          0          245.2      
  0.5565592  0.4523306  0.6607878 
1206.9     
  0.24       -9999      -9999      315.909    8.035815   1.48       
  1.332      1.3682     1.3671     1.3652     1.3476     1.51       
  1.5        2.21       2.18       2.45       1.61       0.1376373  
  0.06941955 0.092996   0          0.1152626  0.1728346  0.05407251 
  2.413941   2.311      1.3476     0          0          245.8      
  0.5505313  0.4527245  0.648338  
1207.1     
  0.241      -9999      -9999      315.981    7.958186   1.46       
  1.3907     1.4169     1.39       1.3777     1.3555     1.56       
  1.57       2.23       2.21       2.59       1.6        0.1596373  
  0.07120391 0.09517833 0          0.1184334  0.1809229  0.05834816 
  2.691812   2.311      1.3555     0          0          245.8      
  0.5406813  0.4330246  0.648338  
1207.3     
  0.241      -9999      -9999      318.247    7.82462    1.56       
  1.399      1.4254     1.4043     1.3963     1.3729     1.56       
  1.69       2.27       2.3        2.41       1.63       0.1946373  
  0.08129365 0.0892093  0.02515971 0.1295119  0.1914591  0.08972504 
  3.246822   2.331      1.3729     0          0          246.9      
  0.5135686  0.4011147  0.6260224 
1207.5     
  0.24       -9999      -9999      319.645    7.727734   1.5        
  1.5177     1.4945     1.4557     1.4285     1.3937     1.65       
  1.64       2.15       2.36       2.46       1.61       0.2226373  
  0.1022588  0.1155616  0.05673449 0.1344804  0.2101006  0.2194016  
  3.719758   2.291      1.3937     0          0.01410665 246.9      
  0.5027359  0.3794495  0.6260224 
1207.7     
  0.235      -9999      -9999      321.684    7.72288    1.48       
  1.5918     1.5457     1.4768     1.4497     1.4119     1.74       
  1.89       2.27       2.5        2.48       1.6        0.2096373  
  0.1045411  0.1289724  0.04587153 0.1387794  0.2109937  0.2418314  
  3.745182   2.271      1.4119     0          0.03131445 247.5      
  0.49626    0.3783955  0.6141245 
1207.9     
  0.237      -9999      -9999      319.688    7.765248   1.51       
  1.5692     1.5105     1.4478     1.4223     1.4073     1.72       
  2.12       2.32       2.59       2.3        1.61       0.2076373  
  0.09637375 0.1148692  0.04070323 0.1335488  0.2048859  0.1707001  
  3.52897    2.291      1.4073     0          0          247        
  0.5058609  0.3876959  0.6240259 
1208.1     
  0.237      -9999      -9999      314.443    7.778707   1.55       
  1.5737     1.5122     1.4622     1.434      1.4081     1.7        
  1.94       2.23       2.57       2.5        1.64       0.1676373  
  0.08053447 0.110018   0.002396676 0.1291887  0.1879458  0.08686638 
  1.89208    2.301      1.4081     0          0          247.1      
  0.5007293  0.5000696  0.5013889 
1208.3     
  0.236      -9999      -9999      307.309    7.772584   1.61       
  1.6001     1.5423     1.4792     1.449      1.4266     1.74       
  1.98       2.36       2.68       2.56       1.6        0.2246373  
  0.1018249  0.1317587  0.05610271 0.1176133  0.2113774  0.2153785  
  1.909668   2.261      1.4266     0          0.02757918 245.8      
  0.510711   0.4981839  0.5232382 
1208.5     
  0.233      -9999      -9999      313.585    7.810396   1.63       
  1.6262     1.5493     1.4883     1.4513     1.425      1.68       
  2.01       2.19       2.54       2.71       1.61       0.1616373  
  0.07548701 0.1016441  0          0.1248169  0.1828227  0.07004233 
  1.803601   2.311      1.425      0          0          246.4      
  0.511498   0.5099451  0.5130509 
