~Version
 VERS              .         2.0                           : CWLS LOG ASCII STANDARD - VERSION 2.0
 WRAP              .         YES                            : ONE LINE PER DEPTH STEP
 DLM               .         SPACE                         : DELIMITING CHARACTER(SPACE TAB OR COMMA)
~Well Information
#_______________________________________________________________________________
#
#PARAMETER_NAME    .UNIT     VALUE                         : DESCRIPTION
#_______________________________________________________________________________
STRT               .M        3.3                           : First reference value
STOP               .M        1269.1                        : Last reference value
STEP               .M        0.2                           : Step increment
NULL               .         -9999                         : Missing value
COMP               .                                       : Company
WELL               .         4766                          : Well name
FLD                .         Узень                         : Field
LOC                .                                       : Location
CNTY               .                                       : County
STAT               .                                       : State
CTRY               .                                       : Country
SRVC               .                                       : Service Company
DATE               .                                       : Date
UWI                .                                       : Unique Well ID
Block              .         7                             : 
Category           .         Нефтяная                      : 
Condition          .         В работе                      : 
Date               .         30.06.2012                    : 
EREF               .m        83.1                          : 100.8
GRP                .                                       : Group name
Gorizont           .         15                            : 14
ISS                .                                       : Well surveys
Interpretator      .         Торегалиев А.Е.               : 
Kupol              .         Основной                      : osnovnoi
Mud                .         0                             : 
Mud_density        .         0                             : 
Mud_resistivity    .         0                             : 
NGDU               .         НГДУ-2                        : 
ORIGINALWELLNAME   .         4766                          : 
Person             .         Almas                         : 
Spud_date          .         2012                          : 1961
TIME               .                                       : LOG TIME
Viscosity          .         0                             : 
X                  .m        43034.77                      : 46154
Y                  .m        83958.33                      : 85761.93
YEAR               .         2019                          : 
~Parameter Information Block
#_______________________________________________________________________________
#
#PARAMETER_NAME    .UNIT     VALUE                         : DESCRIPTION
#_______________________________________________________________________________
SET                .         LQC_KAZNIPI_Petrel            : 
TLFamily_CALI      .         Caliper                       : 
TLFamily_COLL      .         Net Reservoir Flag            : 
TLFamily_CSAT      .         Fluid Code                    : 
TLFamily_DEPT      .         Measured Depth                : 
TLFamily_DT        .         Compressional Slowness        : 
TLFamily_GR        .         Russian Gamma Ray             : 
TLFamily_GZ3       .         Gradient 225                  : 
TLFamily_IK1       .         Resistivity 05                : 
TLFamily_IK2       .         Resistivity 07                : 
TLFamily_IK3       .         Resistivity 10                : 
TLFamily_IK4       .         Resistivity 14                : 
TLFamily_IK5       .         Resistivity 20                : 
TLFamily_LLS       .         Lateral Log Resistivity       : 
TLFamily_MBK       .         Micro Lateral Log Resistivity : 
TLFamily_MINV      .         Micro Gradient Resistivity    : 
TLFamily_MNOR      .         Micro Resistivity             : 
TLFamily_NNKTb     .         Neutron Far                   : 
TLFamily_NNKTm     .         Neutron Near                  : 
TLFamily_NPHI      .         Neutron Porosity              : 
TLFamily_PHIE      .         Effective Porosity            : 
TLFamily_PHIED     .         Effective Porosity            : 
TLFamily_PHIEN     .         Effective Porosity            : 
TLFamily_PHIES     .         Effective Porosity            : 
TLFamily_PHIT      .         Porosity                      : 
TLFamily_PRMB      .         Permeability                  : 
TLFamily_PRMB_DGR  .         Permeability                  : 
TLFamily_RHOB      .         Bulk Density                  : 
TLFamily_RT        .         Formation Resistivity         : 
TLFamily_SOIL_ARCHIE .         Oil Saturation                : 
TLFamily_SOIL_DW   .         Oil Saturation                : 
TLFamily_SP        .         Spontaneous Potential         : 
TLFamily_VSH_FIN   .         Shale Volume                  : 
TLFamily_VSH_GR    .         Shale Volume                  : 
TLFamily_VSH_SP    .         Shale Volume                  : 
~Curve Information
#_______________________________________________________________________________
#
#LOGNAME           .UNIT     LOG_ID                        : DESCRIPTION
#_______________________________________________________________________________
DEPT               .M                                      : Колонка глубины 
CALI               .м                                      : Каверномер 
COLL               .unitless                               : Описание 
CSAT               .unitless                               : Описание 
DT                 .мкс/м                                  : Интервальное время пробега продольной волны 
GR                 .uR/h                                   : Гамма каротаж 
GZ3                .Ohmm                                   : Градиент-зонд  длиной 2.25м 
IK1                .Ohmm                                   : И0.10И0.40 
IK2                .Ohmm                                   : И0.14И0.56 
IK3                .Ohmm                                   : И0.20И0.8 
IK4                .Ohmm                                   : И0.28И1.12 
IK5                .Ohmm                                   : И0.40И1.60 
LLS                .Ohmm                                   : Боковой каротаж 
MBK                .Ohmm                                   : Микробоковой каротаж 
MINV               .Ohmm                                   : Микро-градиент зонд 
MNOR               .Ohmm                                   : Микро-потенциал зонд 
NNKTb              .у.е.                                   : Показания большого зонда 2ННКт аппаратуры СРК 
NNKTm              .у.е.                                   : Показания малого зонда 2ННКт аппаратуры СРК 
NPHI               .v/v                                    : Total porosity 
PHIE               .v/v                                    : Описание 
PHIED              .v/v                                    :  
PHIEN              .v/v                                    :  
PHIES              .v/v                                    :  
PHIT               .v/v                                    : Описание 
PRMB               .mD                                     :  
PRMB_DGR           .mD                                     :  
RHOB               .G/C3                                   : Плотность по ГГК-П 
RT                 .ohmm                                   : Description 
SOIL_ARCHIE        .v/v                                    :  
SOIL_DW            .v/v                                    :  
SP                 .мВ                                     : Потенциал самополяризации 
VSH_FIN            .v/v                                    : Описание 
VSH_GR             .v/v                                    : Shale volume 
VSH_SP             .v/v                                    : Shale Volume 
~Ascii
# ...
868.5      
  0.25       -9999      -9999      319.916    7.208204   6.01       
  1.9007     2.191      2.3124     2.4898     2.7963     2.66       
  1.41       2.62       2.53       2.18       1.62       -9999      
  -9999      -9999      -9999      -9999      -9999      -9999      
  -9999      2.324      2.8        -9999      -9999      244.5      
  -9999      0.1673235  0.02      
868.7000000000001 
  0.295      -9999      -9999      340.152    7.711721   6.07       
  1.4273     1.7222     1.9418     2.0754     2.3494     2.22       
  1.11       1.71       2.07       2.24       1.46       -9999      
  0.1663543  0.2169936  -9999      0.115715   0.2653367  3.376319   
  0.001121106 2.074      2.3494     0.2857009  0.4484634  245.3      
  0.6314074  0.8        0.4628148 
868.9      
  0.255      -9999      -9999      369.628    7.873312   6.15       
  1.4646     1.7608     1.9344     2.0105     2.2439     2.13       
  1.03       1.59       1.86       1.8        1.38       -9999      
  0.1666148  0.1885611  -9999      0.1446684  0.2645304  3.414034   
  0.0007050143 2.124      2.2439     0.2711271  0.4349777  246.2      
  0.6246024  0.8        0.4492048 
869.1      
  0.249      -9999      -9999      375.862    7.659109   6.64       
  1.4204     1.6998     1.8853     2.1096     2.4125     2.15       
  1.07       1.84       1.98       1.63       1.4        -9999      
  0.1835502  0.2180034  -9999      0.1490971  0.2818182  7.029975   
  0.001303875 2.074      2.4125     0.3524536  0.495397   245.9      
  0.6268499  0.8        0.4536997 
869.3      
  0.257      -9999      -9999      367.816    7.10625    8.32       
  1.4817     1.865      2.2577     2.6791     2.943      2.28       
  1.13       2.1        2.24       2.39       1.43       -9999      
  0.2035665  0.265405   -9999      0.1417279  0.3021899  16.50832   
  0.006374742 1.994      2.943      0.4609709  0.5797458  245.6      
  0.6291181  0.8        0.4582362 
869.5      
  0.212      -9999      -9999      343.028    6.450595   10.43      
  4.0477     4.673299   4.6295     4.6239     4.3769     4          
  1.81       3.06       3.34       2.9        1.56       -9999      
  0.08515113 0.05033859 -9999      0.1199637  0.1834191  0.1057703  
  0.04186383 2.354      4.3769     0.04414574 0.3426186  245.9      
  0.6268499  0.8        0.4536997 
869.7000000000001 
  0.212      -9999      -9999      333.95     6.170308   10.29      
  6.3332     6.1501     5.681701   5.1821     4.9338     11.74      
  7.95       5.68       5.82       3.68       2.01       -9999      
  0.01       -0.1137232 -9999      0.1075226  0.09685527 0.004289259 
  0.09359697 2.624      4.9338     0          0          244.5      
  0.6376154  0.8        0.4752309 
869.9      
  0.222      -9999      -9999      322.654    6.59618    7.4        
  2.7018     2.8818     3.029      3.1808     3.5563     3.96       
  3.59       5.09       4.76       3.41       2          -9999      
  0.0506696  0.002434446 -9999      0.09890474 0.1489375  0.02430423 
  0.02756413 2.434      3.5563     0          0          245.9      
  0.6268499  0.8        0.4536997 
870.1      
  0.249      -9999      -9999      336.586    7.482317   4.72       
  2.164      2.4898     2.5612     2.5661     2.7178     2.7        
  1.43       2.46       2.41       2.08       1.58       -9999      
  0.1090549  0.1008457  -9999      0.117264   0.2054811  0.2931694  
  0.002165886 2.274      2.7178     0.03635421 0.2926036  247.5      
  0.615102   0.8        0.430204  
870.3      
  0.256      -9999      -9999      347.884    8.273916   3.51       
  2.1047     2.6226     2.6957     2.6188     2.5501     2.61       
  1.33       2.28       2.31       2.11       1.48       -9999      
  0.1147652  0.1010041  -9999      0.1285263  0.2110794  0.3740143  
  0.0002232452 2.274      2.5501     0.05028673 0.2957593  247.6      
  0.6143871  0.8        0.4287741 
870.5      
  0.249      -9999      -9999      355.903    8.66759    2.99       
  1.7361     2.1152     2.4295     2.4443     2.404      2.49       
  1.48       2.46       2.33       1.92       1.51       -9999      
  0.1155371  0.09857538 -9999      0.1324988  0.2135697  0.3865314  
  0.0000721  2.274      2.404      0.02930916 0.2817212  246.1      
  0.6253492  0.8        0.4506983 
870.7000000000001 
  0.242      -9999      -9999      357.026    8.680802   2.6        
  1.6873     1.9303     2.2019     2.3133     2.2918     2.34       
  1.26       1.86       2.06       1.8        1.44       -9999      
  0.1370007  0.1404915  -9999      0.1335098  0.2350333  0.9654782  
  0.0000694  2.204      2.2918     0.1442042  0.3509158  246.1      
  0.6253492  0.8        0.4506983 
870.9      
  0.248      -9999      -9999      355.617    8.455495   2.5        
  1.5683     1.8466     2.0188     2.2975     2.3316     2.29       
  1.29       1.82       1.98       2.1        1.49       -9999      
  0.1323483  0.1301472  -9999      0.1345494  0.2292264  0.7917174  
  0.000132561 2.224      2.3316     0.1251588  0.3376758  247.1      
  0.6179841  0.8        0.4359682 
871.1      
  0.262      -9999      -9999      373.229    8.133755   2.6        
  1.6366     2.0157     2.2258     2.5513     2.591      2.32       
  1.27       1.88       2.09       1.99       1.37       -9999      
  0.1772096  0.2031157  -9999      0.1513035  0.2733007  5.364256   
  0.0003338225 2.104      2.591      0.3543144  0.497003   247.8      
  0.6129641  0.8        0.4259282 
871.3      
  0.217      -9999      -9999      381.629    7.814728   2.9        
  2.7816     3.1179     3.1387     3.1329     3.0868     3.16       
  1.77       2.62       2.53       2.32       1.55       -9999      
  0.1086069  0.06281258 -9999      0.1544012  0.2065225  0.2876215  
  0.0008341284 2.334      3.0868     0.08897914 0.3372159  246.2      
  0.6246024  0.8        0.4492048 
871.5      
  0.222      -9999      -9999      352.623    7.580823   3.39       
  2.1525     2.5239     2.7879     2.9674     3.265      3.14       
  2.48       3.16       2.95       2.49       1.7        -9999      
  0.08506365 0.04300009 -9999      0.1271272  0.1842871  0.1053764  
  0.001632421 2.364      3.265      0          0.2408094  245.1      
  0.6329453  0.8        0.4658906 
871.7000000000001 
  0.226      -9999      -9999      332.099    7.498921   4          
  3.1689     3.2854     3.2308     3.0884     3.1689     3.29       
  1.98       2.67       2.63       2.8        1.62       -9999      
  0.0764679  0.04418359 -9999      0.1087522  0.174854   0.07303467 
  0.002065074 2.364      3.1689     0          0.1712195  245.8      
  0.6276036  0.8        0.4552072 
871.9      
  0.221      -9999      -9999      334.906    7.568796   4.26       
  2.3429     2.5904     2.7712     2.8274     2.9544     3.2        
  2.44       3.04       2.87       2.46       1.7        -9999      
  0.08250158 0.05149332 -9999      0.1135098  0.1799525  0.09446858 
  0.001689765 2.354      2.9544     0          0.180584   246.6      
  0.621638   0.8        0.443276  
872.1      
  0.225      -9999      -9999      340.511    7.726762   3.81       
  2.1568     2.4067     2.5355     2.5735     2.6878     2.64       
  1.75       1.96       2.34       2.37       1.59       -9999      
  0.1208458  0.1230223  -9999      0.1186692  0.2185283  0.4847468  
  0.001073734 2.234      2.6878     0.1141772  0.3418089  246.4      
  0.6231157  0.8        0.4462313 
872.3      
  0.217      -9999      -9999      346.995    7.836874   3.48       
  2.1785     2.4722     2.6388     2.693      2.7484     2.66       
  1.74       1.95       2.23       2.36       1.55       -9999      
  0.145513   0.1689192  -9999      0.1221067  0.2446157  1.388071   
  0.0007827514 2.154      2.7484     0.2543363  0.4350888  245.2      
  0.6321752  0.8        0.4643505 
872.5      
  0.219      -9999      -9999      343.304    7.728008   3.61       
  2.3641     2.699      2.8781     3.014      3.0505     2.82       
  1.78       2.13       2.37       2.41       1.53       -9999      
  0.1405406  0.1627606  -9999      0.1183207  0.2397641  1.122823   
  0.0010699  2.164      3.0505     0.2681184  0.4497184  245.1      
  0.6329453  0.8        0.4658906 
