~Version
 VERS              .         2.0                           : CWLS LOG ASCII STANDARD - VERSION 2.0
 WRAP              .         YES                            : ONE LINE PER DEPTH STEP
 DLM               .         SPACE                         : DELIMITING CHARACTER(SPACE TAB OR COMMA)
~Well Information
#_______________________________________________________________________________
#
#PARAMETER_NAME    .UNIT     VALUE                         : DESCRIPTION
#_______________________________________________________________________________
STRT               .M        3.3                           : First reference value
STOP               .M        1269.1                        : Last reference value
STEP               .M        0.2                           : Step increment
NULL               .         -9999                         : Missing value
COMP               .                                       : Company
WELL               .         4766                          : Well name
FLD                .         Узень                         : Field
LOC                .                                       : Location
CNTY               .                                       : County
STAT               .                                       : State
CTRY               .                                       : Country
SRVC               .                                       : Service Company
DATE               .                                       : Date
UWI                .                                       : Unique Well ID
Block              .         7                             : 
Category           .         Нефтяная                      : 
Condition          .         В работе                      : 
Date               .         30.06.2012                    : 
EREF               .m        83.1                          : 100.8
GRP                .                                       : Group name
Gorizont           .         15                            : 14
ISS                .                                       : Well surveys
Interpretator      .         Торегалиев А.Е.               : 
Kupol              .         Основной                      : osnovnoi
Mud                .         0                             : 
Mud_density        .         0                             : 
Mud_resistivity    .         0                             : 
NGDU               .         НГДУ-2                        : 
ORIGINALWELLNAME   .         4766                          : 
Person             .         Almas                         : 
Spud_date          .         2012                          : 1961
TIME               .                                       : LOG TIME
Viscosity          .         0                             : 
X                  .m        43034.77                      : 46154
Y                  .m        83958.33                      : 85761.93
YEAR               .         2019                          : 
~Parameter Information Block
#_______________________________________________________________________________
#
#PARAMETER_NAME    .UNIT     VALUE                         : DESCRIPTION
#_______________________________________________________________________________
SET                .         LQC_KAZNIPI_Petrel            : 
TLFamily_CALI      .         Caliper                       : 
TLFamily_COLL      .         Net Reservoir Flag            : 
TLFamily_CSAT      .         Fluid Code                    : 
TLFamily_DEPT      .         Measured Depth                : 
TLFamily_DT        .         Compressional Slowness        : 
TLFamily_GR        .         Russian Gamma Ray             : 
TLFamily_GZ3       .         Gradient 225                  : 
TLFamily_IK1       .         Resistivity 05                : 
TLFamily_IK2       .         Resistivity 07                : 
TLFamily_IK3       .         Resistivity 10                : 
TLFamily_IK4       .         Resistivity 14                : 
TLFamily_IK5       .         Resistivity 20                : 
TLFamily_LLS       .         Lateral Log Resistivity       : 
TLFamily_MBK       .         Micro Lateral Log Resistivity : 
TLFamily_MINV      .         Micro Gradient Resistivity    : 
TLFamily_MNOR      .         Micro Resistivity             : 
TLFamily_NNKTb     .         Neutron Far                   : 
TLFamily_NNKTm     .         Neutron Near                  : 
TLFamily_NPHI      .         Neutron Porosity              : 
TLFamily_PHIE      .         Effective Porosity            : 
TLFamily_PHIED     .         Effective Porosity            : 
TLFamily_PHIEN     .         Effective Porosity            : 
TLFamily_PHIES     .         Effective Porosity            : 
TLFamily_PHIT      .         Porosity                      : 
TLFamily_PRMB      .         Permeability                  : 
TLFamily_PRMB_DGR  .         Permeability                  : 
TLFamily_RHOB      .         Bulk Density                  : 
TLFamily_RT        .         Formation Resistivity         : 
TLFamily_SOIL_ARCHIE .         Oil Saturation                : 
TLFamily_SOIL_DW   .         Oil Saturation                : 
TLFamily_SP        .         Spontaneous Potential         : 
TLFamily_VSH_FIN   .         Shale Volume                  : 
TLFamily_VSH_GR    .         Shale Volume                  : 
TLFamily_VSH_SP    .         Shale Volume                  : 
~Curve Information
#_______________________________________________________________________________
#
#LOGNAME           .UNIT     LOG_ID                        : DESCRIPTION
#_______________________________________________________________________________
DEPT               .M                                      : Колонка глубины 
CALI               .м                                      : Каверномер 
COLL               .unitless                               : Описание 
CSAT               .unitless                               : Описание 
DT                 .мкс/м                                  : Интервальное время пробега продольной волны 
GR                 .uR/h                                   : Гамма каротаж 
GZ3                .Ohmm                                   : Градиент-зонд  длиной 2.25м 
IK1                .Ohmm                                   : И0.10И0.40 
IK2                .Ohmm                                   : И0.14И0.56 
IK3                .Ohmm                                   : И0.20И0.8 
IK4                .Ohmm                                   : И0.28И1.12 
IK5                .Ohmm                                   : И0.40И1.60 
LLS                .Ohmm                                   : Боковой каротаж 
MBK                .Ohmm                                   : Микробоковой каротаж 
MINV               .Ohmm                                   : Микро-градиент зонд 
MNOR               .Ohmm                                   : Микро-потенциал зонд 
NNKTb              .у.е.                                   : Показания большого зонда 2ННКт аппаратуры СРК 
NNKTm              .у.е.                                   : Показания малого зонда 2ННКт аппаратуры СРК 
NPHI               .v/v                                    : Total porosity 
PHIE               .v/v                                    : Описание 
PHIED              .v/v                                    :  
PHIEN              .v/v                                    :  
PHIES              .v/v                                    :  
PHIT               .v/v                                    : Описание 
PRMB               .mD                                     :  
PRMB_DGR           .mD                                     :  
RHOB               .G/C3                                   : Плотность по ГГК-П 
RT                 .ohmm                                   : Description 
SOIL_ARCHIE        .v/v                                    :  
SOIL_DW            .v/v                                    :  
SP                 .мВ                                     : Потенциал самополяризации 
VSH_FIN            .v/v                                    : Описание 
VSH_GR             .v/v                                    : Shale volume 
VSH_SP             .v/v                                    : Shale Volume 
~Ascii
# ...
1259.1     
  0.202      -9999      -9999      311.395    6.470436   1.31       
  7.4556     4.3109     2.2856     1.0544     1.0851     2.93       
  1.98       1.89       2.69       2.46       1.67       0.2956373  
  0.1810254  0.2128204  0.1684624  0.1617934  0.2636929  6.312301   
  13.66517   2.172      1.0851     0.05971562 0.2239882  244.4      
  0.3853785  0.2230512  0.5477058 
1259.3     
  0.205      -9999      -9999      311.055    6.503829   1.49       
  7.4738     4.2948     2.2809     1.0554     1.082      2.97       
  1.8        1.79       2.3        2.48       1.72       0.2706373  
  0.1342092  0.1209936  0.1315552  0.1500789  0.2246168  0.8571146  
  12.99266   2.312      1.082      0          0.03458012 240.8      
  0.421461   0.2276953  0.6152268 
1259.5     
  0.184      -9999      -9999      311.263    6.56917    1.48       
  7.4922     4.3028     2.295      1.0549     1.0867     2.93       
  1.47       1.39       1.79       2.48       1.63       0.3156373  
  0.2063908  0.2984979  0.1733731  0.1473015  0.2988668  18.62161   
  11.77097   2.012      1.0867     0.1617812  0.3174925  240.3      
  0.4311036  0.2370641  0.6251432 
1259.7     
  0.158      -9999      -9999      311.369    6.590211   1.44       
  7.446401   4.3149     2.2809     1.051      1.0846     2.95       
  1.43       1.19       1.48       2.63       1.59       0.2826373  
  0.1737095  0.2461721  0.1337872  0.1411693  0.2704666  4.620404   
  11.40254   2.092      1.0846     0.02510678 0.2222853  238.5      
  0.4510611  0.2401624  0.6619598 
1259.9     
  0.158      -9999      -9999      310.133    6.536932   1.44       
  7.4556     4.2948     2.2747     1.0569     1.094      2.96       
  1.39       1.19       1.44       2.44       1.71       0.2996373  
  0.1780121  0.2410446  0.1520688  0.1409228  0.2739359  5.551029   
  12.35866   2.102      1.094      0.04951823 0.2390899  238.5      
  0.4471772  0.2323945  0.6619598 
1260.1     
  0.158      -9999      -9999      310.241    6.475781   1.43       
  7.446401   4.267      2.2793     1.0569     1.0893     2.94       
  1.33       1.15       1.41       2.71       1.76       -9999      
  -9999      0.235077   -9999      0.1410801  -9999      -9999      
  -9999      2.112      1.0893     -9999      -9999      238.1      
  0.4470849  0.2237882  0.6703817 
1260.3     
  0.158      -9999      -9999      309.896    6.479579   1.41       
  7.5198     4.3068     2.2965     1.0519     1.0841     2.94       
  1.33       1.15       1.41       2.44       1.74       -9999      
  -9999      0.2543786  -9999      0.1425625  -9999      -9999      
  -9999      2.082      1.0841     -9999      -9999      238.7      
  0.4410476  0.2243133  0.657782  
1260.5     
  0.158      -9999      -9999      310.217    6.54326    1.42       
  7.446401   4.3229     2.2918     1.0554     1.0883     2.95       
  1.33       1.15       1.41       2.32       1.71       -9999      
  -9999      0.2476252  -9999      0.1418613  -9999      -9999      
  -9999      2.092      1.0883     -9999      -9999      238.8      
  0.4445024  0.2333038  0.655701  
1260.7     
  0.158      -9999      -9999      311.072    6.603272   1.52       
  7.5198     4.3109     2.2809     1.0554     1.0883     2.97       
  1.33       1.16       1.42       2.26       1.71       -9999      
  -9999      0.2622817  -9999      0.1381943  -9999      -9999      
  -9999      2.062      1.0883     -9999      -9999      237.8      
  0.4594311  0.242106   0.6767563 
1260.9     
  0.157      -9999      -9999      311.496    6.591218   1.41       
  7.482999   4.3028     2.2856     1.0554     1.0893     2.93       
  1.33       1.15       1.42       2.57       1.71       -9999      
  -9999      0.2574328  -9999      0.1403068  -9999      -9999      
  -9999      2.072      1.0893     -9999      -9999      238.2      
  0.45429    0.2403118  0.6682681 
1261.1     
  0.157      -9999      -9999      311.586    6.501651   1.4        
  7.510601   4.2988     2.2997     1.0524     1.0919     2.95       
  1.33       1.16       1.42       2.58       1.77       -9999      
  -9999      0.2660139  -9999      0.1440825  -9999      -9999      
  -9999      2.062      1.0919     -9999      -9999      238.7      
  0.4425857  0.2273895  0.657782  
1261.3     
  0.157      -9999      -9999      311.538    6.410358   1.38       
  7.482999   4.2869     2.2871     1.0514     1.0919     2.95       
  1.33       1.16       1.42       2.32       1.75       -9999      
  -9999      0.254022   -9999      0.1440035  -9999      -9999      
  -9999      2.082      1.0919     -9999      -9999      238.1      
  0.4426574  0.2149331  0.6703817 
1261.5     
  0.157      -9999      -9999      311.404    6.389864   1.47       
  7.482999   4.3109     2.2918     1.0539     1.0862     2.94       
  1.33       1.16       1.42       2.29       1.76       -9999      
  -9999      0.2593665  -9999      0.1429347  -9999      -9999      
  -9999      2.072      1.0862     -9999      -9999      237.7      
  0.4455621  0.2122319  0.6788923 
1261.7     
  0.157      -9999      -9999      311.269    6.417542   1.5        
  7.482999   4.2948     2.2778     1.05       1.0867     2.94       
  1.33       1.16       1.41       2.27       1.75       -9999      
  -9999      0.2490929  -9999      0.1451846  -9999      -9999      
  -9999      2.092      1.0867     -9999      -9999      238.6      
  0.437878   0.215888   0.659868  
1261.9     
  0.157      -9999      -9999      311.019    6.418968   1.46       
  7.4738     4.2948     2.2965     1.0529     1.0919     2.95       
  1.33       1.16       1.41       2.27       1.72       -9999      
  -9999      0.2543629  -9999      0.1438731  -9999      -9999      
  -9999      2.082      1.0919     -9999      -9999      238.3      
  0.4411189  0.2160781  0.6661597 
1262.1     
  0.157      -9999      -9999      311.381    6.387074   1.45       
  7.4647     4.3149     2.2856     1.0519     1.0893     2.93       
  1.33       1.15       1.42       2.29       1.71       -9999      
  -9999      0.2497694  -9999      0.1462742  -9999      -9999      
  -9999      2.092      1.0893     -9999      -9999      238.7      
  0.4348244  0.2118668  0.657782  
1262.3     
  0.157      -9999      -9999      312.229    6.357219   1.35       
  7.4192     4.327      2.2903     1.0554     1.0872     2.95       
  1.33       1.15       1.42       2.35       1.76       -9999      
  -9999      0.2324644  -9999      0.1482046  -9999      -9999      
  -9999      2.122      1.0872     -9999      -9999      238.8      
  0.4318501  0.2079991  0.655701  
1262.5     
  0.157      -9999      -9999      311.044    -9999      1.48       
  7.446401   4.2829     2.2918     1.0544     1.0893     2.95       
  1.33       1.15       1.41       2.48       1.74       -9999      
  -9999      0.3341317  -9999      1          -9999      -9999      
  -9999      2.112      1.0893     -9999      -9999      238.5      
  -4999.169  -9999      0.6619598 
1262.7     
  0.157      -9999      -9999      309.821    -9999      -9999      
  7.4647     4.2829     2.284      1.0589     1.0914     2.95       
  1.33       1.15       1.41       2.89       1.72       -9999      
  -9999      0.3401197  -9999      1          -9999      -9999      
  -9999      2.102      1.0914     -9999      -9999      238.9      
  -4999.173  -9999      0.653626  
1262.9     
  0.156      -9999      -9999      311.403    -9999      -9999      
  7.482999   4.3028     2.2747     1.0604     1.0929     2.95       
  1.33       1.15       1.42       2.47       1.76       -9999      
  -9999      0.3580838  -9999      1          -9999      -9999      
  -9999      2.072      1.0929     -9999      -9999      238.8      
  -4999.172  -9999      0.655701  
1263.1     
  0.156      -9999      -9999      310.415    -9999      -9999      
  7.4647     4.2948     2.2981     1.0495     1.0883     2.95       
  1.33       1.15       1.42       2.68       1.72       -9999      
  -9999      0.3520958  -9999      1          -9999      -9999      
  -9999      2.082      1.0883     -9999      -9999      238.4      
  -4999.168  -9999      0.6640572 
