~Version
 VERS              .         2.0                           : CWLS LOG ASCII STANDARD - VERSION 2.0
 WRAP              .         YES                            : ONE LINE PER DEPTH STEP
 DLM               .         SPACE                         : DELIMITING CHARACTER(SPACE TAB OR COMMA)
~Well Information
#_______________________________________________________________________________
#
#PARAMETER_NAME    .UNIT     VALUE                         : DESCRIPTION
#_______________________________________________________________________________
STRT               .M        3.3                           : First reference value
STOP               .M        1269.1                        : Last reference value
STEP               .M        0.2                           : Step increment
NULL               .         -9999                         : Missing value
COMP               .                                       : Company
WELL               .         4766                          : Well name
FLD                .         Узень                         : Field
LOC                .                                       : Location
CNTY               .                                       : County
STAT               .                                       : State
CTRY               .                                       : Country
SRVC               .                                       : Service Company
DATE               .                                       : Date
UWI                .                                       : Unique Well ID
Block              .         7                             : 
Category           .         Нефтяная                      : 
Condition          .         В работе                      : 
Date               .         30.06.2012                    : 
EREF               .m        83.1                          : 100.8
GRP                .                                       : Group name
Gorizont           .         15                            : 14
ISS                .                                       : Well surveys
Interpretator      .         Торегалиев А.Е.               : 
Kupol              .         Основной                      : osnovnoi
Mud                .         0                             : 
Mud_density        .         0                             : 
Mud_resistivity    .         0                             : 
NGDU               .         НГДУ-2                        : 
ORIGINALWELLNAME   .         4766                          : 
Person             .         Almas                         : 
Spud_date          .         2012                          : 1961
TIME               .                                       : LOG TIME
Viscosity          .         0                             : 
X                  .m        43034.77                      : 46154
Y                  .m        83958.33                      : 85761.93
YEAR               .         2019                          : 
~Parameter Information Block
#_______________________________________________________________________________
#
#PARAMETER_NAME    .UNIT     VALUE                         : DESCRIPTION
#_______________________________________________________________________________
SET                .         LQC_KAZNIPI_Petrel            : 
TLFamily_CALI      .         Caliper                       : 
TLFamily_COLL      .         Net Reservoir Flag            : 
TLFamily_CSAT      .         Fluid Code                    : 
TLFamily_DEPT      .         Measured Depth                : 
TLFamily_DT        .         Compressional Slowness        : 
TLFamily_GR        .         Russian Gamma Ray             : 
TLFamily_GZ3       .         Gradient 225                  : 
TLFamily_IK1       .         Resistivity 05                : 
TLFamily_IK2       .         Resistivity 07                : 
TLFamily_IK3       .         Resistivity 10                : 
TLFamily_IK4       .         Resistivity 14                : 
TLFamily_IK5       .         Resistivity 20                : 
TLFamily_LLS       .         Lateral Log Resistivity       : 
TLFamily_MBK       .         Micro Lateral Log Resistivity : 
TLFamily_MINV      .         Micro Gradient Resistivity    : 
TLFamily_MNOR      .         Micro Resistivity             : 
TLFamily_NNKTb     .         Neutron Far                   : 
TLFamily_NNKTm     .         Neutron Near                  : 
TLFamily_NPHI      .         Neutron Porosity              : 
TLFamily_PHIE      .         Effective Porosity            : 
TLFamily_PHIED     .         Effective Porosity            : 
TLFamily_PHIEN     .         Effective Porosity            : 
TLFamily_PHIES     .         Effective Porosity            : 
TLFamily_PHIT      .         Porosity                      : 
TLFamily_PRMB      .         Permeability                  : 
TLFamily_PRMB_DGR  .         Permeability                  : 
TLFamily_RHOB      .         Bulk Density                  : 
TLFamily_RT        .         Formation Resistivity         : 
TLFamily_SOIL_ARCHIE .         Oil Saturation                : 
TLFamily_SOIL_DW   .         Oil Saturation                : 
TLFamily_SP        .         Spontaneous Potential         : 
TLFamily_VSH_FIN   .         Shale Volume                  : 
TLFamily_VSH_GR    .         Shale Volume                  : 
TLFamily_VSH_SP    .         Shale Volume                  : 
~Curve Information
#_______________________________________________________________________________
#
#LOGNAME           .UNIT     LOG_ID                        : DESCRIPTION
#_______________________________________________________________________________
DEPT               .M                                      : Колонка глубины 
CALI               .м                                      : Каверномер 
COLL               .unitless                               : Описание 
CSAT               .unitless                               : Описание 
DT                 .мкс/м                                  : Интервальное время пробега продольной волны 
GR                 .uR/h                                   : Гамма каротаж 
GZ3                .Ohmm                                   : Градиент-зонд  длиной 2.25м 
IK1                .Ohmm                                   : И0.10И0.40 
IK2                .Ohmm                                   : И0.14И0.56 
IK3                .Ohmm                                   : И0.20И0.8 
IK4                .Ohmm                                   : И0.28И1.12 
IK5                .Ohmm                                   : И0.40И1.60 
LLS                .Ohmm                                   : Боковой каротаж 
MBK                .Ohmm                                   : Микробоковой каротаж 
MINV               .Ohmm                                   : Микро-градиент зонд 
MNOR               .Ohmm                                   : Микро-потенциал зонд 
NNKTb              .у.е.                                   : Показания большого зонда 2ННКт аппаратуры СРК 
NNKTm              .у.е.                                   : Показания малого зонда 2ННКт аппаратуры СРК 
NPHI               .v/v                                    : Total porosity 
PHIE               .v/v                                    : Описание 
PHIED              .v/v                                    :  
PHIEN              .v/v                                    :  
PHIES              .v/v                                    :  
PHIT               .v/v                                    : Описание 
PRMB               .mD                                     :  
PRMB_DGR           .mD                                     :  
RHOB               .G/C3                                   : Плотность по ГГК-П 
RT                 .ohmm                                   : Description 
SOIL_ARCHIE        .v/v                                    :  
SOIL_DW            .v/v                                    :  
SP                 .мВ                                     : Потенциал самополяризации 
VSH_FIN            .v/v                                    : Описание 
VSH_GR             .v/v                                    : Shale volume 
VSH_SP             .v/v                                    : Shale Volume 
~Ascii
# ...
893.7000000000001 
  0.201      1          3          322.726    2.386596   1.47       
  3.997      2.4254     1.6724     1.3479     1.301      2.06       
  2.28       2.78       3.02       3.69       2.12       -9999      
  0.2343329  0.2011975  -9999      0.2674682  0.2483586  61.3157    
  4878.149   2.334      1.301      0.3005875  0.3324996  280.6      
  0.08947008 0.02023376 0.1587064 
893.9      
  0.199      1          3          324.943    2.448573   1.62       
  4.0222     2.4898     1.7893     1.4634     1.3744     2.08       
  2.28       2.92       3.12       3.68       2.13       -9999      
  0.2383896  0.2071857  -9999      0.2695936  0.252562   72.89749   
  4083.104   2.324      1.3744     0.3284847  0.3614814  280.5      
  0.09040504 0.02175837 0.1590517 
894.1      
  0.2        1          3          330.646    2.539067   1.58       
  4.0919     2.7151     1.9578     1.5868     1.4304     2.17       
  2.29       3.04       3.15       3.77       2.12       -9999      
  0.2351923  0.1952095  -9999      0.2751751  0.2496101  63.60482   
  3149.025   2.344      1.4304     0.3331558  0.3662262  280.3      
  0.09197084 0.02419314 0.1597485 
894.3      
  0.2        1          3          340.172    2.593532   1.62       
  4.771      3.2091     2.1525     1.6371     1.4242     2.11       
  2.28       2.96       3.11       3.56       2.08       -9999      
  0.2429874  0.2011975  -9999      0.2847773  0.2574486  88.69      
  2693.246   2.334      1.4242     0.3505042  0.3846341  280.6      
  0.09224721 0.02578803 0.1587064 
894.5      
  0.198      1          3          342.408    2.554884   1.45       
  4.861      3.1783     1.9956     1.5138     1.3348     1.96       
  2.08       2.91       3.1        3.49       2.1        -9999      
  0.2592253  0.2311378  -9999      0.2873129  0.2735167  177.272    
  3009.243   2.284      1.3348     0.3671218  0.4027711  280.9      
  0.09116437 0.02464587 0.1576829 
894.7000000000001 
  0.198      1          3          339.19     2.448856   1.3        
  4.6073     2.9309     1.8483     1.4192     1.2522     1.96       
  2.03       2.93       3.11       3.71       2.12       -9999      
  0.2670299  0.2491018  -9999      0.284958   0.2809139  247.2865   
  4079.794   2.254      1.2522     0.3644955  0.4003959  281.6      
  0.08856543 0.02176558 0.1553653 
894.9      
  0.201      1          3          333.967    2.342545   1.27       
  4.040401   2.7663     1.7871     1.3689     1.2214     1.77       
  1.97       2.88       2.97       4.13       2.07       -9999      
  0.2616373  0.2431138  -9999      0.2801608  0.2752825  196.479    
  5535.687   2.264      1.2214     0.3454981  0.3804228  282        
  0.08704238 0.02       0.1540847 
895.1      
  0.201      1          3          331.949    2.268527   1.26       
  3.9791     2.9309     1.8517     1.3652     1.2074     1.7        
  1.77       2.81       2.95       3.71       2.11       -9999      
  0.2576021  0.2371258  -9999      0.2780784  0.2712473  165.4146   
  6846.143   2.274      1.2074     0.3329789  0.3673587  282        
  0.08704238 0.02       0.1540847 
895.3      
  0.201      1          3          328.298    2.235943   1.34       
  4.4644     3.1179     1.8936     1.3638     1.2043     1.82       
  1.81       2.79       2.94       3.69       2.11       -9999      
  0.2584504  0.2431138  -9999      0.2737871  0.272325   171.5092   
  7517.399   2.264      1.2043     0.3340833  0.3688674  281.1      
  0.08850531 0.02       0.1570106 
895.5      
  0.201      1          3          320.871    2.243709   1.27       
  4.6429     3.2721     1.8889     1.2972     1.1852     1.83       
  1.99       2.79       2.91       3.67       2.09       -9999      
  0.2605599  0.2550898  -9999      0.26603    0.2742801  187.6549   
  7351.666   2.244      1.1852     0.3338021  0.368603   281.7      
  0.08752109 0.02       0.1550422 
895.7000000000001 
  0.2        1          3          319.771    2.277093   1.42       
  3.7671     2.7354     1.6655     1.1932     1.1568     1.74       
  1.93       2.84       2.93       3.7        2.1        -9999      
  0.2568245  0.2491018  -9999      0.2645472  0.2706729  160.0187   
  6679.854   2.254      1.1568     0.3176486  0.3520464  281.2      
  0.08833876 0.02       0.1566775 
895.9      
  0.201      1          3          318.759    2.326449   1.44       
  2.959      1.929      1.4181     1.1796     1.2043     1.65       
  1.88       2.82       2.94       3.71       2.1        -9999      
  0.2351932  0.2071857  -9999      0.2632006  0.2491469  63.60717   
  5797.457   2.324      1.2043     0.2770843  0.3085612  280.8      
  0.08901102 0.02       0.158022  
896.1      
  0.201      1          3          310.838    2.38242    1.52       
  3.0148     2.1069     1.6318     1.4301     1.3967     1.94       
  2          2.83       2.99       3.64       2.11       -9999      
  0.2335502  0.2131737  -9999      0.2539266  0.2475682  59.30263   
  4936.972   2.314      1.3967     0.3215255  0.3536725  280.6      
  0.08942068 0.02013497 0.1587064 
896.3      
  0.201      1          3          308.363    2.422711   1.61       
  3.8984     2.7559     2.1312     1.8263     1.5764     2.09       
  2.36       2.94       3.16       3.78       2.14       -9999      
  0.2316613  0.2131737  -9999      0.2501489  0.2460912  54.71258   
  4397.763   2.314      1.5764     0.3544363  0.38741    279.4      
  0.09204821 0.02110868 0.1629877 
896.5      
  0.202      1          3          307.629    2.420401   1.56       
  4.32       2.9674     2.2243     1.8604     1.5809     2.29       
  2.29       3.03       3.22       3.99       2.18       -9999      
  0.2311355  0.2131737  -9999      0.2490973  0.2456486  53.4994    
  4427.015   2.314      1.5809     0.3540222  0.3870557  279.1      
  0.09257869 0.02105162 0.1641058 
896.7000000000001 
  0.202      1          3          311.615    2.36525    1.45       
  3.8812     2.8061     2.0882     1.668      1.4727     2.01       
  2.14       2.99       3.11       4.18       2.2        -9999      
  0.2425191  0.2311378  -9999      0.2539005  0.257009   86.93614   
  5186.393   2.284      1.4727     0.3595556  0.3937593  278.9      
  0.09243101 0.02       0.164862  
896.9      
  0.202      1          3          317.011    2.295334   1.33       
  3.1893     2.6207     1.9578     1.5528     1.3818     1.81       
  2.12       2.79       2.99       3.79       2.14       -9999      
  0.2489831  0.2371258  -9999      0.2608405  0.2631275  114.5328   
  6339.092   2.274      1.3818     0.3550653  0.3894214  280.1      
  0.09022678 0.02       0.1604536 
897.1      
  0.202      1          3          317.798    2.269181   1.33       
  3.661      2.8818     2.0319     1.5301     1.3398     1.81       
  1.8        2.7        2.96       3.97       2.12       -9999      
  0.2284718  0.1952095  -9999      0.2617342  0.2426162  47.75413   
  6833.317   2.344      1.3398     0.2947789  0.3261048  280.1      
  0.09022678 0.02       0.1604536 
897.3      
  0.202      1          3          318.592    2.276574   1.38       
  3.273      2.705      2.0345     1.5062     1.3188     1.91       
  2.12       2.82       3.12       4.19       2.2        -9999      
  0.2228483  0.1832335  -9999      0.262463   0.2370768  37.57064   
  6689.822   2.364      1.3188     0.2739414  0.3043427  279.8      
  0.09076349 0.02       0.161527  
897.5      
  0.201      1          3          317.256    2.266562   1.32       
  3.1817     2.6342     1.9893     1.4674     1.2969     1.76       
  1.85       2.65       2.9        4.02       2.1        -9999      
  0.2372291  0.2131737  -9999      0.2612845  0.2512908  69.37719   
  6884.87    2.314      1.2969     0.3070045  0.3394021  280.4      
  0.08969954 0.02       0.1593991 
897.7000000000001 
  0.202      1          3          314.22     2.259297   1.26       
  3.4822     2.7171     2.0491     1.5241     1.3085     1.88       
  1.8        2.82       3.04       3.88       2.18       -9999      
  0.2416096  0.2251498  -9999      0.2580695  0.2555368  83.62851   
  7029.954   2.294      1.3085     0.3208044  0.3536942  280.9      
  0.08884143 0.02       0.1576829 
