~Version
 VERS              .         2.0                           : CWLS LOG ASCII STANDARD - VERSION 2.0
 WRAP              .         YES                            : ONE LINE PER DEPTH STEP
 DLM               .         SPACE                         : DELIMITING CHARACTER(SPACE TAB OR COMMA)
~Well Information
#_______________________________________________________________________________
#
#PARAMETER_NAME    .UNIT     VALUE                         : DESCRIPTION
#_______________________________________________________________________________
STRT               .M        3.3                           : First reference value
STOP               .M        1269.1                        : Last reference value
STEP               .M        0.2                           : Step increment
NULL               .         -9999                         : Missing value
COMP               .                                       : Company
WELL               .         4766                          : Well name
FLD                .         Узень                         : Field
LOC                .                                       : Location
CNTY               .                                       : County
STAT               .                                       : State
CTRY               .                                       : Country
SRVC               .                                       : Service Company
DATE               .                                       : Date
UWI                .                                       : Unique Well ID
Block              .         7                             : 
Category           .         Нефтяная                      : 
Condition          .         В работе                      : 
Date               .         30.06.2012                    : 
EREF               .m        83.1                          : 100.8
GRP                .                                       : Group name
Gorizont           .         15                            : 14
ISS                .                                       : Well surveys
Interpretator      .         Торегалиев А.Е.               : 
Kupol              .         Основной                      : osnovnoi
Mud                .         0                             : 
Mud_density        .         0                             : 
Mud_resistivity    .         0                             : 
NGDU               .         НГДУ-2                        : 
ORIGINALWELLNAME   .         4766                          : 
Person             .         Almas                         : 
Spud_date          .         2012                          : 1961
TIME               .                                       : LOG TIME
Viscosity          .         0                             : 
X                  .m        43034.77                      : 46154
Y                  .m        83958.33                      : 85761.93
YEAR               .         2019                          : 
~Parameter Information Block
#_______________________________________________________________________________
#
#PARAMETER_NAME    .UNIT     VALUE                         : DESCRIPTION
#_______________________________________________________________________________
SET                .         LQC_KAZNIPI_Petrel            : 
TLFamily_CALI      .         Caliper                       : 
TLFamily_COLL      .         Net Reservoir Flag            : 
TLFamily_CSAT      .         Fluid Code                    : 
TLFamily_DEPT      .         Measured Depth                : 
TLFamily_DT        .         Compressional Slowness        : 
TLFamily_GR        .         Russian Gamma Ray             : 
TLFamily_GZ3       .         Gradient 225                  : 
TLFamily_IK1       .         Resistivity 05                : 
TLFamily_IK2       .         Resistivity 07                : 
TLFamily_IK3       .         Resistivity 10                : 
TLFamily_IK4       .         Resistivity 14                : 
TLFamily_IK5       .         Resistivity 20                : 
TLFamily_LLS       .         Lateral Log Resistivity       : 
TLFamily_MBK       .         Micro Lateral Log Resistivity : 
TLFamily_MINV      .         Micro Gradient Resistivity    : 
TLFamily_MNOR      .         Micro Resistivity             : 
TLFamily_NNKTb     .         Neutron Far                   : 
TLFamily_NNKTm     .         Neutron Near                  : 
TLFamily_NPHI      .         Neutron Porosity              : 
TLFamily_PHIE      .         Effective Porosity            : 
TLFamily_PHIED     .         Effective Porosity            : 
TLFamily_PHIEN     .         Effective Porosity            : 
TLFamily_PHIES     .         Effective Porosity            : 
TLFamily_PHIT      .         Porosity                      : 
TLFamily_PRMB      .         Permeability                  : 
TLFamily_PRMB_DGR  .         Permeability                  : 
TLFamily_RHOB      .         Bulk Density                  : 
TLFamily_RT        .         Formation Resistivity         : 
TLFamily_SOIL_ARCHIE .         Oil Saturation                : 
TLFamily_SOIL_DW   .         Oil Saturation                : 
TLFamily_SP        .         Spontaneous Potential         : 
TLFamily_VSH_FIN   .         Shale Volume                  : 
TLFamily_VSH_GR    .         Shale Volume                  : 
TLFamily_VSH_SP    .         Shale Volume                  : 
~Curve Information
#_______________________________________________________________________________
#
#LOGNAME           .UNIT     LOG_ID                        : DESCRIPTION
#_______________________________________________________________________________
DEPT               .M                                      : Колонка глубины 
CALI               .м                                      : Каверномер 
COLL               .unitless                               : Описание 
CSAT               .unitless                               : Описание 
DT                 .мкс/м                                  : Интервальное время пробега продольной волны 
GR                 .uR/h                                   : Гамма каротаж 
GZ3                .Ohmm                                   : Градиент-зонд  длиной 2.25м 
IK1                .Ohmm                                   : И0.10И0.40 
IK2                .Ohmm                                   : И0.14И0.56 
IK3                .Ohmm                                   : И0.20И0.8 
IK4                .Ohmm                                   : И0.28И1.12 
IK5                .Ohmm                                   : И0.40И1.60 
LLS                .Ohmm                                   : Боковой каротаж 
MBK                .Ohmm                                   : Микробоковой каротаж 
MINV               .Ohmm                                   : Микро-градиент зонд 
MNOR               .Ohmm                                   : Микро-потенциал зонд 
NNKTb              .у.е.                                   : Показания большого зонда 2ННКт аппаратуры СРК 
NNKTm              .у.е.                                   : Показания малого зонда 2ННКт аппаратуры СРК 
NPHI               .v/v                                    : Total porosity 
PHIE               .v/v                                    : Описание 
PHIED              .v/v                                    :  
PHIEN              .v/v                                    :  
PHIES              .v/v                                    :  
PHIT               .v/v                                    : Описание 
PRMB               .mD                                     :  
PRMB_DGR           .mD                                     :  
RHOB               .G/C3                                   : Плотность по ГГК-П 
RT                 .ohmm                                   : Description 
SOIL_ARCHIE        .v/v                                    :  
SOIL_DW            .v/v                                    :  
SP                 .мВ                                     : Потенциал самополяризации 
VSH_FIN            .v/v                                    : Описание 
VSH_GR             .v/v                                    : Shale volume 
VSH_SP             .v/v                                    : Shale Volume 
~Ascii
# ...
1120.5     
  0.222      -9999      -9999      296.084    7.537864   1.79       
  2.0162     1.9648     1.9344     1.9351     1.9357     2.18       
  2.39       3.18       2.98       2.78       1.64       0.1886373  
  0.07602194 0.03211566 0.05720215 0.138748   0.1614587  0.07165868 
  4.855654   2.469      1.9357     0          0          256.6      
  0.3982885  0.340327   0.45625   
1120.7     
  0.218      -9999      -9999      292.448    7.25679    1.95       
  2.4536     2.4863     2.3823     2.2709     2.1654     2.74       
  2.74       2.85       2.95       3.14       1.7        0.1786373  
  0.1108748  0.1203592  0.06315979 0.1491054  0.1859386  0.3168314  
  7.204002   2.469      2.1654     0          0.1749391  259.8      
  0.349932   0.2896931  0.4101708 
1120.9     
  0.219      -9999      -9999      287.193    7.140534   2.06       
  2.8781     2.8447     2.6621     2.481      2.2856     3.42       
  3.85       2.6        3.05       3.06       1.75       0.2026373  
  0.1204799  0.1113773  0.09790542 0.1521569  0.1885587  0.4772409  
  8.480783   2.484      2.2856     0.05497243 0.2299203  263.4      
  0.3173695  0.2710209  0.363718  
1121.1     
  0.224      -9999      -9999      287.385    7.197459   2.02       
  2.4484     2.4051     2.2871     2.191      2.127      2.53       
  3.35       3.1        3.31       2.92       1.77       0.1686374  
  0.1132613  0.1263472  0.06242249 0.1510142  0.1823041  0.3507778  
  7.829569   2.459      2.127      0          0.1648748  263.4      
  0.3218632  0.2800084  0.363718  
1121.3     
  0.219      -9999      -9999      294.229    7.337767   1.94       
  2.4176     2.3733     2.1902     2.0592     1.9703     2.43       
  2.53       3.03       3.07       2.67       1.73       0.1796373  
  0.1169404  0.1323354  0.06562273 0.1528632  0.1910533  0.4103728  
  6.430055   2.449      1.9703     0          0.167027   261.5      
  0.3454988  0.3034542  0.3875435 
1121.5     
  0.227      -9999      -9999      292.989    7.475475   1.95       
  1.9467     1.9811     1.9381     1.9133     1.8818     2.23       
  2.67       3.38       3.2        2.84       1.7        0.1556373  
  0.1053007  0.1323354  0.03686723 0.1466995  0.1825048  0.2497943  
  5.300004   2.449      1.8818     0          0.086316   261.2      
  0.3599094  0.3283735  0.3914454 
1121.7     
  0.226      -9999      -9999      296.449    7.557979   2.04       
  1.7882     1.8274     1.8575     1.8455     1.8335     1.73       
  1.83       3.03       2.56       2.5        1.67       0.1586373  
  0.06117501 0.02381536 0.02375809 0.1359516  0.1488505  0.03804237 
  4.720486   2.479      1.8335     0          0          255.5      
  0.408725   0.3442729  0.4731771 
1121.9     
  0.224      -9999      -9999      315.06     7.543937   2.18       
  2.1482     2.1562     2.0464     2.0209     1.932      2.1        
  1.84       2.85       2.68       2.28       1.68       0.1786373  
  0.1083428  0.1257117  0.04212293 0.1571937  0.1970812  0.2843996  
  4.814443   2.307      1.932      0          0.1487545  254.7      
  0.41368    0.3415134  0.4858466 
1122.1     
  0.224      -9999      -9999      309.573    7.41835    2.21       
  2.1785     2.132      2.0504     2.0944     2.0385     2.36       
  2.62       2.98       3.1        2.61       1.7        0.1916373  
  0.1474916  0.2113773  0.06805392 0.1630435  0.2278244  1.510287   
  5.742435   2.317      2.0385     0.1639227  0.3287217  258.3      
  0.3744952  0.3177971  0.4311934 
1122.3     
  0.227      -9999      -9999      305.365    7.245582   2.22       
  2.2424     2.1822     2.1228     2.1405     2.08       2.5        
  2.99       3.08       3.19       2.73       1.73       0.2066373  
  0.1559677  0.2113773  0.09101292 0.1655128  0.231127   2.167993   
  7.318217   2.317      2.08       0.2111338  0.3559915  259.6      
  0.350377   0.2878384  0.4129157 
1122.5     
  0.223      -9999      -9999      299.492    7.161343   2.09       
  2.3124     2.1692     2.0624     2.0686     2.0424     2.66       
  3.01       3.42       3.44       2.73       1.74       0.2156373  
  0.1604166  0.2113773  0.1060092  0.1638633  0.2316782  2.620974   
  8.236679   2.317      2.0424     0.2236051  0.3584822  261.3      
  0.3322065  0.2742723  0.3901407 
1122.7     
  0.231      -9999      -9999      293.786    7.240463   2          
  1.9393     1.886      1.8415     1.9014     1.9492     2.12       
  2.43       3.72       3.26       3.04       1.69       0.1906373  
  0.1461455  0.2173653  0.07260837 0.1484629  0.2228679  1.426027   
  7.370987   2.307      1.9492     0.1393165  0.3019201  258.5      
  0.3576635  0.2869951  0.4283319 
1122.9     
  0.231      -9999      -9999      288.921    7.390015   1.99       
  1.9442     1.9315     1.8995     1.9181     1.9259     1.99       
  2.01       3.46       2.92       2.59       1.66       0.1606373  
  0.1015949  0.1380048  0.03351415 0.1332656  0.1842287  0.2132757  
  5.975407   2.297      1.9259     0          0.08905625 256.5      
  0.3852218  0.312678   0.4577656 
1123.1     
  0.229      -9999      -9999      286.42     7.470522   2.13       
  2.0746     2.0235     1.9666     1.9536     1.943      2.26       
  2.18       3.66       3.25       2.74       1.67       0.1806373  
  0.08857315 0.08812758 0.05057557 0.1270163  0.1731172  0.1223905  
  5.336978   2.377      1.943      0          0.006042719 256.3      
  0.3941266  0.3274426  0.4608106 
1123.3     
  0.231      -9999      -9999      279.063    7.437371   2.13       
  1.869      1.8512     1.8563     1.8931     1.9308     2.04       
  2.12       3.95       3.12       2.61       1.7        0.1696373  
  0.0835029  0.09197324 0.04084394 0.1176915  0.1672224  0.09859031 
  5.591161   2.372      1.9308     0          0          256.4      
  0.390283   0.3212803  0.4592857 
1123.5     
  0.23       -9999      -9999      306.561    7.314353   2.11       
  1.9007     1.9026     1.9055     1.9486     1.9918     2.02       
  1.96       3.7        2.96       2.76       1.72       0.1566373  
  0.1317408  0.2053893  0.03170346 0.1581296  0.2129515  0.7714662  
  6.644866   2.327      1.9918     0.06741779 0.259925   256.5      
  0.3785875  0.2994095  0.4577656 
1123.7     
  0.233      -9999      -9999      317.05     7.149637   2.32       
  2.0136     2.0144     2.028      2.118      2.1902     2.34       
  2.13       3.76       3.22       2.88       1.7        0.2416373  
  0.1726339  0.2215569  0.1214037  0.174941   0.2507893  4.413226   
  8.373122   2.3        2.1902     0.2951759  0.4263257  256.6      
  0.3643443  0.2724385  0.45625   
1123.9     
  0.229      -9999      -9999      303.838    6.962917   2.79       
  2.1284     2.2043     2.2887     2.4288     2.5446     2.49       
  2.15       3.86       3.3        2.71       1.74       0.2046373  
  0.1601416  0.2293414  0.08821315 0.1628702  0.2358208  2.59041    
  10.8818    2.287      2.5446     0.2986625  0.4308128  256.3      
  0.3528006  0.2447906  0.4608106 
1124.1     
  0.23       -9999      -9999      296.767    6.756449   3.36       
  2.6523     2.7808     2.9003     2.9697     3.0722     3.24       
  3.06       4.08       3.68       3.07       1.78       0.2396373  
  0.1727457  0.2323353  0.1277205  0.1581814  0.245495   4.434334   
  14.53957   2.282      3.0722     0.3990061  0.5096571  256.3      
  0.3391419  0.2174732  0.4608106 
1124.3     
  0.231      -9999      -9999      298.154    6.632795   3.67       
  3.0819     3.2641     3.3962     3.4813     3.5115     4.27       
  4.24       4.41       4.09       3.27       1.82       0.2216373  
  0.1693741  0.2341317  0.1119231  0.1620674  0.2406916  3.840402   
  17.2951    2.279      3.5115     0.4257668  0.5322096  256.2      
  0.3324673  0.202595   0.4623396 
1124.5     
  0.236      -9999      -9999      296.616    6.730775   3.64       
  2.7858     3.1808     3.3765     3.4783     3.5204     3.46       
  3.61       4.14       3.57       2.8        1.77       0.2386373  
  0.1740123  0.2353294  0.1277471  0.1589605  0.2460943  4.680458   
  15.07303   2.277      3.5204     0.4397866  0.5439699  256.5      
  0.3360311  0.2142967  0.4577656 
