~Version
 VERS              .         2.0                           : CWLS LOG ASCII STANDARD - VERSION 2.0
 WRAP              .         YES                            : ONE LINE PER DEPTH STEP
 DLM               .         SPACE                         : DELIMITING CHARACTER(SPACE TAB OR COMMA)
~Well Information
#_______________________________________________________________________________
#
#PARAMETER_NAME    .UNIT     VALUE                         : DESCRIPTION
#_______________________________________________________________________________
STRT               .M        3.3                           : First reference value
STOP               .M        1269.1                        : Last reference value
STEP               .M        0.2                           : Step increment
NULL               .         -9999                         : Missing value
COMP               .                                       : Company
WELL               .         4766                          : Well name
FLD                .         Узень                         : Field
LOC                .                                       : Location
CNTY               .                                       : County
STAT               .                                       : State
CTRY               .                                       : Country
SRVC               .                                       : Service Company
DATE               .                                       : Date
UWI                .                                       : Unique Well ID
Block              .         7                             : 
Category           .         Нефтяная                      : 
Condition          .         В работе                      : 
Date               .         30.06.2012                    : 
EREF               .m        83.1                          : 100.8
GRP                .                                       : Group name
Gorizont           .         15                            : 14
ISS                .                                       : Well surveys
Interpretator      .         Торегалиев А.Е.               : 
Kupol              .         Основной                      : osnovnoi
Mud                .         0                             : 
Mud_density        .         0                             : 
Mud_resistivity    .         0                             : 
NGDU               .         НГДУ-2                        : 
ORIGINALWELLNAME   .         4766                          : 
Person             .         Almas                         : 
Spud_date          .         2012                          : 1961
TIME               .                                       : LOG TIME
Viscosity          .         0                             : 
X                  .m        43034.77                      : 46154
Y                  .m        83958.33                      : 85761.93
YEAR               .         2019                          : 
~Parameter Information Block
#_______________________________________________________________________________
#
#PARAMETER_NAME    .UNIT     VALUE                         : DESCRIPTION
#_______________________________________________________________________________
SET                .         LQC_KAZNIPI_Petrel            : 
TLFamily_CALI      .         Caliper                       : 
TLFamily_COLL      .         Net Reservoir Flag            : 
TLFamily_CSAT      .         Fluid Code                    : 
TLFamily_DEPT      .         Measured Depth                : 
TLFamily_DT        .         Compressional Slowness        : 
TLFamily_GR        .         Russian Gamma Ray             : 
TLFamily_GZ3       .         Gradient 225                  : 
TLFamily_IK1       .         Resistivity 05                : 
TLFamily_IK2       .         Resistivity 07                : 
TLFamily_IK3       .         Resistivity 10                : 
TLFamily_IK4       .         Resistivity 14                : 
TLFamily_IK5       .         Resistivity 20                : 
TLFamily_LLS       .         Lateral Log Resistivity       : 
TLFamily_MBK       .         Micro Lateral Log Resistivity : 
TLFamily_MINV      .         Micro Gradient Resistivity    : 
TLFamily_MNOR      .         Micro Resistivity             : 
TLFamily_NNKTb     .         Neutron Far                   : 
TLFamily_NNKTm     .         Neutron Near                  : 
TLFamily_NPHI      .         Neutron Porosity              : 
TLFamily_PHIE      .         Effective Porosity            : 
TLFamily_PHIED     .         Effective Porosity            : 
TLFamily_PHIEN     .         Effective Porosity            : 
TLFamily_PHIES     .         Effective Porosity            : 
TLFamily_PHIT      .         Porosity                      : 
TLFamily_PRMB      .         Permeability                  : 
TLFamily_PRMB_DGR  .         Permeability                  : 
TLFamily_RHOB      .         Bulk Density                  : 
TLFamily_RT        .         Formation Resistivity         : 
TLFamily_SOIL_ARCHIE .         Oil Saturation                : 
TLFamily_SOIL_DW   .         Oil Saturation                : 
TLFamily_SP        .         Spontaneous Potential         : 
TLFamily_VSH_FIN   .         Shale Volume                  : 
TLFamily_VSH_GR    .         Shale Volume                  : 
TLFamily_VSH_SP    .         Shale Volume                  : 
~Curve Information
#_______________________________________________________________________________
#
#LOGNAME           .UNIT     LOG_ID                        : DESCRIPTION
#_______________________________________________________________________________
DEPT               .M                                      : Колонка глубины 
CALI               .м                                      : Каверномер 
COLL               .unitless                               : Описание 
CSAT               .unitless                               : Описание 
DT                 .мкс/м                                  : Интервальное время пробега продольной волны 
GR                 .uR/h                                   : Гамма каротаж 
GZ3                .Ohmm                                   : Градиент-зонд  длиной 2.25м 
IK1                .Ohmm                                   : И0.10И0.40 
IK2                .Ohmm                                   : И0.14И0.56 
IK3                .Ohmm                                   : И0.20И0.8 
IK4                .Ohmm                                   : И0.28И1.12 
IK5                .Ohmm                                   : И0.40И1.60 
LLS                .Ohmm                                   : Боковой каротаж 
MBK                .Ohmm                                   : Микробоковой каротаж 
MINV               .Ohmm                                   : Микро-градиент зонд 
MNOR               .Ohmm                                   : Микро-потенциал зонд 
NNKTb              .у.е.                                   : Показания большого зонда 2ННКт аппаратуры СРК 
NNKTm              .у.е.                                   : Показания малого зонда 2ННКт аппаратуры СРК 
NPHI               .v/v                                    : Total porosity 
PHIE               .v/v                                    : Описание 
PHIED              .v/v                                    :  
PHIEN              .v/v                                    :  
PHIES              .v/v                                    :  
PHIT               .v/v                                    : Описание 
PRMB               .mD                                     :  
PRMB_DGR           .mD                                     :  
RHOB               .G/C3                                   : Плотность по ГГК-П 
RT                 .ohmm                                   : Description 
SOIL_ARCHIE        .v/v                                    :  
SOIL_DW            .v/v                                    :  
SP                 .мВ                                     : Потенциал самополяризации 
VSH_FIN            .v/v                                    : Описание 
VSH_GR             .v/v                                    : Shale volume 
VSH_SP             .v/v                                    : Shale Volume 
~Ascii
# ...
1061.7     
  0.221      1          2          301.008    6.295781   9.13       
  7.003      6.7983     6.7526     6.281899   4.8899     9.41       
  6.17       4.05       4.21       2.75       1.62       0.2966373  
  0.1929735  0.2203593  0.1899654  0.1685958  0.2623134  10.5074    
  25.88769   2.302      4.8899     0.5550116  0.6377908  247.1      
  0.3232482  0.1718308  0.4746656 
1061.9     
  0.221      1          2          304.142    6.275783   8.18       
  8.328801   6.281899   5.0589     4.742      3.9472     13.21      
  6.34       3.79       4.1        2.67       1.69       0.3236373  
  0.1982101  0.2203593  0.2091676  0.1651035  0.2726188  13.13682   
  26.63357   2.302      3.9472     0.5193071  0.610195   244.1      
  0.3468779  0.1698493  0.5239065 
1062.1     
  0.224      -9999      -9999      318.581    6.676062   5.21       
  2.177      2.1222     2.0937     2.2571     2.3806     2.73       
  3.21       2.94       2.83       2.57       1.66       0.2976373  
  0.160823   0.1523466  0.165119   0.1650034  0.2469639  2.666797   
  15.0837    2.267      2.3806     0.2688908  0.420298   240.5      
  0.4015708  0.2142348  0.5889068 
1062.3     
  0.233      -9999      -9999      332.29     7.149876   2.66       
  1.4622     1.6583     1.6754     1.6729     1.8415     1.88       
  1.51       1.91       1.79       2.05       1.55       0.2366373  
  0.1331965  0.1585394  0.08212673 0.1589236  0.233633   0.820883   
  7.695295   2.232      1.8415     0.02813945 0.2651157  237.2      
  0.468214   0.2819933  0.6544346 
1062.5     
  0.234      -9999      -9999      307.52     7.355745   1.79       
  1.39       1.7222     1.932      1.9449     1.9716     2.05       
  1.5        2.05       1.92       2.34       1.51       0.2036373  
  0.07727213 0.07321716 0.03798863 0.1206106  0.1849487  0.07558322 
  5.74421    2.362      1.9716     0          0          235.7      
  0.5019658  0.317757   0.6861746 
1062.7     
  0.23       -9999      -9999      279.003    7.335471   1.6        
  1.8877     2.1533     2.5228     2.4739     2.3203     2.59       
  1.7        2.25       2.18       2.47       1.53       0.1786373  
  0.04917179 0.06064058 0.008526606 0.0783482  0.1597488  0.02280022 
  5.912033   2.378      2.3203     0          0          234.3      
  0.5154871  0.3140424  0.7169318 
1062.9     
  0.235      -9999      -9999      279.741    7.321241   1.54       
  2.0319     2.1405     2.3889     2.5131     2.3332     2.98       
  1.97       2.3        2.53       2.67       1.64       0.1906373  
  0.05111012 0.05254331 0.02095249 0.07983456 0.1614103  0.02476518 
  6.032743   2.392      2.3332     0          0          234.3      
  0.5141965  0.3114612  0.7169318 
1063.1     
  0.24       -9999      -9999      280.992    7.364547   1.52       
  1.9381     2.03       1.9442     2.0659     2.0438     2.52       
  1.58       1.66       2.14       2.16       1.59       0.1666373  
  0.05363656 0.07219173 0.002136982 0.08658097 0.1605667  0.02758273 
  5.67284    2.365      2.0438     0          0          236.1      
  0.498486   0.3193833  0.6775886 
1063.3     
  0.25       -9999      -9999      288.786    7.286072   1.72       
  1.5067     1.6323     1.6214     1.7201     1.8517     2.2        
  1.58       1.54       2.01       2.2        1.58       0.1516373  
  0.06270701 0.09137249 0          0.09674855 0.1656229  0.04061104 
  6.341752   2.332      1.8517     0          0          235.2      
  0.5011025  0.3051724  0.6970326 
1063.5     
  0.256      -9999      -9999      305.249    6.948404   2.69       
  1.4081     1.6592     1.8068     1.8501     2.0638     2.09       
  1.43       1.4        1.84       2.15       1.5        0.2376373  
  0.0931299  0.07294782 0.08050635 0.1259355  0.1952697  0.1486448  
  10.2449    2.372      2.0638     0          0.1098963  235        
  0.4761545  0.2508939  0.7014151 
1063.7     
  0.232      -9999      -9999      272.183    6.467266   4.34       
  2.8716     3.1936     3.2465     2.8708     2.8936     3.93       
  1.7        2.2        2.55       2.62       1.57       0.2036373  
  0.07178299 0.07958729 0.0510442  0.08471747 0.1709731  0.05980716 
  20.29126   2.366      2.8936     0          0.09951546 233.5      
  0.4624035  0.1898001  0.7350069 
1063.9     
  0.236      6          6          248.973    6.076267   6.1        
  2.7341     2.9151     3.1039     3.326      3.5294     4.34       
  2.98       3.48       3.5        2.95       1.75       0.1816373  
  0.04925146 0.07972675 0.02568439 0.04234323 0.1506255  0.02287781 
  35.35944   2.362      3.5294     0          0          231        
  0.4725847  0.1512891  0.7938803 
1064.1     
  0.223      6          6          274.117    5.868369   7.76       
  2.9797     3.1834     3.2491     3.5675     3.6642     4.25       
  2.48       2.38       2.81       2.88       1.7        0.2236373  
  0.07809773 0.07855743 0.06951026 0.08622549 0.1782849  0.07829202 
  47.50639   2.366      3.6642     0          0.2445648  229.6      
  0.4670518  0.1341036  0.8       
1064.3     
  0.226      6          6          310.622    5.791241   8.98       
  3.4734     4.2988     4.324      4.5621     4.3851     4.72       
  2.84       3.3        3.12       2.85       1.66       0.2846373  
  0.1144282  0.0756145  0.1314782  0.1361919  0.2139862  0.3686771  
  53.00659   2.372      4.3851     0.2617052  0.4667984  229.6      
  0.4641184  0.1282368  0.8       
1064.5     
  0.223      6          6          276.318    5.840202   8.4        
  4.7385     5.6381     6.0705     5.8666     5.4581     9.06       
  5.33       4.24       4.13       3.42       1.74       0.2376373  
  0.08498419 0.08119333 0.0838688  0.08989044 0.1849383  0.1050199  
  49.44558   2.362      5.4581     0.1367364  0.4139021  229.8      
  0.4659653  0.1319306  0.8       
1064.7     
  0.224      6          6          257.603    6.045238   6.97       
  4.9338     5.4625     6.2835     6.0824     5.971301   7.18       
  5.4        4.27       4.01       3.44       1.82       0.1986373  
  0.05496512 0.06557527 0.04211985 0.05720023 0.1567061  0.02919076 
  36.95271   2.385      5.971301   0          0.2704619  230.7      
  0.4742954  0.1485908  0.8       
1064.9     
  0.225      6          6          258.067    6.322207   5.74       
  5.5741     6.232901   6.6592     6.5437     5.9129     7.25       
  5.4        3.86       4.01       3.85       1.8        0.1716373  
  0.03870542 0.0513295  0.01084735 0.05393942 0.1432237  0.01459071 
  24.93398   2.404      5.9129     0          0.1244576  230.5      
  0.4872424  0.1744848  0.8       
1065.1     
  0.231      6          6          252.651    6.558834   4.85       
  5.651501   6.506401   6.269401   6.156899   5.384601   6.66       
  3.97       2.42       3.75       3.91       1.89       0.1606373  
  0.03628559 0.06446879 0          0.04438796 0.1407692  0.01315998 
  17.81652   2.382      5.384601   0          0.05235384 231.8      
  0.4873977  0.2001527  0.7746427 
1065.3     
  0.24       -9999      -9999      286.18     6.814698   3.63       
  3.9862     3.7727     3.7836     3.8326     3.8101     4.18       
  2.83       2.71       3.59       3.11       1.85       0.2166373  
  0.08750786 0.1075742  0.05667565 0.09827372 0.1914877  0.1169542  
  12.38761   2.311      3.8101     0.00384035 0.3210872  233.4      
  0.4847324  0.2321726  0.7372922 
1065.5     
  0.265      -9999      -9999      331.274    7.256099   2.27       
  1.0961     1.4016     1.8415     2.2632     2.5119     1.85       
  1.53       1.99       2.29       2.16       1.66       0.2826373  
  0.1336559  0.1077372  0.1318374  0.1613931  0.2316803  0.8371233  
  6.617579   2.321      2.5119     0.1624115  0.3684428  239.2      
  0.4569696  0.299913   0.6140262 
1065.7     
  0.272      -9999      -9999      359.144    7.893375   1.62       
  1.734      2.3038     2.4554     2.2865     2.1256     1.83       
  1.17       1.21       1.54       2.04       1.46       0.2476373  
  0.1312921  0.1610294  0.0700786  0.1627682  0.2467105  0.756843   
  2.676585   2.202      2.1256     0.07994969 0.3344876  237.8      
  0.5380568  0.4340289  0.6420848 
