~Version
 VERS              .         2.0                           : CWLS LOG ASCII STANDARD - VERSION 2.0
 WRAP              .         YES                            : ONE LINE PER DEPTH STEP
 DLM               .         SPACE                         : DELIMITING CHARACTER(SPACE TAB OR COMMA)
~Well Information
#_______________________________________________________________________________
#
#PARAMETER_NAME    .UNIT     VALUE                         : DESCRIPTION
#_______________________________________________________________________________
STRT               .M        3.3                           : First reference value
STOP               .M        1269.1                        : Last reference value
STEP               .M        0.2                           : Step increment
NULL               .         -9999                         : Missing value
COMP               .                                       : Company
WELL               .         4766                          : Well name
FLD                .         Узень                         : Field
LOC                .                                       : Location
CNTY               .                                       : County
STAT               .                                       : State
CTRY               .                                       : Country
SRVC               .                                       : Service Company
DATE               .                                       : Date
UWI                .                                       : Unique Well ID
Block              .         7                             : 
Category           .         Нефтяная                      : 
Condition          .         В работе                      : 
Date               .         30.06.2012                    : 
EREF               .m        83.1                          : 100.8
GRP                .                                       : Group name
Gorizont           .         15                            : 14
ISS                .                                       : Well surveys
Interpretator      .         Торегалиев А.Е.               : 
Kupol              .         Основной                      : osnovnoi
Mud                .         0                             : 
Mud_density        .         0                             : 
Mud_resistivity    .         0                             : 
NGDU               .         НГДУ-2                        : 
ORIGINALWELLNAME   .         4766                          : 
Person             .         Almas                         : 
Spud_date          .         2012                          : 1961
TIME               .                                       : LOG TIME
Viscosity          .         0                             : 
X                  .m        43034.77                      : 46154
Y                  .m        83958.33                      : 85761.93
YEAR               .         2019                          : 
~Parameter Information Block
#_______________________________________________________________________________
#
#PARAMETER_NAME    .UNIT     VALUE                         : DESCRIPTION
#_______________________________________________________________________________
SET                .         LQC_KAZNIPI_Petrel            : 
TLFamily_CALI      .         Caliper                       : 
TLFamily_COLL      .         Net Reservoir Flag            : 
TLFamily_CSAT      .         Fluid Code                    : 
TLFamily_DEPT      .         Measured Depth                : 
TLFamily_DT        .         Compressional Slowness        : 
TLFamily_GR        .         Russian Gamma Ray             : 
TLFamily_GZ3       .         Gradient 225                  : 
TLFamily_IK1       .         Resistivity 05                : 
TLFamily_IK2       .         Resistivity 07                : 
TLFamily_IK3       .         Resistivity 10                : 
TLFamily_IK4       .         Resistivity 14                : 
TLFamily_IK5       .         Resistivity 20                : 
TLFamily_LLS       .         Lateral Log Resistivity       : 
TLFamily_MBK       .         Micro Lateral Log Resistivity : 
TLFamily_MINV      .         Micro Gradient Resistivity    : 
TLFamily_MNOR      .         Micro Resistivity             : 
TLFamily_NNKTb     .         Neutron Far                   : 
TLFamily_NNKTm     .         Neutron Near                  : 
TLFamily_NPHI      .         Neutron Porosity              : 
TLFamily_PHIE      .         Effective Porosity            : 
TLFamily_PHIED     .         Effective Porosity            : 
TLFamily_PHIEN     .         Effective Porosity            : 
TLFamily_PHIES     .         Effective Porosity            : 
TLFamily_PHIT      .         Porosity                      : 
TLFamily_PRMB      .         Permeability                  : 
TLFamily_PRMB_DGR  .         Permeability                  : 
TLFamily_RHOB      .         Bulk Density                  : 
TLFamily_RT        .         Formation Resistivity         : 
TLFamily_SOIL_ARCHIE .         Oil Saturation                : 
TLFamily_SOIL_DW   .         Oil Saturation                : 
TLFamily_SP        .         Spontaneous Potential         : 
TLFamily_VSH_FIN   .         Shale Volume                  : 
TLFamily_VSH_GR    .         Shale Volume                  : 
TLFamily_VSH_SP    .         Shale Volume                  : 
~Curve Information
#_______________________________________________________________________________
#
#LOGNAME           .UNIT     LOG_ID                        : DESCRIPTION
#_______________________________________________________________________________
DEPT               .M                                      : Колонка глубины 
CALI               .м                                      : Каверномер 
COLL               .unitless                               : Описание 
CSAT               .unitless                               : Описание 
DT                 .мкс/м                                  : Интервальное время пробега продольной волны 
GR                 .uR/h                                   : Гамма каротаж 
GZ3                .Ohmm                                   : Градиент-зонд  длиной 2.25м 
IK1                .Ohmm                                   : И0.10И0.40 
IK2                .Ohmm                                   : И0.14И0.56 
IK3                .Ohmm                                   : И0.20И0.8 
IK4                .Ohmm                                   : И0.28И1.12 
IK5                .Ohmm                                   : И0.40И1.60 
LLS                .Ohmm                                   : Боковой каротаж 
MBK                .Ohmm                                   : Микробоковой каротаж 
MINV               .Ohmm                                   : Микро-градиент зонд 
MNOR               .Ohmm                                   : Микро-потенциал зонд 
NNKTb              .у.е.                                   : Показания большого зонда 2ННКт аппаратуры СРК 
NNKTm              .у.е.                                   : Показания малого зонда 2ННКт аппаратуры СРК 
NPHI               .v/v                                    : Total porosity 
PHIE               .v/v                                    : Описание 
PHIED              .v/v                                    :  
PHIEN              .v/v                                    :  
PHIES              .v/v                                    :  
PHIT               .v/v                                    : Описание 
PRMB               .mD                                     :  
PRMB_DGR           .mD                                     :  
RHOB               .G/C3                                   : Плотность по ГГК-П 
RT                 .ohmm                                   : Description 
SOIL_ARCHIE        .v/v                                    :  
SOIL_DW            .v/v                                    :  
SP                 .мВ                                     : Потенциал самополяризации 
VSH_FIN            .v/v                                    : Описание 
VSH_GR             .v/v                                    : Shale volume 
VSH_SP             .v/v                                    : Shale Volume 
~Ascii
# ...
1175.1     
  0.236      -9999      -9999      306.362    7.8715     1.77       
  1.4565     1.3986     1.3773     1.3881     1.384      1.52       
  1.79       3.85       2.7        2.21       1.56       0.1586373  
  0.06194558 0.0638242  0          0.1220125  0.166349   0.03931338 
  3.040066   2.381      1.384      0          0          249.6      
  0.4930096  0.4120376  0.5739816 
1175.3     
  0.254      -9999      -9999      310.18     7.804082   1.74       
  1.4359     1.4024     1.3885     1.4054     1.405      1.48       
  1.52       2.56       2.39       2.13       1.57       0.1696373  
  0.08161288 0.1027061  0.01134371 0.1307888  0.1845084  0.09095499 
  3.341773   2.321      1.405      0          0          250.2      
  0.4796776  0.3964212  0.5629341 
1175.5     
  0.242      -9999      -9999      313.478    7.605453   1.75       
  1.5016     1.5232     1.534      1.5147     1.4958     1.46       
  1.48       1.88       2.2        2.29       1.55       0.1986373  
  0.1118089  0.1397579  0.05093609 0.1447328  0.2078191  0.3297086  
  4.416208   2.271      1.4958     0          0.07471462 251.4      
  0.4475795  0.3537683  0.5413908 
1175.7     
  0.22       -9999      -9999      308.108    7.316175   1.72       
  2.338      2.1969     1.9566     1.8163     1.7084     2.61       
  2.14       2.47       3          2.63       1.6        0.2216373  
  0.1432297  0.1640719  0.1012727  0.1643445  0.2214703  1.259273   
  6.627903   2.396      1.7084     0.06816372 0.2453746  258.4      
  0.3647413  0.2997221  0.4297604 
1175.9     
  0.219      1          5          303.81     7.036563   1.86       
  3.1689     2.5679     2.2138     2.0118     1.8983     3.54       
  4.11       3.09       3.7        2.55       1.65       0.2106373  
  0.1586221  0.1640719  0.1222866  0.1895078  0.2160527  2.427862   
  9.8132     2.396      1.8983     0.1885736  0.3036034  271.3      
  0.2677296  0.2553435  0.2801156 
1176.1     
  0.218      1          5          305.247    6.882882   1.87       
  3.6705     2.6536     2.1828     2.0002     1.9271     3.54       
  4.29       3.13       3.75       2.73       1.69       0.2506374  
  0.1857349  0.182036   0.1733638  0.2018048  0.235965   7.716471   
  12.17545   2.366      1.9271     0.297746   0.3853812  276.9      
  0.2341622  0.2338161  0.2345082 
1176.3     
  0.219      1          5          299.816    6.983155   1.89       
  3.2151     2.4067     1.9296     1.8129     1.7914     2.94       
  3.71       3.46       3.79       2.67       1.74       0.2356373  
  0.1658076  0.1520959  0.1542343  0.1910926  0.218722   3.298503   
  10.57706   2.416      1.7914     0.197761   0.3013009  275.4      
  0.2466757  0.2476463  0.2457051 
1176.5     
  0.229      -9999      -9999      302.383    7.317961   1.89       
  1.8057     1.6759     1.5254     1.5449     1.6093     1.76       
  2.79       3.56       3.24       2.62       1.63       0.1946373  
  0.1311525  0.1407186  0.08511905 0.1676197  0.2023426  0.7523495  
  6.611306   2.435      1.6093     0          0.1497646  263.4      
  0.3318736  0.3000292  0.363718  
1176.7     
  0.229      -9999      -9999      315.037    7.625614   1.92       
  1.6882     1.6928     1.6158     1.5996     1.6056     1.52       
  1.65       2.69       2.53       2.28       1.58       0.1446373  
  0.06894503 0.05984049 0          0.1469946  0.163782   0.05298918 
  4.292996   2.405      1.6056     0          0          251.8      
  0.4461254  0.3578796  0.5343713 
1176.9     
  0.225      -9999      -9999      319.822    7.671257   2.01       
  1.9666     2.1096     2.0544     1.9073     1.8156     1.74       
  1.79       2.31       2.58       2.42       1.56       0.1876373  
  0.08629653 0.07479309 0.03593051 0.148166   0.1849105  0.1110655  
  4.026609   2.375      1.8156     0          0.00262324 250.8      
  0.4597177  0.3673645  0.5520709 
1177.1     
  0.215      -9999      -9999      316.925    7.509535   2.02       
  3.0361     2.8125     2.4781     2.1677     1.9779     2.68       
  2.81       3          3.39       2.52       1.64       0.2296373  
  0.1621369  0.2005988  0.1102291  0.1755829  0.2397558  2.820508   
  5.052608   2.335      1.9779     0.2191138  0.3639072  261.4      
  0.361843   0.3348461  0.38884   
1177.3     
  0.216      -9999      -9999      316.693    7.325173   2.06       
  2.726      2.2787     2.0517     1.9266     1.9055     2.69       
  3.64       3.34       3.78       2.59       1.7        0.2326373  
  0.1730873  0.1766467  0.1409549  0.2016603  0.2326836  4.499402   
  6.544726   2.375      1.9055     0.2492987  0.3581274  274.3      
  0.2778257  0.3012718  0.2543796 
1177.5     
  0.216      1          5          316.464    7.17702    2.16       
  2.5318     2.1634     1.8889     1.8196     1.8449     2.43       
  3.46       3.25       3.66       2.63       1.68       0.2206373  
  0.1836642  0.2065868  0.1361606  0.2082451  0.2385765  7.064214   
  8.057427   2.325      1.8449     0.2761997  0.3728712  276.8      
  0.2559901  0.2767476  0.2352325 
1177.7     
  0.211      1          5          312.294    7.050641   2.32       
  3.0843     2.5257     2.0841     1.9363     1.9308     2.74       
  3.51       3.23       3.71       2.57       1.62       0.2486373  
  0.1976454  0.2125748  0.1707155  0.2096459  0.2482969  12.8242    
  9.62121    2.315      1.9308     0.3353493  0.4192241  279.8      
  0.2361267  0.2574119  0.2148414 
1177.9     
  0.215      1          5          309.285    6.995111   2.44       
  3.5745     2.5476     2.015      1.8919     1.9653     2.95       
  3.63       3.61       3.93       2.63       1.6        0.2776373  
  0.2367641  0.2928144  0.2057052  0.2117727  0.2835221  68.01471   
  10.40106   2.181      1.9653     0.4367825  0.5060132  284.8      
  0.2179763  0.2493489  0.1866037 
1178.1     
  0.215      1          5          305.868    7.047861   2.47       
  3.2623     2.2975     1.7958     1.7492     1.8586     2.78       
  3.22       3.52       3.92       2.48       1.61       0.2506374  
  0.2252954  0.2928144  0.1770263  0.2060454  0.2731447  41.70377   
  9.658818   2.181      1.8586     0.3962833  0.4699517  284.3      
  0.2230636  0.2570022  0.1891251 
1178.3     
  0.214      1          5          308.112    7.153535   2.38       
  2.7837     2.0726     1.6665     1.6631     1.7486     2.58       
  3.17       3.42       3.79       2.59       1.64       0.2486373  
  0.2136736  0.2688623  0.1690588  0.2030998  0.265402   25.40459   
  8.327435   2.221      1.7486     0.3494216  0.4317855  280.7      
  0.241147   0.2730478  0.2092462 
1178.5     
  0.215      1          5          313.616    7.238702   2.14       
  2.6523     2.074      1.6519     1.6126     1.6675     2.54       
  3.34       3.44       3.71       2.27       1.62       0.2236373  
  0.1902436  0.2329342  0.1359164  0.20188    0.2472647  9.352555   
  7.389225   2.281      1.6675     0.2639459  0.3633797  275.5      
  0.2658209  0.2867056  0.2449362 
1178.7     
  0.222      -9999      -9999      315.671    7.298466   1.92       
  2.1033     1.7758     1.4833     1.4529     1.5453     2.08       
  3.21       3.33       3.54       2.48       1.67       0.2396373  
  0.1808706  0.208982   0.1403574  0.1932726  0.2454056  6.270773   
  6.794702   2.321      1.5453     0.2028673  0.3215674  268.7      
  0.3008483  0.2966956  0.305001  
1178.9     
  0.229      -9999      -9999      314.12     7.384286   1.74       
  1.8347     1.6089     1.39       1.3544     1.4446     1.84       
  2.99       3.05       3.35       2.52       1.64       0.2306373  
  0.1646818  0.202994   0.115056   0.1759954  0.2398131  3.143867   
  6.023649   2.331      1.4446     0.1072474  0.2605639  261.4      
  0.3502465  0.3116531  0.38884   
1179.1     
  0.226      -9999      -9999      312.04     7.49773    1.84       
  1.8068     1.595      1.4096     1.3458     1.4219     1.82       
  2.63       2.91       3.2        2.31       1.68       0.2096373  
  0.1326039  0.1533488  0.08217915 0.1622837  0.2154555  0.8003932  
  5.137019   2.271      1.4219     0          0.132451   257.7      
  0.3862369  0.3325884  0.4398855 
