~Version
 VERS              .         2.0                           : CWLS LOG ASCII STANDARD - VERSION 2.0
 WRAP              .         NO                            : ONE LINE PER DEPTH STEP
 DLM               .         SPACE                         : DELIMITING CHARACTER(SPACE TAB OR COMMA)
~Well Information
#_______________________________________________________________________________
#
#PARAMETER_NAME    .UNIT     VALUE                         : DESCRIPTION
#_______________________________________________________________________________
STRT               .M        880                           : First reference value
STOP               .M        1166                          : Last reference value
STEP               .M        0.2                           : Step increment
NULL               .         -9999                         : Missing value
COMP               .                                       : Company
WELL               .         4899                          : Well name
FLD                .         УЗЕНЬ                         : Field
LOC                .                                       : Location
CNTY               .                                       : County
STAT               .                                       : State
CTRY               .                                       : Country
SRVC               .         UPGF                          : Service Company
DATE               .         17.01.90                      : Date
UWI                .                                       : Unique Well ID
Block              .         7                             : 
Category           .         Нефтяная                      : 
Condition          .         В работе                      : 
Date               .         31.01.1990                    : 
EREF               .m        87.4                          : 100.8
Gorizont           .         14                            : 14
Interpretator      .         Ткачева И.Г.                  : 
Kupol              .         Основной                      : osnovnoi
Mud                .         0                             : 
Mud_density        .         0                             : 
Mud_resistivity    .         0                             : 
NGDU               .         НГДУ-2                        : 
ORIGINALWELLNAME   .         4899                          : 
Spud_date          .         1989                          : 1961
Uslovie            .         14                            : 
Viscosity          .         0                             : 
X                  .m        42099                         : 46154
Y                  .m        84004.43                      : 85761.93
YEAR               .         2019                          : 
~Parameter Information Block
#_______________________________________________________________________________
#
#PARAMETER_NAME    .UNIT     VALUE                         : DESCRIPTION
#_______________________________________________________________________________
SET                .         LQC_KAZNIPI_Petrel            : 
TLFamily_CALI      .         Caliper                       : 
TLFamily_CILD      .         Conductivity                  : 
TLFamily_COLL      .         Net Reservoir Flag            : 
TLFamily_CSAT      .         Fluid Code                    : 
TLFamily_DEPT      .         Measured Depth                : 
TLFamily_GR        .         Russian Gamma Ray             : 
TLFamily_GZ1       .         Gradient 045                  : 
TLFamily_GZ2       .         Gradient 105                  : 
TLFamily_GZ3       .         Gradient 225                  : 
TLFamily_GZ4       .         Gradient 425                  : 
TLFamily_GZ5       .         Gradient 850                  : 
TLFamily_LLS       .         Lateral Log Resistivity       : 
TLFamily_MINV      .         Micro Gradient Resistivity    : 
TLFamily_MNOR      .         Micro Resistivity             : 
TLFamily_NGLD      .         Neutron Gamma                 : 
TLFamily_OGZ       .         Gradient Inverted 225         : 
TLFamily_PHIE      .         Effective Porosity            : 
TLFamily_PHIEN     .         Effective Porosity            : 
TLFamily_PHIT      .         Porosity                      : 
TLFamily_PRMB      .         Permeability                  : 
TLFamily_PRMB_DGR  .         Permeability                  : 
TLFamily_RT        .         Formation Resistivity         : 
TLFamily_SOIL_ARCHIE .         Oil Saturation                : 
TLFamily_SOIL_DW   .         Oil Saturation                : 
TLFamily_SP        .         Spontaneous Potential         : 
TLFamily_VSH_FIN   .         Shale Volume                  : 
TLFamily_VSH_GR    .         Shale Volume                  : 
TLFamily_VSH_SP    .         Shale Volume                  : 
~Curve Information
#_______________________________________________________________________________
#
#LOGNAME           .UNIT     LOG_ID                        : DESCRIPTION
#_______________________________________________________________________________
DEPT               .M                                      : Колонка глубины 
CALI               .м                                      : Каверномер 
CILD               .мСм/м                                  : Индукционный каротаж 
COLL               .unitless                               : Описание 
CSAT               .unitless                               : Описание 
GR                 .uR/h                                   : Гамма каротаж 
GZ1                .Ohmm                                   : Градиент-зонд  длиной 0.45м 
GZ2                .Ohmm                                   : Градиент-зонд  длиной 1.05м 
GZ3                .Ohmm                                   : Градиент-зонд  длиной 2.25м 
GZ4                .Ohmm                                   : Градиент-зонд  длиной 4.5м 
GZ5                .Ohmm                                   : Градиент-зонд  длиной 8.5м 
LLS                .Ohmm                                   : Боковой каротаж 
MINV               .Ohmm                                   : Микро-градиент зонд 
MNOR               .Ohmm                                   : Микро-потенциал зонд 
NGLD               .у.е.                                   : Показания зонда НГК-60 аппаратуры ДРСТ-3-90 
OGZ                .Ohmm                                   :  
PHIE               .v/v                                    : Описание 
PHIEN              .v/v                                    :  
PHIT               .v/v                                    : Описание 
PRMB               .mD                                     :  
PRMB_DGR           .mD                                     :  
RT                 .ohmm                                   : УЭС пласта 
SOIL_ARCHIE        .v/v                                    :  
SOIL_DW            .v/v                                    :  
SP                 .мВ                                     : Потенциал самополяризации 
VSH_FIN            .v/v                                    : Описание 
VSH_GR             .v/v                                    : Shale volume 
VSH_SP             .v/v                                    : Shale Volume 
~Ascii
# ...
1103.6     0          449.58     -9999      -9999      8.43       0.864      1.778      2.318      0.737      0.229      2.263      2.311      1.753      1.407      2.21       0.1054591  0.1054591  0.26604    0.2514875  3.731097   2.224      0          0.3258987  92.169     0.4866088  0.3789781  0.5942395 
1103.8     0          441.96     -9999      -9999      8.405      1.168      1.626      1.988      0.991      0.229      2.507      1.968      1.549      1.389      2.845      0.09205353 0.09205353 0.27108    0.1419753  3.84082    2.263      0          0.3071745  95.598     0.5425044  0.3745194  0.7104894 
1104       0          433.07     -9999      -9999      8.354      1.168      1.549      2.115      1.372      0.178      2.543      0.991      1.257      1.405      2.845      0.07747275 0.07747275 0.2666     0.07623269 4.07475    2.309      0          0.264874   97.503     0.5731129  0.365586   0.7806398 
1104.2     0          422.91     -9999      -9999      8.506      1.168      1.803      2.115      1.702      0.127      2.471      0.838      1.245      1.397      2.845      0.07599448 0.07599448 0.26884    0.07157482 3.416431   2.365      0          0.2731257  97.503     0.5843804  0.3928607  0.7759001 
1104.4     0          406.4      -9999      -9999      8.735      1.321      2.032      2.115      1.829      0.152      2.619      0.991      1.384      1.366      2.921      0.07688245 0.07688245 0.27752    0.07433744 2.61985    2.461      0          0.3051904  97.503     0.6079925  0.4378425  0.7781425 
1104.6     0          394.97     -9999      -9999      9.04       1.397      2.134      2.089      1.854      0.203      2.599      1.27       1.359      1.359      3.429      0.06978989 0.06978989 0.27948    0.05493335 1.839567   2.532      0          0.2969686  97.122     0.6354246  0.5058503  0.764999  
1104.8     0          394.97     -9999      -9999      9.065      1.27       1.93       1.937      1.905      0.203      2.263      1.626      1.829      1.362      5.156      0.08278429 0.08278429 0.27864    0.09561453 1.787017   2.532      0          0.3332257  94.709     0.5935022  0.5118722  0.6751322 
1105       0          388.62     -9999      -9999      8.913      1.041      1.803      2.343      2.083      0.203      1.983      0.749      1.524      1.382      5.156      0.111623   0.111623   0.27304    0.3271041  2.131361   2.573      0.03111678 0.396163   89.248     0.4891426  0.476335   0.5019501 
1105.2     0          368.3      -9999      -9999      8.582      1.067      1.905      2.343      2.413      0.229      2.134      1.118      1.473      1.397      5.156      0.1185655  0.1185655  0.26884    0.4398237  3.128301   2.715      0.1036031  0.4194666  89.248     0.4553773  0.407252   0.5035027 
1105.4     0          336.55     -9999      -9999      8.379      1.194      2.083      2.343      2.692      0.229      2.543      1.537      2.248      1.397      6.071      0.1244654  0.1244654  0.26884    0.5656643  3.958351   2.971      0.1763017  0.4550587  89.248     0.4374989  0.3699381  0.5050597 
1105.6     0          306.07     1          2          8.278      1.727      2.388      2.674      2.997      0.279      3.72       1.46       2.21       1.397      7.035999   0.1386986  0.1386986  0.26884    1.03799    4.450056   3.267      0.2831021  0.5014029  86.581     0.436069   0.3526671  0.4360686 
1105.8     0          273.05     1          2          8.278      2.007      2.438      3.004      3.302      0.279      4.002      1.435      2.35       1.384      8.89       0.1531313  0.1531313  0.27248    1.920971   4.450056   3.662      0.3766204  0.550628   83.66      0.370659   0.3526671  0.3706587 
1106       0          223.52     1          2          8.379      2.388      2.87       3.156      3.581      0.33       4.598      1.511      2.489      1.344      8.89       0.1774925  0.1774925  0.28368    5.42937    3.958351   4.474      0.5010062  0.6258631  78.199     0.273623   0.3699381  0.2736226 
1106.2     0          196.85     1          2          8.176      2.946      3.734      3.156      3.708      0.356      5.643      1.587      2.502      1.318      8.89       0.1902278  0.1902278  0.29096    9.346287   5.008647   5.08       0.5574153  0.6637092  78.199     0.274455   0.3360431  0.274455  
1106.4     0          187.564    1          2          8.43       3.302      4.318      3.156      3.658      0.33       5.896      1.435      2.184      1.313      9.525      0.1844057  0.1844057  0.29236    7.291195   3.731097   5.332      0.5554843  0.6685407  78.199     0.27529    0.3789781  0.2752905 
1106.6     0          179.07     1          2          8.608      3.277      4.699      3.207      3.708      0.356      5.094      1.422      2.413      1.298      9.373001   0.1890829  0.1890829  0.29656    8.90087    3.035414   5.584      0.5743999  0.6820819  75.532     0.239081   0.4122954  0.2390809 
1106.8     0          161.29     1          2          8.811      3.023      5.08       3.41       3.937      0.406      4.734      1.613      2.654      1.288      10.008     0.1869526  0.1869526  0.29936    8.127811   2.398899   6.2        0.5907758  0.6985985  74.516     0.227375   0.4538816  0.2273754 
1107       0          148.59     1          2          8.913      3.2        5.867      4.274      4.115      0.508      5.685      1.74       2.718      1.285      10.008     0.1894572  0.1894572  0.3002     9.044091   2.131361   6.73       0.6107661  0.7127391  71.341     0.194833   0.476335   0.1948335 
1107.2     0          137.16     1          2          8.913      3.378      6.324999   4.274      4.394      0.61       5.685      1.765      2.756      1.262      10.008     0.1958134  0.1958134  0.30664    11.86035   2.131361   7.291      0.6357399  0.7310908  71.341     0.195341   0.476335   0.1953413 
1107.4     0          131.191    1          2          8.786      3.302      6.909      4.274      4.597      0.711      5.643      1.816      2.921      1.267      10.312     0.1989151  0.1989151  0.30524    13.53781   2.469441   7.622      0.6481004  0.7379532  71.341     0.195852   0.4485419  0.1958515 
1107.6     0          124.46     1          2          8.709      3.658      7.417      5.239      4.674      0.889      6.775      1.854      2.858      1.285      10.16      0.198632   0.198632   0.3002     13.37533   2.700019   8.035      0.6562811  0.742094   69.817     0.183077   0.4324867  0.1830772 
1107.8     0          115.57     1          2          8.709      3.912      7.772      6.152999   4.597      1.092      7.027      1.842      2.883      1.313      9.652      0.1918729  0.1918729  0.29236    10.02559   2.700019   8.653      0.6578651  0.7439612  68.928     0.176526   0.4324867  0.1765261 
1108       0          106.68     1          2          8.811      4.115      8.178999   7.576      4.369      1.651      7.027      1.803      2.908      1.313      9.652      0.1888963  0.1888963  0.29236    8.830301   2.398899   9.374      0.6659583  0.7524376  68.42      0.173171   0.4538816  0.1731713 
1108.2     0          104.14     1          2          8.989      4.166      8.255001   7.576      4.394      2.388      6.874      1.867      2.972      1.328      9.652      0.1780461  0.1780461  0.28816    5.559082   1.951608   9.602      0.6522408  0.7473102  68.42      0.173573   0.4937841  0.1735732 
1108.4     0          103.609    1          2          9.167      4.191      8.306      7.576      4.318      3.429      6.676      1.727      2.819      1.354      9.398001   0.1635367  0.1635367  0.28088    2.994016   1.58772    9.652      0.6264288  0.7352185  68.42      0.173977   0.5371944  0.1739773 
1108.6     0          102.87     1          2          9.37       4.064      8.382      7.778999   4.318      4.343      6.484      1.473      2.553      1.351      9.398001   0.1550569  0.1550569  0.28172    2.08539    1.254781   9.721      0.6100026  0.7310382  68.674     0.176277   0.5913785  0.1762769 
