~Version
 VERS              .         2.0                           : CWLS LOG ASCII STANDARD - VERSION 2.0
 WRAP              .         NO                            : ONE LINE PER DEPTH STEP
 DLM               .         SPACE                         : DELIMITING CHARACTER(SPACE TAB OR COMMA)
~Well Information
#_______________________________________________________________________________
#
#PARAMETER_NAME    .UNIT     VALUE                         : DESCRIPTION
#_______________________________________________________________________________
STRT               .M        880                           : First reference value
STOP               .M        1166                          : Last reference value
STEP               .M        0.2                           : Step increment
NULL               .         -9999                         : Missing value
COMP               .                                       : Company
WELL               .         4899                          : Well name
FLD                .         УЗЕНЬ                         : Field
LOC                .                                       : Location
CNTY               .                                       : County
STAT               .                                       : State
CTRY               .                                       : Country
SRVC               .         UPGF                          : Service Company
DATE               .         17.01.90                      : Date
UWI                .                                       : Unique Well ID
Block              .         7                             : 
Category           .         Нефтяная                      : 
Condition          .         В работе                      : 
Date               .         31.01.1990                    : 
EREF               .m        87.4                          : 100.8
Gorizont           .         14                            : 14
Interpretator      .         Ткачева И.Г.                  : 
Kupol              .         Основной                      : osnovnoi
Mud                .         0                             : 
Mud_density        .         0                             : 
Mud_resistivity    .         0                             : 
NGDU               .         НГДУ-2                        : 
ORIGINALWELLNAME   .         4899                          : 
Spud_date          .         1989                          : 1961
Uslovie            .         14                            : 
Viscosity          .         0                             : 
X                  .m        42099                         : 46154
Y                  .m        84004.43                      : 85761.93
YEAR               .         2019                          : 
~Parameter Information Block
#_______________________________________________________________________________
#
#PARAMETER_NAME    .UNIT     VALUE                         : DESCRIPTION
#_______________________________________________________________________________
SET                .         LQC_KAZNIPI_Petrel            : 
TLFamily_CALI      .         Caliper                       : 
TLFamily_CILD      .         Conductivity                  : 
TLFamily_COLL      .         Net Reservoir Flag            : 
TLFamily_CSAT      .         Fluid Code                    : 
TLFamily_DEPT      .         Measured Depth                : 
TLFamily_GR        .         Russian Gamma Ray             : 
TLFamily_GZ1       .         Gradient 045                  : 
TLFamily_GZ2       .         Gradient 105                  : 
TLFamily_GZ3       .         Gradient 225                  : 
TLFamily_GZ4       .         Gradient 425                  : 
TLFamily_GZ5       .         Gradient 850                  : 
TLFamily_LLS       .         Lateral Log Resistivity       : 
TLFamily_MINV      .         Micro Gradient Resistivity    : 
TLFamily_MNOR      .         Micro Resistivity             : 
TLFamily_NGLD      .         Neutron Gamma                 : 
TLFamily_OGZ       .         Gradient Inverted 225         : 
TLFamily_PHIE      .         Effective Porosity            : 
TLFamily_PHIEN     .         Effective Porosity            : 
TLFamily_PHIT      .         Porosity                      : 
TLFamily_PRMB      .         Permeability                  : 
TLFamily_PRMB_DGR  .         Permeability                  : 
TLFamily_RT        .         Formation Resistivity         : 
TLFamily_SOIL_ARCHIE .         Oil Saturation                : 
TLFamily_SOIL_DW   .         Oil Saturation                : 
TLFamily_SP        .         Spontaneous Potential         : 
TLFamily_VSH_FIN   .         Shale Volume                  : 
TLFamily_VSH_GR    .         Shale Volume                  : 
TLFamily_VSH_SP    .         Shale Volume                  : 
~Curve Information
#_______________________________________________________________________________
#
#LOGNAME           .UNIT     LOG_ID                        : DESCRIPTION
#_______________________________________________________________________________
DEPT               .M                                      : Колонка глубины 
CALI               .м                                      : Каверномер 
CILD               .мСм/м                                  : Индукционный каротаж 
COLL               .unitless                               : Описание 
CSAT               .unitless                               : Описание 
GR                 .uR/h                                   : Гамма каротаж 
GZ1                .Ohmm                                   : Градиент-зонд  длиной 0.45м 
GZ2                .Ohmm                                   : Градиент-зонд  длиной 1.05м 
GZ3                .Ohmm                                   : Градиент-зонд  длиной 2.25м 
GZ4                .Ohmm                                   : Градиент-зонд  длиной 4.5м 
GZ5                .Ohmm                                   : Градиент-зонд  длиной 8.5м 
LLS                .Ohmm                                   : Боковой каротаж 
MINV               .Ohmm                                   : Микро-градиент зонд 
MNOR               .Ohmm                                   : Микро-потенциал зонд 
NGLD               .у.е.                                   : Показания зонда НГК-60 аппаратуры ДРСТ-3-90 
OGZ                .Ohmm                                   :  
PHIE               .v/v                                    : Описание 
PHIEN              .v/v                                    :  
PHIT               .v/v                                    : Описание 
PRMB               .mD                                     :  
PRMB_DGR           .mD                                     :  
RT                 .ohmm                                   : УЭС пласта 
SOIL_ARCHIE        .v/v                                    :  
SOIL_DW            .v/v                                    :  
SP                 .мВ                                     : Потенциал самополяризации 
VSH_FIN            .v/v                                    : Описание 
VSH_GR             .v/v                                    : Shale volume 
VSH_SP             .v/v                                    : Shale Volume 
~Ascii
# ...
1046.4     0.254      387.35     -9999      -9999      9.167      1.448      2.413      2.115      1.626      1.422      1.94       2.502      1.499      1.234      2.413      0.1048854  0.1048854  0.31448    0.2454086  1.052029   2.582      0          0.4374063  86.835     0.6351352  0.6355059  0.6347646 
1046.6     0.257      389.89     -9999      -9999      8.938      1.27       2.337      2.115      1.676      1.448      1.955      2.921      1.854      1.257      2.489      0.1045593  0.1045593  0.30804    0.2420189  1.218011   2.565      0          0.4272333  86.835     0.6166083  0.5986045  0.6346121 
1046.8     0.221      382.27     -9999      -9999      8.913      1.27       2.311      2.089      1.753      1.397      2.057      2.934      1.994      1.257      2.464      0.104505   0.104505   0.30804    0.2414598  1.237647   2.616      0          0.432742   86.962     0.6167727  0.594708   0.6388373 
1047       0.221      373.38     -9999      -9999      8.836      1.321      2.311      2.166      1.803      1.448      2.181      2.934      2.324      1.237      2.464      0.1128064  0.1128064  0.31364    0.3440382  1.300138   2.678      0.05782688 0.4604858  86.835     0.6085866  0.5828655  0.6343077 
1047.2     0.221      367.03     -9999      -9999      8.989      1.626      2.464      2.216      1.778      1.448      2.452      2.934      2.172      1.237      2.464      0.1089099  0.1089099  0.31364    0.2913631  1.178912   2.725      0.0364346  0.4585245  86.835     0.6203941  0.6066328  0.6341555 
1047.4     0.226      370.84     -9999      -9999      9.192      1.702      2.438      2.216      1.727      1.473      2.452      2.714      2.068      1.222      2.464      0.107684   0.107684   0.31784    0.2765199  1.035336   2.697      0.0221592  0.4582972  86.835     0.6368365  0.6396698  0.6340032 
1047.6     0.235      372.11     -9999      -9999      9.471      1.626      2.388      2.216      1.702      1.473      2.149      2.502      1.968      1.194      2.489      0.1082871  0.1082871  0.32568    0.2837246  0.866097   2.687      0.02520629 0.4669089  86.708     0.6587665  0.6880307  0.6295024 
1047.8     0.226      367.03     -9999      -9999      9.421      1.524      2.388      2.216      1.702      1.448      2.134      2.464      2.121      1.196      2.515      0.1085077  0.1085077  0.32512    0.2864077  0.8942481  2.725      0.03332461 0.4704129  86.835     0.6564008  0.6791026  0.633699  
1048       0.226      359.41     -9999      -9999      9.268      1.422      2.413      2.216      1.753      1.473      2.181      2.819      2.045      1.189      2.515      0.113436   0.113436   0.32708    0.3534015  0.9862032  2.782      0.07899754 0.4858983  87.089     0.647406   0.652496   0.642316  
1048.2     0.226      349.25     -9999      -9999      8.963      1.473      2.515      2.369      1.88       1.524      2.313      3.15       2.375      1.163      2.515      0.1289864  0.1289864  0.33436    0.6859593  1.198685   2.863      0.1875083  0.5226048  87.089     0.6223444  0.6025266  0.6421621 
1048.4     0.221      342.9      -9999      -9999      8.938      1.676      2.692      2.369      1.981      1.549      2.677      3.327      2.692      1.173      2.388      0.1268589  0.1268589  0.33156    0.6264591  1.218011   2.916      0.182719   0.5215571  87.089     0.6203064  0.5986045  0.6420082 
1048.6     0.219      336.55     -9999      -9999      9.014      1.905      2.845      2.369      1.956      1.549      2.776      3.264      2.718      1.176      2.286      0.1233345  0.1233345  0.33072    0.5390285  1.160207   2.971      0.1697275  0.5204257  87.216     0.628441   0.6106074  0.6462746 
1048.8     0.226      339.09     -9999      -9999      9.09       1.956      2.794      2.42       1.905      1.549      2.417      2.845      2.235      1.158      2.235      0.1256465  0.1256465  0.33576    0.5948881  1.105148   2.949      0.1801951  0.5264481  87.343     0.6367077  0.622851   0.6505645 
1049       0.226      346.71     -9999      -9999      9.167      1.854      2.692      2.42       1.93       1.6        2.134      2.984      1.956      1.161      2.235      0.1212651  0.1212651  0.33492    0.4934937  1.052029   2.884      0.145567   0.5142865  87.597     0.6474391  0.6355059  0.6593723 
1049.2     0.226      341.63     -9999      -9999      9.04       1.651      2.718      2.445      1.905      1.575      2.246      2.413      2.311      1.186      2.235      0.1177127  0.1177127  0.32792    0.4241141  1.14107    2.927      0.1292209  0.5060775  87.597     0.6369919  0.6147686  0.659215  
1049.4     0.23       331.47     -9999      -9999      8.76       1.753      2.946      2.445      1.93       1.651      2.562      1.46       2.172      1.196      2.235      0.1220932  0.1220932  0.32512    0.511234   1.364913   3.017      0.1683978  0.5170991  87.597     0.6152328  0.5714079  0.6590577 
1049.6     0.232      336.55     -9999      -9999      8.608      1.549      2.946      2.445      1.93       1.651      2.452      1.372      1.626      1.178      2.159      0.1308293  0.1308293  0.33016    0.7420532  1.504304   2.971      0.2113101  0.5299756  87.597     0.6040323  0.549164   0.6589005 
1049.8     0.24       344.17     -9999      -9999      8.532      1.676      2.769      2.47       1.93       1.651      2.263      1.765      1.727      1.156      2.108      0.1387965  0.1387965  0.33632    1.042331   1.579251   2.906      0.2430725  0.5403095  87.597     0.5985561  0.5383689  0.6587433 
1050       0.24       346.71     -9999      -9999      8.608      1.702      2.769      2.47       1.93       1.651      2.347      2.121      1.778      1.173      2.108      0.1315361  0.1315361  0.33156    0.7647619  1.504304   2.884      0.2039776  0.5251522  87.724     0.606133   0.549164   0.663102  
1050.2     0.24       341.63     -9999      -9999      8.684      1.753      2.845      2.699      1.93       1.651      2.399      1.46       1.626      1.201      2.108      0.1219053  0.1219053  0.32372    0.5071539  1.432915   2.927      0.1553629  0.5080987  87.724     0.6115597  0.5601755  0.662944  
1050.4     0.247      340.36     -9999      -9999      8.811      1.829      3.048      2.699      1.93       1.753      2.417      1.041      1.613      1.171      2.108      0.1272136  0.1272136  0.33212    0.6360067  1.3211     2.938      0.1875743  0.524344   87.724     0.6209286  0.5790713  0.6627859 
1050.6     0.247      346.71     -9999      -9999      8.938      1.905      3.175      2.699      1.93       1.727      2.619      0.876      1.715      1.14       2.032      0.1326966  0.1326966  0.3408     0.8035665  1.218011   2.884      0.2100443  0.5348918  87.724     0.6306162  0.5986045  0.662628  
1050.8     0.247      359.41     -9999      -9999      9.243      1.803      2.896      2.775      1.93       1.651      2.525      1.219      1.715      1.153      1.93       0.1208914  0.1208914  0.33716    0.485691   1.002103   2.782      0.1286677  0.5070553  87.724     0.6553594  0.6482487  0.66247   
1051       0.247      370.84     -9999      -9999      9.7        1.422      2.515      2.724      1.956      1.6        2.013      1.206      1.168      1.148      1.93       0.1080065  0.1080065  0.33856    0.2803498  0.7480712  2.697      0.02470283 0.4808455  87.851     0.698647   0.7304449  0.6668491 
1051.2     0.247      389.89     -9999      -9999      10.03      1.27       2.388      2.445      1.829      1.575      1.804      0.724      1.168      1.156      1.93       0.09494214 0.09494214 0.33632    0.1605894  0.6057009  2.565      0          0.4418354  87.851     0.7314481  0.7962058  0.6666903 
1051.4     0.257      397.51     -9999      -9999      10.233     1.219      2.311      2.445      1.778      1.499      1.844      0.978      1.359      1.194      1.956      0.08370228 0.08370228 0.32568    0.09943227 0.5319347  2.516      0          0.4002252  87.851     0.7332658  0.8        0.6665316 
