~Version
 VERS              .         2.0                           : CWLS LOG ASCII STANDARD - VERSION 2.0
 WRAP              .         NO                            : ONE LINE PER DEPTH STEP
 DLM               .         SPACE                         : DELIMITING CHARACTER(SPACE TAB OR COMMA)
~Well Information
#_______________________________________________________________________________
#
#PARAMETER_NAME    .UNIT     VALUE                         : DESCRIPTION
#_______________________________________________________________________________
STRT               .M        880                           : First reference value
STOP               .M        1166                          : Last reference value
STEP               .M        0.2                           : Step increment
NULL               .         -9999                         : Missing value
COMP               .                                       : Company
WELL               .         4899                          : Well name
FLD                .         УЗЕНЬ                         : Field
LOC                .                                       : Location
CNTY               .                                       : County
STAT               .                                       : State
CTRY               .                                       : Country
SRVC               .         UPGF                          : Service Company
DATE               .         17.01.90                      : Date
UWI                .                                       : Unique Well ID
Block              .         7                             : 
Category           .         Нефтяная                      : 
Condition          .         В работе                      : 
Date               .         31.01.1990                    : 
EREF               .m        87.4                          : 100.8
Gorizont           .         14                            : 14
Interpretator      .         Ткачева И.Г.                  : 
Kupol              .         Основной                      : osnovnoi
Mud                .         0                             : 
Mud_density        .         0                             : 
Mud_resistivity    .         0                             : 
NGDU               .         НГДУ-2                        : 
ORIGINALWELLNAME   .         4899                          : 
Spud_date          .         1989                          : 1961
Uslovie            .         14                            : 
Viscosity          .         0                             : 
X                  .m        42099                         : 46154
Y                  .m        84004.43                      : 85761.93
YEAR               .         2019                          : 
~Parameter Information Block
#_______________________________________________________________________________
#
#PARAMETER_NAME    .UNIT     VALUE                         : DESCRIPTION
#_______________________________________________________________________________
SET                .         LQC_KAZNIPI_Petrel            : 
TLFamily_CALI      .         Caliper                       : 
TLFamily_CILD      .         Conductivity                  : 
TLFamily_COLL      .         Net Reservoir Flag            : 
TLFamily_CSAT      .         Fluid Code                    : 
TLFamily_DEPT      .         Measured Depth                : 
TLFamily_GR        .         Russian Gamma Ray             : 
TLFamily_GZ1       .         Gradient 045                  : 
TLFamily_GZ2       .         Gradient 105                  : 
TLFamily_GZ3       .         Gradient 225                  : 
TLFamily_GZ4       .         Gradient 425                  : 
TLFamily_GZ5       .         Gradient 850                  : 
TLFamily_LLS       .         Lateral Log Resistivity       : 
TLFamily_MINV      .         Micro Gradient Resistivity    : 
TLFamily_MNOR      .         Micro Resistivity             : 
TLFamily_NGLD      .         Neutron Gamma                 : 
TLFamily_OGZ       .         Gradient Inverted 225         : 
TLFamily_PHIE      .         Effective Porosity            : 
TLFamily_PHIEN     .         Effective Porosity            : 
TLFamily_PHIT      .         Porosity                      : 
TLFamily_PRMB      .         Permeability                  : 
TLFamily_PRMB_DGR  .         Permeability                  : 
TLFamily_RT        .         Formation Resistivity         : 
TLFamily_SOIL_ARCHIE .         Oil Saturation                : 
TLFamily_SOIL_DW   .         Oil Saturation                : 
TLFamily_SP        .         Spontaneous Potential         : 
TLFamily_VSH_FIN   .         Shale Volume                  : 
TLFamily_VSH_GR    .         Shale Volume                  : 
TLFamily_VSH_SP    .         Shale Volume                  : 
~Curve Information
#_______________________________________________________________________________
#
#LOGNAME           .UNIT     LOG_ID                        : DESCRIPTION
#_______________________________________________________________________________
DEPT               .M                                      : Колонка глубины 
CALI               .м                                      : Каверномер 
CILD               .мСм/м                                  : Индукционный каротаж 
COLL               .unitless                               : Описание 
CSAT               .unitless                               : Описание 
GR                 .uR/h                                   : Гамма каротаж 
GZ1                .Ohmm                                   : Градиент-зонд  длиной 0.45м 
GZ2                .Ohmm                                   : Градиент-зонд  длиной 1.05м 
GZ3                .Ohmm                                   : Градиент-зонд  длиной 2.25м 
GZ4                .Ohmm                                   : Градиент-зонд  длиной 4.5м 
GZ5                .Ohmm                                   : Градиент-зонд  длиной 8.5м 
LLS                .Ohmm                                   : Боковой каротаж 
MINV               .Ohmm                                   : Микро-градиент зонд 
MNOR               .Ohmm                                   : Микро-потенциал зонд 
NGLD               .у.е.                                   : Показания зонда НГК-60 аппаратуры ДРСТ-3-90 
OGZ                .Ohmm                                   :  
PHIE               .v/v                                    : Описание 
PHIEN              .v/v                                    :  
PHIT               .v/v                                    : Описание 
PRMB               .mD                                     :  
PRMB_DGR           .mD                                     :  
RT                 .ohmm                                   : УЭС пласта 
SOIL_ARCHIE        .v/v                                    :  
SOIL_DW            .v/v                                    :  
SP                 .мВ                                     : Потенциал самополяризации 
VSH_FIN            .v/v                                    : Описание 
VSH_GR             .v/v                                    : Shale volume 
VSH_SP             .v/v                                    : Shale Volume 
~Ascii
# ...
1160.8     0          209.55     1          2          7.719      3.15       4.724      4.477      3.15       2.235      5.283      2.286      3.137      1.338      3.556      0.2328667  0.2328667  0.28536    57.59893   23.04569   4.772      0.623157   0.681924   67.531     0.1590706  0.1801869  0.1379542 
1161       0          207.01     1          2          7.947      3.632      5.232      4.477      3.48       2.311      6.027      2.375      3.2        1.323      3.226      0.2342127  0.2342127  0.28956    61.00215   18.37394   4.831      0.6271998  0.6872864  67.531     0.1677192  0.1976506  0.1377877 
1161.2     0          217.17     1          2          7.947      4.775      7.722001   4.477      4.013      2.311      6.413      2.337      3.213      1.338      3.048      0.23004    0.23004    0.28536    51.0571    18.37394   4.605      0.6127067  0.6745268  67.531     0.1676365  0.1976506  0.1376223 
1161.4     0          246.38     1          2          7.947      4.394      7.544      4.807      4.775      2.388      5.401      2.426      3.162      1.364      2.413      0.2225037  0.2225037  0.27808    37.0225    18.37394   4.059      0.576981   0.6431245  67.912     0.1684132  0.1976506  0.1391757 
1161.6     0          294.64     1          2          8.252      4.851      7.798      5.163      5.232      2.286      3.747      2.273      3.035      1.351      2.413      0.2178777  0.2178777  0.28172    30.39359   13.57024   3.394      0.5314328  0.6091983  71.849     0.1934615  0.2236871  0.163236  
1161.8     0          336.55     1          2          8.709      4.572      7.264      5.671      4.877      2.108      2.279      1.676      2.642      1.305      2.413      0.2060552  0.2060552  0.2946     18.35696   8.6175     2.971      0.476397   0.5834513  80.104     0.2683176  0.2692569  0.2673782 
1162       0          368.3      8          2          9.421      3.531      5.207      5.671      4.267      1.905      1.983      1.156      1.81       1.242      2.083      0.2089279  0.2089279  0.31224    20.74958   4.247528   2.715      0.4603293  0.5812917  80.104     0.313067   0.359439   0.2666951 
1162.2     0          406.4      8          2          10.386     2.261      4.775      5.671      3.861      1.727      1.884      1.092      1.359      1.186      1.753      0.1962978  0.1962978  0.32792    12.10791   1.628229   2.461      0.4033315  0.5618491  80.104     0.3988552  0.5316963  0.2660142 
1162.4     0          422.91     -9999      -9999      11.046     1.829      4.191      5.544      3.632      1.727      1.664      0.673      1.105      1.138      1.27       0.1680102  0.1680102  0.34136    3.623391   0.8451035  2.365      0.3038532  0.5361856  84.295     0.5253023  0.6949591  0.3556454 
1162.6     0          429.26     -9999      -9999      10.843     1.473      3.48       4.909      -9999      1.88       1.628      0.521      0.978      1.105      1.27       0.166965   0.166965   0.3506     3.465416   1.033972   2.33       0.2951448  0.5392292  88.359     0.5564696  0.6400143  0.4729249 
1162.8     0          425.45     -9999      -9999      10.386     1.143      2.921      3.74       -9999      2.057      1.871      0.559      1.194      1.087      1.27       0.1828475  0.1828475  0.35564    6.822407   1.628229   2.35       0.3513848  0.5608881  89.629     0.5236136  0.5316963  0.5155309 
1163       0          435.61     -9999      -9999      9.903      1.118      2.769      3.74       -9999      2.21       2.364      1.01       1.664      1.11       1.295      0.1922417  0.1922417  0.3492     10.18451   2.631126   2.296      0.3722681  0.5595478  89.629     0.4756313  0.4370753  0.5141872 
1163.2     0          444.5      -9999      -9999      9.243      1.422      2.616      3.74       -9999      2.261      2.399      0.546      0.991      1.123      1.321      0.205765   0.205765   0.34556    18.13115   5.069292   2.25       0.4027107  0.5642301  89.629     0.4236211  0.3343957  0.5128466 
1163.4     0          436.88     -9999      -9999      9.065      1.346      1.981      3.994      -9999      2.235      2.119      0.546      1.067      1.087      1.321      0.21991    0.21991    0.35564    33.14547   6.050045   2.289      0.4408412  0.5865444  89.629     0.4113031  0.3110971  0.5115091 
1163.6     0          420.37     -9999      -9999      9.471      0.965      1.702      3.994      -9999      2.311      1.926      1.956      1.194      1.079      1.321      0.2131783  0.2131783  0.35788    24.87355   4.041663   2.379      0.4357974  0.590858   89.629     0.4384899  0.3668052  0.5101747 
1163.8     0          414.02     -9999      -9999      9.802      1.016      2.286      3.994      -9999      2.184      1.999      0.851      1.054      1.084      1.321      0.2032989  0.2032989  0.35648    16.32103   2.908878   2.415      0.4161211  0.58516    89.629     0.464185   0.4195267  0.5088434 
1164       0          412.75     -9999      -9999      9.649      1.6        3.099      3.994      -9999      2.057      2.279      0.635      1.08       1.072      1.346      0.2110445  0.2110445  0.35984    22.70982   3.38648    2.423      0.4357059  0.5942789  89.629     0.4508955  0.3942758  0.5075152 
1164.2     0          400.05     -9999      -9999      9.573      1.372      2.388      3.309      -9999      2.159      1.999      0.87       1.289      1.057      1.346      0.2174385  0.2174385  0.36404    29.82957   3.652115   2.5        0.4581987  0.6080647  89.629     0.4442469  0.3823037  0.5061901 
1164.4     0          384.81     -9999      -9999      9.827      1.219      2.438      2.724      -9999      2.134      1.858      0.864      1.41       1.059      -9999      0.2095074  0.2095074  0.36348    21.26885   2.83751    2.599      0.4504845  0.6094755  89.756     0.4665835  0.4238036  0.5093635 
1164.6     0          381        -9999      -9999      9.878      1.372      2.642      3.029      -9999      1.905      1.913      0.66       1.067      1.1        -9999      0.1960388  0.1960388  0.352      11.97492   2.697301   2.625      0.4204583  0.5932185  89.883     0.4726096  0.4326645  0.5125548 
1164.8     0          387.35     -9999      -9999      9.725      1.372      2.337      3.029      -9999      1.676      2.296      0.787      1.105      1.138      -9999      0.1837488  0.1837488  0.34136    7.089765   3.140167   2.582      0.3820692  0.5713329  90.899     0.4776096  0.4066229  0.5485964 
1165       0          388.62     -9999      -9999      9.751      1.346      2.134      3.029      -9999      1.473      2.417      1.74       1.575      1.206      -9999      0.1642315  0.1642315  0.32232    3.084071   3.060081   2.573      0.3174632  0.5353405  90.899     0.479056   0.410935   0.5471771 
1165.2     0          383.54     -9999      -9999      9.624      1.397      1.93       2.877      -9999      1.295      1.955      2.299      2.07       1.303      -9999      0.1407105  0.1407105  0.29516    1.130988   3.471657   2.607      0.2238999  0.4827835  90.899     0.4680288  0.3902967  0.5457609 
1165.4     0          372.11     -9999      -9999      9.217      1.397      1.93       2.674      -9999      1.143      1.983      2.299      2.553      1.359      -9999      0.1318589  0.1318589  0.27948    0.7753635  5.201958   2.687      0.1902825  0.4598159  91.407     0.4473366  0.3308867  0.5637865 
1165.6     0          360.68     -9999      -9999      8.938      1.372      1.956      2.013      -9999      1.219      2.279      2.299      2.807      1.392      -9999      0.1220046  0.1220046  0.27024    0.5093073  6.863763   2.773      0.1463241  0.4407881  92.423     0.4491981  0.2954731  0.6029231 
1165.8     -9999      350.52     -9999      -9999      8.836      1.346      1.93       2.013      -9999      1.422      2.988      1.676      2.515      1.389      -9999      0.09840865 0.09840865 0.27108    0.1861765  7.595867   2.853      0          0.4045023  95.979     0.5232465  0.2834948  0.7629982 
