~Version
 VERS              .         2.0                           : CWLS LOG ASCII STANDARD - VERSION 2.0
 WRAP              .         NO                            : ONE LINE PER DEPTH STEP
 DLM               .         SPACE                         : DELIMITING CHARACTER(SPACE TAB OR COMMA)
~Well Information
#_______________________________________________________________________________
#
#PARAMETER_NAME    .UNIT     VALUE                         : DESCRIPTION
#_______________________________________________________________________________
STRT               .M        880                           : First reference value
STOP               .M        1166                          : Last reference value
STEP               .M        0.2                           : Step increment
NULL               .         -9999                         : Missing value
COMP               .                                       : Company
WELL               .         4899                          : Well name
FLD                .         УЗЕНЬ                         : Field
LOC                .                                       : Location
CNTY               .                                       : County
STAT               .                                       : State
CTRY               .                                       : Country
SRVC               .         UPGF                          : Service Company
DATE               .         17.01.90                      : Date
UWI                .                                       : Unique Well ID
Block              .         7                             : 
Category           .         Нефтяная                      : 
Condition          .         В работе                      : 
Date               .         31.01.1990                    : 
EREF               .m        87.4                          : 100.8
Gorizont           .         14                            : 14
Interpretator      .         Ткачева И.Г.                  : 
Kupol              .         Основной                      : osnovnoi
Mud                .         0                             : 
Mud_density        .         0                             : 
Mud_resistivity    .         0                             : 
NGDU               .         НГДУ-2                        : 
ORIGINALWELLNAME   .         4899                          : 
Spud_date          .         1989                          : 1961
Uslovie            .         14                            : 
Viscosity          .         0                             : 
X                  .m        42099                         : 46154
Y                  .m        84004.43                      : 85761.93
YEAR               .         2019                          : 
~Parameter Information Block
#_______________________________________________________________________________
#
#PARAMETER_NAME    .UNIT     VALUE                         : DESCRIPTION
#_______________________________________________________________________________
SET                .         LQC_KAZNIPI_Petrel            : 
TLFamily_CALI      .         Caliper                       : 
TLFamily_CILD      .         Conductivity                  : 
TLFamily_COLL      .         Net Reservoir Flag            : 
TLFamily_CSAT      .         Fluid Code                    : 
TLFamily_DEPT      .         Measured Depth                : 
TLFamily_GR        .         Russian Gamma Ray             : 
TLFamily_GZ1       .         Gradient 045                  : 
TLFamily_GZ2       .         Gradient 105                  : 
TLFamily_GZ3       .         Gradient 225                  : 
TLFamily_GZ4       .         Gradient 425                  : 
TLFamily_GZ5       .         Gradient 850                  : 
TLFamily_LLS       .         Lateral Log Resistivity       : 
TLFamily_MINV      .         Micro Gradient Resistivity    : 
TLFamily_MNOR      .         Micro Resistivity             : 
TLFamily_NGLD      .         Neutron Gamma                 : 
TLFamily_OGZ       .         Gradient Inverted 225         : 
TLFamily_PHIE      .         Effective Porosity            : 
TLFamily_PHIEN     .         Effective Porosity            : 
TLFamily_PHIT      .         Porosity                      : 
TLFamily_PRMB      .         Permeability                  : 
TLFamily_PRMB_DGR  .         Permeability                  : 
TLFamily_RT        .         Formation Resistivity         : 
TLFamily_SOIL_ARCHIE .         Oil Saturation                : 
TLFamily_SOIL_DW   .         Oil Saturation                : 
TLFamily_SP        .         Spontaneous Potential         : 
TLFamily_VSH_FIN   .         Shale Volume                  : 
TLFamily_VSH_GR    .         Shale Volume                  : 
TLFamily_VSH_SP    .         Shale Volume                  : 
~Curve Information
#_______________________________________________________________________________
#
#LOGNAME           .UNIT     LOG_ID                        : DESCRIPTION
#_______________________________________________________________________________
DEPT               .M                                      : Колонка глубины 
CALI               .м                                      : Каверномер 
CILD               .мСм/м                                  : Индукционный каротаж 
COLL               .unitless                               : Описание 
CSAT               .unitless                               : Описание 
GR                 .uR/h                                   : Гамма каротаж 
GZ1                .Ohmm                                   : Градиент-зонд  длиной 0.45м 
GZ2                .Ohmm                                   : Градиент-зонд  длиной 1.05м 
GZ3                .Ohmm                                   : Градиент-зонд  длиной 2.25м 
GZ4                .Ohmm                                   : Градиент-зонд  длиной 4.5м 
GZ5                .Ohmm                                   : Градиент-зонд  длиной 8.5м 
LLS                .Ohmm                                   : Боковой каротаж 
MINV               .Ohmm                                   : Микро-градиент зонд 
MNOR               .Ohmm                                   : Микро-потенциал зонд 
NGLD               .у.е.                                   : Показания зонда НГК-60 аппаратуры ДРСТ-3-90 
OGZ                .Ohmm                                   :  
PHIE               .v/v                                    : Описание 
PHIEN              .v/v                                    :  
PHIT               .v/v                                    : Описание 
PRMB               .mD                                     :  
PRMB_DGR           .mD                                     :  
RT                 .ohmm                                   : УЭС пласта 
SOIL_ARCHIE        .v/v                                    :  
SOIL_DW            .v/v                                    :  
SP                 .мВ                                     : Потенциал самополяризации 
VSH_FIN            .v/v                                    : Описание 
VSH_GR             .v/v                                    : Shale volume 
VSH_SP             .v/v                                    : Shale Volume 
~Ascii
# ...
952.8      0.228      326.39     -9999      -9999      6.246      -9999      -9999      3.029      -9999      -9999      2.166      0.864      1.181      1.255      3.073      0.1029857  0.1029857  0.3086     0.2263094  1.713457   3.064      0.04249442 0.4738174  92.423     0.6230737  0.520734   0.7254134 
953        0.231      322.58     -9999      -9999      6.271      -9999      -9999      3.055      -9999      -9999      2.149      0.864      1.626      1.234      3.251      0.1082486  0.1082486  0.31448    0.2832591  1.681102   3.1        0.08818071 0.4921377  92.423     0.6249438  0.5248032  0.7250843 
953.2000000000001 0.235      313.69     -9999      -9999      6.119      -9999      -9999      3.055      -9999      -9999      2.581      1.08       1.803      1.244      3.327      0.1094614  0.1094614  0.31168    0.2982971  1.887687   3.188      0.1087704  0.4982268  92.423     0.6127836  0.5005444  0.7250229 
953.4      0.232      317.5      -9999      -9999      5.941      -9999      -9999      2.978      -9999      -9999      2.599      0.864      1.638      1.237      3.327      0.1158843  0.1158843  0.31364    0.3922991  2.162102   3.15       0.1471643  0.5072632  92.423     0.5992596  0.4735578  0.7249613 
953.6      0.232      320.04     -9999      -9999      5.839      -9999      -9999      2.978      -9999      -9999      2.619      1.41       2.311      1.252      3.302      0.114137   0.114137   0.30944    0.3641271  2.336977   3.125      0.1325669  0.4982767  92.423     0.5918272  0.4587545  0.7248999 
953.8      0.23       312.42     -9999      -9999      5.687      -9999      -9999      2.902      -9999      -9999      3.19       1.651      2.603      1.272      3.327      0.1120461  0.1120461  0.30384    0.3330614  2.624161   3.201      0.1283695  0.4950913  92.423     0.5811936  0.4375486  0.7248384 
954        0.228      308.61     -9999      -9999      5.636      -9999      -9999      2.877      -9999      -9999      2.859      1.257      1.727      1.265      3.327      0.1151536  0.1151536  0.3058     0.380262   2.728221   3.24       0.1537147  0.505059   92.423     0.5777162  0.4306555  0.724777  
954.2000000000001 0.226      309.88     -9999      -9999      5.433      -9999      -9999      2.801      -9999      -9999      2.562      1.676      2.134      1.262      3.251      0.1203561  0.1203561  0.30664    0.4747291  3.184964   3.227      0.1841279  0.5127332  92.423     0.5644966  0.4042777  0.7247155 
954.4      0.222      298.45     -9999      -9999      5.484      -9999      -9999      2.75       -9999      -9999      2.838      2.667      2.769      1.27       3.251      0.1170586  0.1170586  0.3044     0.4124455  3.063483   3.351      0.178806   0.5147516  92.423     0.5677013  0.4107487  0.7246541 
954.6      0.222      284.48     -9999      -9999      5.484      -9999      -9999      2.75       -9999      -9999      3.285      2.642      2.362      1.283      3.15       0.1134287  0.1134287  0.30076    0.353291   3.063483   3.515      0.1746788  0.5171148  92.423     0.5676706  0.4107487  0.7245926 
954.8      0.221      284.48     -9999      -9999      5.306      -9999      -9999      2.826      -9999      -9999      2.966      1.473      1.511      1.293      3.124      0.1142928  0.1142928  0.29796    0.3665543  3.508824   3.515      0.1801161  0.5155269  92.423     0.5565673  0.3886033  0.7245312 
955        0.226      287.02     -9999      -9999      5.179      -9999      -9999      3.131      -9999      -9999      2.619      1.93       2.045      1.295      3.175      0.116229   0.116229   0.2974     0.3981075  3.865616   3.484      0.1886584  0.5157282  92.423     0.5490032  0.3735366  0.7244697 
955.2000000000001 0.231      281.94     -9999      -9999      5.204      -9999      -9999      3.334      -9999      -9999      3.333      1.88       1.854      1.288      3.226      0.1177175  0.1177175  0.29936    0.4242006  3.792624   3.547      0.2043207  0.5242501  92.423     0.5504319  0.3764556  0.7244083 
955.4      0.227      267.97     -9999      -9999      4.976      -9999      -9999      3.283      -9999      -9999      3.944      3.302      2.908      1.311      3.226      0.1155443  0.1155443  0.29292    0.3866508  4.512776   3.732      0.2103683  0.5265284  92.423     0.5375021  0.3506573  0.7243469 
955.6      0.227      254        -9999      -9999      4.823      -9999      -9999      3.283      -9999      -9999      3.285      2.553      2.502      1.328      3.099      0.1134861  0.1134861  0.28816    0.3541575  5.071204   3.937      0.2177871  0.5311357  92.423     0.5293148  0.3343442  0.7242854 
955.8      0.22       257.81     -9999      -9999      4.874      -9999      -9999      3.258      -9999      -9999      2.677      2.07       2.095      1.321      2.946      0.1145732  0.1145732  0.29012    0.3709646  4.877777   3.879      0.2188336  0.5313021  92.423     0.5319599  0.3396958  0.724224  
956        0.216      271.78     -9999      -9999      5.484      -9999      -9999      3.385      -9999      -9999      3.076      1.842      1.968      1.303      2.845      0.1078996  0.1078996  0.29516    0.2790752  3.063483   3.679      0.1562152  0.5136799  92.423     0.5674556  0.4107487  0.7241626 
956.2000000000001 0.216      273.05     -9999      -9999      5.661      -9999      -9999      3.537      -9999      -9999      3.586      3.124      2.807      1.295      2.769      0.1063099  0.1063099  0.2974     0.2607805  2.676705   3.662      0.1433763  0.512382   92.423     0.579061   0.4340208  0.7241012 
956.4      0.214      262.89     -9999      -9999      5.484      -9999      -9999      3.588      -9999      -9999      3.167      2.87       3.162      1.303      2.769      0.1079199  0.1079199  0.29516    0.2793167  3.063483   3.804      0.1694777  0.5217687  92.423     0.5673942  0.4107487  0.7240397 
956.6      0.214      254        -9999      -9999      5.484      -9999      -9999      3.588      -9999      -9999      2.817      1.93       2.553      1.313      2.794      0.1051301  0.1051301  0.29236    0.2479829  3.063483   3.937      0.1639073  0.5226116  92.423     0.5673635  0.4107487  0.7239783 
956.8      0.213      267.97     -9999      -9999      5.534      -9999      -9999      3.613      -9999      -9999      3.121      2.172      1.981      1.318      2.819      0.1026768  0.1026768  0.29096    0.223348   2.948884   3.732      0.1248478  0.5040472  92.423     0.5705551  0.4171932  0.7239169 
957        0.214      265.43     -9999      -9999      5.636      -9999      -9999      3.563      -9999      -9999      3.333      2.934      2.235      1.303      2.794      0.1046657  0.1046657  0.29516    0.2431198  2.728221   3.767      0.1431109  0.5142086  92.423     0.5772555  0.4306555  0.7238556 
957.2000000000001 0.217      275.59     -9999      -9999      5.687      -9999      -9999      3.461      -9999      -9999      2.988      2.972      2.578      1.326      2.692      0.09709843 0.09709843 0.28872    0.1760583  2.624161   3.629      0.06907032 0.4845946  92.423     0.5806714  0.4375486  0.7237942 
957.4      0.221      287.02     -9999      -9999      5.712      -9999      -9999      3.385      -9999      -9999      2.859      3.01       2.731      1.346      2.692      0.09094441 0.09094441 0.28312    0.1354157  2.57461    3.484      0          0.4550638  92.423     0.5823503  0.4409679  0.7237328 
957.6      0.221      295.91     -9999      -9999      5.814      -9999      -9999      3.385      -9999      -9999      2.677      2.337      2.438      1.295      2.718      0.1028867  0.1028867  0.2974     0.225356   2.381954   3.379      0.0847038  0.4865212  92.423     0.5894343  0.4551973  0.7236714 
957.8      0.225      302.26     -9999      -9999      5.763      -9999      -9999      3.309      -9999      -9999      2.382      1.93       2.159      1.252      2.819      0.11612    0.11612    0.30944    0.3962626  2.476409   3.308      0.1680012  0.5153332  92.423     0.5858181  0.4480261  0.72361   
