~Version
 VERS              .         2.0                           : CWLS LOG ASCII STANDARD - VERSION 2.0
 WRAP              .         NO                            : ONE LINE PER DEPTH STEP
 DLM               .         SPACE                         : DELIMITING CHARACTER(SPACE TAB OR COMMA)
~Well Information
#_______________________________________________________________________________
#
#PARAMETER_NAME    .UNIT     VALUE                         : DESCRIPTION
#_______________________________________________________________________________
STRT               .M        880                           : First reference value
STOP               .M        1166                          : Last reference value
STEP               .M        0.2                           : Step increment
NULL               .         -9999                         : Missing value
COMP               .                                       : Company
WELL               .         4899                          : Well name
FLD                .         УЗЕНЬ                         : Field
LOC                .                                       : Location
CNTY               .                                       : County
STAT               .                                       : State
CTRY               .                                       : Country
SRVC               .         UPGF                          : Service Company
DATE               .         17.01.90                      : Date
UWI                .                                       : Unique Well ID
Block              .         7                             : 
Category           .         Нефтяная                      : 
Condition          .         В работе                      : 
Date               .         31.01.1990                    : 
EREF               .m        87.4                          : 100.8
Gorizont           .         14                            : 14
Interpretator      .         Ткачева И.Г.                  : 
Kupol              .         Основной                      : osnovnoi
Mud                .         0                             : 
Mud_density        .         0                             : 
Mud_resistivity    .         0                             : 
NGDU               .         НГДУ-2                        : 
ORIGINALWELLNAME   .         4899                          : 
Spud_date          .         1989                          : 1961
Uslovie            .         14                            : 
Viscosity          .         0                             : 
X                  .m        42099                         : 46154
Y                  .m        84004.43                      : 85761.93
YEAR               .         2019                          : 
~Parameter Information Block
#_______________________________________________________________________________
#
#PARAMETER_NAME    .UNIT     VALUE                         : DESCRIPTION
#_______________________________________________________________________________
SET                .         LQC_KAZNIPI_Petrel            : 
TLFamily_CALI      .         Caliper                       : 
TLFamily_CILD      .         Conductivity                  : 
TLFamily_COLL      .         Net Reservoir Flag            : 
TLFamily_CSAT      .         Fluid Code                    : 
TLFamily_DEPT      .         Measured Depth                : 
TLFamily_GR        .         Russian Gamma Ray             : 
TLFamily_GZ1       .         Gradient 045                  : 
TLFamily_GZ2       .         Gradient 105                  : 
TLFamily_GZ3       .         Gradient 225                  : 
TLFamily_GZ4       .         Gradient 425                  : 
TLFamily_GZ5       .         Gradient 850                  : 
TLFamily_LLS       .         Lateral Log Resistivity       : 
TLFamily_MINV      .         Micro Gradient Resistivity    : 
TLFamily_MNOR      .         Micro Resistivity             : 
TLFamily_NGLD      .         Neutron Gamma                 : 
TLFamily_OGZ       .         Gradient Inverted 225         : 
TLFamily_PHIE      .         Effective Porosity            : 
TLFamily_PHIEN     .         Effective Porosity            : 
TLFamily_PHIT      .         Porosity                      : 
TLFamily_PRMB      .         Permeability                  : 
TLFamily_PRMB_DGR  .         Permeability                  : 
TLFamily_RT        .         Formation Resistivity         : 
TLFamily_SOIL_ARCHIE .         Oil Saturation                : 
TLFamily_SOIL_DW   .         Oil Saturation                : 
TLFamily_SP        .         Spontaneous Potential         : 
TLFamily_VSH_FIN   .         Shale Volume                  : 
TLFamily_VSH_GR    .         Shale Volume                  : 
TLFamily_VSH_SP    .         Shale Volume                  : 
~Curve Information
#_______________________________________________________________________________
#
#LOGNAME           .UNIT     LOG_ID                        : DESCRIPTION
#_______________________________________________________________________________
DEPT               .M                                      : Колонка глубины 
CALI               .м                                      : Каверномер 
CILD               .мСм/м                                  : Индукционный каротаж 
COLL               .unitless                               : Описание 
CSAT               .unitless                               : Описание 
GR                 .uR/h                                   : Гамма каротаж 
GZ1                .Ohmm                                   : Градиент-зонд  длиной 0.45м 
GZ2                .Ohmm                                   : Градиент-зонд  длиной 1.05м 
GZ3                .Ohmm                                   : Градиент-зонд  длиной 2.25м 
GZ4                .Ohmm                                   : Градиент-зонд  длиной 4.5м 
GZ5                .Ohmm                                   : Градиент-зонд  длиной 8.5м 
LLS                .Ohmm                                   : Боковой каротаж 
MINV               .Ohmm                                   : Микро-градиент зонд 
MNOR               .Ohmm                                   : Микро-потенциал зонд 
NGLD               .у.е.                                   : Показания зонда НГК-60 аппаратуры ДРСТ-3-90 
OGZ                .Ohmm                                   :  
PHIE               .v/v                                    : Описание 
PHIEN              .v/v                                    :  
PHIT               .v/v                                    : Описание 
PRMB               .mD                                     :  
PRMB_DGR           .mD                                     :  
RT                 .ohmm                                   : УЭС пласта 
SOIL_ARCHIE        .v/v                                    :  
SOIL_DW            .v/v                                    :  
SP                 .мВ                                     : Потенциал самополяризации 
VSH_FIN            .v/v                                    : Описание 
VSH_GR             .v/v                                    : Shale volume 
VSH_SP             .v/v                                    : Shale Volume 
~Ascii
# ...
1067.2     0.213      270.51     -9999      -9999      6.982      2.311      4.343      4.147      3.302      2.972      3.032      3.34       2.248      1.194      2.896      0.1520814  0.1520814  0.32568    1.836854   3.553893   3.697      0.3756671  0.598052   86.835     0.5260563  0.3865834  0.6655293 
1067.4     0.213      273.05     -9999      -9999      7.287      2.489      4.394      4.147      3.353      2.87       2.988      3.607      2.515      1.217      2.743      0.1401678  0.1401678  0.31924    1.10511    2.910517   3.662      0.3266966  0.578352   86.835     0.5426431  0.4194302  0.665856  
1067.6     0.214      281.94     -9999      -9999      7.541      2.337      4.267      4.147      3.175      2.718      2.838      3.226      2.146      1.181      2.311      0.1468222  0.1468222  0.32932    1.467784   2.464558   3.547      0.3435988  0.5870484  86.581     0.5530235  0.4489045  0.6571425 
1067.8     0.215      289.56     -9999      -9999      7.922      2.464      4.267      4.02       2.845      2.438      2.988      4.089      2.603      1.145      1.753      0.1496456  0.1496456  0.3394     1.655607   1.920404   3.454      0.3462984  0.5922679  86.454     0.5750134  0.4970448  0.6529821 
1068       0.215      306.07     -9999      -9999      8.532      2.464      3.378      3.817      2.159      2.311      2.737      3.556      4.305      1.123      1.753      0.1441422  0.1441422  0.34556    1.309248   1.288025   3.267      0.3067405  0.579695   85.946     0.6103568  0.5850977  0.6356159 
1068.2     0.215      328.93     -9999      -9999      8.887      2.007      3.175      3.055      2.057      1.956      2.166      2.667      1.587      1.09       1.753      0.1437179  0.1437179  0.3548     1.285765   1.020872   3.04       0.2810685  0.571051   85.946     0.6396428  0.6433553  0.6359304 
1068.4     0.217      346.71     -9999      -9999      8.862      1.626      2.87       3.055      1.956      1.803      2.088      2.667      1.715      1.092      1.575      0.1438132  0.1438132  0.35424    1.291002   1.037721   2.884      0.2635     0.5592669  85.946     0.637657   0.6390692  0.6362449 
1068.6     0.218      363.22     -9999      -9999      8.608      1.397      2.743      3.055      1.854      1.651      2.072      2.591      1.753      1.107      1.753      0.1479208  0.1479208  0.35004    1.538188   1.225496   2.753      0.2654953  0.5501534  85.692     0.6124825  0.5971088  0.6278563 
1068.8     0.218      370.84     -9999      -9999      8.532      1.372      2.743      2.75       1.956      1.626      1.983      2.616      1.753      1.112      2.337      0.1491634  0.1491634  0.34864    1.621904   1.288025   2.697      0.2637612  0.5457626  85.565     0.6044747  0.5850977  0.6238518 
1069       0.218      386.08     -9999      -9999      8.481      1.397      2.743      2.547      2.057      1.626      2.013      2.464      1.715      1.1        2.337      0.1516301  0.1516301  0.352      1.801837   1.331764   2.59       0.2602843  0.5420554  85.946     0.6071815  0.5771734  0.6371895 
1069.2     0.218      392.43     -9999      -9999      8.455      1.422      2.591      2.521      2.159      1.702      1.999      2.108      1.702      1.107      2.337      0.1502779  0.1502779  0.35004    1.700862   1.354631   2.548      0.248749   0.5351307  85.946     0.6053398  0.573175   0.6375046 
1069.4     0.217      394.97     -9999      -9999      7.998      1.397      2.337      2.521      2.337      1.93       2.057      1.702      1.613      1.148      2.642      0.1496238  0.1496238  0.33856    1.654067   1.827174   2.532      0.2436569  0.5230172  85.946     0.572534   0.5072483  0.6378198 
1069.6     0.216      389.89     -9999      -9999      7.617      1.6        2.362      2.521      2.794      2.083      2.599      2.616      2.667      1.161      2.946      0.1533122  0.1533122  0.33492    1.935849   2.344912   2.565      0.2640156  0.5272148  86.073     0.5503267  0.4581198  0.6425335 
1069.8     0.216      373.38     -9999      -9999      7.389      1.93       2.718      2.775      3.099      2.235      2.797      3.658      3.785      1.138      3.175      0.16344    0.16344    0.34136    2.981699   2.722475   2.678      0.3178405  0.5536782  86.2       0.5391514  0.4310264  0.6472764 
1070       0.216      360.68     -9999      -9999      7.414      1.88       2.743      3.029      2.997      2.362      2.488      3.264      3.315      1.13       3.175      0.1636767  0.1636767  0.3436     3.011945   2.678271   2.773      0.3297538  0.5634047  86.454     0.5452222  0.4339172  0.6565273 
1070.2     0.216      355.6      -9999      -9999      7.566      1.88       2.743      3.182      2.896      2.464      2.658      2.819      2.095      1.148      3.175      0.1556137  0.1556137  0.33856    2.135506   2.424542   2.812      0.3041816  0.5539984  86.454     0.5543828  0.4519153  0.6568503 
1070.4     0.217      349.25     -9999      -9999      7.516      2.21       3.023      3.182      2.896      2.362      2.944      3.162      2.007      1.176      3.023      0.1487106  0.1487106  0.33072    1.590885   2.505235   2.863      0.2822128  0.5437644  86.454     0.5515437  0.4459139  0.6571735 
1070.6     0.221      335.28     -9999      -9999      7.592      2.032      2.972      3.182      2.769      2.21       2.619      4.001      2.845      1.194      2.845      0.1421068  0.1421068  0.32568    1.200388   2.383614   2.983      0.2674977  0.5409964  86.454     0.5562823  0.4550678  0.6574968 
1070.8     0.223      335.28     -9999      -9999      7.82       1.88       2.972      2.978      2.464      2.083      2.434      3.315      2.578      1.211      2.565      0.1340498  0.1340498  0.32092    0.8513069  2.053046   2.983      0.2292979  0.5266111  86.2       0.5662733  0.4836725  0.6488741 
1071       0.223      339.09     -9999      -9999      7.82       1.905      2.997      2.648      2.337      1.981      2.507      2.883      1.918      1.214      2.565      0.1353406  0.1353406  0.32008    0.8994858  2.053046   2.949      0.2315811  0.5247808  85.819     0.5598164  0.4836725  0.6359603 
1071.2     0.223      335.28     -9999      -9999      7.973      1.778      3.073      2.216      2.337      1.829      2.471      3.023      2.095      1.186      2.565      0.1397962  0.1397962  0.32792    1.087736   1.857331   2.983      0.2569641  0.5401863  85.819     0.5700721  0.503869   0.6362751 
1071.4     0.224      337.82     -9999      -9999      8.176      1.854      3.226      2.216      2.337      1.829      2.562      3.492      2.095      1.168      2.464      0.1401471  0.1401471  0.33296    1.104135   1.626154   2.96       0.2558866  0.5432475  85.819     0.5842816  0.5319733  0.6365898 
1071.6     0.228      345.44     -9999      -9999      8.354      1.854      3.15       2.216      2.286      1.803      2.434      3.658      2.223      1.196      2.362      0.1294133  0.1294133  0.32512    0.6985649  1.447248   2.895      0.1940582  0.5172532  85.565     0.5930505  0.5579036  0.6281974 
1071.8     0.233      355.6      -9999      -9999      8.659      1.803      2.997      2.166      2.21       1.676      2.23       3.213      2.045      1.227      2.184      0.1142812  0.1142812  0.31644    0.3663725  1.185246   2.812      0.08952685 0.4789105  85.311     0.6126025  0.6053069  0.619898  
1072       0.233      367.03     -9999      -9999      8.786      1.626      2.743      2.242      2.057      1.626      2.057      2.883      1.88       1.224      2.184      0.1116207  0.1116207  0.31728    0.327073   1.090669   2.725      0.05684778 0.467172   85.311     0.62321    0.626214   0.6202059 
1072.2     0.233      374.65     -9999      -9999      8.379      1.397      2.565      2.394      1.905      1.575      1.999      2.273      2.134      1.201      2.184      0.1286637  0.1286637  0.32372    0.6765844  1.423749   2.669      0.1584769  0.4947818  85.311     0.5910797  0.5616453  0.6205141 
