~Version
 VERS              .         2.0                           : CWLS LOG ASCII STANDARD - VERSION 2.0
 WRAP              .         NO                            : ONE LINE PER DEPTH STEP
 DLM               .         SPACE                         : DELIMITING CHARACTER(SPACE TAB OR COMMA)
~Well Information
#_______________________________________________________________________________
#
#PARAMETER_NAME    .UNIT     VALUE                         : DESCRIPTION
#_______________________________________________________________________________
STRT               .M        880                           : First reference value
STOP               .M        1166                          : Last reference value
STEP               .M        0.2                           : Step increment
NULL               .         -9999                         : Missing value
COMP               .                                       : Company
WELL               .         4899                          : Well name
FLD                .         УЗЕНЬ                         : Field
LOC                .                                       : Location
CNTY               .                                       : County
STAT               .                                       : State
CTRY               .                                       : Country
SRVC               .         UPGF                          : Service Company
DATE               .         17.01.90                      : Date
UWI                .                                       : Unique Well ID
Block              .         7                             : 
Category           .         Нефтяная                      : 
Condition          .         В работе                      : 
Date               .         31.01.1990                    : 
EREF               .m        87.4                          : 100.8
Gorizont           .         14                            : 14
Interpretator      .         Ткачева И.Г.                  : 
Kupol              .         Основной                      : osnovnoi
Mud                .         0                             : 
Mud_density        .         0                             : 
Mud_resistivity    .         0                             : 
NGDU               .         НГДУ-2                        : 
ORIGINALWELLNAME   .         4899                          : 
Spud_date          .         1989                          : 1961
Uslovie            .         14                            : 
Viscosity          .         0                             : 
X                  .m        42099                         : 46154
Y                  .m        84004.43                      : 85761.93
YEAR               .         2019                          : 
~Parameter Information Block
#_______________________________________________________________________________
#
#PARAMETER_NAME    .UNIT     VALUE                         : DESCRIPTION
#_______________________________________________________________________________
SET                .         LQC_KAZNIPI_Petrel            : 
TLFamily_CALI      .         Caliper                       : 
TLFamily_CILD      .         Conductivity                  : 
TLFamily_COLL      .         Net Reservoir Flag            : 
TLFamily_CSAT      .         Fluid Code                    : 
TLFamily_DEPT      .         Measured Depth                : 
TLFamily_GR        .         Russian Gamma Ray             : 
TLFamily_GZ1       .         Gradient 045                  : 
TLFamily_GZ2       .         Gradient 105                  : 
TLFamily_GZ3       .         Gradient 225                  : 
TLFamily_GZ4       .         Gradient 425                  : 
TLFamily_GZ5       .         Gradient 850                  : 
TLFamily_LLS       .         Lateral Log Resistivity       : 
TLFamily_MINV      .         Micro Gradient Resistivity    : 
TLFamily_MNOR      .         Micro Resistivity             : 
TLFamily_NGLD      .         Neutron Gamma                 : 
TLFamily_OGZ       .         Gradient Inverted 225         : 
TLFamily_PHIE      .         Effective Porosity            : 
TLFamily_PHIEN     .         Effective Porosity            : 
TLFamily_PHIT      .         Porosity                      : 
TLFamily_PRMB      .         Permeability                  : 
TLFamily_PRMB_DGR  .         Permeability                  : 
TLFamily_RT        .         Formation Resistivity         : 
TLFamily_SOIL_ARCHIE .         Oil Saturation                : 
TLFamily_SOIL_DW   .         Oil Saturation                : 
TLFamily_SP        .         Spontaneous Potential         : 
TLFamily_VSH_FIN   .         Shale Volume                  : 
TLFamily_VSH_GR    .         Shale Volume                  : 
TLFamily_VSH_SP    .         Shale Volume                  : 
~Curve Information
#_______________________________________________________________________________
#
#LOGNAME           .UNIT     LOG_ID                        : DESCRIPTION
#_______________________________________________________________________________
DEPT               .M                                      : Колонка глубины 
CALI               .м                                      : Каверномер 
CILD               .мСм/м                                  : Индукционный каротаж 
COLL               .unitless                               : Описание 
CSAT               .unitless                               : Описание 
GR                 .uR/h                                   : Гамма каротаж 
GZ1                .Ohmm                                   : Градиент-зонд  длиной 0.45м 
GZ2                .Ohmm                                   : Градиент-зонд  длиной 1.05м 
GZ3                .Ohmm                                   : Градиент-зонд  длиной 2.25м 
GZ4                .Ohmm                                   : Градиент-зонд  длиной 4.5м 
GZ5                .Ohmm                                   : Градиент-зонд  длиной 8.5м 
LLS                .Ohmm                                   : Боковой каротаж 
MINV               .Ohmm                                   : Микро-градиент зонд 
MNOR               .Ohmm                                   : Микро-потенциал зонд 
NGLD               .у.е.                                   : Показания зонда НГК-60 аппаратуры ДРСТ-3-90 
OGZ                .Ohmm                                   :  
PHIE               .v/v                                    : Описание 
PHIEN              .v/v                                    :  
PHIT               .v/v                                    : Описание 
PRMB               .mD                                     :  
PRMB_DGR           .mD                                     :  
RT                 .ohmm                                   : УЭС пласта 
SOIL_ARCHIE        .v/v                                    :  
SOIL_DW            .v/v                                    :  
SP                 .мВ                                     : Потенциал самополяризации 
VSH_FIN            .v/v                                    : Описание 
VSH_GR             .v/v                                    : Shale volume 
VSH_SP             .v/v                                    : Shale Volume 
~Ascii
880.0      0.213      340.36     -9999      -9999      9.598      -9999      -9999      2.115      -9999      -9999      2.434      2.019      2.159      1.234      3.099      0.1087035  0.1087035  0.31448    0.2888093  0.640887   2.938      0.06833287 0.4790851  79.723     0.6235651  0.7780576  0.4690725 
880.2000000000001 0.213      339.09     -9999      -9999      9.649      -9999      -9999      2.166      -9999      -9999      2.471      2.07       2.375      1.232      3.251      0.1069462  0.1069462  0.31504    0.2679541  0.6198381  2.949      0.05666888 0.4777118  79.85      0.6305874  0.78874    0.4724348 
880.4      0.213      337.82     -9999      -9999      9.827      -9999      -9999      2.267      -9999      -9999      2.638      2.121      2.324      1.242      3.251      0.102843   0.102843   0.31224    0.2249369  0.5516451  2.96       0.0256766  0.4685028  79.723     0.6345363  0.8        0.4690725 
880.6      0.213      332.74     -9999      -9999      9.852      -9999      -9999      2.343      -9999      -9999      2.696      2.108      2.223      1.265      3.023      0.09700307 0.09700307 0.3058     0.1753438  0.542688   3.005      0          0.4544304  79.596     0.632718   0.8        0.4654359 
880.8      0.213      331.47     -9999      -9999      10.03      -9999      -9999      2.343      -9999      -9999      2.543      1.88       2.235      1.29       3.023      0.09168191 0.09168191 0.2988     0.1397428  0.4829828  3.017      0          0.4364735  79.215     0.6276306  0.8        0.4552612 
881        0.212      334.01     -9999      -9999      9.979      -9999      -9999      2.42       -9999      -9999      2.507      2.057      2.311      1.288      2.667      0.09228978 0.09228978 0.29936    0.1434131  0.499384   2.994      0          0.4362684  79.215     0.6274855  0.8        0.4549711 
881.2000000000001 0.212      334.01     -9999      -9999      9.624      -9999      -9999      2.394      -9999      -9999      2.543      1.626      2.019      1.298      2.286      0.09385841 0.09385841 0.29656    0.1533358  0.6300682  2.994      0          0.4359649  78.834     0.6142473  0.7834853  0.4450093 
881.4      0.213      330.2      -9999      -9999      9.268      -9999      -9999      2.343      -9999      -9999      2.543      1.715      1.994      1.278      2.007      0.1133201  0.1133201  0.30216    0.3516588  0.7954721  3.028      0.1141113  0.4811037  78.326     0.5722421  0.7123482  0.432136  
881.6      0.213      328.93     -9999      -9999      9.37       -9999      -9999      2.394      -9999      -9999      2.399      1.74       2.121      1.237      1.905      0.1226131  0.1226131  0.31364    0.5226975  0.7440782  3.04       0.1744175  0.5084664  78.072     0.5788693  0.7320429  0.4256958 
881.8      0.212      330.2      -9999      -9999      9.471      -9999      -9999      2.394      -9999      -9999      2.313      1.473      2.007      1.26       1.905      0.1134148  0.1134148  0.3072     0.3530815  0.6964612  3.028      0.1147553  0.4867545  77.945     0.5872279  0.7520809  0.4223749 
882        0.212      328.93     -9999      -9999      9.192      -9999      -9999      3.105      -9999      -9999      2.417      1.727      2.311      1.328      2.337      0.1033396  0.1033396  0.28816    0.2297515  0.8360592  3.04       0.04182195 0.448283   77.945     0.5600618  0.6980191  0.4221045 
882.2000000000001 0.212      320.04     -9999      -9999      8.989      -9999      -9999      3.994      -9999      -9999      2.838      1.981      3.315      1.405      3.048      0.08790885 0.08790885 0.2666     0.1189716  0.9549158  3.125      0          0.3944036  77.945     0.5414883  0.6611425  0.4218343 
882.4      0.213      300.99     -9999      -9999      9.065      -9999      -9999      4.579      -9999      -9999      4.84       2.654      3.277      1.483      4.013      0.06387397 0.06387397 0.24476    0.04268339 0.9085582  3.322      0          0.3088136  77.945     0.5481395  0.6747145  0.4215644 
882.6      0.213      280.67     -9999      -9999      8.989      -9999      -9999      4.731      -9999      -9999      6.027      2.184      2.654      1.493      4.877      0.06285611 0.06285611 0.24196    0.0408701  0.9549158  3.563      0          0.3238994  78.072     0.542739   0.6611425  0.4243356 
882.8      0.213      261.62     -9999      -9999      9.09       -9999      -9999      4.731      -9999      -9999      4.734      2.21       2.413      1.478      4.877      0.06310153 0.06310153 0.24616    0.04130014 0.8938063  3.822      0          0.3556437  78.326     0.5547226  0.6792397  0.4302055 
883        0.214      256.54     -9999      -9999      9.37       -9999      -9999      5.061      -9999      -9999      3.121      1.994      2.972      1.448      5.715      0.06283441 0.06283441 0.25456    0.0408323  0.7440782  3.898      0          0.3756708  78.326     0.5809867  0.7320429  0.4299305 
883.2000000000001 0.214      255.27     -9999      -9999      9.573      -9999      -9999      5.341      -9999      -9999      5.283      2.311      3.594      1.427      6.274      0.06099657 0.06099657 0.26044    0.03775396 0.6514642  3.917      0          0.381335   78.58      0.604374   0.7728742  0.4358738 
883.4      0.213      231.14     -9999      -9999      9.217      -9999      -9999      4.629      -9999      -9999      6.676      2.858      3.073      1.45       5.105      0.06514185 0.06514185 0.254      0.04505501 0.8224849  4.326      0          0.4131222  78.834     0.5722974  0.7027005  0.4418943 
883.6      0.213      237.49     -9999      -9999      8.176      -9999      -9999      3.994      -9999      -9999      4.84       1.422      2.35       1.468      4.115      0.08619855 0.08619855 0.24896    0.1106023  1.626154   4.211      0.03696466 0.4506961  79.342     0.4932165  0.5319733  0.4544597 
883.8      0.213      265.43     -9999      -9999      8.024      -9999      -9999      3.994      -9999      -9999      2.737      1.575      1.829      1.417      4.115      0.1018465  0.1018465  0.26324    0.2155769  1.79633    3.767      0.1224891  0.4719217  79.85      0.4890712  0.5107869  0.4673555 
884        0.214      295.91     -9999      -9999      7.744      -9999      -9999      2.877      -9999      -9999      2.119      1.778      1.918      1.354      5.461      0.1256148  0.1256148  0.28088    0.5940849  2.157799   3.379      0.2307524  0.5045162  79.85      0.4705007  0.4739432  0.4670582 
884.2000000000001 0.215      308.61     -9999      -9999      7.693      -9999      -9999      2.547      -9999      -9999      2.119      1.842      2.019      1.316      8.484      0.1345651  0.1345651  0.29152    0.8702228  2.231075   3.24       0.2610881  0.5182287  80.485     0.4756209  0.4675243  0.4837175 
884.4      0.215      313.69     -9999      -9999      7.922      -9999      -9999      2.191      -9999      -9999      2.134      2.045      2.286      1.341      9.804      0.1198568  0.1198568  0.28452    0.464726   1.920404   3.188      0.1764829  0.4851093  81.12      0.4989794  0.4970448  0.500914  
884.6      0.215      307.34     -9999      -9999      7.897      -9999      -9999      2.877      -9999      -9999      2.263      3.454      2.807      1.377      9.093      0.1061772  0.1061772  0.27444    0.2593092  1.952099   3.254      0.09356647 0.4550013  82.009     0.5098872  0.4937334  0.526041  
884.8      0.216      294.64     -9999      -9999      7.77       -9999      -9999      2.877      -9999      -9999      2.619      2.591      2.489      1.438      9.093      0.08939023 0.08939023 0.25736    0.1267307  2.121375   3.394      0          0.4087691  82.517     0.5089993  0.4772494  0.5407493 
885        0.226      281.94     -9999      -9999      7.592      -9999      -9999      3.893      -9999      -9999      3.973      1.88       2.413      1.501      8.382      0.07546606 0.07546606 0.23972    0.06997978 2.383614   3.547      0          0.3577663  82.517     0.4977392  0.4550678  0.5404105 
