~Version
 VERS              .         2.0                           : CWLS LOG ASCII STANDARD - VERSION 2.0
 WRAP              .         NO                            : ONE LINE PER DEPTH STEP
 DLM               .         SPACE                         : DELIMITING CHARACTER(SPACE TAB OR COMMA)
~Well Information
#_______________________________________________________________________________
#
#PARAMETER_NAME    .UNIT     VALUE                         : DESCRIPTION
#_______________________________________________________________________________
STRT               .M        880                           : First reference value
STOP               .M        1166                          : Last reference value
STEP               .M        0.2                           : Step increment
NULL               .         -9999                         : Missing value
COMP               .                                       : Company
WELL               .         4899                          : Well name
FLD                .         УЗЕНЬ                         : Field
LOC                .                                       : Location
CNTY               .                                       : County
STAT               .                                       : State
CTRY               .                                       : Country
SRVC               .         UPGF                          : Service Company
DATE               .         17.01.90                      : Date
UWI                .                                       : Unique Well ID
Block              .         7                             : 
Category           .         Нефтяная                      : 
Condition          .         В работе                      : 
Date               .         31.01.1990                    : 
EREF               .m        87.4                          : 100.8
Gorizont           .         14                            : 14
Interpretator      .         Ткачева И.Г.                  : 
Kupol              .         Основной                      : osnovnoi
Mud                .         0                             : 
Mud_density        .         0                             : 
Mud_resistivity    .         0                             : 
NGDU               .         НГДУ-2                        : 
ORIGINALWELLNAME   .         4899                          : 
Spud_date          .         1989                          : 1961
Uslovie            .         14                            : 
Viscosity          .         0                             : 
X                  .m        42099                         : 46154
Y                  .m        84004.43                      : 85761.93
YEAR               .         2019                          : 
~Parameter Information Block
#_______________________________________________________________________________
#
#PARAMETER_NAME    .UNIT     VALUE                         : DESCRIPTION
#_______________________________________________________________________________
SET                .         LQC_KAZNIPI_Petrel            : 
TLFamily_CALI      .         Caliper                       : 
TLFamily_CILD      .         Conductivity                  : 
TLFamily_COLL      .         Net Reservoir Flag            : 
TLFamily_CSAT      .         Fluid Code                    : 
TLFamily_DEPT      .         Measured Depth                : 
TLFamily_GR        .         Russian Gamma Ray             : 
TLFamily_GZ1       .         Gradient 045                  : 
TLFamily_GZ2       .         Gradient 105                  : 
TLFamily_GZ3       .         Gradient 225                  : 
TLFamily_GZ4       .         Gradient 425                  : 
TLFamily_GZ5       .         Gradient 850                  : 
TLFamily_LLS       .         Lateral Log Resistivity       : 
TLFamily_MINV      .         Micro Gradient Resistivity    : 
TLFamily_MNOR      .         Micro Resistivity             : 
TLFamily_NGLD      .         Neutron Gamma                 : 
TLFamily_OGZ       .         Gradient Inverted 225         : 
TLFamily_PHIE      .         Effective Porosity            : 
TLFamily_PHIEN     .         Effective Porosity            : 
TLFamily_PHIT      .         Porosity                      : 
TLFamily_PRMB      .         Permeability                  : 
TLFamily_PRMB_DGR  .         Permeability                  : 
TLFamily_RT        .         Formation Resistivity         : 
TLFamily_SOIL_ARCHIE .         Oil Saturation                : 
TLFamily_SOIL_DW   .         Oil Saturation                : 
TLFamily_SP        .         Spontaneous Potential         : 
TLFamily_VSH_FIN   .         Shale Volume                  : 
TLFamily_VSH_GR    .         Shale Volume                  : 
TLFamily_VSH_SP    .         Shale Volume                  : 
~Curve Information
#_______________________________________________________________________________
#
#LOGNAME           .UNIT     LOG_ID                        : DESCRIPTION
#_______________________________________________________________________________
DEPT               .M                                      : Колонка глубины 
CALI               .м                                      : Каверномер 
CILD               .мСм/м                                  : Индукционный каротаж 
COLL               .unitless                               : Описание 
CSAT               .unitless                               : Описание 
GR                 .uR/h                                   : Гамма каротаж 
GZ1                .Ohmm                                   : Градиент-зонд  длиной 0.45м 
GZ2                .Ohmm                                   : Градиент-зонд  длиной 1.05м 
GZ3                .Ohmm                                   : Градиент-зонд  длиной 2.25м 
GZ4                .Ohmm                                   : Градиент-зонд  длиной 4.5м 
GZ5                .Ohmm                                   : Градиент-зонд  длиной 8.5м 
LLS                .Ohmm                                   : Боковой каротаж 
MINV               .Ohmm                                   : Микро-градиент зонд 
MNOR               .Ohmm                                   : Микро-потенциал зонд 
NGLD               .у.е.                                   : Показания зонда НГК-60 аппаратуры ДРСТ-3-90 
OGZ                .Ohmm                                   :  
PHIE               .v/v                                    : Описание 
PHIEN              .v/v                                    :  
PHIT               .v/v                                    : Описание 
PRMB               .mD                                     :  
PRMB_DGR           .mD                                     :  
RT                 .ohmm                                   : УЭС пласта 
SOIL_ARCHIE        .v/v                                    :  
SOIL_DW            .v/v                                    :  
SP                 .мВ                                     : Потенциал самополяризации 
VSH_FIN            .v/v                                    : Описание 
VSH_GR             .v/v                                    : Shale volume 
VSH_SP             .v/v                                    : Shale Volume 
~Ascii
# ...
900.8      0.2        314.96     1          3          2.893      -9999      -9999      3.182      -9999      -9999      2.776      1.029      1.727      1.598      6.807001   0.1626899  0.1626899  0.21256    2.887818   34.9069    3.175      0.3676874  0.4543526  69.182     0.1511214  0.152087   0.1501559 
901        0.202      306.07     1          3          2.791      -9999      -9999      3.004      -9999      -9999      3.099      0.991      1.715      1.664      7.544      0.1449488  0.1449488  0.19408    1.35507    37.50784   3.267      0.3101016  0.4048186  69.182     0.1488823  0.1476888  0.1500759 
901.2000000000001 0.203      284.48     1          3          2.766      -9999      -9999      3.271      -9999      -9999      3.747      0.978      1.842      1.73       8.306      0.1266566  0.1266566  0.1756     0.6210781  38.17435   3.515      0.2502784  0.3565781  69.182     0.1483132  0.1466304  0.1499961 
901.4      0.204      264.16     6          6          2.74       -9999      -9999      3.842      -9999      -9999      4.77       1.067      2.057      1.91       8.306      0.076149   0.076149   0.1252     0.07204806 38.8801    3.786      0          0.06791978 69.436     0.1486394  0.1455377  0.1517412 
901.6      0.204      236.22     6          6          2.791      -9999      -9999      3.842      -9999      -9999      6.16       1.283      2.515      2.093      9.068      0.02409448 0.02409448 0.07396002 0.007824313 37.50784   4.233      0          0          69.817     0.1511077  0.1476888  0.1545266 
901.8      0.204      203.2      6          6          2.791      -9999      -9999      4.375      -9999      -9999      7.504      1.524      2.858      2.243      9.804      0.01       0          0.03195999 0.004289259 37.50784   4.921      0          0          70.198     0.1525795  0.1476888  0.1574701 
902        0.204      181.61     6          6          2.867      -9999      -9999      5.087      -9999      -9999      10.352     1.46       2.642      2.207      9.779      0.01       0          0.04203999 0.004289259 35.55225   5.506      0          0          70.198     0.1541656  0.1509536  0.1573777 
902.2000000000001 0.205      156.21     6          6          2.918      -9999      -9999      5.874      -9999      -9999      12.704     1.067      2.159      2.197      8.357      0.01       0          0.04483999 0.004289259 34.29744   6.402      0          0          70.452     0.1562901  0.1531848  0.1593953 
902.4      0.206      135.89     6          6          2.969      -9999      -9999      6.763      -9999      -9999      11.468     1.092      2.108      2.167      8.357      0.01       0.0007606827 0.05323999 0.004289259 33.08689   7.359      0          0          70.833     0.1590282  0.155449   0.1626074 
902.6      0.206      119.38     6          6          2.918      -9999      -9999      6.763      -9999      -9999      11.056     1.372      2.553      2.126      6.985      0.01244266 0.01244266 0.06472002 0.004760211 34.29744   8.377      0          0          70.96      0.1584163  0.1531848  0.1636477 
902.8      0.207      111.76     6          6          2.715      -9999      -9999      7.626999   -9999      -9999      11.301     1.359      2.578      2.098      5.588      0.02173339 0.02173339 0.07255998 0.007074784 39.57103   8.948      0          0          70.96      0.15402    0.1444947  0.1635453 
903        0.212      104.14     6          6          2.563      -9999      -9999      8.516      -9999      -9999      11.637     1.206      2.248      2.057      4.496      0.03425042 0.03425042 0.08404002 0.01206588 44.04406   9.602      0          0          70.96      0.1508776  0.1383121  0.1634431 
903.2000000000001 0.205      105.41     6          6          2.41       -9999      -9999      9.405001   -9999      -9999      11.552     1.334      2.502      2.006      3.962      0.04971736 0.04971736 0.09831998 0.02333696 49.05728   9.487      0          0.1937368  70.833     0.1472807  0.132356   0.1622054 
903.4      0.205      113.03     6          6          2.258      -9999      -9999      10.268     -9999      -9999      10.428     1.334      2.4        1.946      3.962      0.06783251 0.06783251 0.11512    0.05053366 54.60265   8.847      0.1625097  0.3284127  70.579     0.1432954  0.1266928  0.1598981 
903.6      0.205      121.92     6          6          2.207      -9999      -9999      10.268     -9999      -9999      7.395      1.168      2.083      1.854      3.353      0.09426345 0.09426345 0.14088    0.1560076  56.60035   8.202      0.3484563  0.4585283  70.325     0.1412623  0.1248474  0.1576771 
903.8      0.206      143.51     1          3          2.283      -9999      -9999      11.157     -9999      -9999      4.632      1.041      1.727      1.732      2.794      0.1283206  0.1283206  0.17504    0.666756   53.64931   6.968      0.4623421  0.5446257  70.071     0.141574   0.1276073  0.1555406 
904        0.206      176.53     1          3          2.309      -9999      -9999      10.014     -9999      -9999      2.944      1.067      1.689      1.669      2.311      0.1458172  0.1458172  0.19268    1.406199   52.67546   5.665      0.4699119  0.5472303  70.071     0.1420084  0.1285654  0.1554514 
904.2000000000001 0.206      213.36     1          3          2.334      -9999      -9999      8.617      -9999      -9999      2.562      1.13       1.765      1.501      1.905      0.1931997  0.1931997  0.23972    10.60926   51.75577   4.687      0.5465364  0.6103231  69.69      0.1409706  0.1294934  0.1524477 
904.4      0.205      252.73     1          3          2.334      -9999      -9999      7.195      -9999      -9999      2.279      1.067      1.664      1.384      1.905      0.2264267  0.2264267  0.27248    43.76534   51.75577   3.957      0.5724177  0.6316801  69.309     0.1395554  0.1294934  0.1496175 
904.6      0.205      298.45     1          3          2.359      -9999      -9999      7.195      -9999      -9999      2.103      0.991      1.486      1.326      1.575      0.2429519  0.2429519  0.28872    88.55568   50.85213   3.351      0.5652378  0.6242759  68.928     0.1386913  0.1304281  0.1469544 
904.8      0.206      340.36     1          3          2.385      -9999      -9999      5.594999   -9999      -9999      1.913      0.965      1.397      1.313      1.346      0.2468432  0.2468432  0.29236    104.5425   49.92906   2.938      0.5439137  0.6042964  68.547     0.1379297  0.1314074  0.144452  
905        0.206      381        1          3          2.359      -9999      -9999      4.477      -9999      -9999      1.778      0.94       1.372      1.316      1.168      0.2461763  0.2461763  0.29152    101.6109   50.85213   2.625      0.5180213  0.5801935  68.547     0.1374052  0.1304281  0.1443822 
905.2000000000001 0.206      415.29     1          3          2.309      -9999      -9999      3.639      -9999      -9999      1.726      0.864      1.334      1.321      1.092      0.2454704  0.2454704  0.29012    98.59728   52.67546   2.408      0.4968486  0.5599336  68.166     0.1353019  0.1285654  0.1420385 
905.4      0.205      445.77     1          3          2.283      -9999      -9999      3.182      -9999      -9999      1.726      1.054      1.562      1.328      1.092      0.2439161  0.2439161  0.28816    92.27332   53.64931   2.243      0.4769209  0.5410165  67.912     0.1340724  0.1276073  0.1405376 
905.6      0.205      471.17     1          3          2.258      -9999      -9999      3.182      -9999      -9999      1.778      1.105      1.676      1.356      1.092      0.2362373  0.2362373  0.28032    66.50378   54.60265   2.122      0.4479628  0.5140067  67.912     0.1335839  0.1266928  0.1404751 
905.8      0.205      491.49     1          3          2.232      -9999      -9999      2.902      -9999      -9999      1.764      0.927      1.473      1.364      1.168      0.2341634  0.2341634  0.27808    60.87404   55.61213   2.035      0.4326706  0.4995606  67.912     0.1330807  0.1257486  0.1404127 
