~Version
 VERS              .         2.0                           : CWLS LOG ASCII STANDARD - VERSION 2.0
 WRAP              .         NO                            : ONE LINE PER DEPTH STEP
 DLM               .         SPACE                         : DELIMITING CHARACTER(SPACE TAB OR COMMA)
~Well Information
#_______________________________________________________________________________
#
#PARAMETER_NAME    .UNIT     VALUE                         : DESCRIPTION
#_______________________________________________________________________________
STRT               .M        880                           : First reference value
STOP               .M        1166                          : Last reference value
STEP               .M        0.2                           : Step increment
NULL               .         -9999                         : Missing value
COMP               .                                       : Company
WELL               .         4899                          : Well name
FLD                .         УЗЕНЬ                         : Field
LOC                .                                       : Location
CNTY               .                                       : County
STAT               .                                       : State
CTRY               .                                       : Country
SRVC               .         UPGF                          : Service Company
DATE               .         17.01.90                      : Date
UWI                .                                       : Unique Well ID
Block              .         7                             : 
Category           .         Нефтяная                      : 
Condition          .         В работе                      : 
Date               .         31.01.1990                    : 
EREF               .m        87.4                          : 100.8
Gorizont           .         14                            : 14
Interpretator      .         Ткачева И.Г.                  : 
Kupol              .         Основной                      : osnovnoi
Mud                .         0                             : 
Mud_density        .         0                             : 
Mud_resistivity    .         0                             : 
NGDU               .         НГДУ-2                        : 
ORIGINALWELLNAME   .         4899                          : 
Spud_date          .         1989                          : 1961
Uslovie            .         14                            : 
Viscosity          .         0                             : 
X                  .m        42099                         : 46154
Y                  .m        84004.43                      : 85761.93
YEAR               .         2019                          : 
~Parameter Information Block
#_______________________________________________________________________________
#
#PARAMETER_NAME    .UNIT     VALUE                         : DESCRIPTION
#_______________________________________________________________________________
SET                .         LQC_KAZNIPI_Petrel            : 
TLFamily_CALI      .         Caliper                       : 
TLFamily_CILD      .         Conductivity                  : 
TLFamily_COLL      .         Net Reservoir Flag            : 
TLFamily_CSAT      .         Fluid Code                    : 
TLFamily_DEPT      .         Measured Depth                : 
TLFamily_GR        .         Russian Gamma Ray             : 
TLFamily_GZ1       .         Gradient 045                  : 
TLFamily_GZ2       .         Gradient 105                  : 
TLFamily_GZ3       .         Gradient 225                  : 
TLFamily_GZ4       .         Gradient 425                  : 
TLFamily_GZ5       .         Gradient 850                  : 
TLFamily_LLS       .         Lateral Log Resistivity       : 
TLFamily_MINV      .         Micro Gradient Resistivity    : 
TLFamily_MNOR      .         Micro Resistivity             : 
TLFamily_NGLD      .         Neutron Gamma                 : 
TLFamily_OGZ       .         Gradient Inverted 225         : 
TLFamily_PHIE      .         Effective Porosity            : 
TLFamily_PHIEN     .         Effective Porosity            : 
TLFamily_PHIT      .         Porosity                      : 
TLFamily_PRMB      .         Permeability                  : 
TLFamily_PRMB_DGR  .         Permeability                  : 
TLFamily_RT        .         Formation Resistivity         : 
TLFamily_SOIL_ARCHIE .         Oil Saturation                : 
TLFamily_SOIL_DW   .         Oil Saturation                : 
TLFamily_SP        .         Spontaneous Potential         : 
TLFamily_VSH_FIN   .         Shale Volume                  : 
TLFamily_VSH_GR    .         Shale Volume                  : 
TLFamily_VSH_SP    .         Shale Volume                  : 
~Curve Information
#_______________________________________________________________________________
#
#LOGNAME           .UNIT     LOG_ID                        : DESCRIPTION
#_______________________________________________________________________________
DEPT               .M                                      : Колонка глубины 
CALI               .м                                      : Каверномер 
CILD               .мСм/м                                  : Индукционный каротаж 
COLL               .unitless                               : Описание 
CSAT               .unitless                               : Описание 
GR                 .uR/h                                   : Гамма каротаж 
GZ1                .Ohmm                                   : Градиент-зонд  длиной 0.45м 
GZ2                .Ohmm                                   : Градиент-зонд  длиной 1.05м 
GZ3                .Ohmm                                   : Градиент-зонд  длиной 2.25м 
GZ4                .Ohmm                                   : Градиент-зонд  длиной 4.5м 
GZ5                .Ohmm                                   : Градиент-зонд  длиной 8.5м 
LLS                .Ohmm                                   : Боковой каротаж 
MINV               .Ohmm                                   : Микро-градиент зонд 
MNOR               .Ohmm                                   : Микро-потенциал зонд 
NGLD               .у.е.                                   : Показания зонда НГК-60 аппаратуры ДРСТ-3-90 
OGZ                .Ohmm                                   :  
PHIE               .v/v                                    : Описание 
PHIEN              .v/v                                    :  
PHIT               .v/v                                    : Описание 
PRMB               .mD                                     :  
PRMB_DGR           .mD                                     :  
RT                 .ohmm                                   : УЭС пласта 
SOIL_ARCHIE        .v/v                                    :  
SOIL_DW            .v/v                                    :  
SP                 .мВ                                     : Потенциал самополяризации 
VSH_FIN            .v/v                                    : Описание 
VSH_GR             .v/v                                    : Shale volume 
VSH_SP             .v/v                                    : Shale Volume 
~Ascii
# ...
1140       0          575.945    -9999      -9999      11.072     0.737      1.499      1.48       1.803      1.499      1.593      0.927      1.41       1.272      1.245      0.06960762 0.06960762 0.30384    0.05450798 0.8235507  1.736      0          0.1980895  92.804     0.7097951  0.702329   0.7172612 
1140.2     0          575.31     -9999      -9999      11.249     0.838      1.397      1.658      1.803      1.6        1.605      0.699      1.346      1.262      1.346      0.06428212 0.06428212 0.30664    0.0434329  0.6907334  1.738      0          0.1846934  92.804     0.7344179  0.7546211  0.7142146 
1140.4     0          577.85     -9999      -9999      11.376     0.864      1.473      1.658      1.829      1.676      1.593      0.65       1.298      1.28       1.346      0.05202393 0.05202393 0.3016     0.02574942 0.6088451  1.731      0          0.1229304  92.931     0.7562912  0.7945244  0.7180579 
1140.6     0          582.295    -9999      -9999      10.995     0.94       1.499      1.708      1.829      1.778      1.593      0.66       1.245      1.293      1.346      0.0665236  0.0665236  0.29796    0.04778995 0.8890323  1.717      0          0.1713641  93.058     0.7013224  0.6807268  0.7219182 
1140.8     0          582.93     -9999      -9999      10.589     0.914      1.499      1.81       1.854      1.88       1.628      0.655      1.264      1.3        1.397      0.0821274  0.0821274  0.296      0.09297298 1.33081    1.715      0          0.2200316  93.058     0.6480988  0.5773422  0.7188554 
1141       0          584.2      -9999      -9999      10.335     0.838      1.473      1.734      1.854      1.956      1.617      0.8        1.372      1.295      1.423      0.09335934 0.09335934 0.2974     0.1501065  1.712865   1.712      0          0.2541504  93.058     0.6183051  0.5208074  0.7158028 
1141.2     0          581.66     -9999      -9999      10.31      0.94       1.499      1.734      1.854      2.032      1.628      0.979      1.3        1.283      1.448      0.09695122 0.09695122 0.30076    0.1749564  1.755946   1.719      0          0.2705816  93.185     0.6176023  0.5155516  0.7196531 
1141.4     0          573.405    -9999      -9999      10.411     0.991      1.524      1.734      1.829      2.007      1.676      1.13       1.245      1.308      1.448      0.08689703 0.08689703 0.29376    0.1139467  1.588281   1.744      0          0.2368395  93.185     0.6268575  0.5371169  0.7165982 
1141.6     0          566.42     -9999      -9999      10.411     0.94       1.549      1.632      1.753      2.032      1.676      0.762      1.34       1.293      1.6        0.09184568 0.09184568 0.29796    0.1407223  1.588281   1.765      0          0.262297   93.058     0.6245888  0.5371169  0.7120607 
1141.8     0          561.34     -9999      -9999      10.513     1.041      1.753      1.518      1.676      2.108      1.714      0.855      1.433      1.275      1.778      0.09275548 0.09275548 0.303      0.14629    1.435199   1.781      0          0.2761552  93.058     0.6371046  0.5598113  0.714398  
1142       0          551.815    -9999      -9999      10.437     1.118      1.829      1.531      1.626      2.083      1.778      0.927      1.511      1.283      2.057      0.09293353 0.09293353 0.30076    0.1474051  1.547774   1.812      0          0.2792922  93.058     0.6297772  0.5428129  0.7167415 
1142.2     0          540.385    -9999      -9999      10.335     1.016      1.626      1.531      1.6        2.184      1.791      0.762      1.308      1.28       2.057      0.0958712  0.0958712  0.3016     0.1670803  1.712865   1.851      0          0.2956848  93.185     0.6234207  0.5208074  0.7260339 
1142.4     0          538.48     -9999      -9999      10.259     0.864      1.524      1.581      1.778      2.261      1.764      0.572      0.94       1.283      1.905      0.09724875 0.09724875 0.30076    0.1771906  1.847221   1.857      0          0.2989405  93.185     0.6167008  0.5049931  0.7284084 
1142.6     0          539.75     -9999      -9999      10.03      0.864      1.6        1.556      1.854      2.286      1.737      0.521      0.889      1.27       1.803      0.1090405  0.1090405  0.3044     0.2929896  2.3192     1.853      0          0.3307674  93.058     0.5919986  0.460187   0.7238101 
1142.8     0          552.45     -9999      -9999      9.852      0.94       1.6        1.404      1.727      2.286      1.397      0.528      0.996      1.247      1.245      0.12038    0.12038    0.31084    0.4752123  2.767891   1.81       0          0.3550599  93.058     0.5771515  0.4281243  0.7261787 
1143       0          566.42     -9999      -9999      9.903      1.041      1.295      1.404      1.549      2.286      1.525      0.533      1.08       1.227      1.245      0.1241112  0.1241112  0.31644    0.5571842  2.631126   1.765      0          0.3613735  93.058     0.5828145  0.4370753  0.7285537 
1143.2     0          557.53     -9999      -9999      10.005     0.813      1.295      1.378      1.524      2.083      1.702      0.508      1.041      1.219      1.041      0.1257692  0.1257692  0.31868    0.5980111  2.37753    1.794      0          0.3724215  92.741     0.5845781  0.455543   0.7136133 
1143.4     0          555.943    -9999      -9999      9.979      0.686      1.219      1.353      1.372      1.905      1.582      0.61       0.94       1.219      0.965      0.141741   0.141741   0.31868    1.181802   2.439752   1.799      0.06922505 0.4002592  90.899     0.5361789  0.4507627  0.621595  
1143.6     0          557.53     -9999      -9999      10.132     0.737      1.245      1.175      1.168      1.88       1.47       0.673      1.118      1.24       1.321      0.1307531  0.1307531  0.3128     0.7396439  2.095669   1.794      0.0001541129 0.3738947  90.899     0.5516573  0.4796312  0.6236833 
1143.8     0          538.48     -9999      -9999      10.233     0.864      1.448      1.175      1.041      1.778      1.536      0.686      1.181      1.25       1.321      0.1242972  0.1242972  0.31       0.5616212  1.895566   1.857      0          0.3695213  90.899     0.5627358  0.499694   0.6257776 
1144       0          515.62     -9999      -9999      10.36      1.067      1.676      1.251      0.914      1.6        1.628      1.435      1.638      1.257      1.55       0.1319994  0.1319994  0.30804    0.7800212  1.670842   1.939      0.04389688 0.3940274  88.994     0.5334565  0.5261168  0.5407961 
1144.2     0          491.49     -9999      -9999      10.437     1.6        2.108      1.505      0.94       1.676      1.884      3.378      2.464      1.303      3.251      0.1397676  0.1397676  0.29516    0.6548939  1.547774   2.035      0.03929397 0.3852297  87.216     0.470886   0.5428129  0.4708859 
1144.4     0          463.55     8          2          10.411     2.819      2.692      2.191      1.041      1.88       2.399      1.524      1.994      1.354      4.14       0.1663093  0.1663093  0.28088    0.8853965  1.588281   2.157      0.1079863  0.3964381  83.406     0.347184   0.5371169  0.3471836 
1144.6     0          435.61     8          2          10.132     2.794      2.896      2.191      1.27       2.057      2.901      1.727      2.172      1.363      4.14       0.163388   0.163388   0.27836    1.181491   2.095669   2.296      0.1698682  0.4226594  83.406     0.3484     0.4796312  0.3484002 
1144.8     0          421.005    8          2          9.852      2.591      2.616      2.381      1.524      2.261      4.337      2.184      2.832      1.371      4.14       0.1607451  0.1607451  0.27612    1.529762   2.767891   2.375      0.2121858  0.4387207  83.406     0.349621   0.4281243  0.3496212 
1145       0          452.12     8          2          9.827      1.905      3.2        3.309      1.702      2.464      3.561      2.054      2.653      1.374      4.14       0.1707819  0.1707819  0.27528    1.918686   2.83751    2.212      0.2101241  0.4253372  82.136     0.316661   0.4238036  0.316661  
