~Version
 VERS              .         2.0                           : CWLS LOG ASCII STANDARD - VERSION 2.0
 WRAP              .         NO                            : ONE LINE PER DEPTH STEP
 DLM               .         SPACE                         : DELIMITING CHARACTER(SPACE TAB OR COMMA)
~Well Information
#_______________________________________________________________________________
#
#PARAMETER_NAME    .UNIT     VALUE                         : DESCRIPTION
#_______________________________________________________________________________
STRT               .M        880                           : First reference value
STOP               .M        1166                          : Last reference value
STEP               .M        0.2                           : Step increment
NULL               .         -9999                         : Missing value
COMP               .                                       : Company
WELL               .         4899                          : Well name
FLD                .         УЗЕНЬ                         : Field
LOC                .                                       : Location
CNTY               .                                       : County
STAT               .                                       : State
CTRY               .                                       : Country
SRVC               .         UPGF                          : Service Company
DATE               .         17.01.90                      : Date
UWI                .                                       : Unique Well ID
Block              .         7                             : 
Category           .         Нефтяная                      : 
Condition          .         В работе                      : 
Date               .         31.01.1990                    : 
EREF               .m        87.4                          : 100.8
Gorizont           .         14                            : 14
Interpretator      .         Ткачева И.Г.                  : 
Kupol              .         Основной                      : osnovnoi
Mud                .         0                             : 
Mud_density        .         0                             : 
Mud_resistivity    .         0                             : 
NGDU               .         НГДУ-2                        : 
ORIGINALWELLNAME   .         4899                          : 
Spud_date          .         1989                          : 1961
Uslovie            .         14                            : 
Viscosity          .         0                             : 
X                  .m        42099                         : 46154
Y                  .m        84004.43                      : 85761.93
YEAR               .         2019                          : 
~Parameter Information Block
#_______________________________________________________________________________
#
#PARAMETER_NAME    .UNIT     VALUE                         : DESCRIPTION
#_______________________________________________________________________________
SET                .         LQC_KAZNIPI_Petrel            : 
TLFamily_CALI      .         Caliper                       : 
TLFamily_CILD      .         Conductivity                  : 
TLFamily_COLL      .         Net Reservoir Flag            : 
TLFamily_CSAT      .         Fluid Code                    : 
TLFamily_DEPT      .         Measured Depth                : 
TLFamily_GR        .         Russian Gamma Ray             : 
TLFamily_GZ1       .         Gradient 045                  : 
TLFamily_GZ2       .         Gradient 105                  : 
TLFamily_GZ3       .         Gradient 225                  : 
TLFamily_GZ4       .         Gradient 425                  : 
TLFamily_GZ5       .         Gradient 850                  : 
TLFamily_LLS       .         Lateral Log Resistivity       : 
TLFamily_MINV      .         Micro Gradient Resistivity    : 
TLFamily_MNOR      .         Micro Resistivity             : 
TLFamily_NGLD      .         Neutron Gamma                 : 
TLFamily_OGZ       .         Gradient Inverted 225         : 
TLFamily_PHIE      .         Effective Porosity            : 
TLFamily_PHIEN     .         Effective Porosity            : 
TLFamily_PHIT      .         Porosity                      : 
TLFamily_PRMB      .         Permeability                  : 
TLFamily_PRMB_DGR  .         Permeability                  : 
TLFamily_RT        .         Formation Resistivity         : 
TLFamily_SOIL_ARCHIE .         Oil Saturation                : 
TLFamily_SOIL_DW   .         Oil Saturation                : 
TLFamily_SP        .         Spontaneous Potential         : 
TLFamily_VSH_FIN   .         Shale Volume                  : 
TLFamily_VSH_GR    .         Shale Volume                  : 
TLFamily_VSH_SP    .         Shale Volume                  : 
~Curve Information
#_______________________________________________________________________________
#
#LOGNAME           .UNIT     LOG_ID                        : DESCRIPTION
#_______________________________________________________________________________
DEPT               .M                                      : Колонка глубины 
CALI               .м                                      : Каверномер 
CILD               .мСм/м                                  : Индукционный каротаж 
COLL               .unitless                               : Описание 
CSAT               .unitless                               : Описание 
GR                 .uR/h                                   : Гамма каротаж 
GZ1                .Ohmm                                   : Градиент-зонд  длиной 0.45м 
GZ2                .Ohmm                                   : Градиент-зонд  длиной 1.05м 
GZ3                .Ohmm                                   : Градиент-зонд  длиной 2.25м 
GZ4                .Ohmm                                   : Градиент-зонд  длиной 4.5м 
GZ5                .Ohmm                                   : Градиент-зонд  длиной 8.5м 
LLS                .Ohmm                                   : Боковой каротаж 
MINV               .Ohmm                                   : Микро-градиент зонд 
MNOR               .Ohmm                                   : Микро-потенциал зонд 
NGLD               .у.е.                                   : Показания зонда НГК-60 аппаратуры ДРСТ-3-90 
OGZ                .Ohmm                                   :  
PHIE               .v/v                                    : Описание 
PHIEN              .v/v                                    :  
PHIT               .v/v                                    : Описание 
PRMB               .mD                                     :  
PRMB_DGR           .mD                                     :  
RT                 .ohmm                                   : УЭС пласта 
SOIL_ARCHIE        .v/v                                    :  
SOIL_DW            .v/v                                    :  
SP                 .мВ                                     : Потенциал самополяризации 
VSH_FIN            .v/v                                    : Описание 
VSH_GR             .v/v                                    : Shale volume 
VSH_SP             .v/v                                    : Shale Volume 
~Ascii
# ...
994.4      0.255      421.64     -9999      -9999      7.16       -9999      -9999      2.013      -9999      -9999      1.969      0.952      1.257      1.107      1.93       0.1309387  0.1309387  0.35004    0.7455208  1.231045   2.372      0.1240514  0.4934528  92.931     0.6639435  0.5960082  0.7318787 
994.6      0.255      424.18     -9999      -9999      7.312      -9999      -9999      2.013      -9999      -9999      1.913      0.775      1.143      1.115      1.93       0.1241354  0.1241354  0.3478     0.5577583  1.101353   2.357      0.07964884 0.4799979  92.931     0.6777716  0.6237264  0.7318168 
994.8      0.253      427.99     -9999      -9999      7.439      -9999      -9999      2.013      -9999      -9999      1.913      0.914      1.041      1.107      1.981      0.1224016  0.1224016  0.35004    0.5180036  1.003531   2.337      0.06457199 0.4773786  92.931     0.6898133  0.6478718  0.7317548 
995        0.249      430.53     -9999      -9999      7.389      -9999      -9999      1.962      -9999      -9999      1.858      0.775      1.092      1.102      2.007      0.1253984  0.1253984  0.35144    0.5886276  1.040961   2.323      0.08148622 0.4815789  92.931     0.6849746  0.6382561  0.7316929 
995.2000000000001 0.246      429.26     -9999      -9999      7.566      -9999      -9999      1.962      -9999      -9999      1.899      0.914      1.143      1.102      2.032      0.1196838  0.1196838  0.35144    0.4613104  0.9143975  2.33       0.04475474 0.4738566  92.931     0.7022914  0.6729518  0.731631  
995.4      0.243      426.72     -9999      -9999      7.592      -9999      -9999      1.962      -9999      -9999      1.871      0.826      1.016      1.079      2.032      0.1252673  0.1252673  0.35788    0.5853463  0.89715    2.343      0.08434021 0.4896596  92.931     0.7048869  0.6782048  0.7315691 
995.6      0.243      424.18     -9999      -9999      7.236      -9999      -9999      1.962      -9999      -9999      1.913      0.66       1.041      1.064      2.083      0.1407792  0.1407792  0.36208    1.134306   1.164394   2.357      0.1751743  0.5155011  92.931     0.6706085  0.6097099  0.7315071 
995.8      0.246      420.37     -9999      -9999      7.109      -9999      -9999      1.962      -9999      -9999      1.969      0.686      1.219      1.072      2.108      0.1422987  0.1422987  0.35984    1.21025    1.277897   2.379      0.1864056  0.5177062  92.931     0.659216   0.5869868  0.7314452 
996        0.254      414.02     -9999      -9999      7.236      -9999      -9999      1.962      -9999      -9999      2.043      0.749      1.219      1.09       2.134      0.1335196  0.1335196  0.3548     0.8322721  1.164394   2.415      0.1460469  0.5057794  92.931     0.6705466  0.6097099  0.7313833 
996.2000000000001 0.249      408.94     -9999      -9999      7.185      -9999      -9999      1.962      -9999      -9999      2.134      1.118      1.283      1.135      2.108      0.1224526  0.1224526  0.3422     0.5191316  1.20871    2.445      0.08452649 0.481558   92.931     0.6659012  0.600481   0.7313213 
996.4      0.242      402.59     -9999      -9999      7.312      -9999      -9999      1.962      -9999      -9999      2.103      1.029      1.346      1.143      2.108      0.1163873  0.1163873  0.33996    0.4008053  1.101353   2.484      0.0501917  0.4741842  92.931     0.677493   0.6237264  0.7312595 
996.6      0.242      398.78     -9999      -9999      7.236      -9999      -9999      1.988      -9999      -9999      2.149      1.435      1.435      1.156      2.083      0.1150702  0.1150702  0.33632    0.3789115  1.164394   2.508      0.04504875 0.4709292  92.931     0.6704538  0.6097099  0.7311978 
996.8      0.239      393.7      -9999      -9999      7.109      -9999      -9999      1.988      -9999      -9999      2.198      1.092      1.41       1.196      2.057      0.1076298  0.1076298  0.32512    0.2758813  1.277897   2.54       0          0.4499296  92.931     0.6590614  0.5869868  0.731136  
997        0.237      389.89     -9999      -9999      7.084      -9999      -9999      2.013      -9999      -9999      2.198      1.232      1.359      1.201      2.057      0.1069614  0.1069614  0.32372    0.2681281  1.301511   2.565      0          0.4498878  92.931     0.6568443  0.5826145  0.731074  
997.2000000000001 0.235      389.89     -9999      -9999      7.211      -9999      -9999      2.013      -9999      -9999      2.088      1.473      1.219      1.186      2.032      0.1074502  0.1074502  0.32792    0.273777   1.185911   2.565      0          0.4553791  92.931     0.6680902  0.6051683  0.7310122 
997.4      0.235      386.08     -9999      -9999      7.363      -9999      -9999      2.039      -9999      -9999      2.057      1.524      1.118      1.173      2.032      0.1064566  0.1064566  0.33156    0.2624178  1.060973   2.59       0          0.4602289  92.931     0.6821314  0.6333126  0.7309503 
997.6      0.235      384.81     -9999      -9999      7.49       -9999      -9999      2.039      -9999      -9999      2.134      1.473      1.245      1.153      2.032      0.1080216  0.1080216  0.33716    0.2805311  0.9667383  2.599      0.007736257 0.4697252  92.931     0.6943586  0.6578289  0.7308884 
997.8      0.239      389.89     -9999      -9999      7.541      -9999      -9999      2.039      -9999      -9999      2.213      1.727      1.283      1.163      2.032      0.1035637  0.1035637  0.33436    0.2319575  0.9312944  2.565      0          0.4555597  92.931     0.6993828  0.6679392  0.7308265 
998        0.243      384.81     -9999      -9999      7.287      -9999      -9999      2.064      -9999      -9999      2.149      1.778      1.13       1.186      2.032      0.1051956  0.1051956  0.32792    0.2486766  1.121704   2.599      0          0.4550203  92.931     0.6749226  0.6190806  0.7307646 
998.2000000000001 0.246      382.27     -9999      -9999      7.058      -9999      -9999      2.115      -9999      -9999      2.119      1.372      1.283      1.206      2.057      0.1063672  0.1063672  0.32232    0.261419   1.326531   2.616      0          0.4526781  92.931     0.6544024  0.5781019  0.7307028 
998.4      0.251      379.73     -9999      -9999      7.135      -9999      -9999      2.14       -9999      -9999      2.149      1.727      1.194      1.206      2.057      0.1041554  0.1041554  0.32232    0.237886   1.253793   2.633      0          0.4505096  92.931     0.6611049  0.5915688  0.7306409 
998.6      0.251      383.54     -9999      -9999      7.135      -9999      -9999      2.166      -9999      -9999      2.181      1.587      1.219      1.204      2.057      0.1047256  0.1047256  0.32288    0.243742   1.253793   2.607      0          0.4494344  92.931     0.6610739  0.5915688  0.730579  
998.8      0.251      386.08     -9999      -9999      6.982      -9999      -9999      2.166      -9999      -9999      2.134      1.283      1.13       1.178      2.083      0.1163814  0.1163814  0.33016    0.4007045  1.402463   2.59       0.06859434 0.4751461  92.931     0.6478139  0.5651106  0.7305172 
999        0.247      383.54     -9999      -9999      7.058      -9999      -9999      2.191      -9999      -9999      2.103      1.384      1.168      1.171      2.134      0.1153969  0.1153969  0.33212    0.3842275  1.326531   2.607      0.06455352 0.4773196  93.058     0.6567367  0.5781019  0.7353714 
999.2000000000001 0.242      386.08     -9999      -9999      7.033      -9999      -9999      2.191      -9999      -9999      2.119      1.257      1.143      1.171      2.159      0.1161177  0.1161177  0.33212    0.3962224  1.351044   2.59       0.06675207 0.4767462  93.058     0.6545525  0.5737959  0.7353092 
999.4      0.238      389.89     -9999      -9999      7.058      -9999      -9999      2.14       -9999      -9999      2.103      0.978      1.13       1.163      2.159      0.1176574  0.1176574  0.33436    0.4231158  1.326531   2.565      0.07318946 0.4789026  93.058     0.6566744  0.5781019  0.735247  
