~Version
 VERS              .         2.0                           : CWLS LOG ASCII STANDARD - VERSION 2.0
 WRAP              .         NO                            : ONE LINE PER DEPTH STEP
 DLM               .         SPACE                         : DELIMITING CHARACTER(SPACE TAB OR COMMA)
~Well Information
#_______________________________________________________________________________
#
#PARAMETER_NAME    .UNIT     VALUE                         : DESCRIPTION
#_______________________________________________________________________________
STRT               .M        880                           : First reference value
STOP               .M        1166                          : Last reference value
STEP               .M        0.2                           : Step increment
NULL               .         -9999                         : Missing value
COMP               .                                       : Company
WELL               .         4899                          : Well name
FLD                .         УЗЕНЬ                         : Field
LOC                .                                       : Location
CNTY               .                                       : County
STAT               .                                       : State
CTRY               .                                       : Country
SRVC               .         UPGF                          : Service Company
DATE               .         17.01.90                      : Date
UWI                .                                       : Unique Well ID
Block              .         7                             : 
Category           .         Нефтяная                      : 
Condition          .         В работе                      : 
Date               .         31.01.1990                    : 
EREF               .m        87.4                          : 100.8
Gorizont           .         14                            : 14
Interpretator      .         Ткачева И.Г.                  : 
Kupol              .         Основной                      : osnovnoi
Mud                .         0                             : 
Mud_density        .         0                             : 
Mud_resistivity    .         0                             : 
NGDU               .         НГДУ-2                        : 
ORIGINALWELLNAME   .         4899                          : 
Spud_date          .         1989                          : 1961
Uslovie            .         14                            : 
Viscosity          .         0                             : 
X                  .m        42099                         : 46154
Y                  .m        84004.43                      : 85761.93
YEAR               .         2019                          : 
~Parameter Information Block
#_______________________________________________________________________________
#
#PARAMETER_NAME    .UNIT     VALUE                         : DESCRIPTION
#_______________________________________________________________________________
SET                .         LQC_KAZNIPI_Petrel            : 
TLFamily_CALI      .         Caliper                       : 
TLFamily_CILD      .         Conductivity                  : 
TLFamily_COLL      .         Net Reservoir Flag            : 
TLFamily_CSAT      .         Fluid Code                    : 
TLFamily_DEPT      .         Measured Depth                : 
TLFamily_GR        .         Russian Gamma Ray             : 
TLFamily_GZ1       .         Gradient 045                  : 
TLFamily_GZ2       .         Gradient 105                  : 
TLFamily_GZ3       .         Gradient 225                  : 
TLFamily_GZ4       .         Gradient 425                  : 
TLFamily_GZ5       .         Gradient 850                  : 
TLFamily_LLS       .         Lateral Log Resistivity       : 
TLFamily_MINV      .         Micro Gradient Resistivity    : 
TLFamily_MNOR      .         Micro Resistivity             : 
TLFamily_NGLD      .         Neutron Gamma                 : 
TLFamily_OGZ       .         Gradient Inverted 225         : 
TLFamily_PHIE      .         Effective Porosity            : 
TLFamily_PHIEN     .         Effective Porosity            : 
TLFamily_PHIT      .         Porosity                      : 
TLFamily_PRMB      .         Permeability                  : 
TLFamily_PRMB_DGR  .         Permeability                  : 
TLFamily_RT        .         Formation Resistivity         : 
TLFamily_SOIL_ARCHIE .         Oil Saturation                : 
TLFamily_SOIL_DW   .         Oil Saturation                : 
TLFamily_SP        .         Spontaneous Potential         : 
TLFamily_VSH_FIN   .         Shale Volume                  : 
TLFamily_VSH_GR    .         Shale Volume                  : 
TLFamily_VSH_SP    .         Shale Volume                  : 
~Curve Information
#_______________________________________________________________________________
#
#LOGNAME           .UNIT     LOG_ID                        : DESCRIPTION
#_______________________________________________________________________________
DEPT               .M                                      : Колонка глубины 
CALI               .м                                      : Каверномер 
CILD               .мСм/м                                  : Индукционный каротаж 
COLL               .unitless                               : Описание 
CSAT               .unitless                               : Описание 
GR                 .uR/h                                   : Гамма каротаж 
GZ1                .Ohmm                                   : Градиент-зонд  длиной 0.45м 
GZ2                .Ohmm                                   : Градиент-зонд  длиной 1.05м 
GZ3                .Ohmm                                   : Градиент-зонд  длиной 2.25м 
GZ4                .Ohmm                                   : Градиент-зонд  длиной 4.5м 
GZ5                .Ohmm                                   : Градиент-зонд  длиной 8.5м 
LLS                .Ohmm                                   : Боковой каротаж 
MINV               .Ohmm                                   : Микро-градиент зонд 
MNOR               .Ohmm                                   : Микро-потенциал зонд 
NGLD               .у.е.                                   : Показания зонда НГК-60 аппаратуры ДРСТ-3-90 
OGZ                .Ohmm                                   :  
PHIE               .v/v                                    : Описание 
PHIEN              .v/v                                    :  
PHIT               .v/v                                    : Описание 
PRMB               .mD                                     :  
PRMB_DGR           .mD                                     :  
RT                 .ohmm                                   : УЭС пласта 
SOIL_ARCHIE        .v/v                                    :  
SOIL_DW            .v/v                                    :  
SP                 .мВ                                     : Потенциал самополяризации 
VSH_FIN            .v/v                                    : Описание 
VSH_GR             .v/v                                    : Shale volume 
VSH_SP             .v/v                                    : Shale Volume 
~Ascii
# ...
973.6      0.217      288.29     -9999      -9999      5.788      -9999      -9999      3.359      -9999      -9999      2.838      2.375      2.172      1.288      2.819      0.1226616  0.1226616  0.29936    0.5237793  3.026106   3.469      0.224275   0.5260758  90.772     0.5354497  0.4128127  0.6580868 
973.8      0.222      290.83     -9999      -9999      5.763      -9999      -9999      3.232      -9999      -9999      2.471      1.791      1.994      1.278      2.819      0.125985   0.125985   0.30216    0.6035401  3.082778   3.438      0.238929   0.5313582  90.772     0.5338636  0.4096969  0.6580303 
974        0.227      288.29     -9999      -9999      5.788      -9999      -9999      3.207      -9999      -9999      2.434      1.422      1.689      1.26       2.769      0.1334562  0.1334562  0.3072     0.8300251  3.026106   3.469      0.279217   0.5480205  90.264     0.5264963  0.4128127  0.6401798 
974.2000000000001 0.223      283.21     -9999      -9999      5.839      -9999      -9999      3.309      -9999      -9999      2.488      1.664      1.359      1.252      2.769      0.1346445  0.1346445  0.30944    0.8731728  2.913706   3.531      0.2906812  0.5555132  90.264     0.5296835  0.4192426  0.6401244 
974.4      0.219      276.86     -9999      -9999      5.763      -9999      -9999      3.436      -9999      -9999      2.757      2.781      2.095      1.26       2.769      0.1325293  0.1325293  0.3072     0.7978509  3.082778   3.612      0.288445   0.5559108  90.518     0.5293052  0.4096969  0.6489134 
974.6      0.219      271.78     -9999      -9999      5.738      -9999      -9999      3.436      -9999      -9999      3.309      3.899      2.959      1.298      2.642      0.1201884  0.1201884  0.29656    0.4713441  3.140511   3.679      0.2318709  0.5335905  90.899     0.5344595  0.4066047  0.6623144 
974.8      0.217      261.62     -9999      -9999      5.585      -9999      -9999      3.613      -9999      -9999      3.639      3.302      2.731      1.336      2.464      0.1125975  0.1125975  0.28592    0.3409865  3.518157   3.822      0.2013803  0.5203961  90.899     0.5252197  0.388182   0.6622573 
975        0.215      257.81     -9999      -9999      5.509      -9999      -9999      3.664      -9999      -9999      3.747      2.819      2.896      1.341      2.286      0.1104072  0.1104072  0.28452    0.310575   3.722303   3.879      0.1932227  0.5190382  91.28      0.5276147  0.3793435  0.6758859 
975.2000000000001 0.217      259.08     -9999      -9999      5.433      -9999      -9999      3.563      -9999      -9999      3.612      3.404      3.277      1.323      2.057      0.1138114  0.1138114  0.28956    0.3591049  3.938292   3.86       0.2124688  0.5284333  91.788     0.5325716  0.3707064  0.6944368 
975.4      0.221      264.16     -9999      -9999      5.534      -9999      -9999      3.41       -9999      -9999      2.944      3.429      2.527      1.295      2.057      0.1174121  0.1174121  0.2974     0.4187113  3.653875   3.786      0.2265516  0.537142   92.169     0.545418   0.3822285  0.7086074 
975.6      0.221      276.86     -9999      -9999      5.788      -9999      -9999      3.41       -9999      -9999      2.399      2.184      2.248      1.252      1.905      0.1228287  0.1228287  0.30944    0.5275251  3.026106   3.612      0.2397431  0.5454552  92.423     0.5654889  0.4128127  0.718165  
975.8      0.233      290.83     -9999      -9999      5.941      -9999      -9999      3.334      -9999      -9999      2.347      0.851      1.575      1.196      1.88       0.1352861  0.1352861  0.32512    0.8973989  2.701277   3.438      0.284709   0.5641323  92.423     0.5752541  0.4324043  0.7181039 
976        0.239      298.45     -9999      -9999      6.22       -9999      -9999      3.359      -9999      -9999      2.471      1.13       1.765      1.14       2.007      0.1438814  0.1438814  0.3408     1.294762   2.196048   3.351      0.3138687  0.5810635  92.55      0.5967231  0.470555   0.7228913 
976.2000000000001 0.239      300.99     -9999      -9999      6.627      -9999      -9999      3.385      -9999      -9999      2.581      1.194      1.829      1.12       2.108      0.1400993  0.1400993  0.3464     1.101885   1.62352    3.322      0.294894   0.5794745  92.423     0.6251538  0.5323256  0.717982  
976.4      0.241      311.15     -9999      -9999      6.855      -9999      -9999      3.309      -9999      -9999      2.562      1.27       1.956      1.145      2.108      0.1284123  0.1284123  0.3394     0.669368   1.370782   3.214      0.2274304  0.5530137  92.169     0.6393567  0.5704077  0.7083058 
976.6      0.241      325.12     -9999      -9999      6.855      -9999      -9999      3.309      -9999      -9999      2.488      1.283      1.74       1.161      2.159      0.1262892  0.1262892  0.33492    0.6114208  1.370782   3.076      0.1998202  0.5364248  91.788     0.6322145  0.5704077  0.6940215 
976.8      0.244      336.55     -9999      -9999      6.474      -9999      -9999      3.182      -9999      -9999      2.246      1.13       1.384      1.138      2.184      0.1467553  0.1467553  0.34136    1.463597   2.034576   2.971      0.2863985  0.5587744  91.788     0.5897113  0.4854605  0.6939621 
977        0.25       347.98     -9999      -9999      6.449      -9999      -9999      2.978      -9999      -9999      2.23       0.686      1.206      1.107      2.083      0.1591102  0.1591102  0.35004    2.478938   2.072172   2.874      0.3244675  0.5715143  91.28      0.5785751  0.4818445  0.6753057 
977.2000000000001 0.251      358.14     -9999      -9999      6.449      -9999      -9999      2.724      -9999      -9999      2.434      0.889      1.334      1.112      1.981      0.1592283  0.1592283  0.34864    2.49145    2.072172   2.792      0.3156708  0.5643004  91.026     0.5739749  0.4818445  0.6661053 
977.4      0.248      382.27     -9999      -9999      6.525      -9999      -9999      2.47       -9999      -9999      2.417      1.003      1.397      1.115      1.981      0.1588008  0.1588008  0.3478     2.446442   1.959982   2.616      0.292785   0.5487484  90.645     0.5727247  0.4929216  0.6525278 
977.6      0.248      408.94     -9999      -9999      6.271      -9999      -9999      2.47       -9999      -9999      2.027      0.775      1.092      1.11       1.956      0.1654201  0.1654201  0.3492     3.244435   2.360713   2.445      0.2954987  0.5415285  90.772     0.5569088  0.4568652  0.6569524 
977.8      0.246      435.61     -9999      -9999      5.712      -9999      -9999      2.267      -9999      -9999      1.702      0.686      0.927      1.107      2.007      0.1778746  0.1778746  0.35004    5.518567   3.555066   2.296      0.3188564  0.5405288  90.772     0.5217135  0.3865313  0.6568958 
978        0.246      448.31     -9999      -9999      5.636      -9999      -9999      2.14       -9999      -9999      1.536      0.61       0.787      1.097      2.159      0.1798741  0.1798741  0.35284    6.009848   3.758561   2.231      0.316304   0.5381553  91.153     0.524139   0.377845   0.670433  
978.2000000000001 0.251      444.5      -9999      -9999      5.712      -9999      -9999      2.216      -9999      -9999      1.503      0.673      0.826      1.087      2.438      0.1782003  0.1782003  0.35564    5.595776   3.555066   2.25       0.3134517  0.5406868  91.661     0.537696   0.3865313  0.6888607 
978.4      0.267      414.02     -9999      -9999      5.915      -9999      -9999      2.318      -9999      -9999      1.652      0.749      0.902      1.112      2.438      0.1640995  0.1640995  0.34864    3.066758   3.063926   2.415      0.2864416  0.5368242  92.169     0.5592136  0.4107244  0.7077029 
978.6      0.267      379.73     -9999      -9999      6.017      -9999      -9999      2.318      -9999      -9999      1.969      0.711      1.219      1.186      2.616      0.1389058  0.1389058  0.32792    1.047201   2.843378   2.633      0.2077504  0.5094222  92.55      0.5727704  0.4234463  0.7220944 
