~Version
 VERS              .         2.0                           : CWLS LOG ASCII STANDARD - VERSION 2.0
 WRAP              .         NO                            : ONE LINE PER DEPTH STEP
 DLM               .         SPACE                         : DELIMITING CHARACTER(SPACE TAB OR COMMA)
~Well Information
#_______________________________________________________________________________
#
#PARAMETER_NAME    .UNIT     VALUE                         : DESCRIPTION
#_______________________________________________________________________________
STRT               .M        880                           : First reference value
STOP               .M        1166                          : Last reference value
STEP               .M        0.2                           : Step increment
NULL               .         -9999                         : Missing value
COMP               .                                       : Company
WELL               .         4899                          : Well name
FLD                .         УЗЕНЬ                         : Field
LOC                .                                       : Location
CNTY               .                                       : County
STAT               .                                       : State
CTRY               .                                       : Country
SRVC               .         UPGF                          : Service Company
DATE               .         17.01.90                      : Date
UWI                .                                       : Unique Well ID
Block              .         7                             : 
Category           .         Нефтяная                      : 
Condition          .         В работе                      : 
Date               .         31.01.1990                    : 
EREF               .m        87.4                          : 100.8
Gorizont           .         14                            : 14
Interpretator      .         Ткачева И.Г.                  : 
Kupol              .         Основной                      : osnovnoi
Mud                .         0                             : 
Mud_density        .         0                             : 
Mud_resistivity    .         0                             : 
NGDU               .         НГДУ-2                        : 
ORIGINALWELLNAME   .         4899                          : 
Spud_date          .         1989                          : 1961
Uslovie            .         14                            : 
Viscosity          .         0                             : 
X                  .m        42099                         : 46154
Y                  .m        84004.43                      : 85761.93
YEAR               .         2019                          : 
~Parameter Information Block
#_______________________________________________________________________________
#
#PARAMETER_NAME    .UNIT     VALUE                         : DESCRIPTION
#_______________________________________________________________________________
SET                .         LQC_KAZNIPI_Petrel            : 
TLFamily_CALI      .         Caliper                       : 
TLFamily_CILD      .         Conductivity                  : 
TLFamily_COLL      .         Net Reservoir Flag            : 
TLFamily_CSAT      .         Fluid Code                    : 
TLFamily_DEPT      .         Measured Depth                : 
TLFamily_GR        .         Russian Gamma Ray             : 
TLFamily_GZ1       .         Gradient 045                  : 
TLFamily_GZ2       .         Gradient 105                  : 
TLFamily_GZ3       .         Gradient 225                  : 
TLFamily_GZ4       .         Gradient 425                  : 
TLFamily_GZ5       .         Gradient 850                  : 
TLFamily_LLS       .         Lateral Log Resistivity       : 
TLFamily_MINV      .         Micro Gradient Resistivity    : 
TLFamily_MNOR      .         Micro Resistivity             : 
TLFamily_NGLD      .         Neutron Gamma                 : 
TLFamily_OGZ       .         Gradient Inverted 225         : 
TLFamily_PHIE      .         Effective Porosity            : 
TLFamily_PHIEN     .         Effective Porosity            : 
TLFamily_PHIT      .         Porosity                      : 
TLFamily_PRMB      .         Permeability                  : 
TLFamily_PRMB_DGR  .         Permeability                  : 
TLFamily_RT        .         Formation Resistivity         : 
TLFamily_SOIL_ARCHIE .         Oil Saturation                : 
TLFamily_SOIL_DW   .         Oil Saturation                : 
TLFamily_SP        .         Spontaneous Potential         : 
TLFamily_VSH_FIN   .         Shale Volume                  : 
TLFamily_VSH_GR    .         Shale Volume                  : 
TLFamily_VSH_SP    .         Shale Volume                  : 
~Curve Information
#_______________________________________________________________________________
#
#LOGNAME           .UNIT     LOG_ID                        : DESCRIPTION
#_______________________________________________________________________________
DEPT               .M                                      : Колонка глубины 
CALI               .м                                      : Каверномер 
CILD               .мСм/м                                  : Индукционный каротаж 
COLL               .unitless                               : Описание 
CSAT               .unitless                               : Описание 
GR                 .uR/h                                   : Гамма каротаж 
GZ1                .Ohmm                                   : Градиент-зонд  длиной 0.45м 
GZ2                .Ohmm                                   : Градиент-зонд  длиной 1.05м 
GZ3                .Ohmm                                   : Градиент-зонд  длиной 2.25м 
GZ4                .Ohmm                                   : Градиент-зонд  длиной 4.5м 
GZ5                .Ohmm                                   : Градиент-зонд  длиной 8.5м 
LLS                .Ohmm                                   : Боковой каротаж 
MINV               .Ohmm                                   : Микро-градиент зонд 
MNOR               .Ohmm                                   : Микро-потенциал зонд 
NGLD               .у.е.                                   : Показания зонда НГК-60 аппаратуры ДРСТ-3-90 
OGZ                .Ohmm                                   :  
PHIE               .v/v                                    : Описание 
PHIEN              .v/v                                    :  
PHIT               .v/v                                    : Описание 
PRMB               .mD                                     :  
PRMB_DGR           .mD                                     :  
RT                 .ohmm                                   : УЭС пласта 
SOIL_ARCHIE        .v/v                                    :  
SOIL_DW            .v/v                                    :  
SP                 .мВ                                     : Потенциал самополяризации 
VSH_FIN            .v/v                                    : Описание 
VSH_GR             .v/v                                    : Shale volume 
VSH_SP             .v/v                                    : Shale Volume 
~Ascii
# ...
1124.4     0          62.23      1          2          7.49       4.953      14.986     19.972     16.129     12.827     11.52      2.223      2.921      1.346      13.462     0.2110789  0.2110789  0.28312    22.74319   11.09445   16.069     0.7645143  0.8158991  67.912     0.2183064  0.2428637  0.1937491 
1124.6     0          60.96      1          2          7.389      5.334001   15.24      21.75      15.621     12.827     8.686      1.727      2.629      1.349      10.325     0.2116979  0.2116979  0.28228    23.35164   12.47261   16.404     0.7673775  0.8176947  68.166     0.2138851  0.2315252  0.1962449 
1124.8     0          59.69      1          2          7.439      5.41       14.732     22.639     15.24      12.573     9.289      1.689      2.502      1.352      6.299      0.2097197  0.2097197  0.28144    21.46225   11.77018   16.753     0.767773   0.8185819  68.293     0.2173343  0.2370706  0.1975981 
1125       0          58.42      1          2          7.592      5.105      14.224     21.623     15.24      12.573     9.764      1.765      2.527      1.356      6.299      0.2050326  0.2050326  0.28032    17.57352   9.857143   17.117     0.7655331  0.8184054  68.674     0.2281438  0.254878   0.2014095 
1125.2     0          54.61      1          2          7.871      4.572      13.716     21.623     15.494     12.319     9.009      1.905      2.667      1.333      6.299      0.2055062  0.2055062  0.28676    17.93208   7.133145   18.312     0.7732978  0.8269175  68.674     0.2462238  0.2908647  0.2015828 
1125.4     0          59.69      1          2          7.998      4.469999   13.716     21.623     15.24      12.192     8.623      1.943      2.743      1.316      5.944      0.2072637  0.2072637  0.29152    19.32791   6.156574   16.753     0.7653782  0.8214129  68.674     0.2553221  0.3088877  0.2017564 
1125.6     0          59.69      1          2          7.998      4.42       13.589     20.353     14.859     11.811     8.374      2.083      2.705      1.311      5.817      0.2078     0.2078     0.29292    19.77512   6.156574   16.753     0.7659057  0.8221045  69.182     0.2579393  0.3088877  0.2069908 
1125.8     0          57.15      1          2          7.947      4.469999   12.827     19.083     14.478     11.176     7.956      1.918      2.489      1.293      5.257999   0.2133759  0.2133759  0.29796    25.084     6.531556   17.498     0.7758659  0.8295413  69.563     0.2563156  0.3015197  0.2111115 
1126       0          55.88      1          2          7.744      4.445      12.192     19.083     14.351     10.795     7.728      1.918      2.476      1.321      5.257999   0.2100633  0.2100633  0.29012    21.77911   8.264612   17.895     0.7751701  0.8276749  69.563     0.242596   0.2738934  0.2112987 
1126.2     0          58.42      1          2          8.024      4.343      11.938     19.083     14.732     10.414     7.504      1.93       2.636      1.34       4.801      0.1983071  0.1983071  0.2848     13.19129   5.973774   17.117     0.7586224  0.8175929  69.563     0.2620996  0.312713   0.2114862 
1126.4     0          62.23      8          2          8.1        4.42       12.192     19.083     15.494     10.008     7.504      1.93       2.591      1.361      4.369      0.190506   0.190506   0.27892    9.457838   5.469963   16.069     0.7425142  0.8062434  69.563     0.2679212  0.3241683  0.211674  
1126.6     0          63.5       8          2          8.151      4.318      12.192     19.21      16.256     9.600999   7.45       1.854      2.553      1.356      3.353      0.1903456  0.1903456  0.28032    9.393365   5.155931   15.748     0.7398737  0.8047891  69.69      0.2726496  0.3320897  0.2132095 
1126.8     0          63.5       8          2          8.049      4.216001   12.065     19.464     16.764     9.144      6.532      1.575      2.413      1.323      3.353      0.2021372  0.2021372  0.28956    15.53204   5.803124   15.748     0.7531406  0.8131522  69.69      0.2649177  0.3164357  0.2133997 
1127       0          62.23      8          2          8.151      4.216001   11.938     16.67      16.256     8.509      4.7        1.727      2.476      1.331      3.353      0.1975058  0.1975058  0.28732    12.74806   5.155931   16.069     0.7504805  0.8124018  69.563     0.2721643  0.3320897  0.212239  
1127.2     0          63.5       8          2          8.303      4.394      12.065     16.67      14.605     7.62       3.383      1.93       2.438      1.333      2.769      0.1928266  0.1928266  0.28676    10.44178   4.32293    15.748     0.7427911  0.8084096  69.563     0.2846467  0.3568656  0.2124279 
1127.4     0          64.77      8          2          8.328      4.724      12.065     16.67      11.303     6.553      3.01       1.93       2.273      1.328      2.87       0.1934944  0.1934944  0.28816    10.74345   4.199442   15.439     0.7411687  0.8073307  69.563     0.2868655  0.3611139  0.212617  
1127.6     0          68.58      8          2          8.227      4.42       10.922     14.765     9.144      5.613      3.19       1.88       2.286      1.326      3.81       0.1968049  0.1968049  0.28872    12.37263   4.721094   14.582     0.7380376  0.8033465  69.563     0.2785306  0.3442548  0.2128064 
1127.8     0          74.93      1          2          7.846      3.632      8.687      11.488     7.772      4.826      3.666      1.791      2.375      1.328      3.81       0.2058096  0.2058096  0.28816    18.16563   7.342902   13.346     0.7373562  0.797959   69.436     0.2495468  0.2874428  0.2116508 
1128       0          76.2       1          2          7.668      2.794      6.324999   7.525      7.417      4.318      3.639      2.057      2.476      1.355      4.077      0.2033386  0.2033386  0.2806     16.34867   9.02582    13.123     0.7324715  0.7920116  68.674     0.2341254  0.2642148  0.2040361 
1128.2     0          78.74      1          2          7.592      2.286      5.512      7.525      7.569      4.216001   4.061      2.299      2.781      1.356      4.851      0.20457    0.20457    0.28032    17.23019   9.857143   12.7       0.7297512  0.7889811  68.674     0.2295456  0.254878   0.2042132 
1128.4     0          81.28      1          2          7.516      2.083      5.207      7.525      8.103      4.469999   4.875      2.21       2.858      1.377      5.182001   0.2001468  0.2001468  0.27444    14.26797   10.76504   12.303     0.7204212  0.78095    68.674     0.225131   0.2458713  0.2043906 
1128.6     0          88.9       1          2          7.465      2.235      4.902      7.296      8.788      4.801      5.094      2.426      2.756      1.371      5.182001   0.2027652  0.2027652  0.27612    15.95367   11.4207    11.249     0.7117024  0.7729614  68.674     0.2222874  0.2400065  0.2045683 
1128.8     0          107.95     1          2          7.592      2.159      4.572      7.296      9.423      5.131      4.565      2.616      3.01       1.359      5.182001   0.2032191  0.2032191  0.27948    16.26558   9.857143   9.264      0.6848182  0.7518126  68.928     0.2310935  0.254878   0.207309  
1129       0          142.24     1          2          7.541      2.464      4.597      6.712      9.246      5.385      4.061      2.731      3.213      1.328      5.41       0.2119991  0.2119991  0.28816    23.65351   10.45752   7.03       0.6542196  0.725015   69.436     0.2307907  0.2487984  0.212783  
1129.2     0          176.53     1          2          7.592      2.87       4.978      6.712      8.738      5.563      3.803      2.642      3.061      1.303      5.283      0.2179647  0.2179647  0.29516    30.5065    9.857143   5.665      0.6264924  0.7014021  69.436     0.2339253  0.254878   0.2129726 
1129.4     0          201.93     1          2          7.744      3.302      5.283      6.712      8.56       5.664      3.509      2.273      2.68       1.288      4.851      0.2189958  0.2189958  0.29936    31.87801   8.264612   4.952      0.6037874  0.6838769  69.436     0.2435279  0.2738934  0.2131625 
