~Version
 VERS              .         2.0                           : CWLS LOG ASCII STANDARD - VERSION 2.0
 WRAP              .         NO                            : ONE LINE PER DEPTH STEP
 DLM               .         SPACE                         : DELIMITING CHARACTER(SPACE TAB OR COMMA)
~Well Information
#_______________________________________________________________________________
#
#PARAMETER_NAME    .UNIT     VALUE                         : DESCRIPTION
#_______________________________________________________________________________
STRT               .M        880                           : First reference value
STOP               .M        1166                          : Last reference value
STEP               .M        0.2                           : Step increment
NULL               .         -9999                         : Missing value
COMP               .                                       : Company
WELL               .         4899                          : Well name
FLD                .         УЗЕНЬ                         : Field
LOC                .                                       : Location
CNTY               .                                       : County
STAT               .                                       : State
CTRY               .                                       : Country
SRVC               .         UPGF                          : Service Company
DATE               .         17.01.90                      : Date
UWI                .                                       : Unique Well ID
Block              .         7                             : 
Category           .         Нефтяная                      : 
Condition          .         В работе                      : 
Date               .         31.01.1990                    : 
EREF               .m        87.4                          : 100.8
Gorizont           .         14                            : 14
Interpretator      .         Ткачева И.Г.                  : 
Kupol              .         Основной                      : osnovnoi
Mud                .         0                             : 
Mud_density        .         0                             : 
Mud_resistivity    .         0                             : 
NGDU               .         НГДУ-2                        : 
ORIGINALWELLNAME   .         4899                          : 
Spud_date          .         1989                          : 1961
Uslovie            .         14                            : 
Viscosity          .         0                             : 
X                  .m        42099                         : 46154
Y                  .m        84004.43                      : 85761.93
YEAR               .         2019                          : 
~Parameter Information Block
#_______________________________________________________________________________
#
#PARAMETER_NAME    .UNIT     VALUE                         : DESCRIPTION
#_______________________________________________________________________________
SET                .         LQC_KAZNIPI_Petrel            : 
TLFamily_CALI      .         Caliper                       : 
TLFamily_CILD      .         Conductivity                  : 
TLFamily_COLL      .         Net Reservoir Flag            : 
TLFamily_CSAT      .         Fluid Code                    : 
TLFamily_DEPT      .         Measured Depth                : 
TLFamily_GR        .         Russian Gamma Ray             : 
TLFamily_GZ1       .         Gradient 045                  : 
TLFamily_GZ2       .         Gradient 105                  : 
TLFamily_GZ3       .         Gradient 225                  : 
TLFamily_GZ4       .         Gradient 425                  : 
TLFamily_GZ5       .         Gradient 850                  : 
TLFamily_LLS       .         Lateral Log Resistivity       : 
TLFamily_MINV      .         Micro Gradient Resistivity    : 
TLFamily_MNOR      .         Micro Resistivity             : 
TLFamily_NGLD      .         Neutron Gamma                 : 
TLFamily_OGZ       .         Gradient Inverted 225         : 
TLFamily_PHIE      .         Effective Porosity            : 
TLFamily_PHIEN     .         Effective Porosity            : 
TLFamily_PHIT      .         Porosity                      : 
TLFamily_PRMB      .         Permeability                  : 
TLFamily_PRMB_DGR  .         Permeability                  : 
TLFamily_RT        .         Formation Resistivity         : 
TLFamily_SOIL_ARCHIE .         Oil Saturation                : 
TLFamily_SOIL_DW   .         Oil Saturation                : 
TLFamily_SP        .         Spontaneous Potential         : 
TLFamily_VSH_FIN   .         Shale Volume                  : 
TLFamily_VSH_GR    .         Shale Volume                  : 
TLFamily_VSH_SP    .         Shale Volume                  : 
~Curve Information
#_______________________________________________________________________________
#
#LOGNAME           .UNIT     LOG_ID                        : DESCRIPTION
#_______________________________________________________________________________
DEPT               .M                                      : Колонка глубины 
CALI               .м                                      : Каверномер 
CILD               .мСм/м                                  : Индукционный каротаж 
COLL               .unitless                               : Описание 
CSAT               .unitless                               : Описание 
GR                 .uR/h                                   : Гамма каротаж 
GZ1                .Ohmm                                   : Градиент-зонд  длиной 0.45м 
GZ2                .Ohmm                                   : Градиент-зонд  длиной 1.05м 
GZ3                .Ohmm                                   : Градиент-зонд  длиной 2.25м 
GZ4                .Ohmm                                   : Градиент-зонд  длиной 4.5м 
GZ5                .Ohmm                                   : Градиент-зонд  длиной 8.5м 
LLS                .Ohmm                                   : Боковой каротаж 
MINV               .Ohmm                                   : Микро-градиент зонд 
MNOR               .Ohmm                                   : Микро-потенциал зонд 
NGLD               .у.е.                                   : Показания зонда НГК-60 аппаратуры ДРСТ-3-90 
OGZ                .Ohmm                                   :  
PHIE               .v/v                                    : Описание 
PHIEN              .v/v                                    :  
PHIT               .v/v                                    : Описание 
PRMB               .mD                                     :  
PRMB_DGR           .mD                                     :  
RT                 .ohmm                                   : УЭС пласта 
SOIL_ARCHIE        .v/v                                    :  
SOIL_DW            .v/v                                    :  
SP                 .мВ                                     : Потенциал самополяризации 
VSH_FIN            .v/v                                    : Описание 
VSH_GR             .v/v                                    : Shale volume 
VSH_SP             .v/v                                    : Shale Volume 
~Ascii
# ...
1010       0.272      425.45     -9999      -9999      5.814      -9999      -9999      2.013      -9999      -9999      2.013      0.559      0.914      1.234      4.978      0.1507025  0.1507025  0.31448    1.731943   3.299165   2.35       0.2215981  0.482996   87.343     0.4962956  0.3985038  0.5940873 
1010.2     0.256      387.35     -9999      -9999      5.357      -9999      -9999      2.166      -9999      -9999      2.696      0.622      1.905      1.323      5.08       0.1380226  0.1380226  0.28956    1.008492   4.610679   2.582      0.1959913  0.4632343  86.581     0.4592041  0.3475977  0.5708106 
1010.4     0.24       347.98     -9999      -9999      5.001      -9999      -9999      2.318      -9999      -9999      3.483      1.181      2.921      1.384      5.08       0.132335   0.132335   0.27248    0.7912662  5.984114   2.874      0.2068726  0.4631816  85.438     0.424682   0.3124923  0.5368717 
1010.6     0.24       325.12     -9999      -9999      4.62       -9999      -9999      2.343      -9999      -9999      3.408      2.908      3.429      1.427      5.232      0.132909   0.132909   0.26044    0.8108789  7.910187   3.076      0.2346456  0.4673441  83.914     0.3864574  0.2788397  0.4940751 
1010.8     0.228      314.96     -9999      -9999      4.391      -9999      -9999      2.343      -9999      -9999      2.696      1.384      1.105      1.458      5.385      0.1271205  0.1271205  0.25176    0.6334882  9.354615   3.175      0.2161193  0.4554095  83.914     0.3776954  0.2603825  0.4950084 
1011       0.222      302.26     -9999      -9999      4.391      -9999      -9999      2.191      -9999      -9999      2.658      1.867      1.689      1.537      5.257999   0.1120981  0.1120981  0.22964    0.3338001  9.354615   3.308      0.1420616  0.4074422  82.263     0.3561877  0.2603825  0.4519928 
1011.2     0.219      269.24     -9999      -9999      4.01       -9999      -9999      2.089      -9999      -9999      4.151      3.924      2.705      1.671      4.902      0.08572516 0.08572516 0.19212    0.1083917  12.36553   3.714      0          0.3084573  80.612     0.3224086  0.2323417  0.4124755 
1011.4     0.216      237.49     -9999      -9999      3.299      -9999      -9999      2.318      -9999      -9999      4.84       4.89       3.721      1.788      4.902      0.06353199 0.06353199 0.15936    0.04206536 20.81444   4.211      0          0.183851   79.723     0.2903879  0.1878373  0.3929386 
1011.6     0.216      223.52     -9999      -9999      2.944      -9999      -9999      2.699      -9999      -9999      4.433      4.953      4.267      1.829      4.572      0.05824685 0.05824685 0.14788    0.03357616 26.9949    4.474      0          0.1429885  78.834     0.2716156  0.1689173  0.3743139 
1011.8     0.214      210.82     -9999      -9999      2.893      -9999      -9999      2.699      -9999      -9999      4.401      4.915      3.823      1.844      4.216001   0.05435042 0.05435042 0.14368    0.02843542 28.02229   4.743      0          0.1307643  78.834     0.2706957  0.1663605  0.3750309 
1012       0.211      201.93     -9999      -9999      2.867      -9999      -9999      3.232      -9999      -9999      4.666      5.004      4.064      1.846      3.962      0.05388451 0.05388451 0.14312    0.02787596 28.56101   4.952      0          0.1445391  78.834     0.2704106  0.1650719  0.3757493 
1012.2     0.212      190.5      -9999      -9999      2.918      -9999      -9999      3.893      -9999      -9999      4.734      4.978      3.924      1.831      3.759      0.05480086 0.05480086 0.14732    0.02898698 27.51387   5.249      0          0.1893025  79.596     0.2803611  0.1676089  0.3931132 
1012.4     0.212      185.42     -9999      -9999      3.096      -9999      -9999      4.502      -9999      -9999      4.84       4.978      4.204      1.788      3.759      0.06085221 0.06085221 0.15936    0.03752223 24.15095   5.393      0          0.2675117  80.739     0.2985085  0.176773   0.4202439 
1012.6     0.212      185.42     -9999      -9999      3.426      -9999      -9999      4.858      -9999      -9999      5.441      4.978      4.42       1.732      3.556      0.06926487 0.06926487 0.17504    0.05371698 18.96571   5.393      0          0.3416408  81.755     0.3205307  0.1951087  0.4459526 
1012.8     0.211      190.5      -9999      -9999      3.782      -9999      -9999      4.858      -9999      -9999      5.169      4.966      4.89       1.659      3.353      0.08594812 0.08594812 0.19548    0.1094273  14.61283   5.249      0.1293606  0.4251412  81.755     0.3319148  0.2170273  0.4468022 
1013       0.211      200.66     -9999      -9999      4.087      -9999      -9999      4.756      -9999      -9999      3.561      1.587      3.543      1.6        3.277      0.09343287 0.09343287 0.212      0.150578   11.68749   4.984      0.1705076  0.456508   83.025     0.3592943  0.2377541  0.4808345 
1013.2     0.212      208.28     -9999      -9999      4.518      -9999      -9999      5.035999   -9999      -9999      3.01       2.515      2.934      1.516      3.277      0.1085267  0.1085267  0.23552    0.2866394  8.523744   4.801      0.2590445  0.5098005  83.66      0.3848282  0.2704623  0.499194  
1013.4     0.213      207.01     -9999      -9999      4.772      -9999      -9999      5.366      -9999      -9999      3.747      4.343      3.531      1.486      3.277      0.1114743  0.1114743  0.24392    0.3250365  7.076834   4.831      0.2782506  0.5266861  84.041     0.4013507  0.2918075  0.5108939 
1013.6     0.213      208.28     -9999      -9999      4.696      -9999      -9999      5.493      -9999      -9999      4.212      4.978      3.937      1.417      3.124      0.1299055  0.1299055  0.26324    0.7133842  7.481917   4.801      0.3664534  0.5726979  84.422     0.4040438  0.2852499  0.5228377 
1013.8     0.212      218.44     -9999      -9999      4.976      -9999      -9999      5.493      -9999      -9999      4.369      3.823      4.306      1.369      2.921      0.1390727  0.1390727  0.27668    1.054682   6.094692   4.578      0.3895093  0.5866009  84.422     0.4169919  0.3101646  0.5238193 
1014       0.214      242.57     -9999      -9999      5.458      -9999      -9999      5.29       -9999      -9999      3.561      0.775      1.308      1.298      2.718      0.1502415  0.1502415  0.29656    1.698223   4.281925   4.123      0.4004931  0.594817   84.549     0.4433895  0.3582572  0.5285218 
1014.2     0.216      269.24     -9999      -9999      5.992      -9999      -9999      4.833      -9999      -9999      2.488      0.597      1.08       1.232      2.743      0.1570813  0.1570813  0.31504    2.27345    2.89592    3.714      0.3943166  0.5956605  84.803     0.4786626  0.4202922  0.537033  
1014.4     0.239      293.37     -9999      -9999      6.601      -9999      -9999      4.248      -9999      -9999      2.088      0.756      1.092      1.161      2.743      0.1629419  0.1629419  0.33492    2.919024   1.853866   3.409      0.3892634  0.599259   84.803     0.5211457  0.5042533  0.538038  
1014.6     0.239      308.61     -9999      -9999      6.576      -9999      -9999      3.639      -9999      -9999      1.899      0.635      1.143      1.14       3.073      0.1692756  0.1692756  0.3408     3.824302   1.888123   3.24       0.394949   0.5992259  84.803     0.519771   0.5004974  0.5390447 
1014.8     0.247      318.77     -9999      -9999      6.347      -9999      -9999      3.639      -9999      -9999      1.844      1.448      1.613      1.173      3.454      0.1653356  0.1653356  0.33156    3.232765   2.232902   3.137      0.3729762  0.581981   84.803     0.5037104  0.4673681  0.5400527 
1015       0.24       326.39     -9999      -9999      5.966      -9999      -9999      3.258      -9999      -9999      2.658      3.2        3.086      1.247      3.835      0.1521233  0.1521233  0.31084    1.840137   2.951594   3.064      0.3183121  0.5455814  84.93      0.4809598  0.4170368  0.5448828 
