~Version
 VERS              .         2.0                           : CWLS LOG ASCII STANDARD - VERSION 2.0
 WRAP              .         NO                            : ONE LINE PER DEPTH STEP
 DLM               .         SPACE                         : DELIMITING CHARACTER(SPACE TAB OR COMMA)
~Well Information
#_______________________________________________________________________________
#
#PARAMETER_NAME    .UNIT     VALUE                         : DESCRIPTION
#_______________________________________________________________________________
STRT               .M        880                           : First reference value
STOP               .M        1166                          : Last reference value
STEP               .M        0.2                           : Step increment
NULL               .         -9999                         : Missing value
COMP               .                                       : Company
WELL               .         4899                          : Well name
FLD                .         УЗЕНЬ                         : Field
LOC                .                                       : Location
CNTY               .                                       : County
STAT               .                                       : State
CTRY               .                                       : Country
SRVC               .         UPGF                          : Service Company
DATE               .         17.01.90                      : Date
UWI                .                                       : Unique Well ID
Block              .         7                             : 
Category           .         Нефтяная                      : 
Condition          .         В работе                      : 
Date               .         31.01.1990                    : 
EREF               .m        87.4                          : 100.8
Gorizont           .         14                            : 14
Interpretator      .         Ткачева И.Г.                  : 
Kupol              .         Основной                      : osnovnoi
Mud                .         0                             : 
Mud_density        .         0                             : 
Mud_resistivity    .         0                             : 
NGDU               .         НГДУ-2                        : 
ORIGINALWELLNAME   .         4899                          : 
Spud_date          .         1989                          : 1961
Uslovie            .         14                            : 
Viscosity          .         0                             : 
X                  .m        42099                         : 46154
Y                  .m        84004.43                      : 85761.93
YEAR               .         2019                          : 
~Parameter Information Block
#_______________________________________________________________________________
#
#PARAMETER_NAME    .UNIT     VALUE                         : DESCRIPTION
#_______________________________________________________________________________
SET                .         LQC_KAZNIPI_Petrel            : 
TLFamily_CALI      .         Caliper                       : 
TLFamily_CILD      .         Conductivity                  : 
TLFamily_COLL      .         Net Reservoir Flag            : 
TLFamily_CSAT      .         Fluid Code                    : 
TLFamily_DEPT      .         Measured Depth                : 
TLFamily_GR        .         Russian Gamma Ray             : 
TLFamily_GZ1       .         Gradient 045                  : 
TLFamily_GZ2       .         Gradient 105                  : 
TLFamily_GZ3       .         Gradient 225                  : 
TLFamily_GZ4       .         Gradient 425                  : 
TLFamily_GZ5       .         Gradient 850                  : 
TLFamily_LLS       .         Lateral Log Resistivity       : 
TLFamily_MINV      .         Micro Gradient Resistivity    : 
TLFamily_MNOR      .         Micro Resistivity             : 
TLFamily_NGLD      .         Neutron Gamma                 : 
TLFamily_OGZ       .         Gradient Inverted 225         : 
TLFamily_PHIE      .         Effective Porosity            : 
TLFamily_PHIEN     .         Effective Porosity            : 
TLFamily_PHIT      .         Porosity                      : 
TLFamily_PRMB      .         Permeability                  : 
TLFamily_PRMB_DGR  .         Permeability                  : 
TLFamily_RT        .         Formation Resistivity         : 
TLFamily_SOIL_ARCHIE .         Oil Saturation                : 
TLFamily_SOIL_DW   .         Oil Saturation                : 
TLFamily_SP        .         Spontaneous Potential         : 
TLFamily_VSH_FIN   .         Shale Volume                  : 
TLFamily_VSH_GR    .         Shale Volume                  : 
TLFamily_VSH_SP    .         Shale Volume                  : 
~Curve Information
#_______________________________________________________________________________
#
#LOGNAME           .UNIT     LOG_ID                        : DESCRIPTION
#_______________________________________________________________________________
DEPT               .M                                      : Колонка глубины 
CALI               .м                                      : Каверномер 
CILD               .мСм/м                                  : Индукционный каротаж 
COLL               .unitless                               : Описание 
CSAT               .unitless                               : Описание 
GR                 .uR/h                                   : Гамма каротаж 
GZ1                .Ohmm                                   : Градиент-зонд  длиной 0.45м 
GZ2                .Ohmm                                   : Градиент-зонд  длиной 1.05м 
GZ3                .Ohmm                                   : Градиент-зонд  длиной 2.25м 
GZ4                .Ohmm                                   : Градиент-зонд  длиной 4.5м 
GZ5                .Ohmm                                   : Градиент-зонд  длиной 8.5м 
LLS                .Ohmm                                   : Боковой каротаж 
MINV               .Ohmm                                   : Микро-градиент зонд 
MNOR               .Ohmm                                   : Микро-потенциал зонд 
NGLD               .у.е.                                   : Показания зонда НГК-60 аппаратуры ДРСТ-3-90 
OGZ                .Ohmm                                   :  
PHIE               .v/v                                    : Описание 
PHIEN              .v/v                                    :  
PHIT               .v/v                                    : Описание 
PRMB               .mD                                     :  
PRMB_DGR           .mD                                     :  
RT                 .ohmm                                   : УЭС пласта 
SOIL_ARCHIE        .v/v                                    :  
SOIL_DW            .v/v                                    :  
SP                 .мВ                                     : Потенциал самополяризации 
VSH_FIN            .v/v                                    : Описание 
VSH_GR             .v/v                                    : Shale volume 
VSH_SP             .v/v                                    : Shale Volume 
~Ascii
# ...
937.2000000000001 0.207      181.61     -9999      -9999      4.112      -9999      -9999      5.849      -9999      -9999      4.337      4.318      4.077      1.387      4.445      0.1256142  0.1256142  0.27164    0.5940698  8.720963   5.506      0.3882675  0.6036531  88.74      0.4425025  0.2679479  0.6170571 
937.4      0.208      186.69     -9999      -9999      4.341      -9999      -9999      5.671      -9999      -9999      3.509      3.391      3.353      1.364      4.445      0.1274195  0.1274195  0.27808    0.6416173  7.323677   5.356      0.3879411  0.6060904  88.994     0.4565471  0.2877507  0.6253434 
937.6      0.208      177.8      -9999      -9999      4.569      -9999      -9999      5.671      -9999      -9999      4.181      2.87       2.4        1.346      4.42       0.1283012  0.1283012  0.28312    0.6662042  6.15496    5.624      0.4053872  0.6208597  89.121     0.469148   0.3089208  0.629375  
937.8      0.209      168.91     -9999      -9999      4.417      -9999      -9999      5.899      -9999      -9999      5.896      4.14       3.683      1.382      4.369      0.1191873  0.1191873  0.27304    0.4516438  6.911323   5.92       0.3810553  0.6114206  89.375     0.4662203  0.2946411  0.6377996 
938        0.209      168.91     -9999      -9999      4.315      -9999      -9999      6.331      -9999      -9999      6.483      4.699      4.966      1.412      4.191      0.1123559  0.1123559  0.26464    0.3374903  7.470318   5.92       0.3484045  0.5949392  89.375     0.4614671  0.2854307  0.6375036 
938.2000000000001 0.209      173.99     -9999      -9999      4.264      -9999      -9999      6.585      -9999      -9999      6.251      4.14       4.356      1.412      3.734      0.1124218  0.1124218  0.26464    0.3384403  7.766551   5.747      0.3396098  0.5889767  89.502     0.4612674  0.2809339  0.6416009 
938.4      0.208      184.15     -9999      -9999      4.341      -9999      -9999      6.152999   -9999      -9999      4.84       3.912      4.089      1.331      3.734      0.1325644  0.1325644  0.28732    0.7990474  7.323677   5.43       0.412478   0.6223474  89.756     0.4689564  0.2877507  0.650162  
938.6      0.208      196.85     -9999      -9999      4.569      -9999      -9999      6.152999   -9999      -9999      3.408      3.238      3.327      1.26       3.226      0.1482641  0.1482641  0.3072     1.560875   6.15496    5.08       0.4501215  0.6410021  89.883     0.4816241  0.3089208  0.6543273 
938.8      0.208      227.33     -9999      -9999      4.823      -9999      -9999      5.62       -9999      -9999      2.757      2.769      2.299      1.219      2.896      0.1555991  0.1555991  0.31868    2.134183   5.071204   4.399      0.4359271  0.6297541  89.883     0.4941844  0.3343442  0.6540247 
939        0.209      236.22     -9999      -9999      5.077      -9999      -9999      5.112      -9999      -9999      2.696      2.68       2.375      1.211      3.048      0.1533489  0.1533489  0.32092    1.938885   4.178274   4.233      0.4183193  0.6221034  89.883     0.5077912  0.3618599  0.6537225 
939.2000000000001 0.209      238.76     -9999      -9999      5.255      -9999      -9999      5.01       -9999      -9999      2.797      2.794      2.045      1.227      3.404      0.144776   0.144776   0.31644    1.345122   3.647965   4.188      0.3853574  0.6083117  90.01      0.5201938  0.3824812  0.6579065 
939.4      0.21       233.68     -9999      -9999      5.255      -9999      -9999      4.96       -9999      -9999      3.432      3.073      2.489      1.252      3.404      0.1385661  0.1385661  0.30944    1.032141   3.647965   4.279      0.3678438  0.6005274  89.883     0.5177996  0.3824812  0.6531181 
939.6      0.21       241.3      -9999      -9999      5.026      -9999      -9999      4.96       -9999      -9999      4.243      3.48       3.099      1.262      3.734      0.1401591  0.1401591  0.30664    1.1047     4.343962   4.144      0.364619   0.593508   89.883     0.5044876  0.3561591  0.6528162 
939.8      0.209      252.73     -9999      -9999      4.976      -9999      -9999      4.858      -9999      -9999      3.262      3.556      3.302      1.239      3.683      0.1482919  0.1482919  0.31308    1.562729   4.512776   3.957      0.3818275  0.5980173  89.756     0.499358   0.3506573  0.6480587 
940        0.209      248.92     -9999      -9999      4.95       -9999      -9999      4.756      -9999      -9999      3.358      3.505      2.426      1.219      3.429      0.1544079  0.1544079  0.31868    2.028463   4.603138   4.017      0.4074082  0.6114106  89.756     0.4977942  0.3478301  0.6477584 
940.2000000000001 0.211      243.84     -9999      -9999      5.001      -9999      -9999      4.68       -9999      -9999      3.859      3.429      3.086      1.222      3.251      0.1512253  0.1512253  0.31784    1.770997   4.427564   4.101      0.402393   0.6117151  90.01      0.504893   0.3533975  0.6563885 
940.4      0.212      247.65     -9999      -9999      5.255      -9999      -9999      4.553      -9999      -9999      3.358      4.064      3.061      1.234      3.251      0.1401203  0.1401203  0.31448    1.102873   3.647965   4.038      0.3566908  0.5946119  90.518     0.5283628  0.3824812  0.6742444 
940.6      0.212      252.73     -9999      -9999      5.23       -9999      -9999      4.553      -9999      -9999      3.333      4.001      2.972      1.237      3.2        0.1375296  0.1375296  0.31364    0.9875075  3.718173   3.957      0.3399023  0.5869308  90.899     0.5336678  0.3795155  0.6878201 
940.8      0.213      259.08     -9999      -9999      5.331      -9999      -9999      4.325      -9999      -9999      2.838      3.34       2.426      1.229      3.353      0.1378211  0.1378211  0.31588    0.9998597  3.44257    3.86       0.3333996  0.5839656  90.899     0.5395725  0.39164    0.687505  
941        0.213      256.54     -9999      -9999      5.458      -9999      -9999      4.121      -9999      -9999      2.817      2.832      2.248      1.25       3.48       0.1270586  0.1270586  0.31       0.6318169  3.124825   3.898      0.2877641  0.5683064  91.28      0.554368   0.4074369  0.7012991 
941.2000000000001 0.213      248.92     -9999      -9999      5.509      -9999      -9999      3.969      -9999      -9999      3.333      3.289      2.807      1.283      3.556      0.1152223  0.1152223  0.30076    0.3813763  3.005637   4.017      0.235315   0.5508257  91.534     0.5622356  0.4139584  0.7105128 
941.4      0.213      247.65     -9999      -9999      5.255      -9999      -9999      3.867      -9999      -9999      3.774      3.835      3.048      1.3        3.556      0.1149166  0.1149166  0.296      0.3764365  3.647965   4.038      0.2354168  0.5469627  91.661     0.5487377  0.3824812  0.7149943 
941.6      0.213      240.03     -9999      -9999      5.001      -9999      -9999      3.867      -9999      -9999      3.944      3.175      3.035      1.318      3.531      0.1139322  0.1139322  0.29096    0.3609602  4.427564   4.166      0.2408654  0.5476517  91.788     0.5364478  0.3533975  0.7194982 
941.8      0.213      238.76     -9999      -9999      4.899      -9999      -9999      3.969      -9999      -9999      3.747      2.832      2.896      1.346      3.454      0.107969   0.107969   0.28312    0.2799014  4.785671   4.188      0.2064393  0.5319144  91.788     0.5307608  0.3423504  0.7191712 
942        0.213      241.3      -9999      -9999      4.849      -9999      -9999      4.096      -9999      -9999      3.72       3.061      3.073      1.366      3.353      0.1032955  0.1032955  0.27752    0.2293197  4.971653   4.144      0.1711611  0.5157589  91.788     0.527953   0.3370619  0.7188441 
942.2000000000001 0.212      243.84     -9999      -9999      4.899      -9999      -9999      4.045      -9999      -9999      3.83       3.061      2.718      1.369      3.251      0.1000317  0.1000317  0.27668    0.1995209  4.785671   4.101      0.1434748  0.5066894  92.042     0.5352978  0.3423504  0.7282453 
