~Version
 VERS              .         2.0                           : CWLS LOG ASCII STANDARD - VERSION 2.0
 WRAP              .         NO                            : ONE LINE PER DEPTH STEP
 DLM               .         SPACE                         : DELIMITING CHARACTER(SPACE TAB OR COMMA)
~Well Information
#_______________________________________________________________________________
#
#PARAMETER_NAME    .UNIT     VALUE                         : DESCRIPTION
#_______________________________________________________________________________
STRT               .M        880                           : First reference value
STOP               .M        1166                          : Last reference value
STEP               .M        0.2                           : Step increment
NULL               .         -9999                         : Missing value
COMP               .                                       : Company
WELL               .         4899                          : Well name
FLD                .         УЗЕНЬ                         : Field
LOC                .                                       : Location
CNTY               .                                       : County
STAT               .                                       : State
CTRY               .                                       : Country
SRVC               .         UPGF                          : Service Company
DATE               .         17.01.90                      : Date
UWI                .                                       : Unique Well ID
Block              .         7                             : 
Category           .         Нефтяная                      : 
Condition          .         В работе                      : 
Date               .         31.01.1990                    : 
EREF               .m        87.4                          : 100.8
Gorizont           .         14                            : 14
Interpretator      .         Ткачева И.Г.                  : 
Kupol              .         Основной                      : osnovnoi
Mud                .         0                             : 
Mud_density        .         0                             : 
Mud_resistivity    .         0                             : 
NGDU               .         НГДУ-2                        : 
ORIGINALWELLNAME   .         4899                          : 
Spud_date          .         1989                          : 1961
Uslovie            .         14                            : 
Viscosity          .         0                             : 
X                  .m        42099                         : 46154
Y                  .m        84004.43                      : 85761.93
YEAR               .         2019                          : 
~Parameter Information Block
#_______________________________________________________________________________
#
#PARAMETER_NAME    .UNIT     VALUE                         : DESCRIPTION
#_______________________________________________________________________________
SET                .         LQC_KAZNIPI_Petrel            : 
TLFamily_CALI      .         Caliper                       : 
TLFamily_CILD      .         Conductivity                  : 
TLFamily_COLL      .         Net Reservoir Flag            : 
TLFamily_CSAT      .         Fluid Code                    : 
TLFamily_DEPT      .         Measured Depth                : 
TLFamily_GR        .         Russian Gamma Ray             : 
TLFamily_GZ1       .         Gradient 045                  : 
TLFamily_GZ2       .         Gradient 105                  : 
TLFamily_GZ3       .         Gradient 225                  : 
TLFamily_GZ4       .         Gradient 425                  : 
TLFamily_GZ5       .         Gradient 850                  : 
TLFamily_LLS       .         Lateral Log Resistivity       : 
TLFamily_MINV      .         Micro Gradient Resistivity    : 
TLFamily_MNOR      .         Micro Resistivity             : 
TLFamily_NGLD      .         Neutron Gamma                 : 
TLFamily_OGZ       .         Gradient Inverted 225         : 
TLFamily_PHIE      .         Effective Porosity            : 
TLFamily_PHIEN     .         Effective Porosity            : 
TLFamily_PHIT      .         Porosity                      : 
TLFamily_PRMB      .         Permeability                  : 
TLFamily_PRMB_DGR  .         Permeability                  : 
TLFamily_RT        .         Formation Resistivity         : 
TLFamily_SOIL_ARCHIE .         Oil Saturation                : 
TLFamily_SOIL_DW   .         Oil Saturation                : 
TLFamily_SP        .         Spontaneous Potential         : 
TLFamily_VSH_FIN   .         Shale Volume                  : 
TLFamily_VSH_GR    .         Shale Volume                  : 
TLFamily_VSH_SP    .         Shale Volume                  : 
~Curve Information
#_______________________________________________________________________________
#
#LOGNAME           .UNIT     LOG_ID                        : DESCRIPTION
#_______________________________________________________________________________
DEPT               .M                                      : Колонка глубины 
CALI               .м                                      : Каверномер 
CILD               .мСм/м                                  : Индукционный каротаж 
COLL               .unitless                               : Описание 
CSAT               .unitless                               : Описание 
GR                 .uR/h                                   : Гамма каротаж 
GZ1                .Ohmm                                   : Градиент-зонд  длиной 0.45м 
GZ2                .Ohmm                                   : Градиент-зонд  длиной 1.05м 
GZ3                .Ohmm                                   : Градиент-зонд  длиной 2.25м 
GZ4                .Ohmm                                   : Градиент-зонд  длиной 4.5м 
GZ5                .Ohmm                                   : Градиент-зонд  длиной 8.5м 
LLS                .Ohmm                                   : Боковой каротаж 
MINV               .Ohmm                                   : Микро-градиент зонд 
MNOR               .Ohmm                                   : Микро-потенциал зонд 
NGLD               .у.е.                                   : Показания зонда НГК-60 аппаратуры ДРСТ-3-90 
OGZ                .Ohmm                                   :  
PHIE               .v/v                                    : Описание 
PHIEN              .v/v                                    :  
PHIT               .v/v                                    : Описание 
PRMB               .mD                                     :  
PRMB_DGR           .mD                                     :  
RT                 .ohmm                                   : УЭС пласта 
SOIL_ARCHIE        .v/v                                    :  
SOIL_DW            .v/v                                    :  
SP                 .мВ                                     : Потенциал самополяризации 
VSH_FIN            .v/v                                    : Описание 
VSH_GR             .v/v                                    : Shale volume 
VSH_SP             .v/v                                    : Shale Volume 
~Ascii
# ...
1088       0.285      387.35     -9999      -9999      8.938      1.549      2.54       2.547      2.591      1.981      2.246      2.362      1.88       1.112      2.438      0.1248907  0.1248907  0.34864    0.5760186  0.9873435  2.582      0.1228421  0.5050052  88.232     0.6780282  0.6521881  0.7038683 
1088.2     0.285      387.35     -9999      -9999      8.786      1.549      2.54       2.42       2.515      1.981      2.246      2.426      1.956      1.135      2.438      0.1228315  0.1228315  0.3422     0.5275883  1.090669   2.582      0.1100485  0.4960482  88.232     0.6647531  0.626214   0.7032921 
1088.4     0.278      388.62     -9999      -9999      8.963      1.499      2.515      2.42       2.438      1.981      2.198      2.172      1.803      1.128      2.489      0.119879   0.119879   0.34416    0.4651663  0.9713124  2.573      0.08949799 0.4927253  88.232     0.6796393  0.6565623  0.7027164 
1088.6     0.276      388.62     -9999      -9999      9.04       1.473      2.489      2.42       2.388      1.981      2.181      2.553      1.664      1.125      2.489      0.1185605  0.1185605  0.345      0.4397294  0.9235536  2.573      0.08068503 0.4915746  88.232     0.6861804  0.6702196  0.7021412 
1088.8     0.28       386.08     -9999      -9999      9.192      1.575      2.54       2.369      2.362      1.956      2.181      1.93       1.791      1.13       2.565      0.1126684  0.1126684  0.3436     0.3420192  0.8360592  2.59       0.04191699 0.4828735  88.232     0.6997927  0.6980191  0.7015662 
1089       0.28       384.81     -9999      -9999      9.243      1.549      2.54       2.343      2.311      1.88       2.166      2.197      1.778      1.14       2.565      0.1060158  0.1060158  0.3408     0.2575296  0.8086007  2.599      0          0.4701253  88.613     0.7114674  0.7076025  0.7153323 
1089.2     0.28       384.81     -9999      -9999      8.938      1.448      2.515      2.318      2.286      1.829      2.149      2.413      1.6        1.14       2.565      0.1152555  0.1152555  0.3408     0.3819169  0.9873435  2.599      0.06220231 0.4850351  88.613     0.6834683  0.6521881  0.7147484 
1089.4     0.279      383.54     -9999      -9999      8.963      1.422      2.464      2.318      2.235      1.854      2.181      2.527      1.854      1.12       2.616      0.1202299  0.1202299  0.3464     0.4721806  0.9713124  2.607      0.09739055 0.4986796  88.613     0.6853638  0.6565623  0.7141653 
1089.6     0.268      379.73     -9999      -9999      8.938      1.448      2.413      2.318      2.21       1.829      2.246      3.162      2.032      1.11       2.743      0.151928   0.151928   0.3492     1.824875   2.070477   2.633      0.2672316  0.5438554  88.613     0.5977939  0.4820056  0.7135823 
1089.8     0.246      373.38     -9999      -9999      9.09       1.549      2.438      2.293      2.159      1.88       2.33       2.921      1.956      1.112      3.023      0.1439356  0.1439356  0.34864    1.29776    1.735967   2.678      0.2380017  0.5381266  88.867     0.6203164  0.5179661  0.7226667 
1090       0.246      368.3      -9999      -9999      9.04       1.549      2.489      2.293      2.032      1.905      2.417      2.934      2.159      1.092      3.023      0.1500202  0.1500202  0.35424    1.682274   1.839567   2.715      0.2697082  0.5527445  89.121     0.6188478  0.5058503  0.7318453 
1090.2     0.246      361.95     -9999      -9999      8.913      1.626      2.565      2.267      2.032      1.905      2.488      2.667      2.172      1.107      3.023      0.1507883  0.1507883  0.35004    1.738297   2.131361   2.763      0.278904   0.554144   89.121     0.6037929  0.476335   0.7312508 
1090.4     0.235      355.6      -9999      -9999      8.659      1.753      2.642      2.267      2.032      1.981      2.543      2.426      2.413      1.151      3.15       0.1474705  0.1474705  0.33772    1.508934   2.861148   2.812      0.2708346  0.544227   89.121     0.5765135  0.4223705  0.7306564 
1090.6     0.223      349.25     -9999      -9999      8.659      1.753      2.743      2.267      2.007      1.956      2.581      2.781      1.842      1.163      3.277      0.1433978  0.1433978  0.33436    1.268332   2.861148   2.863      0.2591057  0.5407073  89.248     0.5786734  0.4223705  0.7349763 
1090.8     0.215      342.9      -9999      -9999      8.557      1.803      2.769      2.318      1.981      1.93       2.525      2.731      2.019      1.176      3.531      0.1423267  0.1423267  0.33072    1.211695   3.220291   2.916      0.2606433  0.5404786  89.375     0.5708889  0.4024608  0.7393169 
1091       0.215      336.55     -9999      -9999      8.303      1.803      2.819      2.369      1.981      1.905      2.525      3.01       1.829      1.206      3.531      0.1407302  0.1407302  0.32232    1.13194    4.32293    2.971      0.2598623  0.5353858  89.502     0.550272   0.3568656  0.7436785 
1091.2     0.215      331.47     -9999      -9999      8.176      1.803      2.87       2.343      1.956      1.88       2.581      3.137      1.892      1.222      3.531      0.1397853  0.1397853  0.31784    1.087231   5.008647   3.017      0.2608552  0.5337045  89.502     0.5395595  0.3360431  0.743076  
1091.4     0.216      326.39     -9999      -9999      8.024      1.803      2.896      2.343      1.93       1.854      2.716      3.226      2.007      1.217      3.759      0.1451342  0.1451342  0.31924    1.365825   5.973774   3.064      0.2898083  0.5450029  89.502     0.5275934  0.312713   0.7424738 
1091.6     0.215      316.23     -9999      -9999      7.947      1.854      2.946      2.343      1.93       1.829      2.797      3.289      2.019      1.217      4.039      0.146259   0.146259   0.31924    1.432943   6.531556   3.162      0.304913   0.5534076  89.629     0.5241849  0.3015197  0.7468502 
1091.8     0.213      309.88     -9999      -9999      8.151      1.905      2.921      2.293      1.905      1.803      2.757      3.188      2.007      1.224      4.318      0.1393547  0.1393547  0.31728    1.067444   5.155931   3.227      0.2819031  0.5481137  89.629     0.5391676  0.3320897  0.7462456 
1092       0.213      302.26     -9999      -9999      8.201      1.905      2.946      2.343      1.905      1.778      2.859      3.759      2.235      1.229      4.318      0.1359172  0.1359172  0.31588    0.9218782  4.865562   3.308      0.2745989  0.5482665  89.756     0.545342   0.3400437  0.7506402 
1092.2     0.213      295.91     -9999      -9999      8.176      2.032      3.15       2.496      1.88       1.753      3.167      3.924      2.426      1.242      4.318      0.133695   0.133695   0.31224    0.8385194  5.008647   3.379      0.2714058  0.5470069  89.756     0.5410456  0.3360431  0.7460481 
1092.4     0.213      292.1      -9999      -9999      8.125      2.184      3.277      2.496      1.854      1.753      3.237      3.632      2.324      1.285      3.835      0.1237316  0.1237316  0.3002     0.5482348  5.313705   3.423      0.2252829  0.5252604  89.756     0.5347529  0.3280274  0.7414784 
1092.6     0.213      289.56     -9999      -9999      8.125      2.337      3.404      2.496      1.854      1.727      2.988      3.124      2.032      1.307      3.277      0.1183217  0.1183217  0.29404    0.4352747  5.313705   3.454      0.1979228  0.5132527  89.756     0.5324796  0.3280274  0.7369317 
1092.8     0.213      290.83     -9999      -9999      8.1        2.311      3.454      2.597      1.829      1.753      2.817      2.891      1.889      1.328      2.896      0.1154375  0.1154375  0.28816    0.3848941  5.469963   3.438      0.1787095  0.5013546  89.502     0.5234014  0.3241683  0.7226346 
1093       0.213      298.45     -9999      -9999      8.201      2.057      3.302      2.445      1.905      1.778      2.658      2.667      1.753      1.328      2.896      0.1174876  0.1174876  0.28816    0.4200623  4.865562   3.351      0.1814185  0.4981523  88.867     0.5171891  0.3400437  0.6943344 
