~Version
 VERS              .         2.0                           : CWLS LOG ASCII STANDARD - VERSION 2.0
 WRAP              .         NO                            : ONE LINE PER DEPTH STEP
 DLM               .         SPACE                         : DELIMITING CHARACTER(SPACE TAB OR COMMA)
~Well Information
#_______________________________________________________________________________
#
#PARAMETER_NAME    .UNIT     VALUE                         : DESCRIPTION
#_______________________________________________________________________________
STRT               .M        880                           : First reference value
STOP               .M        1166                          : Last reference value
STEP               .M        0.2                           : Step increment
NULL               .         -9999                         : Missing value
COMP               .                                       : Company
WELL               .         4899                          : Well name
FLD                .         УЗЕНЬ                         : Field
LOC                .                                       : Location
CNTY               .                                       : County
STAT               .                                       : State
CTRY               .                                       : Country
SRVC               .         UPGF                          : Service Company
DATE               .         17.01.90                      : Date
UWI                .                                       : Unique Well ID
Block              .         7                             : 
Category           .         Нефтяная                      : 
Condition          .         В работе                      : 
Date               .         31.01.1990                    : 
EREF               .m        87.4                          : 100.8
Gorizont           .         14                            : 14
Interpretator      .         Ткачева И.Г.                  : 
Kupol              .         Основной                      : osnovnoi
Mud                .         0                             : 
Mud_density        .         0                             : 
Mud_resistivity    .         0                             : 
NGDU               .         НГДУ-2                        : 
ORIGINALWELLNAME   .         4899                          : 
Spud_date          .         1989                          : 1961
Uslovie            .         14                            : 
Viscosity          .         0                             : 
X                  .m        42099                         : 46154
Y                  .m        84004.43                      : 85761.93
YEAR               .         2019                          : 
~Parameter Information Block
#_______________________________________________________________________________
#
#PARAMETER_NAME    .UNIT     VALUE                         : DESCRIPTION
#_______________________________________________________________________________
SET                .         LQC_KAZNIPI_Petrel            : 
TLFamily_CALI      .         Caliper                       : 
TLFamily_CILD      .         Conductivity                  : 
TLFamily_COLL      .         Net Reservoir Flag            : 
TLFamily_CSAT      .         Fluid Code                    : 
TLFamily_DEPT      .         Measured Depth                : 
TLFamily_GR        .         Russian Gamma Ray             : 
TLFamily_GZ1       .         Gradient 045                  : 
TLFamily_GZ2       .         Gradient 105                  : 
TLFamily_GZ3       .         Gradient 225                  : 
TLFamily_GZ4       .         Gradient 425                  : 
TLFamily_GZ5       .         Gradient 850                  : 
TLFamily_LLS       .         Lateral Log Resistivity       : 
TLFamily_MINV      .         Micro Gradient Resistivity    : 
TLFamily_MNOR      .         Micro Resistivity             : 
TLFamily_NGLD      .         Neutron Gamma                 : 
TLFamily_OGZ       .         Gradient Inverted 225         : 
TLFamily_PHIE      .         Effective Porosity            : 
TLFamily_PHIEN     .         Effective Porosity            : 
TLFamily_PHIT      .         Porosity                      : 
TLFamily_PRMB      .         Permeability                  : 
TLFamily_PRMB_DGR  .         Permeability                  : 
TLFamily_RT        .         Formation Resistivity         : 
TLFamily_SOIL_ARCHIE .         Oil Saturation                : 
TLFamily_SOIL_DW   .         Oil Saturation                : 
TLFamily_SP        .         Spontaneous Potential         : 
TLFamily_VSH_FIN   .         Shale Volume                  : 
TLFamily_VSH_GR    .         Shale Volume                  : 
TLFamily_VSH_SP    .         Shale Volume                  : 
~Curve Information
#_______________________________________________________________________________
#
#LOGNAME           .UNIT     LOG_ID                        : DESCRIPTION
#_______________________________________________________________________________
DEPT               .M                                      : Колонка глубины 
CALI               .м                                      : Каверномер 
CILD               .мСм/м                                  : Индукционный каротаж 
COLL               .unitless                               : Описание 
CSAT               .unitless                               : Описание 
GR                 .uR/h                                   : Гамма каротаж 
GZ1                .Ohmm                                   : Градиент-зонд  длиной 0.45м 
GZ2                .Ohmm                                   : Градиент-зонд  длиной 1.05м 
GZ3                .Ohmm                                   : Градиент-зонд  длиной 2.25м 
GZ4                .Ohmm                                   : Градиент-зонд  длиной 4.5м 
GZ5                .Ohmm                                   : Градиент-зонд  длиной 8.5м 
LLS                .Ohmm                                   : Боковой каротаж 
MINV               .Ohmm                                   : Микро-градиент зонд 
MNOR               .Ohmm                                   : Микро-потенциал зонд 
NGLD               .у.е.                                   : Показания зонда НГК-60 аппаратуры ДРСТ-3-90 
OGZ                .Ohmm                                   :  
PHIE               .v/v                                    : Описание 
PHIEN              .v/v                                    :  
PHIT               .v/v                                    : Описание 
PRMB               .mD                                     :  
PRMB_DGR           .mD                                     :  
RT                 .ohmm                                   : УЭС пласта 
SOIL_ARCHIE        .v/v                                    :  
SOIL_DW            .v/v                                    :  
SP                 .мВ                                     : Потенциал самополяризации 
VSH_FIN            .v/v                                    : Описание 
VSH_GR             .v/v                                    : Shale volume 
VSH_SP             .v/v                                    : Shale Volume 
~Ascii
# ...
916.4      0.203      424.18     1          3          2.055      -9999      -9999      1.81       -9999      -9999      2.166      1.13       1.689      1.443      2.21       0.2132683  0.2132683  0.25596    24.96915   62.99838   2.357      0.4255491  0.492543   68.293     0.1293689  0.1195055  0.1392324 
916.6      0.203      425.45     1          3          2.055      -9999      -9999      1.81       -9999      -9999      2.399      0.991      1.613      1.455      2.311      0.2098058  0.2098058  0.2526     21.54126   62.99838   2.35       0.4164871  0.4843393  68.42      0.1296792  0.1195055  0.139853  
916.8      0.204      421.64     1          3          2.105      -9999      -9999      1.886      -9999      -9999      2.417      0.927      1.486      1.516      2.438      0.1923357  0.1923357  0.23552    10.22545   60.81768   2.372      0.3733335  0.4455602  68.547     0.1308614  0.121237   0.1404859 
917        0.206      412.75     1          3          2.08       -9999      -9999      1.937      -9999      -9999      2.296      0.914      1.448      1.539      2.591      0.1860494  0.1860494  0.22908    7.820667   61.89845   2.423      0.3613389  0.4346924  68.547     0.1303958  0.1203681  0.1404235 
917.2000000000001 0.206      402.59     1          3          2.004      -9999      -9999      1.937      -9999      -9999      2.33       0.927      1.524      1.542      2.718      0.1855326  0.1855326  0.22824    7.65019    65.30325   2.484      0.3672162  0.4398328  68.674     0.1294163  0.1177649  0.1410677 
917.4      0.206      388.62     1          3          2.055      -9999      -9999      1.962      -9999      -9999      2.543      1.003      1.74       1.552      2.718      0.1823371  0.1823371  0.22544    6.675485   62.99838   2.573      0.3680936  0.4415868  68.801     0.130615   0.1195055  0.1417244 
917.6      0.206      384.81     1          3          2.105      -9999      -9999      1.962      -9999      -9999      2.562      0.978      1.676      1.539      2.718      0.1855809  0.1855809  0.22908    7.665958   60.81768   2.599      0.3806535  0.4535881  68.928     0.1318154  0.121237   0.1423939 
917.8      0.206      381        1          3          2.131      -9999      -9999      2.039      -9999      -9999      2.543      0.978      1.6        1.514      2.718      0.1923181  0.1923181  0.23608    10.21776   59.71376   2.625      0.4023916  0.4736582  69.055     0.1326118  0.1221473  0.1430763 
918        0.207      374.65     1          3          2.105      -9999      -9999      2.013      -9999      -9999      2.454      0.978      1.562      1.483      2.667      0.2011594  0.2011594  0.24476    14.89767   60.81768   2.669      0.4297992  0.4984022  69.055     0.132123   0.121237   0.143009  
918.2000000000001 0.206      368.3      1          3          2.004      -9999      -9999      1.886      -9999      -9999      2.364      1.041      1.435      1.478      2.718      0.2031434  0.2031434  0.24616    16.2131    65.30325   2.715      0.4391677  0.5063567  69.055     0.1303534  0.1177649  0.1429419 
918.4      0.205      365.76     1          3          2.029      -9999      -9999      1.81       -9999      -9999      2.33       1.168      1.626      1.514      2.718      0.1928088  0.1928088  0.23608    10.43385   64.16307   2.734      0.4149926  0.4848115  69.182     0.1311249  0.1186149  0.1436348 
918.6      0.205      367.03     1          3          1.978      -9999      -9999      1.81       -9999      -9999      2.279      1.676      1.93       1.537      2.845      0.1866651  0.1866651  0.22964    8.028778   66.51055   2.725      0.3973266  0.4684308  69.182     0.1302269  0.1168873  0.1435665 
918.8      0.204      368.3      1          3          1.978      -9999      -9999      1.937      -9999      -9999      2.382      2.108      2.4        1.547      3.124      0.1837488  0.1837488  0.22684    7.089761   66.51055   2.715      0.3879491  0.4600876  69.309     0.1305794  0.1168873  0.1442714 
919        0.204      365.76     1          3          1.978      -9999      -9999      2.013      -9999      -9999      2.599      2.083      2.565      1.542      3.454      0.1851603  0.1851603  0.22824    7.52966    66.51055   2.734      0.3940011  0.4656052  69.309     0.1305446  0.1168873  0.144202  
919.2000000000001 0.204      359.41     1          3          2.004      -9999      -9999      2.166      -9999      -9999      2.901      1.968      2.451      1.572      3.785      0.1766269  0.1766269  0.21984    5.232592   65.30325   2.782      0.3737158  0.4477438  69.309     0.1309487  0.1177649  0.1441326 
919.4      0.205      350.52     1          3          2.055      -9999      -9999      2.293      -9999      -9999      2.988      2.045      2.603      1.592      3.785      0.1706216  0.1706216  0.21424    4.050274   62.99838   2.853      0.3621483  0.4383307  69.436     0.1321769  0.1195055  0.1448483 
919.6      0.205      340.36     1          3          2.055      -9999      -9999      2.293      -9999      -9999      2.966      2.095      2.68       1.592      4.293      0.1703667  0.1703667  0.21424    4.00647    62.99838   2.938      0.3700556  0.4461671  69.69      0.1329495  0.1195055  0.1463935 
919.8      0.206      328.93     1          3          2.029      -9999      -9999      2.394      -9999      -9999      2.817      2.324      2.642      1.638      5.08       0.1573686  0.1573686  0.20136    2.301474   64.16307   3.04       0.3356978  0.4164733  69.944     0.1333073  0.1186149  0.1479997 
920        0.206      321.31     1          3          2.131      -9999      -9999      2.42       -9999      -9999      2.901      2.667      3.264      1.643      5.893      0.1553983  0.1553983  0.19996    2.115981   59.71376   3.112      0.3357053  0.4178551  69.944     0.1350354  0.1221473  0.1479235 
920.2000000000001 0.206      308.61     1          3          2.232      -9999      -9999      2.572      -9999      -9999      4.002      2.934      3.365      1.646      5.867      0.1538344  0.1538344  0.19912    1.979446   55.61213   3.24       0.3423843  0.4256449  70.071     0.1372292  0.1257486  0.1487097 
920.4      0.206      295.91     1          3          2.334      -9999      -9999      2.547      -9999      -9999      3.973      2.591      2.908      1.613      5.867      0.1621766  0.1621766  0.20836    2.825289   51.75577   3.379      0.3842051  0.4641977  70.325     0.1399496  0.1294934  0.1504057 
920.6      0.206      283.21     1          3          2.41       -9999      -9999      2.547      -9999      -9999      3.333      2.235      2.667      1.562      5.969      0.1756938  0.1756938  0.22264    5.028438   49.05728   3.531      0.4374161  0.5123     70.579     0.1422612  0.132356   0.1521665 
920.8      0.206      273.05     1          3          2.613      -9999      -9999      2.369      -9999      -9999      3.099      2.299      2.642      1.514      6.071      0.1870231  0.1870231  0.23608    8.152291   42.51949   3.662      0.4762469  0.5491007  71.214     0.1486572  0.1403161  0.1569984 
921        0.206      266.7      1          3          2.791      -9999      -9999      2.369      -9999      -9999      3.383      2.324      2.896      1.524      6.401      0.1830217  0.1830217  0.23328    6.873282   37.50784   3.75       0.4722021  0.547235   71.214     0.1522978  0.1476888  0.1569068 
921.2000000000001 0.206      261.62     1          3          2.944      -9999      -9999      2.547      -9999      -9999      3.383      2.87       3.086      1.544      6.807001   0.1758176  0.1758176  0.22768    5.055055   33.67487   3.822      0.4582717  0.5374254  71.595     0.1571589  0.1543349  0.1599828 
921.4      0.206      252.73     1          3          2.994      -9999      -9999      2.75       -9999      -9999      3.383      3.073      3.365      1.559      6.807001   0.1707134  0.1707134  0.22348    4.066156   32.50921   3.957      0.4531719  0.5347365  71.976     0.1598988  0.1565711  0.1632266 
