~Version
 VERS              .         2.0                           : CWLS LOG ASCII STANDARD - VERSION 2.0
 WRAP              .         NO                            : ONE LINE PER DEPTH STEP
 DLM               .         SPACE                         : DELIMITING CHARACTER(SPACE TAB OR COMMA)
~Well Information
#_______________________________________________________________________________
#
#PARAMETER_NAME    .UNIT     VALUE                         : DESCRIPTION
#_______________________________________________________________________________
STRT               .M        880                           : First reference value
STOP               .M        1166                          : Last reference value
STEP               .M        0.2                           : Step increment
NULL               .         -9999                         : Missing value
COMP               .                                       : Company
WELL               .         4899                          : Well name
FLD                .         УЗЕНЬ                         : Field
LOC                .                                       : Location
CNTY               .                                       : County
STAT               .                                       : State
CTRY               .                                       : Country
SRVC               .         UPGF                          : Service Company
DATE               .         17.01.90                      : Date
UWI                .                                       : Unique Well ID
Block              .         7                             : 
Category           .         Нефтяная                      : 
Condition          .         В работе                      : 
Date               .         31.01.1990                    : 
EREF               .m        87.4                          : 100.8
Gorizont           .         14                            : 14
Interpretator      .         Ткачева И.Г.                  : 
Kupol              .         Основной                      : osnovnoi
Mud                .         0                             : 
Mud_density        .         0                             : 
Mud_resistivity    .         0                             : 
NGDU               .         НГДУ-2                        : 
ORIGINALWELLNAME   .         4899                          : 
Spud_date          .         1989                          : 1961
Uslovie            .         14                            : 
Viscosity          .         0                             : 
X                  .m        42099                         : 46154
Y                  .m        84004.43                      : 85761.93
YEAR               .         2019                          : 
~Parameter Information Block
#_______________________________________________________________________________
#
#PARAMETER_NAME    .UNIT     VALUE                         : DESCRIPTION
#_______________________________________________________________________________
SET                .         LQC_KAZNIPI_Petrel            : 
TLFamily_CALI      .         Caliper                       : 
TLFamily_CILD      .         Conductivity                  : 
TLFamily_COLL      .         Net Reservoir Flag            : 
TLFamily_CSAT      .         Fluid Code                    : 
TLFamily_DEPT      .         Measured Depth                : 
TLFamily_GR        .         Russian Gamma Ray             : 
TLFamily_GZ1       .         Gradient 045                  : 
TLFamily_GZ2       .         Gradient 105                  : 
TLFamily_GZ3       .         Gradient 225                  : 
TLFamily_GZ4       .         Gradient 425                  : 
TLFamily_GZ5       .         Gradient 850                  : 
TLFamily_LLS       .         Lateral Log Resistivity       : 
TLFamily_MINV      .         Micro Gradient Resistivity    : 
TLFamily_MNOR      .         Micro Resistivity             : 
TLFamily_NGLD      .         Neutron Gamma                 : 
TLFamily_OGZ       .         Gradient Inverted 225         : 
TLFamily_PHIE      .         Effective Porosity            : 
TLFamily_PHIEN     .         Effective Porosity            : 
TLFamily_PHIT      .         Porosity                      : 
TLFamily_PRMB      .         Permeability                  : 
TLFamily_PRMB_DGR  .         Permeability                  : 
TLFamily_RT        .         Formation Resistivity         : 
TLFamily_SOIL_ARCHIE .         Oil Saturation                : 
TLFamily_SOIL_DW   .         Oil Saturation                : 
TLFamily_SP        .         Spontaneous Potential         : 
TLFamily_VSH_FIN   .         Shale Volume                  : 
TLFamily_VSH_GR    .         Shale Volume                  : 
TLFamily_VSH_SP    .         Shale Volume                  : 
~Curve Information
#_______________________________________________________________________________
#
#LOGNAME           .UNIT     LOG_ID                        : DESCRIPTION
#_______________________________________________________________________________
DEPT               .M                                      : Колонка глубины 
CALI               .м                                      : Каверномер 
CILD               .мСм/м                                  : Индукционный каротаж 
COLL               .unitless                               : Описание 
CSAT               .unitless                               : Описание 
GR                 .uR/h                                   : Гамма каротаж 
GZ1                .Ohmm                                   : Градиент-зонд  длиной 0.45м 
GZ2                .Ohmm                                   : Градиент-зонд  длиной 1.05м 
GZ3                .Ohmm                                   : Градиент-зонд  длиной 2.25м 
GZ4                .Ohmm                                   : Градиент-зонд  длиной 4.5м 
GZ5                .Ohmm                                   : Градиент-зонд  длиной 8.5м 
LLS                .Ohmm                                   : Боковой каротаж 
MINV               .Ohmm                                   : Микро-градиент зонд 
MNOR               .Ohmm                                   : Микро-потенциал зонд 
NGLD               .у.е.                                   : Показания зонда НГК-60 аппаратуры ДРСТ-3-90 
OGZ                .Ohmm                                   :  
PHIE               .v/v                                    : Описание 
PHIEN              .v/v                                    :  
PHIT               .v/v                                    : Описание 
PRMB               .mD                                     :  
PRMB_DGR           .mD                                     :  
RT                 .ohmm                                   : УЭС пласта 
SOIL_ARCHIE        .v/v                                    :  
SOIL_DW            .v/v                                    :  
SP                 .мВ                                     : Потенциал самополяризации 
VSH_FIN            .v/v                                    : Описание 
VSH_GR             .v/v                                    : Shale volume 
VSH_SP             .v/v                                    : Shale Volume 
~Ascii
# ...
1030.8     0.314      518.16     -9999      -9999      9.217      0.889      1.651      1.734      1.499      1.651      1.559      0.572      0.8        1.034      1.499      0.1713457  0.1713457  0.37048    4.177299   1.01891    1.93       0.2365637  0.5091826  84.295     0.6034374  0.6438609  0.5630139 
1031       0.314      518.16     -9999      -9999      9.167      0.991      1.727      1.632      1.448      1.676      1.559      0.572      0.851      1.016      1.499      0.1771346  0.1771346  0.37552    5.347122   1.052029   1.93       0.2583401  0.519367   84.422     0.6011679  0.6355059  0.5668299 
1031.2     0.314      514.35     -9999      -9999      9.243      0.889      1.702      1.632      1.448      1.727      1.536      0.584      0.914      1.013      1.499      0.1758949  0.1758949  0.37636    5.07175    1.002103   1.944      0.2563162  0.5204917  84.422     0.6074701  0.6482487  0.5666915 
1031.4     0.31       508        -9999      -9999      9.268      0.965      1.753      1.632      1.448      1.676      1.559      0.572      0.864      1.011      1.499      0.1757769  0.1757769  0.37692    5.046292   0.9862032  1.969      0.26033    0.523865   84.422     0.6095245  0.652496   0.5665531 
1031.6     0.296      508        -9999      -9999      9.065      0.965      1.778      1.607      1.499      1.651      1.714      0.559      0.889      1.021      1.499      0.1772443  0.1772443  0.37412    5.372209   1.122966   1.969      0.2656665  0.5231583  84.676     0.596593   0.6187965  0.5743894 
1031.8     0.299      516.89     -9999      -9999      9.243      0.914      1.702      1.581      1.448      1.702      1.752      0.584      0.927      1.029      1.575      0.1701678  0.1701678  0.37188    3.972632   1.002103   1.935      0.2328952  0.5096954  84.676     0.6112491  0.6482487  0.5742494 
1032       0.299      525.78     -9999      -9999      9.294      0.94       1.727      1.632      1.422      1.727      1.605      0.521      0.762      1.034      1.575      0.1660253  0.1660253  0.37048    3.329274   0.9699356  1.902      0.2098998  0.4996874  84.93      0.6195596  0.6569427  0.5821766 
1032.2     0.299      530.86     -9999      -9999      9.167      0.94       1.727      1.632      1.499      1.651      1.536      0.61       0.826      1.024      1.575      0.1723857  0.1723857  0.37328    4.366768   1.052029   1.884      0.2319315  0.5066783  84.93      0.6087704  0.6355059  0.5820349 
1032.4     0.302      523.24     -9999      -9999      9.167      0.838      1.702      1.632      1.524      1.575      1.57       0.584      0.876      0.985      1.651      0.1833291  0.1833291  0.3842     6.96399    1.052029   1.911      0.2768651  0.5299565  84.93      0.6086996  0.6355059  0.5818934 
1032.6     0.294      524.51     -9999      -9999      9.217      0.864      1.702      1.632      1.499      1.549      1.547      0.584      0.864      0.957      1.727      0.1891427  0.1891427  0.39204    8.923612   1.01891    1.907      0.2955701  0.5408035  85.057     0.6148401  0.6438609  0.5858194 
1032.8     0.279      528.32     -9999      -9999      9.116      0.889      1.676      1.607      1.473      1.549      1.536      0.572      0.902      0.965      1.803      0.1890175  0.1890175  0.3898     8.876083   1.086918   1.893      0.2927223  0.5373551  85.184     0.6084318  0.6270956  0.5897679 
1033       0.279      527.05     -9999      -9999      9.116      0.787      1.549      1.556      1.448      1.549      1.536      0.584      0.991      1.011      1.803      0.1747993  0.1747993  0.37692    4.840222   1.086918   1.897      0.2436211  0.5138903  85.438     0.6124869  0.6270956  0.5978782 
1033.2     0.279      516.89     -9999      -9999      9.014      0.864      1.575      1.556      1.422      1.549      1.536      0.597      0.914      1.036      1.803      0.1705438  0.1705438  0.36992    4.036852   1.160207   1.935      0.2343684  0.5084863  85.438     0.6041703  0.6106074  0.5977333 
1033.4     0.272      501.65     -9999      -9999      8.76       1.016      1.651      1.556      1.422      1.524      1.605      0.597      0.991      1.021      1.88       0.1812356  0.1812356  0.37412    6.369143   1.364913   1.993      0.2838547  0.5300372  85.438     0.5844982  0.5714079  0.5975884 
1033.6     0.266      497.84     -9999      -9999      8.735      0.965      1.702      1.531      1.397      1.499      1.764      0.686      1.13       1.013      1.956      0.1820414  0.1820414  0.37636    6.591847   1.386919   2.009      0.2892883  0.5344262  85.819     0.5888441  0.5676883  0.6099999 
1033.8     0.274      501.65     -9999      -9999      8.684      1.067      1.676      1.531      1.372      1.448      1.778      0.648      1.092      1.006      1.981      0.1845667  0.1845667  0.37832    7.34144    1.432915   1.993      0.2951251  0.5365039  85.946     0.5871311  0.5601755  0.6140867 
1034       0.274      499.11     -9999      -9999      8.659      1.041      1.626      1.531      1.346      1.448      1.652      0.711      1.092      1.008      1.981      0.1839302  0.1839302  0.37776    7.14484    1.456015   2.004      0.294825   0.5367433  86.073     0.5873629  0.5565293  0.6181965 
1034.2     0.274      490.22     -9999      -9999      8.887      0.965      1.676      1.531      1.321      1.372      1.617      0.597      1.003      1.016      1.981      0.1760795  0.1760795  0.37552    5.111853   1.258405   2.04       0.2736132  0.5314456  86.073     0.604365   0.5906826  0.6180474 
1034.4     0.281      478.79     -9999      -9999      9.014      0.864      1.575      1.531      1.321      1.295      1.628      0.635      0.991      1.013      2.007      0.1736565  0.1736565  0.37636    4.609974   1.160207   2.089      0.2729374  0.5351898  86.073     0.6142529  0.6106074  0.6178984 
1034.6     0.284      463.55     -9999      -9999      9.116      0.914      1.651      1.581      1.346      1.321      1.628      0.597      0.991      1.026      2.057      0.1666143  0.1666143  0.37272    3.413969   1.086918   2.157      0.2574901  0.5325794  86.2       0.6245626  0.6270956  0.6220297 
1034.8     0.248      448.31     -9999      -9999      8.887      0.991      1.727      1.683      1.372      1.321      1.714      0.749      1.105      1.051      2.134      0.1649369  0.1649369  0.36572    3.178263   1.258405   2.231      0.2626814  0.5331481  86.327     0.6084336  0.5906826  0.6261846 
1035       0.248      434.34     -9999      -9999      8.455      1.016      1.803      1.835      1.397      1.372      1.858      1.092      1.283      1.077      2.134      0.1680824  0.1680824  0.35844    3.634565   1.658991   2.302      0.2852983  0.5379089  86.327     0.5768411  0.5276483  0.626034  
1035.2     0.248      417.83     -9999      -9999      7.973      1.245      1.93       1.835      1.422      1.422      2.134      1.308      1.474      1.09       2.134      0.1747672  0.1747672  0.3548     4.833598   2.258183   2.393      0.3216219  0.55063    86.327     0.5455539  0.4652244  0.6258833 
1035.4     0.233      406.4      -9999      -9999      7.617      1.422      2.083      1.835      1.448      1.448      2.417      1.524      1.664      1.112      2.032      0.1754487  0.1754487  0.34864    4.976159   2.835746   2.461      0.3327491  0.5527439  86.327     0.5248221  0.4239113  0.6257328 
1035.6     0.228      401.32     -9999      -9999      7.592      1.651      2.134      1.861      1.448      1.422      2.33       2.045      1.803      1.138      1.956      0.1693586  0.1693586  0.34136    3.837862   2.881463   2.492      0.315929   0.543567   86.2       0.5212165  0.4211519  0.6212811 
1035.8     0.245      406.4      -9999      -9999      7.617      1.651      2.261      1.861      1.448      1.422      2.198      2.032      1.918      1.125      1.956      0.1718584  0.1718584  0.345      4.269653   2.835746   2.461      0.3206245  0.5462524  86.327     0.5246715  0.4239113  0.6254317 
