~Version
 VERS              .         2.0                           : CWLS LOG ASCII STANDARD - VERSION 2.0
 WRAP              .         NO                            : ONE LINE PER DEPTH STEP
 DLM               .         SPACE                         : DELIMITING CHARACTER(SPACE TAB OR COMMA)
~Well Information
#_______________________________________________________________________________
#
#PARAMETER_NAME    .UNIT     VALUE                         : DESCRIPTION
#_______________________________________________________________________________
STRT               .M        880                           : First reference value
STOP               .M        1156.8                        : Last reference value
STEP               .M        0.2                           : Step increment
NULL               .         -9999                         : Missing value
COMP               .                                       : Company
WELL               .         5523                          : Well name
FLD                .         УЗЕНЬ                         : Field
LOC                .                                       : Location
CNTY               .                                       : County
STAT               .                                       : State
CTRY               .                                       : Country
SRVC               .                                       : Service Company
DATE               .         11.04.1992г                   : Date
UWI                .                                       : Unique Well ID
Block              .         7                             : 
Category           .         Нагнетательная                : 
Condition          .         Ликвидированная               : 
EREF               .m        84.5                          : 100.8
Gorizont           .         14                            : 14
Interpretator      .         Кушнир И.Е.                   : 
Kupol              .         основной                      : osnovnoi
Mud                .                                       : 
Mud_density        .                                       : 
Mud_resistivity    .                                       : 
NGDU               .         НГДУ-2                        : 
ORIGINALWELLNAME   .         5523                          : 
Spud_date          .         1992                          : 1961
Viscosity          .                                       : 
X                  .m        42337.8                       : 46154
Y                  .m        83848.03                      : 85761.93
YEAR               .         2019г                         : 
~Parameter Information Block
#_______________________________________________________________________________
#
#PARAMETER_NAME    .UNIT     VALUE                         : DESCRIPTION
#_______________________________________________________________________________
SET                .         LQC_KAZNIPI_Petrel            : 
TLFamily_CALI      .         Caliper                       : 
TLFamily_CILD      .         Conductivity                  : 
TLFamily_COLL      .         Net Reservoir Flag            : 
TLFamily_CSAT      .         Fluid Code                    : 
TLFamily_DEPT      .         Measured Depth                : 
TLFamily_GR        .         Russian Gamma Ray             : 
TLFamily_GZ1       .         Gradient 045                  : 
TLFamily_GZ2       .         Gradient 105                  : 
TLFamily_GZ3       .         Gradient 225                  : 
TLFamily_GZ4       .         Gradient 425                  : 
TLFamily_GZ5       .         Gradient 850                  : 
TLFamily_LLS       .         Lateral Log Resistivity       : 
TLFamily_MINV      .         Micro Gradient Resistivity    : 
TLFamily_MNOR      .         Micro Resistivity             : 
TLFamily_NGLD      .         Neutron Gamma                 : 
TLFamily_OGZ       .         Gradient Inverted 225         : 
TLFamily_PHIE      .         Effective Porosity            : 
TLFamily_PHIEN     .         Effective Porosity            : 
TLFamily_PHIT      .         Porosity                      : 
TLFamily_PRMB      .         Permeability                  : 
TLFamily_PRMB_DGR  .         Permeability                  : 
TLFamily_RT        .         Formation Resistivity         : 
TLFamily_SOIL_ARCHIE .         Oil Saturation                : 
TLFamily_SOIL_DW   .         Oil Saturation                : 
TLFamily_SP        .         Spontaneous Potential         : 
TLFamily_VSH_FIN   .         Shale Volume                  : 
TLFamily_VSH_GR    .         Shale Volume                  : 
TLFamily_VSH_SP    .         Shale Volume                  : 
~Curve Information
#_______________________________________________________________________________
#
#LOGNAME           .UNIT     LOG_ID                        : DESCRIPTION
#_______________________________________________________________________________
DEPT               .M                                      : Колонка глубины 
CALI               .м                                      : Каверномер 
CILD               .мСм/м                                  : Индукционный каротаж 
COLL               .unitless                               : Описание 
CSAT               .unitless                               : Описание 
GR                 .uR/h                                   : Гамма каротаж 
GZ1                .ohmm                                   : Градиент-зонд  длиной 0.45м 
GZ2                .ohmm                                   : Градиент-зонд  длиной 1.05м 
GZ3                .ohmm                                   : Градиент-зонд  длиной 2.25м 
GZ4                .ohmm                                   : Градиент-зонд  длиной 4.5м 
GZ5                .ohmm                                   : Градиент-зонд  длиной 8.5м 
LLS                .Ohmm                                   : Боковой каротаж 
MINV               .Ohmm                                   : Микро-градиент зонд 
MNOR               .Ohmm                                   : Микро-потенциал зонд 
NGLD               .у.е.                                   : Показания зонда НГК-60 аппаратуры ДРСТ-3-90 
OGZ                .ohmm                                   : Обращенный градиент-зонд 
PHIE               .v/v                                    : Описание 
PHIEN              .v/v                                    :  
PHIT               .v/v                                    : Описание 
PRMB               .mD                                     :  
PRMB_DGR           .mD                                     :  
RT                 .ohmm                                   : Description 
SOIL_ARCHIE        .v/v                                    :  
SOIL_DW            .v/v                                    :  
SP                 .мВ                                     : Потенциал самополяризации 
VSH_FIN            .v/v                                    : Описание 
VSH_GR             .v/v                                    : Shale volume 
VSH_SP             .v/v                                    : Shale Volume 
~Ascii
# ...
935.2000000000001 0.224      263.83     0          0          3.166      2.28600001335144 3.174999952316284 2.572999954223633 3.250999927520752 2.565000057220459 2.943      1.398      2.032      1.169      3.530999898910523 0.2446168  0.2446168  0.306025   95.07235   64.47176   2.943      0.540667   0.6134473  51.03809   0.1860855  0.1183827  0.2537883 
935.4      0.224      263.83     0          0          3.166      2.28600001335144 3.174999952316284 2.572999954223633 3.250999927520752 2.565000057220459 2.943      1.398      2.032      1.169      3.530999898910523 0.244593   0.244593   0.306025   94.97615   64.47176   2.943      0.5406282  0.6134315  51.04251   0.1861574  0.1183827  0.2539321 
935.6      0.222      254.94     0          0          3.051      2.28600001335144 3.174999952316284 2.648999929428101 3.250999927520752 2.565000057220459 3.746      2.833      2.769      1.123      3.785000085830689 0.2592017  0.2592017  0.318675   177.0937   83.79      3.746      0.61001    0.6733798  51.04692   0.180222   0.1063679  0.2540761 
935.8      0.224      263.83     0          0          3.14       2.28600001335144 3.174999952316284 2.903000116348267 3.250999927520752 2.565000057220459 2.543      2.553      2.464      1.095      3.961999893188477 0.2646714  0.2646714  0.326375   223.6221   68.40742   2.543      0.5407017  0.6124452  51.17834   0.1869805  0.1155528  0.2584082 
936        0.225      268.91     0          0          3.381      2.28600001335144 3.174999952316284 3.131999969482422 3.250999927520752 2.565000057220459 2.561      1.436      1.422      1.131      3.911999940872192 0.2513222  0.2513222  0.316475   126.5476   39.49757   2.561      0.5211129  0.5981998  50.92876   0.1974328  0.1446043  0.2502613 
936.2000000000001 0.229      261.29     0          0          4.093      2.28600001335144 3.174999952316284 3.335000038146973 3.250999927520752 2.565000057220459 2.922      1.372      1.892      1.177      3.607000112533569 0.215548   0.215548   0.303825   27.51879   7.79576    2.922      0.4854362  0.5893359  51.06017   0.2675061  0.2805037  0.2545086 
936.4      0.229      261.29     0          0          4.093      2.28600001335144 3.174999952316284 3.335000038146973 3.250999927520752 2.565000057220459 2.922      1.372      1.892      1.177      3.607000112533569 0.2155242  0.2155242  0.303825   27.49085   7.79576    2.922      0.4853867  0.5893171  51.06459   0.2675783  0.2805037  0.2546529 
936.6      0.234      254.94     0          0          3.75       2.28600001335144 3.174999952316284 3.081000089645386 3.250999927520752 2.565000057220459 2.922      1.931      1.867      1.189      3.302000045776367 0.2248479  0.2248479  0.300525   40.91544   17.03521   2.922      0.5040229  0.5938732  51.06901   0.2293245  0.2038515  0.2547975 
936.8      0.237      253.67     0          0          3.331      2.28600001335144 3.174999952316284 2.674999952316284 3.250999927520752 2.565000057220459 3.457      2.274      2.502      1.192      3.124000072479248 0.2355386  0.2355386  0.2997     64.55117   44.26479   3.457      0.5598238  0.6332123  50.94643   0.1944285  0.13803    0.2508269 
937        0.239      249.86     0          0          3.102      2.28600001335144 3.174999952316284 2.470999956130981 3.250999927520752 2.565000057220459 3.357      3.353      4.216      1.197      3.124000072479248 0.2391765  0.2391765  0.298325   75.38546   74.59579   3.357      0.5596366  0.6291925  50.82384   0.1792378  0.1115379  0.2469376 
937.2000000000001 0.234      254.94     0          0          3.166      2.28600001335144 3.174999952316284 2.446000099182129 3.250999927520752 2.565000057220459 2.858      4.649      3.886      1.194      3.072999954223633 0.2375037  0.2375037  0.29915    70.19434   64.47176   2.858      0.522182   0.5975791  51.08226   0.1868071  0.1183827  0.2552315 
937.4      0.234      254.94     0          0          3.166      2.28600001335144 3.174999952316284 2.446000099182129 3.250999927520752 2.565000057220459 2.858      4.649      3.886      1.194      3.072999954223633 0.2374797  0.2374797  0.29915    70.12278   64.47176   2.858      0.5221401  0.5975621  51.08667   0.1868796  0.1183827  0.2553764 
937.6      0.229      276.53     0          0          3.369      2.28600001335144 3.174999952316284 2.674999952316284 3.250999927520752 2.565000057220459 2.488      1.575      1.473      1.133      3.04800009727478 0.2472977  0.2472977  0.315925   106.5888   40.59265   2.488      0.5076967  0.589161   51.59909   0.2079615  0.1429985  0.2729245 
937.8      0.231      280.34     0          0          3.572      2.28600001335144 3.174999952316284 2.878000020980835 3.250999927520752 2.565000057220459 2.696      1.474      1.422      1.133      2.996999979019165 0.2400509  0.2400509  0.315925   78.24967   25.55792   2.696      0.5134588  0.6003857  51.98451   0.2299216  0.1727327  0.2871104 
938        0.232      282.88     0          0          3.648      2.28600001335144 3.174999952316284 2.903000116348267 3.250999927520752 2.565000057220459 2.434      2.35       2.235      1.113      2.971999883651733 0.2472184  0.2472184  0.321425   106.229    21.49331   2.434      0.5024623  0.5887192  51.35393   0.2248684  0.1853917  0.2643451 
938.2000000000001 0.231      294.31     0          0          3.737      2.28600001335144 3.174999952316284 2.802000045776367 3.250999927520752 2.565000057220459 2.262      2.033      1.46       1.07       2.946000099182129 0.2610561  0.2610561  0.33325    191.6681   17.54747   2.262      0.5089101  0.5916552  50.46935   0.2187695  0.2014002  0.2361387 
938.4      0.231      294.31     0          0          3.737      2.28600001335144 3.174999952316284 2.802000045776367 3.250999927520752 2.565000057220459 2.262      2.033      1.46       1.07       2.946000099182129 0.2610345  0.2610345  0.33325    191.4922   17.54747   2.262      0.5088748  0.5916411  50.47376   0.2188347  0.2014002  0.2362691 
938.6      0.233      326.06     0          0          3.775      2.28600001335144 3.174999952316284 2.82699990272522 3.250999927520752 2.565000057220459 2.072      1.766      1.257      1.004      2.921000003814697 0.2785799  0.2785799  0.3514     404.6998   16.09175   2.072      0.516422   0.5974033  50.35118   0.2206671  0.2086497  0.2326845 
938.8      0.238      323.52     0          0          3.75       2.28600001335144 3.174999952316284 2.928999900817871 3.250999927520752 2.565000057220459 2.329      1.423      1.702      1.062      2.996999979019165 0.2621597  0.2621597  0.33545    200.9055   17.03521   2.329      0.5173675  0.5998148  50.60959   0.2220918  0.2038515  0.2403321 
939        0.239      315.9      0          0          3.851      2.28600001335144 3.174999952316284 2.776000022888184 3.250999927520752 2.565000057220459 2.312      1.702      1.334      1.128      3.174999952316284 0.2400312  0.2400312  0.3173     78.18395   13.5326    2.312      0.4770435  0.5695499  50.74101   0.234148   0.2239409  0.244355  
939.2000000000001 0.236      320.98     0          0          3.686      2.28600001335144 3.174999952316284 2.421000003814697 3.250999927520752 2.565000057220459 2.329      1.512      1.689      1.126      3.32699990272522 0.2438062  0.2438062  0.31785    91.84167   19.71025   2.329      0.4858734  0.5743387  51.12643   0.2243752  0.192065   0.2566855 
939.4      0.236      320.98     0          0          3.686      2.28600001335144 3.174999952316284 2.421000003814697 3.250999927520752 2.565000057220459 2.329      1.512      1.689      1.126      3.32699990272522 0.2437821  0.2437821  0.31785    91.74734   19.71025   2.329      0.4858292  0.5743211  51.13084   0.2244482  0.192065   0.2568315 
939.6      0.234      307.01     0          0          3.547      2.28600001335144 3.174999952316284 2.217000007629395 3.250999927520752 2.565000057220459 2.696      2.236      2.502      1.144      3.505000114440918 0.239761   0.239761   0.3129     77.28809   27.05638   2.696      0.5129464  0.5979375  51.64326   0.2216334  0.1687605  0.2745064 
