~Version
 VERS              .         2.0                           : CWLS LOG ASCII STANDARD - VERSION 2.0
 WRAP              .         NO                            : ONE LINE PER DEPTH STEP
 DLM               .         SPACE                         : DELIMITING CHARACTER(SPACE TAB OR COMMA)
~Well Information
#_______________________________________________________________________________
#
#PARAMETER_NAME    .UNIT     VALUE                         : DESCRIPTION
#_______________________________________________________________________________
STRT               .M        880                           : First reference value
STOP               .M        1156.8                        : Last reference value
STEP               .M        0.2                           : Step increment
NULL               .         -9999                         : Missing value
COMP               .                                       : Company
WELL               .         5523                          : Well name
FLD                .         УЗЕНЬ                         : Field
LOC                .                                       : Location
CNTY               .                                       : County
STAT               .                                       : State
CTRY               .                                       : Country
SRVC               .                                       : Service Company
DATE               .         11.04.1992г                   : Date
UWI                .                                       : Unique Well ID
Block              .         7                             : 
Category           .         Нагнетательная                : 
Condition          .         Ликвидированная               : 
EREF               .m        84.5                          : 100.8
Gorizont           .         14                            : 14
Interpretator      .         Кушнир И.Е.                   : 
Kupol              .         основной                      : osnovnoi
Mud                .                                       : 
Mud_density        .                                       : 
Mud_resistivity    .                                       : 
NGDU               .         НГДУ-2                        : 
ORIGINALWELLNAME   .         5523                          : 
Spud_date          .         1992                          : 1961
Viscosity          .                                       : 
X                  .m        42337.8                       : 46154
Y                  .m        83848.03                      : 85761.93
YEAR               .         2019г                         : 
~Parameter Information Block
#_______________________________________________________________________________
#
#PARAMETER_NAME    .UNIT     VALUE                         : DESCRIPTION
#_______________________________________________________________________________
SET                .         LQC_KAZNIPI_Petrel            : 
TLFamily_CALI      .         Caliper                       : 
TLFamily_CILD      .         Conductivity                  : 
TLFamily_COLL      .         Net Reservoir Flag            : 
TLFamily_CSAT      .         Fluid Code                    : 
TLFamily_DEPT      .         Measured Depth                : 
TLFamily_GR        .         Russian Gamma Ray             : 
TLFamily_GZ1       .         Gradient 045                  : 
TLFamily_GZ2       .         Gradient 105                  : 
TLFamily_GZ3       .         Gradient 225                  : 
TLFamily_GZ4       .         Gradient 425                  : 
TLFamily_GZ5       .         Gradient 850                  : 
TLFamily_LLS       .         Lateral Log Resistivity       : 
TLFamily_MINV      .         Micro Gradient Resistivity    : 
TLFamily_MNOR      .         Micro Resistivity             : 
TLFamily_NGLD      .         Neutron Gamma                 : 
TLFamily_OGZ       .         Gradient Inverted 225         : 
TLFamily_PHIE      .         Effective Porosity            : 
TLFamily_PHIEN     .         Effective Porosity            : 
TLFamily_PHIT      .         Porosity                      : 
TLFamily_PRMB      .         Permeability                  : 
TLFamily_PRMB_DGR  .         Permeability                  : 
TLFamily_RT        .         Formation Resistivity         : 
TLFamily_SOIL_ARCHIE .         Oil Saturation                : 
TLFamily_SOIL_DW   .         Oil Saturation                : 
TLFamily_SP        .         Spontaneous Potential         : 
TLFamily_VSH_FIN   .         Shale Volume                  : 
TLFamily_VSH_GR    .         Shale Volume                  : 
TLFamily_VSH_SP    .         Shale Volume                  : 
~Curve Information
#_______________________________________________________________________________
#
#LOGNAME           .UNIT     LOG_ID                        : DESCRIPTION
#_______________________________________________________________________________
DEPT               .M                                      : Колонка глубины 
CALI               .м                                      : Каверномер 
CILD               .мСм/м                                  : Индукционный каротаж 
COLL               .unitless                               : Описание 
CSAT               .unitless                               : Описание 
GR                 .uR/h                                   : Гамма каротаж 
GZ1                .ohmm                                   : Градиент-зонд  длиной 0.45м 
GZ2                .ohmm                                   : Градиент-зонд  длиной 1.05м 
GZ3                .ohmm                                   : Градиент-зонд  длиной 2.25м 
GZ4                .ohmm                                   : Градиент-зонд  длиной 4.5м 
GZ5                .ohmm                                   : Градиент-зонд  длиной 8.5м 
LLS                .Ohmm                                   : Боковой каротаж 
MINV               .Ohmm                                   : Микро-градиент зонд 
MNOR               .Ohmm                                   : Микро-потенциал зонд 
NGLD               .у.е.                                   : Показания зонда НГК-60 аппаратуры ДРСТ-3-90 
OGZ                .ohmm                                   : Обращенный градиент-зонд 
PHIE               .v/v                                    : Описание 
PHIEN              .v/v                                    :  
PHIT               .v/v                                    : Описание 
PRMB               .mD                                     :  
PRMB_DGR           .mD                                     :  
RT                 .ohmm                                   : Description 
SOIL_ARCHIE        .v/v                                    :  
SOIL_DW            .v/v                                    :  
SP                 .мВ                                     : Потенциал самополяризации 
VSH_FIN            .v/v                                    : Описание 
VSH_GR             .v/v                                    : Shale volume 
VSH_SP             .v/v                                    : Shale Volume 
~Ascii
# ...
985.8      0.259      352.73     0          0          3.966      2.28600001335144 3.174999952316284 1.429999947547913 3.250999927520752 2.565000057220459 2.118      1.715      1.791      1.065      3.072999954223633 0.220468   0.220468   0.334625   33.94377   10.41258   2.118      0.4132082  0.5485626  55.20353   0.3459303  0.2492362  0.4426244 
986        0.26       348.92     0          0          4.232      2.28600001335144 3.174999952316284 1.455000042915344 3.250999927520752 2.565000057220459 2.118      1.918      1.905      1.052      3.023000001907349 0.2136875  0.2136875  0.3382     25.41959   5.679127   2.118      0.3970244  0.545688   55.08095   0.3773106  0.3192389  0.4353823 
986.2000000000001 0.261      346.38     0          0          4.245      2.28600001335144 3.174999952316284 1.455000042915344 3.250999927520752 2.565000057220459 2.103      1.855      1.842      1.065      2.921000003814697 0.2141883  0.2141883  0.334625   25.96841   5.513336   2.103      0.3962422  0.5416096  54.57737   0.3649596  0.3231245  0.4067947 
986.4      0.261      346.38     0          0          4.245      2.28600001335144 3.174999952316284 1.455000042915344 3.250999927520752 2.565000057220459 2.103      1.855      1.842      1.065      2.921000003814697 0.2141483  0.2141483  0.334625   25.92409   5.513336   2.103      0.3961439  0.5415749  54.58179   0.365081   0.3231245  0.4070374 
986.6      0.255      340.03     0          0          4.245      2.28600001335144 3.174999952316284 1.455000042915344 3.250999927520752 2.565000057220459 2.134      1.918      1.93       1.166      2.793999910354614 0.1939408  0.1939408  0.30685    10.94997   5.513336   2.134      0.3462049  0.5012168  53.6972    0.342149   0.3231245  0.3611735 
986.8      0.247      332.41     0          0          4.055      2.28600001335144 3.174999952316284 1.429999947547913 3.250999927520752 2.565000057220459 2.543      1.613      1.6        1.24       2.691999912261963 0.1880163  0.1880163  0.2865     8.505028   8.500994   2.543      0.3813552  0.5180306  52.93962   0.2984355  0.2707576  0.3261134 
987        0.235      319.71     0          0          3.788      2.28600001335144 3.174999952316284 1.404999971389771 3.250999927520752 2.565000057220459 3.213      1.639      2.019      1.281      2.66700005531311 0.1909223  0.1909223  0.275225   9.627271   15.62199   3.213      0.4530102  0.5636631  52.30904   0.2554626  0.2111892  0.2997359 
987.2000000000001 0.23       305.74     0          0          3.343      2.28600001335144 3.174999952316284 1.531999945640564 3.250999927520752 2.565000057220459 3.559      2.642      2.87       1.26       2.691999912261963 0.2124664  0.2124664  0.281      24.1297    43.07064   3.559      0.5249991  0.6081629  51.67845   0.2076775  0.1395801  0.2757749 
987.4      0.23       305.74     0          0          3.343      2.28600001335144 3.174999952316284 1.531999945640564 3.250999927520752 2.565000057220459 3.559      2.642      2.87       1.26       2.691999912261963 0.2124401  0.2124401  0.281      24.10258   43.07064   3.559      0.5249478  0.6081426  51.68287   0.2077574  0.1395801  0.2759346 
987.6      0.229      290.5      0          0          2.505      2.28600001335144 3.174999952316284 1.684000015258789 3.250999927520752 2.565000057220459 3.075      3.137      3.213      1.138      2.66700005531311 0.2599219  0.2599219  0.31455    182.6173   290.8059   3.075      0.573194   0.6372035  51.43329   0.1655398  0.06399453 0.267085  
987.8      0.231      305.74     0          0          2.645      2.28600001335144 3.174999952316284 1.861999988555908 3.250999927520752 2.565000057220459 1.803      3.125      3.048      1.105      2.615999937057495 0.2660146  0.2660146  0.323625   236.8067   211.3666   1.803      0.4626406  0.5384662  51.6917    0.174577   0.07289945 0.2762544 
988        0.239      333.68     0          0          3.153      2.28600001335144 3.174999952316284 2.039999961853027 3.250999927520752 2.565000057220459 1.558      2.756      1.981      1.095      2.515000104904175 0.2583052  0.2583052  0.326375   170.45     66.41044   1.558      0.4095902  0.4997654  52.20412   0.2062721  0.1169592  0.295585  
988.2000000000001 0.258      360.35     0          0          3.724      2.28600001335144 3.174999952316284 2.217000007629395 3.250999927520752 2.565000057220459 1.547      0.966      0.952      0.996      2.388000011444092 0.2702855  0.2702855  0.3536     284.1202   18.07512   1.547      0.430559   0.5298401  52.46323   0.252468   0.1989784  0.3059577 
988.4      0.258      360.35     0          0          3.724      2.28600001335144 3.174999952316284 2.217000007629395 3.250999927520752 2.565000057220459 1.547      0.966      0.952      0.996      2.388000011444092 0.2702511  0.2702511  0.3536     283.7034   18.07512   1.547      0.4304959  0.5298151  52.46833   0.2525724  0.1989784  0.3061663 
988.6      0.283      384.48     0          0          4.144      2.28600001335144 3.174999952316284 2.089999914169312 3.250999927520752 2.565000057220459 1.884      1.029      1.156      1.037      2.234999895095825 0.2414938  0.2414938  0.342325   83.21657   6.940338   1.884      0.4273511  0.54503    52.72744   0.305549   0.2941375  0.3169605 
988.8      0.284      381.94     0          0          3.991      2.28600001335144 3.174999952316284 1.78600001335144 3.250999927520752 2.565000057220459 2.165      1.296      1.778      1.034      2.08299994468689 0.2487238  0.2487238  0.34315    113.2728   9.835907   2.165      0.4771252  0.5813139  52.73255   0.2861401  0.2551026  0.3171775 
989        0.277      388.29     0          0          3.902      2.28600001335144 3.174999952316284 1.684000015258789 3.250999927520752 2.565000057220459 1.926      2.337      2.413      1.042      2.006999969482422 0.2498337  0.2498337  0.34095    118.7637   12.04768   1.926      0.4497591  0.5552422  52.73766   0.27611    0.2348255  0.3173946 
989.2000000000001 0.282      404.8      0          0          3.89       2.28600001335144 3.174999952316284 1.88699996471405 3.250999927520752 2.565000057220459 1.513      2.363      1.854      1.044      2.260999917984009 0.2496781  0.2496781  0.3404     117.9783   12.3817    1.513      0.3834398  0.4975941  52.74276   0.2749148  0.2322178  0.3176119 
989.4      0.282      404.8      0          0          3.89       2.28600001335144 3.174999952316284 1.88699996471405 3.250999927520752 2.565000057220459 1.513      2.363      1.854      1.044      2.260999917984009 0.2496422  0.2496422  0.3404     117.7979   12.3817    1.513      0.3833627  0.4975641  52.74787   0.2750236  0.2322178  0.3178294 
989.6      0.283      436.55     0          0          4.22       2.28600001335144 3.174999952316284 2.039999961853027 3.250999927520752 2.565000057220459 1.857      0.991      1.257      1.166      2.437999963760376 0.204036   0.204036   0.30685    16.84226   5.836586   1.857      0.3322971  0.4762068  52.49898   0.3115575  0.3156938  0.3074212 
989.8      0.272      421.31     0          0          4.156      2.28600001335144 3.174999952316284 1.708999991416931 3.250999927520752 2.565000057220459 2.229      1.359      1.88       1.172      2.539999961853027 0.2036086  0.2036086  0.3052     16.53801   6.753102   2.229      0.3860052  0.5199696  52.75808   0.3078527  0.2974406  0.3182647 
990        0.263      400.99     0          0          3.928      2.28600001335144 3.174999952316284 1.531999945640564 3.250999927520752 2.565000057220459 2.246      2.033      2.159      1.072      2.66700005531311 0.2347797  0.2347797  0.3327     62.49531   11.35454   2.246      0.4595751  0.5713071  53.52519   0.2967282  0.2405765  0.3528799 
990.2000000000001 0.26       384.48     0          0          3.851      2.28600001335144 3.174999952316284 1.455000042915344 3.250999927520752 2.565000057220459 2.072      1.918      1.829      0.999      2.793999910354614 0.2523389  0.2523389  0.352775   132.1562   13.5326    2.072      0.4729068  0.5814131  54.1653    0.3043517  0.2239409  0.3847625 
