~Version
 VERS              .         2.0                           : CWLS LOG ASCII STANDARD - VERSION 2.0
 WRAP              .         NO                            : ONE LINE PER DEPTH STEP
 DLM               .         SPACE                         : DELIMITING CHARACTER(SPACE TAB OR COMMA)
~Well Information
#_______________________________________________________________________________
#
#PARAMETER_NAME    .UNIT     VALUE                         : DESCRIPTION
#_______________________________________________________________________________
STRT               .M        880                           : First reference value
STOP               .M        1156.8                        : Last reference value
STEP               .M        0.2                           : Step increment
NULL               .         -9999                         : Missing value
COMP               .                                       : Company
WELL               .         5523                          : Well name
FLD                .         УЗЕНЬ                         : Field
LOC                .                                       : Location
CNTY               .                                       : County
STAT               .                                       : State
CTRY               .                                       : Country
SRVC               .                                       : Service Company
DATE               .         11.04.1992г                   : Date
UWI                .                                       : Unique Well ID
Block              .         7                             : 
Category           .         Нагнетательная                : 
Condition          .         Ликвидированная               : 
EREF               .m        84.5                          : 100.8
Gorizont           .         14                            : 14
Interpretator      .         Кушнир И.Е.                   : 
Kupol              .         основной                      : osnovnoi
Mud                .                                       : 
Mud_density        .                                       : 
Mud_resistivity    .                                       : 
NGDU               .         НГДУ-2                        : 
ORIGINALWELLNAME   .         5523                          : 
Spud_date          .         1992                          : 1961
Viscosity          .                                       : 
X                  .m        42337.8                       : 46154
Y                  .m        83848.03                      : 85761.93
YEAR               .         2019г                         : 
~Parameter Information Block
#_______________________________________________________________________________
#
#PARAMETER_NAME    .UNIT     VALUE                         : DESCRIPTION
#_______________________________________________________________________________
SET                .         LQC_KAZNIPI_Petrel            : 
TLFamily_CALI      .         Caliper                       : 
TLFamily_CILD      .         Conductivity                  : 
TLFamily_COLL      .         Net Reservoir Flag            : 
TLFamily_CSAT      .         Fluid Code                    : 
TLFamily_DEPT      .         Measured Depth                : 
TLFamily_GR        .         Russian Gamma Ray             : 
TLFamily_GZ1       .         Gradient 045                  : 
TLFamily_GZ2       .         Gradient 105                  : 
TLFamily_GZ3       .         Gradient 225                  : 
TLFamily_GZ4       .         Gradient 425                  : 
TLFamily_GZ5       .         Gradient 850                  : 
TLFamily_LLS       .         Lateral Log Resistivity       : 
TLFamily_MINV      .         Micro Gradient Resistivity    : 
TLFamily_MNOR      .         Micro Resistivity             : 
TLFamily_NGLD      .         Neutron Gamma                 : 
TLFamily_OGZ       .         Gradient Inverted 225         : 
TLFamily_PHIE      .         Effective Porosity            : 
TLFamily_PHIEN     .         Effective Porosity            : 
TLFamily_PHIT      .         Porosity                      : 
TLFamily_PRMB      .         Permeability                  : 
TLFamily_PRMB_DGR  .         Permeability                  : 
TLFamily_RT        .         Formation Resistivity         : 
TLFamily_SOIL_ARCHIE .         Oil Saturation                : 
TLFamily_SOIL_DW   .         Oil Saturation                : 
TLFamily_SP        .         Spontaneous Potential         : 
TLFamily_VSH_FIN   .         Shale Volume                  : 
TLFamily_VSH_GR    .         Shale Volume                  : 
TLFamily_VSH_SP    .         Shale Volume                  : 
~Curve Information
#_______________________________________________________________________________
#
#LOGNAME           .UNIT     LOG_ID                        : DESCRIPTION
#_______________________________________________________________________________
DEPT               .M                                      : Колонка глубины 
CALI               .м                                      : Каверномер 
CILD               .мСм/м                                  : Индукционный каротаж 
COLL               .unitless                               : Описание 
CSAT               .unitless                               : Описание 
GR                 .uR/h                                   : Гамма каротаж 
GZ1                .ohmm                                   : Градиент-зонд  длиной 0.45м 
GZ2                .ohmm                                   : Градиент-зонд  длиной 1.05м 
GZ3                .ohmm                                   : Градиент-зонд  длиной 2.25м 
GZ4                .ohmm                                   : Градиент-зонд  длиной 4.5м 
GZ5                .ohmm                                   : Градиент-зонд  длиной 8.5м 
LLS                .Ohmm                                   : Боковой каротаж 
MINV               .Ohmm                                   : Микро-градиент зонд 
MNOR               .Ohmm                                   : Микро-потенциал зонд 
NGLD               .у.е.                                   : Показания зонда НГК-60 аппаратуры ДРСТ-3-90 
OGZ                .ohmm                                   : Обращенный градиент-зонд 
PHIE               .v/v                                    : Описание 
PHIEN              .v/v                                    :  
PHIT               .v/v                                    : Описание 
PRMB               .mD                                     :  
PRMB_DGR           .mD                                     :  
RT                 .ohmm                                   : Description 
SOIL_ARCHIE        .v/v                                    :  
SOIL_DW            .v/v                                    :  
SP                 .мВ                                     : Потенциал самополяризации 
VSH_FIN            .v/v                                    : Описание 
VSH_GR             .v/v                                    : Shale volume 
VSH_SP             .v/v                                    : Shale Volume 
~Ascii
# ...
1022.6     0.264      408.61     0          0          6.049      1.904999971389771 2.615999937057495 1.074000000953674 1.828999996185303 1.675999999046326 1.94       0.788      1.283      1.006      2.056999921798706 0.2285574  0.2285574  0.35085    47.92874   2.317736   1.94       0.407424   0.5480458  51.81762   0.3705835  0.4603057  0.2808613 
1022.8     0.259      406.07     0          0          6.112      1.904999971389771 2.66700005531311 1.074000000953674 1.879999995231628 1.675999999046326 1.898      0.826      1.346      1.055      2.134000062942505 0.2125519  0.2125519  0.337375   24.21779   2.090619   1.898      0.362227   0.5183453  51.69572   0.3782519  0.4801039  0.2764    
1023       0.255      400.99     0          0          6.112      1.904999971389771 2.641999959945679 1.049000024795532 1.929999947547913 1.651000022888184 1.817      0.712      1.143      1.111      2.184000015258789 0.1963534  0.1963534  0.321975   12.13667   2.090619   1.817      0.3025092  0.4773817  51.82783   0.3806715  0.4801039  0.2812392 
1023.2     0.253      406.07     0          0          6.125      1.929999947547913 2.565000057220459 0.9980000257492065 1.955999970436096 1.651000022888184 1.843      0.636      0.914      1.103      2.184000015258789 0.1993525  0.1993525  0.324175   13.79271   2.046598   1.843      0.3162313  0.4863271  51.57893   0.3782501  0.484294   0.2722061 
1023.4     0.253      406.07     0          0          6.125      1.929999947547913 2.565000057220459 0.9980000257492065 1.955999970436096 1.651000022888184 1.843      0.636      0.914      1.103      2.184000015258789 0.1993225  0.1993225  0.324175   13.77507   2.046598   1.843      0.3161416  0.486296   51.58404   0.378341   0.484294   0.2723879 
1023.6     0.255      411.15     0          0          6.163      1.929999947547913 2.615999937057495 1.074000000953674 1.955999970436096 1.702000021934509 1.843      0.89       1.308      1.022      2.184000015258789 0.2202509  0.2202509  0.34645    33.63091   1.923168   1.843      0.3730968  0.5257493  51.46215   0.3824216  0.496753   0.2680903 
1023.8     0.259      406.07     0          0          5.972      1.879999995231628 2.539999961853027 1.175999999046326 1.955999970436096 1.702000021934509 1.969      0.801      1.143      0.999      2.158999919891357 0.2333194  0.2333194  0.352775   58.72185   2.62909    1.969      0.42201    0.5565753  51.97526   0.3619866  0.4372135  0.2867598 
1024       0.259      406.07     0          0          5.972      1.879999995231628 2.539999961853027 1.175999999046326 1.955999970436096 1.702000021934509 1.969      0.801      1.143      0.999      2.158999919891357 0.2332875  0.2332875  0.352775   58.64196   2.62909    1.969      0.4219412  0.5565506  51.98036   0.3620833  0.4372135  0.2869532 
1024.2     0.267      398.45     0          0          5.845      2.134000062942505 2.717999935150147 1.277999997138977 1.955999970436096 1.702000021934509 1.83       0.724      1.168      0.981      2.134000062942505 0.2390171  0.2390171  0.357725   74.87466   3.236642   1.83       0.4142472  0.5482888  52.74747   0.3597209  0.4016294  0.3178123 
1024.4     0.267      398.45     0          0          5.845      2.134000062942505 2.717999935150147 1.277999997138977 1.955999970436096 1.702000021934509 1.83       0.724      1.168      0.981      2.134000062942505 0.2389812  0.2389812  0.357725   74.76008   3.236642   1.83       0.4141705  0.5482611  52.75258   0.3598297  0.4016294  0.3180299 
1024.6     0.271      413.69     0          0          5.96       1.904999971389771 2.336999893188477 1.251999974250794 1.777999997138977 1.726999998092651 1.558      0.636      1.029      1.014      2.134000062942505 0.2227537  0.2227537  0.34865    37.41945   2.681247   1.558      0.3283193  0.4884774  53.01168   0.3815039  0.4337204  0.3292872 
1024.8     0.271      413.69     0          0          5.96       1.904999971389771 2.336999893188477 1.251999974250794 1.777999997138977 1.726999998092651 1.558      0.636      1.029      1.014      2.134000062942505 0.2227164  0.2227164  0.34865    37.35995   2.681247   1.558      0.3282213  0.4884427  53.01679   0.3816169  0.4337204  0.3295133 
1025       0.276      411.15     0          0          5.909      1.777999997138977 2.361999988555908 1.226999998092651 1.802999973297119 1.726999998092651 1.777      0.623      0.876      1.067      2.184000015258789 0.2123268  0.2123268  0.334075   23.98645   2.914704   1.777      0.3415968  0.4990775  52.7679    0.3689338  0.419184   0.3186837 
1025.2     0.258      378.13     0          0          5.337      2.108000040054321 2.921000003814697 1.049000024795532 1.980999946594238 1.726999998092651 2.295      0.737      1.46       1.034      2.336999893188477 0.2507463  0.2507463  0.34315    123.4774   7.434456   2.295      0.4948151  0.5947073  51.63      0.2800113  0.2859921  0.2740304 
1025.4     0.258      378.13     0          0          5.337      2.108000040054321 2.921000003814697 1.049000024795532 1.980999946594238 1.726999998092651 2.295      0.737      1.46       1.034      2.336999893188477 0.250716   0.250716   0.34315    123.3182   7.434456   2.295      0.494762   0.594687   51.63511   0.2801029  0.2859921  0.2742137 
1025.6     0.257      395.91     0          0          5.642      2.46399998664856 2.895999908447266 1.200999975204468 1.980999946594238 1.726999998092651 1.83       0.712      1.346      0.996      2.388000011444092 0.2533552  0.2533552  0.3536     138.0104   4.512467   1.83       0.4432265  0.5559434  51.13222   0.303772   0.3506672  0.2568769 
1025.8     0.257      395.91     0          0          5.642      2.46399998664856 2.895999908447266 1.200999975204468 1.980999946594238 1.726999998092651 1.83       0.712      1.346      0.996      2.388000011444092 0.2533273  0.2533273  0.3536     137.8463   4.512467   1.83       0.4431731  0.5559232  51.13733   0.3038565  0.3506672  0.2570459 
1026       0.264      412.42     0          0          6.074      2.234999895095825 2.717999935150147 1.302999973297119 1.853999972343445 1.675999999046326 1.676      0.661      1.041      0.986      2.336999893188477 0.2330218  0.2330218  0.35635    57.98118   2.224798   1.676      0.3759229  0.521993   51.77743   0.3737218  0.4680625  0.2793811 
1026.2     0.275      425.12     0          0          6.747      1.777999997138977 2.489000082015991 1.302999973297119 1.726999998092651 1.600000023841858 1.569      0.559      0.813      0.986      2.184000015258789 0.1824466  0.1824466  0.35635    6.706757   0.7393179  1.569      0.2034168  0.4556054  52.79854   0.5269799  0.7339638  0.3199958 
1026.4     0.275      425.12     0          0          6.747      1.777999997138977 2.489000082015991 1.302999973297119 1.726999998092651 1.600000023841858 1.569      0.559      0.813      0.986      2.184000015258789 0.1824105  0.1824105  0.35635    6.696424   0.7393179  1.569      0.2032793  0.4555638  52.80365   0.5270894  0.7339638  0.3202149 
1026.6     0.275      425.12     0          0          6.125      1.753000020980835 2.413000106811523 1.175999999046326 1.675999999046326 1.575000047683716 1.689      0.597      1.003      1.095      2.210000038146973 0.1953627  0.1953627  0.326375   11.63453   2.046598   1.689      0.2749978  0.4612444  52.55475   0.397007   0.484294   0.3097201 
1026.8     0.275      425.12     0          0          6.125      1.753000020980835 2.413000106811523 1.175999999046326 1.675999999046326 1.575000047683716 1.689      0.597      1.003      1.095      2.210000038146973 0.1953278  0.1953278  0.326375   11.61722   2.046598   1.689      0.274885   0.4612059  52.55986   0.3971128  0.484294   0.3099315 
1027       0.267      421.31     0          0          5.947      1.726999998092651 2.361999988555908 1.074000000953674 1.651000022888184 1.600000023841858 1.87       0.826      1.118      1.123      2.260999917984009 0.1956797  0.1956797  0.318675   11.79293   2.738919   1.87       0.3097938  0.4809384  52.69197   0.3727129  0.4299679  0.3154579 
