~Version
 VERS              .         2.0                           : CWLS LOG ASCII STANDARD - VERSION 2.0
 WRAP              .         NO                            : ONE LINE PER DEPTH STEP
 DLM               .         SPACE                         : DELIMITING CHARACTER(SPACE TAB OR COMMA)
~Well Information
#_______________________________________________________________________________
#
#PARAMETER_NAME    .UNIT     VALUE                         : DESCRIPTION
#_______________________________________________________________________________
STRT               .M        880                           : First reference value
STOP               .M        1156.8                        : Last reference value
STEP               .M        0.2                           : Step increment
NULL               .         -9999                         : Missing value
COMP               .                                       : Company
WELL               .         5523                          : Well name
FLD                .         УЗЕНЬ                         : Field
LOC                .                                       : Location
CNTY               .                                       : County
STAT               .                                       : State
CTRY               .                                       : Country
SRVC               .                                       : Service Company
DATE               .         11.04.1992г                   : Date
UWI                .                                       : Unique Well ID
Block              .         7                             : 
Category           .         Нагнетательная                : 
Condition          .         Ликвидированная               : 
EREF               .m        84.5                          : 100.8
Gorizont           .         14                            : 14
Interpretator      .         Кушнир И.Е.                   : 
Kupol              .         основной                      : osnovnoi
Mud                .                                       : 
Mud_density        .                                       : 
Mud_resistivity    .                                       : 
NGDU               .         НГДУ-2                        : 
ORIGINALWELLNAME   .         5523                          : 
Spud_date          .         1992                          : 1961
Viscosity          .                                       : 
X                  .m        42337.8                       : 46154
Y                  .m        83848.03                      : 85761.93
YEAR               .         2019г                         : 
~Parameter Information Block
#_______________________________________________________________________________
#
#PARAMETER_NAME    .UNIT     VALUE                         : DESCRIPTION
#_______________________________________________________________________________
SET                .         LQC_KAZNIPI_Petrel            : 
TLFamily_CALI      .         Caliper                       : 
TLFamily_CILD      .         Conductivity                  : 
TLFamily_COLL      .         Net Reservoir Flag            : 
TLFamily_CSAT      .         Fluid Code                    : 
TLFamily_DEPT      .         Measured Depth                : 
TLFamily_GR        .         Russian Gamma Ray             : 
TLFamily_GZ1       .         Gradient 045                  : 
TLFamily_GZ2       .         Gradient 105                  : 
TLFamily_GZ3       .         Gradient 225                  : 
TLFamily_GZ4       .         Gradient 425                  : 
TLFamily_GZ5       .         Gradient 850                  : 
TLFamily_LLS       .         Lateral Log Resistivity       : 
TLFamily_MINV      .         Micro Gradient Resistivity    : 
TLFamily_MNOR      .         Micro Resistivity             : 
TLFamily_NGLD      .         Neutron Gamma                 : 
TLFamily_OGZ       .         Gradient Inverted 225         : 
TLFamily_PHIE      .         Effective Porosity            : 
TLFamily_PHIEN     .         Effective Porosity            : 
TLFamily_PHIT      .         Porosity                      : 
TLFamily_PRMB      .         Permeability                  : 
TLFamily_PRMB_DGR  .         Permeability                  : 
TLFamily_RT        .         Formation Resistivity         : 
TLFamily_SOIL_ARCHIE .         Oil Saturation                : 
TLFamily_SOIL_DW   .         Oil Saturation                : 
TLFamily_SP        .         Spontaneous Potential         : 
TLFamily_VSH_FIN   .         Shale Volume                  : 
TLFamily_VSH_GR    .         Shale Volume                  : 
TLFamily_VSH_SP    .         Shale Volume                  : 
~Curve Information
#_______________________________________________________________________________
#
#LOGNAME           .UNIT     LOG_ID                        : DESCRIPTION
#_______________________________________________________________________________
DEPT               .M                                      : Колонка глубины 
CALI               .м                                      : Каверномер 
CILD               .мСм/м                                  : Индукционный каротаж 
COLL               .unitless                               : Описание 
CSAT               .unitless                               : Описание 
GR                 .uR/h                                   : Гамма каротаж 
GZ1                .ohmm                                   : Градиент-зонд  длиной 0.45м 
GZ2                .ohmm                                   : Градиент-зонд  длиной 1.05м 
GZ3                .ohmm                                   : Градиент-зонд  длиной 2.25м 
GZ4                .ohmm                                   : Градиент-зонд  длиной 4.5м 
GZ5                .ohmm                                   : Градиент-зонд  длиной 8.5м 
LLS                .Ohmm                                   : Боковой каротаж 
MINV               .Ohmm                                   : Микро-градиент зонд 
MNOR               .Ohmm                                   : Микро-потенциал зонд 
NGLD               .у.е.                                   : Показания зонда НГК-60 аппаратуры ДРСТ-3-90 
OGZ                .ohmm                                   : Обращенный градиент-зонд 
PHIE               .v/v                                    : Описание 
PHIEN              .v/v                                    :  
PHIT               .v/v                                    : Описание 
PRMB               .mD                                     :  
PRMB_DGR           .mD                                     :  
RT                 .ohmm                                   : Description 
SOIL_ARCHIE        .v/v                                    :  
SOIL_DW            .v/v                                    :  
SP                 .мВ                                     : Потенциал самополяризации 
VSH_FIN            .v/v                                    : Описание 
VSH_GR             .v/v                                    : Shale volume 
VSH_SP             .v/v                                    : Shale Volume 
~Ascii
# ...
1077.8     0.241      307.01     0          0          5.604      2.437999963760376 3.631999969482422 1.988999962806702 2.691999912261963 1.269999980926514 2.363      1.88       1.943      1.243      4.317999839782715 0.1520016  0.1520016  0.285675   1.83061    6.037761   2.363      0.229393   0.4548578  56.09568   0.405071   0.3113555  0.4987865 
1078       0.243      308.28     0          0          5.426      2.641999959945679 3.581000089645386 1.861999988555908 2.565000057220459 1.320999979972839 2.295      2.02       2.07       1.189      4.546999931335449 0.1650887  0.1650887  0.300525   3.19891    8.009058   2.295      0.2729854  0.4806978  56.74191   0.4104129  0.2774289  0.5433969 
1078.2     0.224      307.01     0          0          5.655      2.311000108718872 2.996999979019165 1.708999991416931 2.311000108718872 1.651000022888184 2.618      1.893      2.184      1.154      5.23199987411499 0.147579   0.147579   0.31015    1.515929   5.568246   2.618      0.2464421  0.5019954  58.27714   0.4926394  0.3218196  0.6634593 
1078.4     0.224      307.01     0          0          5.655      2.311000108718872 2.996999979019165 1.708999991416931 2.311000108718872 1.651000022888184 2.618      1.893      2.184      1.154      5.23199987411499 0.1456275  0.1456275  0.31015    1.394867   5.568246   2.618      0.2376548  0.4994748  58.41537   0.4985529  0.3218196  0.6752863 
1078.6     0.224      266.37     0          0          5.388      2.361999988555908 2.921000003814697 1.582000017166138 3.937000036239624 3.785000085830689 3.237      2.121      2.134      1.291      5.89300012588501 0.1029709  0.1029709  0.272475   0.226167   8.507013   3.237      0.06674189 0.4449754  59.31561   0.5136487  0.2706794  0.7566181 
1078.8     0.224      266.37     0          0          5.388      2.361999988555908 2.921000003814697 1.582000017166138 3.937000036239624 3.785000085830689 3.237      2.121      2.134      1.291      5.89300012588501 0.1007989  0.1007989  0.272475   0.2061572  8.507013   3.237      0.0492515  0.4407406  59.45383   0.5202305  0.2706794  0.7697816 
1079       0.227      238.43     0          0          5.477      2.413000106811523 3.098999977111816 1.50600004196167 5.359000205993652 5.257999897003174 4.211      1.956      2.121      1.339      5.587999820709229 0.07996079 0.07996079 0.259275   0.08476683 7.386253   4.211      0          0.4512353  60.22707   0.5433764  0.2867528  0.8       
1079.2     0.225      183.82     1          2          5.312      3.072999954223633 4.85099983215332 2.115999937057495 8.305999755859375 8.357000350952148 25.999     1.626      2.781      1.354      5.435999870300293 0.1059074  0.1059074  0.25515    0.2563427  9.597728   25.999     0.6574138  0.7978502  58.0793    0.4522502  0.2576689  0.6468314 
1079.4     0.225      183.82     1          2          5.312      3.072999954223633 4.85099983215332 2.115999937057495 8.305999755859375 8.357000350952148 25.999     1.626      2.781      1.354      5.435999870300293 0.1039966  0.1039966  0.25515    0.2362806  9.597728   25.999     0.651938   0.7964982  58.21753   0.4580405  0.2576689  0.6584121 
1079.6     0.222      136.83     1          2          4.22       7.263999938964844 9.093000411987305 3.157000064849854 10.26200008392334 10.26200008392334 36.929     2.502      3.543      1.415      5.918000221252441 0.1340117  0.1340117  0.238375   0.8499219  54.31839   36.929     0.7632862  0.8382683  56.19676   0.3162526  0.1269631  0.5055421 
1079.8     0.222      136.83     1          2          4.22       7.263999938964844 9.093000411987305 3.157000064849854 10.26200008392334 10.26200008392334 36.929     2.502      3.543      1.415      5.918000221252441 0.1324655  0.1324655  0.238375   0.7956836  54.31839   36.929     0.7608815  0.8375272  56.33499   0.3209379  0.1269631  0.5149127 
1080       0.221      120.32     1          2          3.572      9.270999908447266 8.00100040435791 4.172999858856201 10.21100044250488 10.26200008392334 19.407     2.756      3.785      1.41       6.552999973297119 0.1504203  0.1504203  0.23975    1.711222   151.9324   19.407     0.7104992  0.7876819  55.45723   0.2706962  0.08342063 0.4579717 
1080.2     0.224      124.13     1          2          3.572      10.03299999237061 24.63800048828125 7.577000141143799 8.687000274658203 8.585000038146973 5.36       2.731      3.721      1.263      9.956999778747559 0.1706085  0.1706085  0.280175   4.048009   151.9324   5.36       0.5255014  0.6501103  57.24645   0.3320197  0.08342063 0.5806186 
1080.4     0.224      124.13     1          2          3.572      10.03299999237061 24.63800048828125 7.577000141143799 8.687000274658203 8.585000038146973 5.36       2.731      3.721      1.263      9.956999778747559 0.1688639  0.1688639  0.280175   3.757745   151.9324   5.36       0.5212346  0.6486669  57.38469   0.3373064  0.08342063 0.5911921 
1080.6     0.228      176.2      -9999      -9999      4.486      4.801000118255615 9.321999549865723 8.288000106811523 5.715000152587891 5.282999992370606 2.149      1.918      2.299      1.271      10.00800037384033 0.1398936  0.1398936  0.277975   1.092264   35.61047   2.149      0.1338815  0.3997143  58.53892   0.4184284  0.1508528  0.686004  
1080.8     0.228      176.2      -9999      -9999      4.486      4.801000118255615 9.321999549865723 8.288000106811523 5.715000152587891 5.282999992370606 2.149      1.918      2.299      1.271      10.00800037384033 0.1378877  0.1378877  0.277975   1.002703   35.61047   2.149      0.1229176  0.3963733  58.67715   0.4245071  0.1508528  0.6981613 
1081       0.232      207.95     -9999      -9999      5.35       2.971999883651733 8.432999610900879 7.271999835968018 4.242000102996826 3.631999969482422 2.618      2.261      1.918      1.26       9.982000350952148 0.1104652  0.1104652  0.281      0.3113447  9.035929   2.618      0.03020115 0.4099916  59.45038   0.5167722  0.264094   0.7694503 
1081.2     0.228      242.24     -9999      -9999      6.455      2.591000080108643 5.385000228881836 4.808000087738037 1.777999997138977 1.702000021934509 2.796      2.096      2.21       1.339      5.054999828338623 0.0507952  0.0507952  0.259275   0.02443478 1.563985   2.796      0          0.2248567  58.95361   0.631757   0.5405085  0.7230054 
1081.4     0.228      242.24     -9999      -9999      6.455      2.591000080108643 5.385000228881836 4.808000087738037 1.777999997138977 1.702000021934509 2.796      2.096      2.21       1.339      5.054999828338623 0.04870148 0.04870148 0.259275   0.02234744 1.563985   2.796      0          0.2156593  59.09184   0.6381016  0.5405085  0.7356947 
1081.6     0.219      265.1      -9999      -9999      6.531      2.641999959945679 3.937000036239624 4.249000072479248 1.269999980926514 1.14300000667572 2.837      2.045      1.93       1.377      3.530999898910523 0.02764481 0.02764481 0.248825   0.00910347 1.386249   2.837      0          0.07726726 59.48407   0.670243   0.5678003  0.7726858 
1081.8     0.219      265.1      -9999      -9999      6.531      2.641999959945679 3.937000036239624 4.249000072479248 1.269999980926514 1.14300000667572 2.837      2.045      1.93       1.377      3.530999898910523 0.0254359  0.0254359  0.248825   0.008285002 1.386249   2.837      0          0.06119723 59.6223    0.6769367  0.5678003  0.7860731 
1082       0.217      272.72     -9999      -9999      6.137      2.743000030517578 3.861000061035156 3.818000078201294 1.041000008583069 1.041000008583069 2.986      1.931      1.88       1.385      3.70799994468689 0.04820951 0.04820951 0.246625   0.02188342 2.590886   2.986      0          0.2109539  59.37954   0.6012591  0.4398347  0.7626835 
1082.2     0.222      263.83     -9999      -9999      6.049      2.717999935150147 3.581000089645386 4.275000095367432 0.9909999966621399 0.9139999747276306 2.796      2.363      2.451      1.311      4.36899995803833 0.1202801  0.1202801  0.266975   0.4731916  2.979284   2.796      0.1268711  0.4285139  55.70777   0.44453    0.4154497  0.4736104 
