~Version
 VERS              .         2.0                           : CWLS LOG ASCII STANDARD - VERSION 2.0
 WRAP              .         NO                            : ONE LINE PER DEPTH STEP
 DLM               .         SPACE                         : DELIMITING CHARACTER(SPACE TAB OR COMMA)
~Well Information
#_______________________________________________________________________________
#
#PARAMETER_NAME    .UNIT     VALUE                         : DESCRIPTION
#_______________________________________________________________________________
STRT               .M        880                           : First reference value
STOP               .M        1156.8                        : Last reference value
STEP               .M        0.2                           : Step increment
NULL               .         -9999                         : Missing value
COMP               .                                       : Company
WELL               .         5523                          : Well name
FLD                .         УЗЕНЬ                         : Field
LOC                .                                       : Location
CNTY               .                                       : County
STAT               .                                       : State
CTRY               .                                       : Country
SRVC               .                                       : Service Company
DATE               .         11.04.1992г                   : Date
UWI                .                                       : Unique Well ID
Block              .         7                             : 
Category           .         Нагнетательная                : 
Condition          .         Ликвидированная               : 
EREF               .m        84.5                          : 100.8
Gorizont           .         14                            : 14
Interpretator      .         Кушнир И.Е.                   : 
Kupol              .         основной                      : osnovnoi
Mud                .                                       : 
Mud_density        .                                       : 
Mud_resistivity    .                                       : 
NGDU               .         НГДУ-2                        : 
ORIGINALWELLNAME   .         5523                          : 
Spud_date          .         1992                          : 1961
Viscosity          .                                       : 
X                  .m        42337.8                       : 46154
Y                  .m        83848.03                      : 85761.93
YEAR               .         2019г                         : 
~Parameter Information Block
#_______________________________________________________________________________
#
#PARAMETER_NAME    .UNIT     VALUE                         : DESCRIPTION
#_______________________________________________________________________________
SET                .         LQC_KAZNIPI_Petrel            : 
TLFamily_CALI      .         Caliper                       : 
TLFamily_CILD      .         Conductivity                  : 
TLFamily_COLL      .         Net Reservoir Flag            : 
TLFamily_CSAT      .         Fluid Code                    : 
TLFamily_DEPT      .         Measured Depth                : 
TLFamily_GR        .         Russian Gamma Ray             : 
TLFamily_GZ1       .         Gradient 045                  : 
TLFamily_GZ2       .         Gradient 105                  : 
TLFamily_GZ3       .         Gradient 225                  : 
TLFamily_GZ4       .         Gradient 425                  : 
TLFamily_GZ5       .         Gradient 850                  : 
TLFamily_LLS       .         Lateral Log Resistivity       : 
TLFamily_MINV      .         Micro Gradient Resistivity    : 
TLFamily_MNOR      .         Micro Resistivity             : 
TLFamily_NGLD      .         Neutron Gamma                 : 
TLFamily_OGZ       .         Gradient Inverted 225         : 
TLFamily_PHIE      .         Effective Porosity            : 
TLFamily_PHIEN     .         Effective Porosity            : 
TLFamily_PHIT      .         Porosity                      : 
TLFamily_PRMB      .         Permeability                  : 
TLFamily_PRMB_DGR  .         Permeability                  : 
TLFamily_RT        .         Formation Resistivity         : 
TLFamily_SOIL_ARCHIE .         Oil Saturation                : 
TLFamily_SOIL_DW   .         Oil Saturation                : 
TLFamily_SP        .         Spontaneous Potential         : 
TLFamily_VSH_FIN   .         Shale Volume                  : 
TLFamily_VSH_GR    .         Shale Volume                  : 
TLFamily_VSH_SP    .         Shale Volume                  : 
~Curve Information
#_______________________________________________________________________________
#
#LOGNAME           .UNIT     LOG_ID                        : DESCRIPTION
#_______________________________________________________________________________
DEPT               .M                                      : Колонка глубины 
CALI               .м                                      : Каверномер 
CILD               .мСм/м                                  : Индукционный каротаж 
COLL               .unitless                               : Описание 
CSAT               .unitless                               : Описание 
GR                 .uR/h                                   : Гамма каротаж 
GZ1                .ohmm                                   : Градиент-зонд  длиной 0.45м 
GZ2                .ohmm                                   : Градиент-зонд  длиной 1.05м 
GZ3                .ohmm                                   : Градиент-зонд  длиной 2.25м 
GZ4                .ohmm                                   : Градиент-зонд  длиной 4.5м 
GZ5                .ohmm                                   : Градиент-зонд  длиной 8.5м 
LLS                .Ohmm                                   : Боковой каротаж 
MINV               .Ohmm                                   : Микро-градиент зонд 
MNOR               .Ohmm                                   : Микро-потенциал зонд 
NGLD               .у.е.                                   : Показания зонда НГК-60 аппаратуры ДРСТ-3-90 
OGZ                .ohmm                                   : Обращенный градиент-зонд 
PHIE               .v/v                                    : Описание 
PHIEN              .v/v                                    :  
PHIT               .v/v                                    : Описание 
PRMB               .mD                                     :  
PRMB_DGR           .mD                                     :  
RT                 .ohmm                                   : Description 
SOIL_ARCHIE        .v/v                                    :  
SOIL_DW            .v/v                                    :  
SP                 .мВ                                     : Потенциал самополяризации 
VSH_FIN            .v/v                                    : Описание 
VSH_GR             .v/v                                    : Shale volume 
VSH_SP             .v/v                                    : Shale Volume 
~Ascii
# ...
1146.8     0.2        310.82     -9999      -9999      -9999      1.726999998092651 2.158999919891357 1.125      1.626000046730042 1.600000023841858 2.879      1.258      1.854      -9999      0          -9999      -9999      -9999      -9999      -9999      3.217      -9999      -9999      55.93486   0.449733   -9999      0.449733  
1147       0.2        285.42     1          2          -9999      1.828999996185303 2.336999893188477 1.100000023841858 0          1.702000021934509 3.508      1.855      2.337      -9999      0          -9999      -9999      -9999      -9999      -9999      3.504      -9999      -9999      54.02986   0.403761   -9999      0.4037607 
1147.2     0.2        237.16     1          2          -9999      1.828999996185303 3.631999969482422 0.6430000066757202 0          1.980999946594238 5.205      2.833      2.959      -9999      0          -9999      -9999      -9999      -9999      -9999      4.217      -9999      -9999      53.64886   0.395125   -9999      0.395125  
1147.4     0.2        237.16     1          2          -9999      1.828999996185303 3.631999969482422 0.6430000066757202 0          1.980999946594238 5.205      2.833      2.959      -9999      0          -9999      -9999      -9999      -9999      -9999      4.217      -9999      -9999      53.64886   0.395125   -9999      0.395125  
1147.6     0.2        196.52     1          2          -9999      1.828999996185303 4.064000129699707 0.6679999828338623 0          2.437999963760376 4.497      2.35       2.375      -9999      0          -9999      -9999      -9999      -9999      -9999      5.089      -9999      -9999      54.28386   0.40962    -9999      0.4096196 
1147.8     0.2        196.52     1          2          -9999      1.828999996185303 4.064000129699707 0.6679999828338623 0          2.437999963760376 4.497      2.35       2.375      -9999      0          -9999      -9999      -9999      -9999      -9999      5.089      -9999      -9999      54.28386   0.40962    -9999      0.4096196 
1148       0.2        178.74     1          2          -9999      1.879999995231628 4.064000129699707 0.7440000176429749 0          2.641999959945679 4.273      2.388      2.642      -9999      0          -9999      -9999      -9999      -9999      -9999      5.595      -9999      -9999      54.91886   0.424628   -9999      0.424628  
1148.2     0.2        145.72     1          2          -9999      -9999      -9999      1.02400004863739 0          3.023000001907349 5.981      2.579      3.188      -9999      0          -9999      -9999      -9999      -9999      -9999      6.862      -9999      -9999      55.17286   0.430777   -9999      0.4307771 
1148.4     0.2        145.72     1          2          -9999      -32768     -32768     1.02400004863739 0          3.023000001907349 5.981      2.579      3.188      -9999      0          -9999      -9999      -9999      -9999      -9999      6.862      -9999      -9999      55.17286   0.430777   -9999      0.4307771 
1148.6     0.2        111.43     1          2          -9999      -32768     -32768     1.277999997138977 0          3.023000001907349 7.613      2.261      2.565      -9999      0          -9999      -9999      -9999      -9999      -9999      8.974      -9999      -9999      55.29986   0.433883   -9999      0.4338834 
1148.8     0.2        111.43     1          2          -9999      -32768     -32768     1.277999997138977 0          3.023000001907349 7.613      2.261      2.565      -9999      0          -9999      -9999      -9999      -9999      -9999      8.974      -9999      -9999      55.29986   0.433883   -9999      0.4338834 
1149       0.2        97.46      1          2          -9999      -32768     -32768     1.582000017166138 0          3.04800009727478 8.684      2.922      3.302      -9999      0          -9999      -9999      -9999      -9999      -9999      10.261     -9999      -9999      55.55386   0.440159   -9999      0.4401592 
1149.2     0.2        72.06      1          2          -9999      -32768     -32768     2.369999885559082 0          3.072999954223633 10.425     3.264      3.454      -9999      0          -9999      -9999      -9999      -9999      -9999      13.877     -9999      -9999      55.93486   0.449733   -9999      0.449733  
1149.4     0.2        72.06      1          2          -9999      -32768     -32768     2.369999885559082 0          3.072999954223633 10.425     3.264      3.454      -9999      0          -9999      -9999      -9999      -9999      -9999      13.877     -9999      -9999      55.93486   0.449733   -9999      0.449733  
1149.6     0.2        55.55      1          2          -9999      -32768     -32768     2.953999996185303 0          3.072999954223633 11.465     2.909      3.302      -9999      0          -9999      -9999      -9999      -9999      -9999      18.002     -9999      -9999      56.82386   0.472828   -9999      0.4728283 
1149.8     0.2        55.55      1          2          -9999      -32768     -32768     2.953999996185303 0          3.072999954223633 11.465     2.909      3.302      -9999      0          -9999      -9999      -9999      -9999      -9999      18.002     -9999      -9999      56.82386   0.472828   -9999      0.4728283 
1150       -9999      49.2       1          2          -9999      -32768     -32768     3.513000011444092 0          3.072999954223633 10.735     2.528      2.997      -9999      0          -9999      -9999      -9999      -9999      -9999      20.325     -9999      -9999      -9999      -9999      -9999      -9999     
1150.2     -9999      47.93      1          2          -9999      -32768     -32768     3.97000002861023 0          3.023000001907349 11.465     1.855      2.832      -9999      0          -9999      -9999      -9999      -9999      -9999      20.864     -9999      -9999      -9999      -9999      -9999      -9999     
1150.4     -9999      47.93      1          2          -9999      -32768     -32768     3.97000002861023 0          3.023000001907349 11.465     1.855      2.832      -9999      0          -9999      -9999      -9999      -9999      -9999      20.864     -9999      -9999      -9999      -9999      -9999      -9999     
1150.6     -9999      60.63      1          2          -9999      -32768     -32768     3.97000002861023 0          2.84500002861023 9.007      2.312      3.137      -9999      0          -9999      -9999      -9999      -9999      -9999      16.493     -9999      -9999      -9999      -9999      -9999      -9999     
1150.8     -9999      60.63      1          2          -9999      -32768     -32768     3.97000002861023 0          2.84500002861023 9.007      2.312      3.137      -9999      0          -9999      -9999      -9999      -9999      -9999      16.493     -9999      -9999      -9999      -9999      -9999      -9999     
1151       -9999      78.41      1          2          -9999      -32768     -32768     3.944999933242798 0          2.819000005722046 7.669      1.931      2.87       -9999      0          -9999      -9999      -9999      -9999      -9999      12.753     -9999      -9999      -9999      -9999      -9999      -9999     
1151.2     -9999      115.24     1          2          -9999      -32768     -32768     3.97000002861023 -9999      -9999      5.439      1.245      1.829      -9999      0          -9999      -9999      -9999      -9999      -9999      8.678      -9999      -9999      -9999      -9999      -9999      -9999     
1151.4     -9999      115.24     -9999      -9999      -9999      -32768     -32768     3.97000002861023 -32768     -32768     5.439      1.245      1.829      -9999      0          -9999      -9999      -9999      -9999      -9999      8.678      -9999      -9999      -9999      -9999      -9999      -9999     
1151.6     -9999      160.96     -9999      -9999      -9999      -32768     -32768     3.994999885559082 -32768     -32768     3.638      1.169      1.613      -9999      0          -9999      -9999      -9999      -9999      -9999      6.213      -9999      -9999      -9999      -9999      -9999      -9999     
