~Version
 VERS              .         2.0                           : CWLS LOG ASCII STANDARD - VERSION 2.0
 WRAP              .         NO                            : ONE LINE PER DEPTH STEP
 DLM               .         SPACE                         : DELIMITING CHARACTER(SPACE TAB OR COMMA)
~Well Information
#_______________________________________________________________________________
#
#PARAMETER_NAME    .UNIT     VALUE                         : DESCRIPTION
#_______________________________________________________________________________
STRT               .M        880                           : First reference value
STOP               .M        1156.8                        : Last reference value
STEP               .M        0.2                           : Step increment
NULL               .         -9999                         : Missing value
COMP               .                                       : Company
WELL               .         5523                          : Well name
FLD                .         УЗЕНЬ                         : Field
LOC                .                                       : Location
CNTY               .                                       : County
STAT               .                                       : State
CTRY               .                                       : Country
SRVC               .                                       : Service Company
DATE               .         11.04.1992г                   : Date
UWI                .                                       : Unique Well ID
Block              .         7                             : 
Category           .         Нагнетательная                : 
Condition          .         Ликвидированная               : 
EREF               .m        84.5                          : 100.8
Gorizont           .         14                            : 14
Interpretator      .         Кушнир И.Е.                   : 
Kupol              .         основной                      : osnovnoi
Mud                .                                       : 
Mud_density        .                                       : 
Mud_resistivity    .                                       : 
NGDU               .         НГДУ-2                        : 
ORIGINALWELLNAME   .         5523                          : 
Spud_date          .         1992                          : 1961
Viscosity          .                                       : 
X                  .m        42337.8                       : 46154
Y                  .m        83848.03                      : 85761.93
YEAR               .         2019г                         : 
~Parameter Information Block
#_______________________________________________________________________________
#
#PARAMETER_NAME    .UNIT     VALUE                         : DESCRIPTION
#_______________________________________________________________________________
SET                .         LQC_KAZNIPI_Petrel            : 
TLFamily_CALI      .         Caliper                       : 
TLFamily_CILD      .         Conductivity                  : 
TLFamily_COLL      .         Net Reservoir Flag            : 
TLFamily_CSAT      .         Fluid Code                    : 
TLFamily_DEPT      .         Measured Depth                : 
TLFamily_GR        .         Russian Gamma Ray             : 
TLFamily_GZ1       .         Gradient 045                  : 
TLFamily_GZ2       .         Gradient 105                  : 
TLFamily_GZ3       .         Gradient 225                  : 
TLFamily_GZ4       .         Gradient 425                  : 
TLFamily_GZ5       .         Gradient 850                  : 
TLFamily_LLS       .         Lateral Log Resistivity       : 
TLFamily_MINV      .         Micro Gradient Resistivity    : 
TLFamily_MNOR      .         Micro Resistivity             : 
TLFamily_NGLD      .         Neutron Gamma                 : 
TLFamily_OGZ       .         Gradient Inverted 225         : 
TLFamily_PHIE      .         Effective Porosity            : 
TLFamily_PHIEN     .         Effective Porosity            : 
TLFamily_PHIT      .         Porosity                      : 
TLFamily_PRMB      .         Permeability                  : 
TLFamily_PRMB_DGR  .         Permeability                  : 
TLFamily_RT        .         Formation Resistivity         : 
TLFamily_SOIL_ARCHIE .         Oil Saturation                : 
TLFamily_SOIL_DW   .         Oil Saturation                : 
TLFamily_SP        .         Spontaneous Potential         : 
TLFamily_VSH_FIN   .         Shale Volume                  : 
TLFamily_VSH_GR    .         Shale Volume                  : 
TLFamily_VSH_SP    .         Shale Volume                  : 
~Curve Information
#_______________________________________________________________________________
#
#LOGNAME           .UNIT     LOG_ID                        : DESCRIPTION
#_______________________________________________________________________________
DEPT               .M                                      : Колонка глубины 
CALI               .м                                      : Каверномер 
CILD               .мСм/м                                  : Индукционный каротаж 
COLL               .unitless                               : Описание 
CSAT               .unitless                               : Описание 
GR                 .uR/h                                   : Гамма каротаж 
GZ1                .ohmm                                   : Градиент-зонд  длиной 0.45м 
GZ2                .ohmm                                   : Градиент-зонд  длиной 1.05м 
GZ3                .ohmm                                   : Градиент-зонд  длиной 2.25м 
GZ4                .ohmm                                   : Градиент-зонд  длиной 4.5м 
GZ5                .ohmm                                   : Градиент-зонд  длиной 8.5м 
LLS                .Ohmm                                   : Боковой каротаж 
MINV               .Ohmm                                   : Микро-градиент зонд 
MNOR               .Ohmm                                   : Микро-потенциал зонд 
NGLD               .у.е.                                   : Показания зонда НГК-60 аппаратуры ДРСТ-3-90 
OGZ                .ohmm                                   : Обращенный градиент-зонд 
PHIE               .v/v                                    : Описание 
PHIEN              .v/v                                    :  
PHIT               .v/v                                    : Описание 
PRMB               .mD                                     :  
PRMB_DGR           .mD                                     :  
RT                 .ohmm                                   : Description 
SOIL_ARCHIE        .v/v                                    :  
SOIL_DW            .v/v                                    :  
SP                 .мВ                                     : Потенциал самополяризации 
VSH_FIN            .v/v                                    : Описание 
VSH_GR             .v/v                                    : Shale volume 
VSH_SP             .v/v                                    : Shale Volume 
~Ascii
880.0      0.267      256.21     -9999      -9999      -9999      2.28600001335144 3.174999952316284 2.446000099182129 3.250999927520752 2.565000057220459 3.357      1.715      2.451      -9999      4.775000095367432 -9999      -9999      -9999      -9999      -9999      3.903      -9999      -9999      54.49152   -9999      -9999      0.5564556 
880.2000000000001 0.254      246.05     -9999      -9999      -9999      2.28600001335144 3.174999952316284 3.029999971389771 3.250999927520752 2.565000057220459 3.585      3.798      1.765      -9999      5.156000137329102 -9999      -9999      -9999      -9999      -9999      4.064      -9999      -9999      55.12652   -9999      -9999      0.5762675 
880.4      0.254      246.05     -9999      -9999      -9999      2.28600001335144 3.174999952316284 3.029999971389771 3.250999927520752 2.565000057220459 3.585      3.798      1.765      -9999      5.156000137329102 -9999      -9999      -9999      -9999      -9999      4.064      -9999      -9999      55.12652   -9999      -9999      0.5762675 
880.6      0.24       243.51     -9999      -9999      -9999      2.28600001335144 3.174999952316284 3.563999891281128 3.250999927520752 2.565000057220459 2.9        1.842      1.74       -9999      5.51200008392334 -9999      -9999      -9999      -9999      -9999      4.107      -9999      -9999      55.38052   -9999      -9999      0.5843608 
880.8      0.288      246.05     -9999      -9999      -9999      2.28600001335144 3.174999952316284 3.640000104904175 3.250999927520752 2.565000057220459 2.776      1.474      1.575      -9999      5.715000152587891 -9999      -9999      -9999      -9999      -9999      4.064      -9999      -9999      55.76152   -9999      -9999      0.596683  
881        0.292      235.89     -9999      -9999      -9999      2.28600001335144 3.174999952316284 3.131999969482422 3.250999927520752 2.565000057220459 2.817      2.947      1.981      -9999      5.486000061035156 -9999      -9999      -9999      -9999      -9999      4.239      -9999      -9999      55.38052   -9999      -9999      0.5843608 
881.2000000000001 0.278      223.19     -9999      -9999      -9999      2.28600001335144 3.174999952316284 2.624000072479248 3.250999927520752 2.565000057220459 3.382      3.379      2.629      -9999      4.623000144958496 -9999      -9999      -9999      -9999      -9999      4.48       -9999      -9999      54.23752   -9999      -9999      0.5486977 
881.4      0.278      223.19     -9999      -9999      -9999      2.28600001335144 3.174999952316284 2.624000072479248 3.250999927520752 2.565000057220459 3.382      3.379      2.629      -9999      4.623000144958496 -9999      -9999      -9999      -9999      -9999      4.48       -9999      -9999      54.23752   -9999      -9999      0.5486977 
881.6      0.269      205.41     -9999      -9999      -9999      2.28600001335144 3.174999952316284 2.674999952316284 3.250999927520752 2.565000057220459 4.497      1.385      2.413      -9999      4.394000053405762 -9999      -9999      -9999      -9999      -9999      4.868      -9999      -9999      53.98352   -9999      -9999      0.5410343 
881.8      0.262      210.49     -9999      -9999      -9999      2.28600001335144 3.174999952316284 3.005000114440918 3.250999927520752 2.565000057220459 3.719      2.261      1.664      -9999      4.46999979019165 -9999      -9999      -9999      -9999      -9999      4.751      -9999      -9999      54.36452   -9999      -9999      0.5525647 
882        0.259      210.49     -9999      -9999      -9999      2.28600001335144 3.174999952316284 3.259000062942505 3.250999927520752 2.565000057220459 3.665      1.829      2.159      -9999      4.546999931335449 -9999      -9999      -9999      -9999      -9999      4.751      -9999      -9999      54.87252   -9999      -9999      0.5682709 
882.2000000000001 0.274      221.92     -9999      -9999      -9999      2.28600001335144 3.174999952316284 3.437000036239624 3.250999927520752 2.565000057220459 3.053      1.74       1.676      -9999      4.64799976348877 -9999      -9999      -9999      -9999      -9999      4.506      -9999      -9999      54.87252   -9999      -9999      0.5682709 
882.4      0.274      221.92     -9999      -9999      -9999      2.28600001335144 3.174999952316284 3.437000036239624 3.250999927520752 2.565000057220459 3.053      1.74       1.676      -9999      4.64799976348877 -9999      -9999      -9999      -9999      -9999      4.506      -9999      -9999      54.87252   -9999      -9999      0.5682709 
882.6      0.29       246.05     -9999      -9999      -9999      2.28600001335144 3.174999952316284 3.486999988555908 3.250999927520752 2.565000057220459 2.599      0.966      1.08       -9999      3.937000036239624 -9999      -9999      -9999      -9999      -9999      4.064      -9999      -9999      54.87252   -9999      -9999      0.5682709 
882.8      0.296      242.24     -9999      -9999      -9999      2.28600001335144 3.174999952316284 3.486999988555908 3.250999927520752 2.565000057220459 2.986      3.391      2.045      -9999      3.505000114440918 -9999      -9999      -9999      -9999      -9999      4.128      -9999      -9999      54.61852   -9999      -9999      0.5603701 
883        0.292      235.89     -9999      -9999      -9999      2.28600001335144 3.174999952316284 3.58899998664856 3.250999927520752 2.565000057220459 3.075      3.912      2.184      -9999      3.505000114440918 -9999      -9999      -9999      -9999      -9999      4.239      -9999      -9999      54.36452   -9999      -9999      0.5525647 
883.2000000000001 0.29       260.02     -9999      -9999      -9999      2.28600001335144 3.174999952316284 3.818000078201294 3.250999927520752 2.565000057220459 2.637      2.35       1.778      -9999      3.555999994277954 -9999      -9999      -9999      -9999      -9999      3.846      -9999      -9999      53.98352   -9999      -9999      0.5410343 
883.4      0.29       260.02     -9999      -9999      -9999      2.28600001335144 3.174999952316284 3.818000078201294 3.250999927520752 2.565000057220459 2.637      2.35       1.778      -9999      3.555999994277954 -9999      -9999      -9999      -9999      -9999      3.846      -9999      -9999      53.98352   -9999      -9999      0.5410343 
883.6      0.29       277.8      -9999      -9999      -9999      2.28600001335144 3.174999952316284 3.918999910354614 3.250999927520752 2.565000057220459 2.524      1.08       0.914      -9999      3.835000038146973 -9999      -9999      -9999      -9999      -9999      3.6        -9999      -9999      53.98352   -9999      -9999      0.5410343 
883.8      0.289      280.34     -9999      -9999      -9999      2.28600001335144 3.174999952316284 3.513000011444092 3.250999927520752 2.565000057220459 2.524      1.74       1.283      -9999      3.98799991607666 -9999      -9999      -9999      -9999      -9999      3.567      -9999      -9999      54.23752   -9999      -9999      0.5486977 
884        0.286      282.88     -9999      -9999      -9999      2.28600001335144 3.174999952316284 3.335000038146973 3.250999927520752 2.565000057220459 2.637      2.071      1.499      -9999      4.089000225067139 -9999      -9999      -9999      -9999      -9999      3.535      -9999      -9999      54.49152   -9999      -9999      0.5564556 
884.2000000000001 0.282      286.69     -9999      -9999      -9999      2.28600001335144 3.174999952316284 3.359999895095825 3.250999927520752 2.565000057220459 2.922      1.677      1.803      -9999      4.216000080108643 -9999      -9999      -9999      -9999      -9999      3.488      -9999      -9999      54.36452   -9999      -9999      0.5525647 
884.4      0.282      286.69     -9999      -9999      -9999      2.28600001335144 3.174999952316284 3.359999895095825 3.250999927520752 2.565000057220459 2.922      1.677      1.803      -9999      4.216000080108643 -9999      -9999      -9999      -9999      -9999      3.488      -9999      -9999      54.36452   -9999      -9999      0.5525647 
