~Version
 VERS              .         2.0                           : CWLS LOG ASCII STANDARD - VERSION 2.0
 WRAP              .         NO                            : ONE LINE PER DEPTH STEP
 DLM               .         SPACE                         : DELIMITING CHARACTER(SPACE TAB OR COMMA)
~Well Information
#_______________________________________________________________________________
#
#PARAMETER_NAME    .UNIT     VALUE                         : DESCRIPTION
#_______________________________________________________________________________
STRT               .M        880                           : First reference value
STOP               .M        1156.8                        : Last reference value
STEP               .M        0.2                           : Step increment
NULL               .         -9999                         : Missing value
COMP               .                                       : Company
WELL               .         5523                          : Well name
FLD                .         УЗЕНЬ                         : Field
LOC                .                                       : Location
CNTY               .                                       : County
STAT               .                                       : State
CTRY               .                                       : Country
SRVC               .                                       : Service Company
DATE               .         11.04.1992г                   : Date
UWI                .                                       : Unique Well ID
Block              .         7                             : 
Category           .         Нагнетательная                : 
Condition          .         Ликвидированная               : 
EREF               .m        84.5                          : 100.8
Gorizont           .         14                            : 14
Interpretator      .         Кушнир И.Е.                   : 
Kupol              .         основной                      : osnovnoi
Mud                .                                       : 
Mud_density        .                                       : 
Mud_resistivity    .                                       : 
NGDU               .         НГДУ-2                        : 
ORIGINALWELLNAME   .         5523                          : 
Spud_date          .         1992                          : 1961
Viscosity          .                                       : 
X                  .m        42337.8                       : 46154
Y                  .m        83848.03                      : 85761.93
YEAR               .         2019г                         : 
~Parameter Information Block
#_______________________________________________________________________________
#
#PARAMETER_NAME    .UNIT     VALUE                         : DESCRIPTION
#_______________________________________________________________________________
SET                .         LQC_KAZNIPI_Petrel            : 
TLFamily_CALI      .         Caliper                       : 
TLFamily_CILD      .         Conductivity                  : 
TLFamily_COLL      .         Net Reservoir Flag            : 
TLFamily_CSAT      .         Fluid Code                    : 
TLFamily_DEPT      .         Measured Depth                : 
TLFamily_GR        .         Russian Gamma Ray             : 
TLFamily_GZ1       .         Gradient 045                  : 
TLFamily_GZ2       .         Gradient 105                  : 
TLFamily_GZ3       .         Gradient 225                  : 
TLFamily_GZ4       .         Gradient 425                  : 
TLFamily_GZ5       .         Gradient 850                  : 
TLFamily_LLS       .         Lateral Log Resistivity       : 
TLFamily_MINV      .         Micro Gradient Resistivity    : 
TLFamily_MNOR      .         Micro Resistivity             : 
TLFamily_NGLD      .         Neutron Gamma                 : 
TLFamily_OGZ       .         Gradient Inverted 225         : 
TLFamily_PHIE      .         Effective Porosity            : 
TLFamily_PHIEN     .         Effective Porosity            : 
TLFamily_PHIT      .         Porosity                      : 
TLFamily_PRMB      .         Permeability                  : 
TLFamily_PRMB_DGR  .         Permeability                  : 
TLFamily_RT        .         Formation Resistivity         : 
TLFamily_SOIL_ARCHIE .         Oil Saturation                : 
TLFamily_SOIL_DW   .         Oil Saturation                : 
TLFamily_SP        .         Spontaneous Potential         : 
TLFamily_VSH_FIN   .         Shale Volume                  : 
TLFamily_VSH_GR    .         Shale Volume                  : 
TLFamily_VSH_SP    .         Shale Volume                  : 
~Curve Information
#_______________________________________________________________________________
#
#LOGNAME           .UNIT     LOG_ID                        : DESCRIPTION
#_______________________________________________________________________________
DEPT               .M                                      : Колонка глубины 
CALI               .м                                      : Каверномер 
CILD               .мСм/м                                  : Индукционный каротаж 
COLL               .unitless                               : Описание 
CSAT               .unitless                               : Описание 
GR                 .uR/h                                   : Гамма каротаж 
GZ1                .ohmm                                   : Градиент-зонд  длиной 0.45м 
GZ2                .ohmm                                   : Градиент-зонд  длиной 1.05м 
GZ3                .ohmm                                   : Градиент-зонд  длиной 2.25м 
GZ4                .ohmm                                   : Градиент-зонд  длиной 4.5м 
GZ5                .ohmm                                   : Градиент-зонд  длиной 8.5м 
LLS                .Ohmm                                   : Боковой каротаж 
MINV               .Ohmm                                   : Микро-градиент зонд 
MNOR               .Ohmm                                   : Микро-потенциал зонд 
NGLD               .у.е.                                   : Показания зонда НГК-60 аппаратуры ДРСТ-3-90 
OGZ                .ohmm                                   : Обращенный градиент-зонд 
PHIE               .v/v                                    : Описание 
PHIEN              .v/v                                    :  
PHIT               .v/v                                    : Описание 
PRMB               .mD                                     :  
PRMB_DGR           .mD                                     :  
RT                 .ohmm                                   : Description 
SOIL_ARCHIE        .v/v                                    :  
SOIL_DW            .v/v                                    :  
SP                 .мВ                                     : Потенциал самополяризации 
VSH_FIN            .v/v                                    : Описание 
VSH_GR             .v/v                                    : Shale volume 
VSH_SP             .v/v                                    : Shale Volume 
~Ascii
# ...
1128.4     0.2        266.37     1          2          5.439      5.385000228881836 8.711999893188477 1.988999962806702 3.733999967575073 6.960000038146973 1.764      2.439      2.667      0.958      2.515000104904175 0.2962765  0.2962765  0.36405    860.8287   7.845487   1.764      0.5057255  0.5834562  43.99695   0.2053744  0.2797764  0.1309724 
1128.6     0.2        359.08     1          2          5.439      3.378000020980835 8.026000022888184 2.700000047683716 4.978000164031982 6.452000141143799 2.381      2.706      2.324      0.938      2.717999935150147 0.2975402  0.2975402  0.36955    908.4974   7.845487   2.381      0.572209   0.6451992  46.66395   0.2182116  0.2797764  0.1566469 
1128.8     0.2        359.08     1          2          4.969      3.378000020980835 8.026000022888184 2.700000047683716 4.978000164031982 6.452000141143799 2.381      2.706      2.324      0.938      2.717999935150147 0.3096628  0.3096628  0.36955    1523.576   16.54314   2.381      0.5868323  0.6511367  46.66395   0.1814764  0.206306   0.1566469 
1129       0.2        402.26     1          2          4.969      3.023000001907349 6.401000022888184 3.283999919891357 4.039000034332275 6.045000076293945 1.817      1.829      1.981      0.986      2.895999908447266 0.2888579  0.2888579  0.35635    627.3463   16.54314   1.817      0.5016587  0.5800032  49.20395   0.2045215  0.206306   0.202737  
1129.2     0.2        474.65     -9999      -9999      6.531      1.802999973297119 2.056999921798706 4.020999908447266 1.52400004863739 2.895999908447266 1.251      0.572      0.724      0.986      3.150000095367432 0.221088   0.221088   0.35635    34.85334   1.386249   1.251      0.2505761  0.4348328  50.98195   0.4098848  0.5678003  0.2519693 
1129.4     0.2        474.65     -9999      -9999      6.531      1.802999973297119 2.056999921798706 4.020999908447266 1.52400004863739 2.895999908447266 1.251      0.572      0.724      1.011      3.150000095367432 0.214213   0.214213   0.349475   25.99576   1.386249   1.251      0.2296706  0.420903   50.98195   0.4098848  0.5678003  0.2519693 
1129.6     0.2        526.72     -9999      -9999      6.493      1.269999980926514 1.929999947547913 3.994999885559082 0.8889999985694885 1.345999956130981 1.47       0.699      0.889      1.065      3.04800009727478 0.1949553  0.1949553  0.334625   11.43412   1.472438   1.47       0.2247688  0.4306388  52.12495   0.4232416  0.5539864  0.2924967 
1129.8     0.2        526.72     -9999      -9999      6.315      1.269999980926514 1.929999947547913 3.994999885559082 0.8889999985694885 1.345999956130981 1.47       0.699      0.889      1.095      3.04800009727478 0.1966655  0.1966655  0.326375   12.29927   1.953181   1.47       0.2306434  0.424038   52.12495   0.3930592  0.4936217  0.2924967 
1130       0.2        527.99     -9999      -9999      6.315      1.320999979972839 2.08299994468689 3.283999919891357 0.8130000233650208 1.167999982833862 1.524      0.762      0.978      1.095      2.743000030517578 0.1886879  0.1886879  0.326375   8.752172   1.953181   1.524      0.2157787  0.4249237  53.26795   0.4172336  0.4936217  0.3408454 
1130.2     0.2        548.31     -9999      -9999      6.404      1.396999955177307 1.879999995231628 1.277999997138977 0.7870000004768372 1.041000008583069 1.569      0.597      0.965      1.093      1.269999980926514 0.1738762  0.1738762  0.326925   4.653358   1.695859   1.569      0.1693264  0.4153096  54.53795   0.4637843  0.5229337  0.4046349 
1130.4     0.2        548.31     -9999      -9999      6.607      1.396999955177307 1.879999995231628 1.277999997138977 0.7870000004768372 1.041000008583069 1.569      0.597      0.965      1.06       1.269999980926514 0.1708177  0.1708177  0.336      4.084288   1.228712   1.569      0.1563875  0.4210581  54.53795   0.5005525  0.5964701  0.4046349 
1130.6     0.2        554.66     -9999      -9999      6.468      1.473000049591065 2.006999969482422 0.7440000176429749 0.9399999976158142 1.118000030517578 1.604      0.902      1.13       1.06       1.345999956130981 0.1769678  0.1769678  0.336      5.309234   1.532043   1.604      0.1904053  0.4352014  54.79195   0.4819157  0.545082   0.4187493 
1130.8     0.2        554.66     -9999      -9999      6.468      1.473000049591065 2.006999969482422 0.7440000176429749 0.9399999976158142 1.118000030517578 1.604      0.902      1.13       1.06       1.345999956130981 0.1769678  0.1769678  0.336      5.309234   1.532043   1.604      0.1904053  0.4352014  54.79195   0.4819157  0.545082   0.4187493 
1131       0.2        552.12     -9999      -9999      6.176      1.675999999046326 2.108000040054321 0.6679999828338623 1.016000032424927 1.092000007629395 1.64       0.877      1.08       1.116      1.473000049591065 0.1848956  0.1848956  0.3206     7.445147   2.435361   1.64       0.2287982  0.4351     53.90295   0.4112254  0.4510945  0.3713563 
1131.2     0.2        538.15     -9999      -9999      6.176      1.52400004863739 1.702000021934509 0.7699999809265137 1.092000007629395 1.016000032424927 1.64       1.182      1.232      1.116      1.777999997138977 0.1936426  0.1936426  0.3206     10.81155   2.435361   1.64       0.2592283  0.4454084  52.75995   0.3847195  0.4510945  0.3183444 
1131.4     0.2        538.15     -9999      -9999      6.176      1.52400004863739 1.702000021934509 0.7699999809265137 1.092000007629395 1.016000032424927 1.64       1.182      1.232      1.128      1.777999997138977 0.1903426  0.1903426  0.3173     9.392136   2.435361   1.64       0.2480553  0.4381047  52.75995   0.3847195  0.4510945  0.3183444 
1131.6     0.2        535.61     -9999      -9999      6.214      1.626000046730042 1.753000020980835 0.8709999918937683 1.067000031471252 0.8379999995231628 1.604      0.737      1.067      1.141      1.702000021934509 0.1802276  0.1802276  0.313725   6.101139   2.292808   1.604      0.2031737  0.415377   53.39495   0.4045375  0.4623428  0.3467322 
1131.8     0.2        535.61     -9999      -9999      6.235      1.626000046730042 1.753000020980835 0.8709999918937683 1.067000031471252 0.8379999995231628 1.604      0.737      1.067      1.095      1.702000021934509 0.1918322  0.1918322  0.326375   10.00819   2.21764    1.604      0.2453237  0.4431179  53.39495   0.4077055  0.4686788  0.3467322 
1132       0.2        535.61     -9999      -9999      6.277      1.600000023841858 1.879999995231628 1.02400004863739 1.092000007629395 0.8379999995231628 1.604      1.004      1.08       1.095      1.447999954223633 0.1834947  0.1834947  0.326375   7.013348   2.074618   1.604      0.2155446  0.4332249  54.15695   0.4329705  0.4816125  0.3843286 
1132.2     0.2        529.26     -9999      -9999      6.277      1.626000046730042 2.08299994468689 0.9729999899864197 1.371999979019165 0.8640000224113464 1.616      1.131      1.245      1.095      1.320999979972839 0.1856351  0.1856351  0.326375   7.683718   2.074618   1.616      0.2261397  0.4379135  53.90295   0.4264844  0.4816125  0.3713563 
1132.4     0.2        529.26     -9999      -9999      6.277      1.626000046730042 2.08299994468689 0.9729999899864197 1.371999979019165 0.8640000224113464 1.616      1.131      1.245      1.095      1.320999979972839 0.1856351  0.1856351  0.326375   7.683718   2.074618   1.616      0.2261397  0.4379135  53.90295   0.4264844  0.4816125  0.3713563 
1132.6     0.2        536.88     -9999      -9999      6.176      1.675999999046326 2.056999921798706 0.8460000157356262 1.702000021934509 0.9139999747276306 1.616      1.169      1.232      1.095      1.422000050544739 0.1957049  0.1957049  0.326375   11.8056    2.435361   1.616      0.2609368  0.4495953  53.26795   0.3959699  0.4510945  0.3408454 
1132.8     0.2        536.88     -9999      -9999      6.176      1.675999999046326 2.056999921798706 0.8460000157356262 1.702000021934509 0.9139999747276306 1.616      1.169      1.232      1.072      1.422000050544739 0.2020299  0.2020299  0.3327     15.46116   2.435361   1.616      0.2811301  0.462778   53.26795   0.3959699  0.4510945  0.3408454 
