~Version
 VERS              .         2.0                           : CWLS LOG ASCII STANDARD - VERSION 2.0
 WRAP              .         NO                            : ONE LINE PER DEPTH STEP
 DLM               .         SPACE                         : DELIMITING CHARACTER(SPACE TAB OR COMMA)
~Well Information
#_______________________________________________________________________________
#
#PARAMETER_NAME    .UNIT     VALUE                         : DESCRIPTION
#_______________________________________________________________________________
STRT               .M        880                           : First reference value
STOP               .M        1156.8                        : Last reference value
STEP               .M        0.2                           : Step increment
NULL               .         -9999                         : Missing value
COMP               .                                       : Company
WELL               .         5523                          : Well name
FLD                .         УЗЕНЬ                         : Field
LOC                .                                       : Location
CNTY               .                                       : County
STAT               .                                       : State
CTRY               .                                       : Country
SRVC               .                                       : Service Company
DATE               .         11.04.1992г                   : Date
UWI                .                                       : Unique Well ID
Block              .         7                             : 
Category           .         Нагнетательная                : 
Condition          .         Ликвидированная               : 
EREF               .m        84.5                          : 100.8
Gorizont           .         14                            : 14
Interpretator      .         Кушнир И.Е.                   : 
Kupol              .         основной                      : osnovnoi
Mud                .                                       : 
Mud_density        .                                       : 
Mud_resistivity    .                                       : 
NGDU               .         НГДУ-2                        : 
ORIGINALWELLNAME   .         5523                          : 
Spud_date          .         1992                          : 1961
Viscosity          .                                       : 
X                  .m        42337.8                       : 46154
Y                  .m        83848.03                      : 85761.93
YEAR               .         2019г                         : 
~Parameter Information Block
#_______________________________________________________________________________
#
#PARAMETER_NAME    .UNIT     VALUE                         : DESCRIPTION
#_______________________________________________________________________________
SET                .         LQC_KAZNIPI_Petrel            : 
TLFamily_CALI      .         Caliper                       : 
TLFamily_CILD      .         Conductivity                  : 
TLFamily_COLL      .         Net Reservoir Flag            : 
TLFamily_CSAT      .         Fluid Code                    : 
TLFamily_DEPT      .         Measured Depth                : 
TLFamily_GR        .         Russian Gamma Ray             : 
TLFamily_GZ1       .         Gradient 045                  : 
TLFamily_GZ2       .         Gradient 105                  : 
TLFamily_GZ3       .         Gradient 225                  : 
TLFamily_GZ4       .         Gradient 425                  : 
TLFamily_GZ5       .         Gradient 850                  : 
TLFamily_LLS       .         Lateral Log Resistivity       : 
TLFamily_MINV      .         Micro Gradient Resistivity    : 
TLFamily_MNOR      .         Micro Resistivity             : 
TLFamily_NGLD      .         Neutron Gamma                 : 
TLFamily_OGZ       .         Gradient Inverted 225         : 
TLFamily_PHIE      .         Effective Porosity            : 
TLFamily_PHIEN     .         Effective Porosity            : 
TLFamily_PHIT      .         Porosity                      : 
TLFamily_PRMB      .         Permeability                  : 
TLFamily_PRMB_DGR  .         Permeability                  : 
TLFamily_RT        .         Formation Resistivity         : 
TLFamily_SOIL_ARCHIE .         Oil Saturation                : 
TLFamily_SOIL_DW   .         Oil Saturation                : 
TLFamily_SP        .         Spontaneous Potential         : 
TLFamily_VSH_FIN   .         Shale Volume                  : 
TLFamily_VSH_GR    .         Shale Volume                  : 
TLFamily_VSH_SP    .         Shale Volume                  : 
~Curve Information
#_______________________________________________________________________________
#
#LOGNAME           .UNIT     LOG_ID                        : DESCRIPTION
#_______________________________________________________________________________
DEPT               .M                                      : Колонка глубины 
CALI               .м                                      : Каверномер 
CILD               .мСм/м                                  : Индукционный каротаж 
COLL               .unitless                               : Описание 
CSAT               .unitless                               : Описание 
GR                 .uR/h                                   : Гамма каротаж 
GZ1                .ohmm                                   : Градиент-зонд  длиной 0.45м 
GZ2                .ohmm                                   : Градиент-зонд  длиной 1.05м 
GZ3                .ohmm                                   : Градиент-зонд  длиной 2.25м 
GZ4                .ohmm                                   : Градиент-зонд  длиной 4.5м 
GZ5                .ohmm                                   : Градиент-зонд  длиной 8.5м 
LLS                .Ohmm                                   : Боковой каротаж 
MINV               .Ohmm                                   : Микро-градиент зонд 
MNOR               .Ohmm                                   : Микро-потенциал зонд 
NGLD               .у.е.                                   : Показания зонда НГК-60 аппаратуры ДРСТ-3-90 
OGZ                .ohmm                                   : Обращенный градиент-зонд 
PHIE               .v/v                                    : Описание 
PHIEN              .v/v                                    :  
PHIT               .v/v                                    : Описание 
PRMB               .mD                                     :  
PRMB_DGR           .mD                                     :  
RT                 .ohmm                                   : Description 
SOIL_ARCHIE        .v/v                                    :  
SOIL_DW            .v/v                                    :  
SP                 .мВ                                     : Потенциал самополяризации 
VSH_FIN            .v/v                                    : Описание 
VSH_GR             .v/v                                    : Shale volume 
VSH_SP             .v/v                                    : Shale Volume 
~Ascii
# ...
1091.6     0.22       131.75     1          2          5.02       4.673999786376953 8.73799991607666 4.960999965667725 5.638999938964844 4.723999977111816 4.665      2.299      2.883      1.25       10.66800022125244 0.2309563  0.2309563  0.28375    53.09207   15.25671   4.665      0.610971   0.6713869  37.06878   0.1599808  0.2132395  0.1067221 
1091.8     0.22       131.75     1          2          5.02       4.673999786376953 8.73799991607666 4.960999965667725 5.638999938964844 4.723999977111816 4.665      2.299      2.883      1.25       10.66800022125244 0.2309252  0.2309252  0.28375    53.02163   15.25671   4.665      0.6109253  0.6713682  37.1106    0.1600751  0.2132395  0.1069108 
1092       0.22       134.29     1          2          5.096      4.572000026702881 8.814000129699707 5.342000007629395 5.51200008392334 4.801000118255615 4.946      2.325      2.87       1.248      10.41399955749512 0.2294059  0.2294059  0.2843     49.69484   13.52289   4.946      0.6192768  0.6803086  37.53342   0.1663458  0.2240066  0.1086851 
1092.2     0.219      136.83     1          2          4.994      4.64799976348877 8.560000419616699 5.138000011444092 5.690000057220459 5.334000110626221 5.809      1.817      2.832      1.278      11.04899978637695 0.2231922  0.2231922  0.27605    38.12581   15.89952   5.809      0.6384077  0.6964484  38.08324   0.1601752  0.2096761  0.1106742 
1092.4     0.219      136.83     1          2          4.994      4.64799976348877 8.560000419616699 5.138000011444092 5.690000057220459 5.334000110626221 5.809      1.817      2.832      1.278      11.04899978637695 0.2231693  0.2231693  0.27605    38.08861   15.89952   5.809      0.6383754  0.6964353  38.12507   0.1602445  0.2096761  0.1108129 
1092.6     0.218      120.32     1          2          4.702      4.927999973297119 9.093000411987305 5.11299991607666 5.943999767303467 5.99399995803833 6.923      2.159      2.794      1.194      11.55700016021729 0.2524284  0.2524284  0.29915    132.6616   25.27414   6.923      0.7008396  0.7480087  37.78589   0.1415805  0.173522   0.1096389 
1092.8     0.218      120.32     1          2          4.702      4.927999973297119 9.093000411987305 5.11299991607666 5.943999767303467 5.99399995803833 6.923      2.159      2.794      1.194      11.55700016021729 0.2524035  0.2524035  0.29915    132.5205   25.27414   6.923      0.7008138  0.7479982  37.82771   0.141656   0.173522   0.10979   
1093       0.218      108.89     1          2          4.791      5.182000160217285 9.727999687194824 5.264999866485596 6.096000194549561 6.298999786376953 8.013      2.185      2.87       1.177      11.68400001525879 0.2555899  0.2555899  0.303825   151.8112   21.9444    8.013      0.7236893  0.7690785  37.48853   0.1461668  0.183826   0.1085076 
1093.2     0.218      98.73      1          2          4.791      6.096000194549561 12.0649995803833 5.77299976348877 6.452000141143799 6.908999919891357 7.233      2.452      3.162      1.182      11.30300045013428 0.2570755  0.2570755  0.30245    161.7413   21.9444    7.233      0.7115459  0.7569095  34.73635   0.1374983  0.183826   0.09117069
1093.4     0.218      98.73      1          2          4.791      6.096000194549561 12.0649995803833 5.77299976348877 6.452000141143799 6.908999919891357 7.233      2.452      3.162      1.182      11.30300045013428 0.2570121  0.2570121  0.30245    161.3044   21.9444    7.233      0.7114839  0.756884   34.77818   0.1376905  0.183826   0.09155489
1093.6     0.218      94.92      1          2          5.185      5.968999862670898 13.20800018310547 6.688000202178955 6.477000236511231 6.833000183105469 7.025      2.528      3.099      1.21       10.79500007629395 0.24006    0.24006    0.29475    78.28001   11.74132   7.025      0.6895967  0.742276   35.074     0.1657274  0.2373084  0.09414631
1093.8     0.218      94.92      1          2          5.185      5.968999862670898 13.20800018310547 6.688000202178955 6.477000236511231 6.833000183105469 7.025      2.528      3.099      1.21       10.79500007629395 0.2400024  0.2400024  0.29475    78.08807   11.74132   7.025      0.6895319  0.7422499  35.11581   0.1659018  0.2373084  0.09449522
1094       0.218      92.38      1          2          5.299      6.248000144958496 13.97000026702881 7.78000020980835 6.552999973297119 6.552999973297119 6.388      2.363      3.048      1.197      10.66800022125244 0.2403492  0.2403492  0.298325   79.25167   9.797832   6.388      0.6757779  0.7317455  35.28464   0.1756842  0.2555069  0.09586151
1094.2     0.218      113.97     1          2          4.994      6.096000194549561 13.08100032806397 8.99899959564209 5.816999912261963 5.563000202178955 4.946      2.401      2.845      1.172      10.28699970245361 0.2541257  0.2541257  0.3052     142.6204   15.89952   4.946      0.6517423  0.7061251  35.83446   0.1547707  0.2096761  0.09986534
1094.4     0.218      113.97     1          2          4.994      6.096000194549561 13.08100032806397 8.99899959564209 5.816999912261963 5.563000202178955 4.946      2.401      2.845      1.172      10.28699970245361 0.2540798  0.2540798  0.3052     142.3415   15.89952   4.946      0.6516875  0.7061026  35.87628   0.1549098  0.2096761  0.1001435 
1094.6     0.218      130.48     1          2          4.969      5.004000186920166 10.92199993133545 9.074999809265137 4.978000164031982 4.572000026702881 5.479      2.744      3.277      1.159      10.03299999237061 0.2575452  0.2575452  0.308775   165.0139   16.54314   5.479      0.6719142  0.7242187  36.5531    0.1552417  0.206306   0.1041775 
1094.8     0.218      130.48     1          2          4.969      5.004000186920166 10.92199993133545 9.074999809265137 4.978000164031982 4.572000026702881 5.479      2.744      3.277      1.159      10.03299999237061 0.2575085  0.2575085  0.308775   164.7559   16.54314   5.479      0.6718735  0.7242021  36.59492   0.1553529  0.206306   0.1043997 
1095       0.218      134.29     1          2          5.071      4.826000213623047 10.41399955749512 9.074999809265137 4.698999881744385 4.394000053405762 4.91       2.807      3.289      1.182      9.779000282287598 0.2483265  0.2483265  0.30245    111.3699   14.0703    4.91       0.6434494  0.7005958  37.27174   0.1640105  0.2204061  0.1076149 
1095.2     0.22       125.4      1          2          4.817      4.445000171661377 8.814000129699707 9.074999809265137 4.85099983215332 4.342999935150147 5.168      2.782      3.226      1.205      10.92199993133545 0.2472433  0.2472433  0.296125   106.342    21.05719   5.168      0.650588   0.7040383  37.69456   0.1481262  0.1869501  0.1093023 
1095.4     0.22       125.4      1          2          4.817      4.445000171661377 8.814000129699707 9.074999809265137 4.85099983215332 4.342999935150147 5.168      2.782      3.226      1.205      10.92199993133545 0.2472177  0.2472177  0.296125   106.2258   21.05719   5.168      0.6505564  0.7040253  37.73639   0.1482038  0.1869501  0.1094576 
1095.6     0.22       113.97     1          2          4.512      5.079999923706055 9.321999549865723 9.050000190734863 5.359000205993652 4.623000144958496 6.53       2.49       3.277      1.207      11.9379997253418 0.2519587  0.2519587  0.295575   130.0301   34.17073   6.53       0.6920224  0.738529   38.15921   0.1321707  0.1534165  0.1109249 
1095.8     0.22       113.97     1          2          4.512      5.079999923706055 9.321999549865723 9.050000190734863 5.359000205993652 4.623000144958496 6.53       2.49       3.277      1.207      11.9379997253418 0.2519363  0.2519363  0.295575   129.906    34.17073   6.53       0.6919985  0.7385191  38.20103   0.1322385  0.1534165  0.1110606 
1096       0.22       100        1          2          4.41       5.156000137329102 9.626999855041504 8.36400032043457 5.51200008392334 4.723999977111816 6.53       2.617      3.302      1.174      12.95400047302246 0.2624175  0.2624175  0.30465    203.1263   40.17622   6.53       0.7027409  0.7474407  38.62385   0.1279773  0.1436019  0.1123527 
