~Version
 VERS              .         2.0                           : CWLS LOG ASCII STANDARD - VERSION 2.0
 WRAP              .         NO                            : ONE LINE PER DEPTH STEP
 DLM               .         SPACE                         : DELIMITING CHARACTER(SPACE TAB OR COMMA)
~Well Information
#_______________________________________________________________________________
#
#PARAMETER_NAME    .UNIT     VALUE                         : DESCRIPTION
#_______________________________________________________________________________
STRT               .M        880                           : First reference value
STOP               .M        1156.8                        : Last reference value
STEP               .M        0.2                           : Step increment
NULL               .         -9999                         : Missing value
COMP               .                                       : Company
WELL               .         5523                          : Well name
FLD                .         УЗЕНЬ                         : Field
LOC                .                                       : Location
CNTY               .                                       : County
STAT               .                                       : State
CTRY               .                                       : Country
SRVC               .                                       : Service Company
DATE               .         11.04.1992г                   : Date
UWI                .                                       : Unique Well ID
Block              .         7                             : 
Category           .         Нагнетательная                : 
Condition          .         Ликвидированная               : 
EREF               .m        84.5                          : 100.8
Gorizont           .         14                            : 14
Interpretator      .         Кушнир И.Е.                   : 
Kupol              .         основной                      : osnovnoi
Mud                .                                       : 
Mud_density        .                                       : 
Mud_resistivity    .                                       : 
NGDU               .         НГДУ-2                        : 
ORIGINALWELLNAME   .         5523                          : 
Spud_date          .         1992                          : 1961
Viscosity          .                                       : 
X                  .m        42337.8                       : 46154
Y                  .m        83848.03                      : 85761.93
YEAR               .         2019г                         : 
~Parameter Information Block
#_______________________________________________________________________________
#
#PARAMETER_NAME    .UNIT     VALUE                         : DESCRIPTION
#_______________________________________________________________________________
SET                .         LQC_KAZNIPI_Petrel            : 
TLFamily_CALI      .         Caliper                       : 
TLFamily_CILD      .         Conductivity                  : 
TLFamily_COLL      .         Net Reservoir Flag            : 
TLFamily_CSAT      .         Fluid Code                    : 
TLFamily_DEPT      .         Measured Depth                : 
TLFamily_GR        .         Russian Gamma Ray             : 
TLFamily_GZ1       .         Gradient 045                  : 
TLFamily_GZ2       .         Gradient 105                  : 
TLFamily_GZ3       .         Gradient 225                  : 
TLFamily_GZ4       .         Gradient 425                  : 
TLFamily_GZ5       .         Gradient 850                  : 
TLFamily_LLS       .         Lateral Log Resistivity       : 
TLFamily_MINV      .         Micro Gradient Resistivity    : 
TLFamily_MNOR      .         Micro Resistivity             : 
TLFamily_NGLD      .         Neutron Gamma                 : 
TLFamily_OGZ       .         Gradient Inverted 225         : 
TLFamily_PHIE      .         Effective Porosity            : 
TLFamily_PHIEN     .         Effective Porosity            : 
TLFamily_PHIT      .         Porosity                      : 
TLFamily_PRMB      .         Permeability                  : 
TLFamily_PRMB_DGR  .         Permeability                  : 
TLFamily_RT        .         Formation Resistivity         : 
TLFamily_SOIL_ARCHIE .         Oil Saturation                : 
TLFamily_SOIL_DW   .         Oil Saturation                : 
TLFamily_SP        .         Spontaneous Potential         : 
TLFamily_VSH_FIN   .         Shale Volume                  : 
TLFamily_VSH_GR    .         Shale Volume                  : 
TLFamily_VSH_SP    .         Shale Volume                  : 
~Curve Information
#_______________________________________________________________________________
#
#LOGNAME           .UNIT     LOG_ID                        : DESCRIPTION
#_______________________________________________________________________________
DEPT               .M                                      : Колонка глубины 
CALI               .м                                      : Каверномер 
CILD               .мСм/м                                  : Индукционный каротаж 
COLL               .unitless                               : Описание 
CSAT               .unitless                               : Описание 
GR                 .uR/h                                   : Гамма каротаж 
GZ1                .ohmm                                   : Градиент-зонд  длиной 0.45м 
GZ2                .ohmm                                   : Градиент-зонд  длиной 1.05м 
GZ3                .ohmm                                   : Градиент-зонд  длиной 2.25м 
GZ4                .ohmm                                   : Градиент-зонд  длиной 4.5м 
GZ5                .ohmm                                   : Градиент-зонд  длиной 8.5м 
LLS                .Ohmm                                   : Боковой каротаж 
MINV               .Ohmm                                   : Микро-градиент зонд 
MNOR               .Ohmm                                   : Микро-потенциал зонд 
NGLD               .у.е.                                   : Показания зонда НГК-60 аппаратуры ДРСТ-3-90 
OGZ                .ohmm                                   : Обращенный градиент-зонд 
PHIE               .v/v                                    : Описание 
PHIEN              .v/v                                    :  
PHIT               .v/v                                    : Описание 
PRMB               .mD                                     :  
PRMB_DGR           .mD                                     :  
RT                 .ohmm                                   : Description 
SOIL_ARCHIE        .v/v                                    :  
SOIL_DW            .v/v                                    :  
SP                 .мВ                                     : Потенциал самополяризации 
VSH_FIN            .v/v                                    : Описание 
VSH_GR             .v/v                                    : Shale volume 
VSH_SP             .v/v                                    : Shale Volume 
~Ascii
# ...
1059.4     0.243      287.96     0          0          5.083      2.615999937057495 3.835000038146973 2.141000032424927 2.388000011444092 1.955999970436096 2.637      2.515      2.172      1.151      3.150000095367432 0.203482   0.203482   0.310975   16.44893   4.323847   2.637      0.4322674  0.5634305  52.17995   0.3257365  0.3568348  0.2946382 
1059.6     0.241      293.04     0          0          4.563      2.819000005722046 3.937000036239624 2.267999887466431 2.361999988555908 2.032000064849854 2.346      2.325      2.146      1.136      3.174999952316284 0.2330913  0.2330913  0.3151     58.1533    11.44108   2.346      0.4671712  0.5656692  51.1417    0.2485112  0.2398317  0.2571906 
1059.8     0.241      293.04     0          0          4.563      2.819000005722046 3.937000036239624 2.267999887466431 2.361999988555908 2.032000064849854 2.346      2.325      2.146      1.136      3.174999952316284 0.2332127  0.2332127  0.3151     58.45525   11.44108   2.346      0.4674129  0.5657632  51.11944   0.2481432  0.2398317  0.2564547 
1060       0.248      296.85     0          0          4.702      2.615999937057495 3.809999942779541 2.369999885559082 2.336999893188477 2.006999969482422 2.346      2.274      2.007      1.098      3.150000095367432 0.2406984  0.2406984  0.32555    80.44064   8.820715   2.346      0.481868   0.5795217  50.84319   0.2571262  0.2667064  0.2475459 
1060.2     0.254      304.47     0          0          5.033      2.539999961853027 3.785000085830689 2.369999885559082 2.361999988555908 2.056999921798706 2.312      2.286      1.968      1.105      3.174999952316284 0.2227552  0.2227552  0.323625   37.42185   4.747933   2.312      0.441891   0.5611477  51.45592   0.305666   0.3434589  0.267873  
1060.4     0.254      304.47     0          0          5.033      2.539999961853027 3.785000085830689 2.369999885559082 2.361999988555908 2.056999921798706 2.312      2.286      1.968      1.105      3.174999952316284 0.2228831  0.2228831  0.323625   37.62643   4.747933   2.312      0.4421698  0.5612511  51.43367   0.3052786  0.3434589  0.2670983 
1060.6     0.255      318.44     0          0          5.401      2.413000106811523 3.453999996185303 2.243000030517578 2.210000038146973 1.980999946594238 2.103      1.956      1.918      1.111      3.250999927520752 0.2007142  0.2007142  0.321975   14.61744   2.384712   2.103      0.3610909  0.5184867  51.79242   0.3674571  0.4549823  0.279932  
1060.8     0.255      318.44     0          0          5.401      2.413000106811523 3.453999996185303 2.243000030517578 2.210000038146973 1.980999946594238 2.103      1.956      1.918      1.111      3.250999927520752 0.2008491  0.2008491  0.321975   14.70182   2.384712   2.103      0.3614648  0.5186171  51.77016   0.3670482  0.4549823  0.2791141 
1061       0.26       322.25     0          0          5.452      2.311000108718872 3.378000020980835 2.115999937057495 2.260999917984009 1.980999946594238 2.165      1.728      1.549      1.078      3.378000020980835 0.2047074  0.2047074  0.33105    17.3315    2.167648   2.165      0.3804646  0.5369344  52.1289    0.3828563  0.4730627  0.29265   
1061.2     0.253      314.63     0          0          5.172      2.28600001335144 3.302000045776367 1.937999963760376 2.437999963760376 2.134000062942505 2.295      1.817      1.905      1.078      3.657999992370606 0.2222436  0.2222436  0.33105    36.61417   3.660506   2.295      0.4388321  0.5649779  51.72564   0.3297164  0.3819456  0.2774872 
1061.4     0.253      314.63     0          0          5.172      2.28600001335144 3.302000045776367 1.937999963760376 2.437999963760376 2.134000062942505 2.295      1.817      1.905      1.078      3.657999992370606 0.2223771  0.2223771  0.33105    36.8232    3.660506   2.295      0.4391255  0.5650846  51.70339   0.3293118  0.3819456  0.2766781 
1061.6     0.248      294.31     0          0          5.439      2.437999963760376 3.302000045776367 1.88699996471405 2.591000080108643 2.260999917984009 2.58       2.223      2.057      1.123      3.785000085830689 0.2008103  0.2008103  0.318675   14.6775    2.221026   2.58       0.4197749  0.562675   50.79213   0.3571657  0.4683869  0.2459446 
1061.8     0.248      294.31     0          0          5.439      2.437999963760376 3.302000045776367 1.88699996471405 2.591000080108643 2.260999917984009 2.58       2.223      2.057      1.123      3.785000085830689 0.2009248  0.2009248  0.318675   14.74934   2.221026   2.58       0.4200628  0.5627756  50.76987   0.3568188  0.4683869  0.2452508 
1062       0.243      284.15     0          0          5.02       2.489000082015991 3.404000043869019 1.88699996471405 2.66700005531311 2.336999893188477 2.637      2.274      1.943      1.169      3.911999940872192 0.2089055  0.2089055  0.306025   20.7298    4.864853   2.637      0.4451264  0.563971   50.87462   0.2943014  0.340064   0.2485388 
1062.2     0.233      260.02     0          0          4.791      2.413000106811523 3.404000043869019 2.013999938964844 2.869999885559082 2.743000030517578 3.508      1.613      1.765      1.265      4.242000102996826 0.1850804  0.1850804  0.279625   7.504069   7.467494   3.508      0.460698   0.5810138  51.99537   0.2864987  0.2854747  0.2875226 
1062.4     0.233      260.02     0          0          4.791      2.413000106811523 3.404000043869019 2.013999938964844 2.869999885559082 2.743000030517578 3.508      1.613      1.765      1.265      4.242000102996826 0.1852197  0.1852197  0.279625   7.548787   7.467494   3.508      0.4610513  0.5811422  51.97311   0.2860765  0.2854747  0.2866783 
1062.6     0.23       229.54     0          0          4.144      3.480000019073486 5.004000186920166 2.115999937057495 3.555999994277954 3.04800009727478 5.168      4.877      4.089      1.423      4.394000053405762 0.1594825  0.1594825  0.236175   2.518614   25.06012   5.168      0.4881094  0.5946207  52.07785   0.2324014  0.1741256  0.2906772 
1062.8     0.23       229.54     0          0          4.144      3.480000019073486 5.004000186920166 2.115999937057495 3.555999994277954 3.04800009727478 5.168      4.877      4.089      1.423      4.394000053405762 0.1596237  0.1596237  0.236175   2.533818   25.06012   5.168      0.4885035  0.5947673  52.05559   0.2319738  0.1741256  0.289822  
1063       0.227      215.57     0          0          4.017      4.394000053405762 5.664000034332275 2.267999887466431 3.657999992370606 3.200000047683716 3.774      3.658      2.68       1.385      4.673999786376953 0.1703964  0.1703964  0.246625   4.011559   31.78296   3.774      0.4399797  0.5499673  52.41434   0.2309957  0.1580222  0.3039692 
1063.2     0.231      205.41     0          0          4.702      4.64799976348877 7.035999774932861 2.724999904632568 3.657999992370606 3.072999954223633 4.242      4.585      3.48       1.265      4.317999839782715 0.1811735  0.1811735  0.279625   6.352286   8.820715   4.242      0.4974459  0.6156635  53.02708   0.298338   0.2667064  0.3299696 
1063.4     0.231      205.41     0          0          4.702      4.64799976348877 7.035999774932861 2.724999904632568 3.657999992370606 3.072999954223633 4.242      4.585      3.48       1.265      4.317999839782715 0.1813362  0.1813362  0.279625   6.39652    8.820715   4.242      0.4978387  0.6158035  53.00482   0.297845   0.2667064  0.3289835 
1063.6     0.234      221.92     0          0          5.185      3.607000112533569 6.65500020980835 2.928999900817871 3.200000047683716 2.743000030517578 2.543      2.071      1.968      1.144      3.937000036239624 0.2011882  0.2011882  0.3129     14.91595   3.572533   2.543      0.4167842  0.5550193  52.09357   0.3385207  0.3857585  0.2912829 
1063.8     0.234      221.92     0          0          5.185      3.607000112533569 6.65500020980835 2.928999900817871 3.200000047683716 2.743000030517578 2.543      2.071      1.968      1.144      3.937000036239624 0.2013296  0.2013296  0.3129     15.00621   3.572533   2.543      0.4171411  0.555146   52.07131   0.338092   0.3857585  0.2904255 
