~Version
 VERS              .         2.0                           : CWLS LOG ASCII STANDARD - VERSION 2.0
 WRAP              .         NO                            : ONE LINE PER DEPTH STEP
 DLM               .         SPACE                         : DELIMITING CHARACTER(SPACE TAB OR COMMA)
~Well Information
#_______________________________________________________________________________
#
#PARAMETER_NAME    .UNIT     VALUE                         : DESCRIPTION
#_______________________________________________________________________________
STRT               .M        880                           : First reference value
STOP               .M        1156.8                        : Last reference value
STEP               .M        0.2                           : Step increment
NULL               .         -9999                         : Missing value
COMP               .                                       : Company
WELL               .         5523                          : Well name
FLD                .         УЗЕНЬ                         : Field
LOC                .                                       : Location
CNTY               .                                       : County
STAT               .                                       : State
CTRY               .                                       : Country
SRVC               .                                       : Service Company
DATE               .         11.04.1992г                   : Date
UWI                .                                       : Unique Well ID
Block              .         7                             : 
Category           .         Нагнетательная                : 
Condition          .         Ликвидированная               : 
EREF               .m        84.5                          : 100.8
Gorizont           .         14                            : 14
Interpretator      .         Кушнир И.Е.                   : 
Kupol              .         основной                      : osnovnoi
Mud                .                                       : 
Mud_density        .                                       : 
Mud_resistivity    .                                       : 
NGDU               .         НГДУ-2                        : 
ORIGINALWELLNAME   .         5523                          : 
Spud_date          .         1992                          : 1961
Viscosity          .                                       : 
X                  .m        42337.8                       : 46154
Y                  .m        83848.03                      : 85761.93
YEAR               .         2019г                         : 
~Parameter Information Block
#_______________________________________________________________________________
#
#PARAMETER_NAME    .UNIT     VALUE                         : DESCRIPTION
#_______________________________________________________________________________
SET                .         LQC_KAZNIPI_Petrel            : 
TLFamily_CALI      .         Caliper                       : 
TLFamily_CILD      .         Conductivity                  : 
TLFamily_COLL      .         Net Reservoir Flag            : 
TLFamily_CSAT      .         Fluid Code                    : 
TLFamily_DEPT      .         Measured Depth                : 
TLFamily_GR        .         Russian Gamma Ray             : 
TLFamily_GZ1       .         Gradient 045                  : 
TLFamily_GZ2       .         Gradient 105                  : 
TLFamily_GZ3       .         Gradient 225                  : 
TLFamily_GZ4       .         Gradient 425                  : 
TLFamily_GZ5       .         Gradient 850                  : 
TLFamily_LLS       .         Lateral Log Resistivity       : 
TLFamily_MINV      .         Micro Gradient Resistivity    : 
TLFamily_MNOR      .         Micro Resistivity             : 
TLFamily_NGLD      .         Neutron Gamma                 : 
TLFamily_OGZ       .         Gradient Inverted 225         : 
TLFamily_PHIE      .         Effective Porosity            : 
TLFamily_PHIEN     .         Effective Porosity            : 
TLFamily_PHIT      .         Porosity                      : 
TLFamily_PRMB      .         Permeability                  : 
TLFamily_PRMB_DGR  .         Permeability                  : 
TLFamily_RT        .         Formation Resistivity         : 
TLFamily_SOIL_ARCHIE .         Oil Saturation                : 
TLFamily_SOIL_DW   .         Oil Saturation                : 
TLFamily_SP        .         Spontaneous Potential         : 
TLFamily_VSH_FIN   .         Shale Volume                  : 
TLFamily_VSH_GR    .         Shale Volume                  : 
TLFamily_VSH_SP    .         Shale Volume                  : 
~Curve Information
#_______________________________________________________________________________
#
#LOGNAME           .UNIT     LOG_ID                        : DESCRIPTION
#_______________________________________________________________________________
DEPT               .M                                      : Колонка глубины 
CALI               .м                                      : Каверномер 
CILD               .мСм/м                                  : Индукционный каротаж 
COLL               .unitless                               : Описание 
CSAT               .unitless                               : Описание 
GR                 .uR/h                                   : Гамма каротаж 
GZ1                .ohmm                                   : Градиент-зонд  длиной 0.45м 
GZ2                .ohmm                                   : Градиент-зонд  длиной 1.05м 
GZ3                .ohmm                                   : Градиент-зонд  длиной 2.25м 
GZ4                .ohmm                                   : Градиент-зонд  длиной 4.5м 
GZ5                .ohmm                                   : Градиент-зонд  длиной 8.5м 
LLS                .Ohmm                                   : Боковой каротаж 
MINV               .Ohmm                                   : Микро-градиент зонд 
MNOR               .Ohmm                                   : Микро-потенциал зонд 
NGLD               .у.е.                                   : Показания зонда НГК-60 аппаратуры ДРСТ-3-90 
OGZ                .ohmm                                   : Обращенный градиент-зонд 
PHIE               .v/v                                    : Описание 
PHIEN              .v/v                                    :  
PHIT               .v/v                                    : Описание 
PRMB               .mD                                     :  
PRMB_DGR           .mD                                     :  
RT                 .ohmm                                   : Description 
SOIL_ARCHIE        .v/v                                    :  
SOIL_DW            .v/v                                    :  
SP                 .мВ                                     : Потенциал самополяризации 
VSH_FIN            .v/v                                    : Описание 
VSH_GR             .v/v                                    : Shale volume 
VSH_SP             .v/v                                    : Shale Volume 
~Ascii
# ...
898.4      0.225      505.13     1          3          1.019      2.28600001335144 3.174999952316284 0.8199999928474426 3.250999927520752 2.565000057220459 1.83       2.312      2.172      1.311      1.777999997138977 0.2452186  0.2452186  0.266975   97.54423   8468.259   1.83       0.4271702  0.4703402  38.45624   0.06592849 0.02       0.111857  
898.6      0.226      529.26     1          3          0.994      2.28600001335144 3.174999952316284 0.921999990940094 3.250999927520752 2.565000057220459 1.64       1.651      1.702      1.172      1.802999973297119 0.2833356  0.2833356  0.3052     495.7021   9108.18    1.64       0.4682401  0.5128144  38.67897   0.06625576 0.02       0.1125115 
898.8      0.225      535.61     1          3          1.019      2.28600001335144 3.174999952316284 0.9729999899864197 3.250999927520752 2.565000057220459 1.664      1.69       1.638      1.166      1.726999998092651 0.284611   0.284611   0.30685    523.4138   8468.259   1.664      0.473915   0.5187549  39.53671   0.06739073 0.02       0.1147815 
899        0.225      533.07     1          3          0.969      2.28600001335144 3.174999952316284 0.8460000157356262 3.250999927520752 2.565000057220459 1.652      1.74       1.702      1.164      1.626000046730042 0.2849166  0.2849166  0.3074     530.2803   9796.459   1.652      0.4726183  0.5177255  40.14045   0.06813134 0.02       0.1162627 
899.2000000000001 0.224      534.34     1          3          0.943      2.28600001335144 3.174999952316284 0.6930000185966492 3.250999927520752 2.565000057220459 1.64       1.74       1.727      1.161      1.549000024795532 0.2860647  0.2860647  0.308225   556.8908   10567.49   1.64       0.4726612  0.5175384  39.34719   0.06715244 0.02       0.1143049 
899.4      0.224      534.34     1          3          0.943      2.28600001335144 3.174999952316284 0.6930000185966492 3.250999927520752 2.565000057220459 1.64       1.74       1.727      1.161      1.549000024795532 0.2860778  0.2860778  0.308225   557.2031   10567.49   1.64       0.4726823  0.5175479  39.31592   0.06711262 0.02       0.1142253 
899.6      0.224      548.31     1          3          0.956      2.28600001335144 3.174999952316284 0.4900000095367432 3.250999927520752 2.565000057220459 1.604      1.74       1.715      1.21       1.52400004863739 0.273024   0.273024   0.29475    319.319    10174.68   1.604      0.44504    0.4894221  38.39566   0.06583636 0.02       0.1116727 
899.8      0.224      544.5      1          3          0.918      2.28600001335144 3.174999952316284 0.414000004529953 3.250999927520752 2.565000057220459 1.628      1.753      1.74       1.258      1.52400004863739 0.2599057  0.2599057  0.28155    182.4915   11366.05   1.628      0.4247453  0.4686574  38.2374    0.06558871 0.02       0.1111774 
900        0.224      536.88     1          3          0.918      2.28600001335144 3.174999952316284 0.3889999985694885 3.250999927520752 2.565000057220459 1.726      1.829      1.765      1.268      1.498999953269959 0.2570417  0.2570417  0.2788     161.5077   11366.05   1.726      0.4348827  0.4785887  38.46014   0.06593437 0.02       0.1118687 
900.2000000000001 0.224      527.99     1          3          0.918      2.28600001335144 3.174999952316284 0.3379999995231628 3.250999927520752 2.565000057220459 1.817      1.944      1.88       1.248      1.498999953269959 0.2623746  0.2623746  0.2843     202.7556   11366.05   1.817      0.458124   0.5018587  38.80987   0.06644046 0.02       0.1128809 
900.4      0.224      527.99     1          3          0.918      2.28600001335144 3.174999952316284 0.3379999995231628 3.250999927520752 2.565000057220459 1.817      1.944      1.88       1.248      1.498999953269959 0.262389   0.262389   0.2843     202.8802   11366.05   1.817      0.4581499  0.5018704  38.77861   0.06639682 0.02       0.1127936 
900.6      0.225      498.78     1          3          0.918      2.28600001335144 3.174999952316284 0.414000004529953 3.250999927520752 2.565000057220459 2.057      2.147      2.095      1.296      1.498999953269959 0.2490884  0.2490884  0.2711     115.0482   11366.05   2.057      0.4651003  0.5080897  39.00135   0.06670181 0.02       0.1134036 
900.8      0.225      483.54     1          3          0.969      2.28600001335144 3.174999952316284 0.5659999847412109 3.250999927520752 2.565000057220459 2.087      2.236      2.223      1.349      1.575000047683716 0.2344714  0.2344714  0.256525   61.67906   9796.459   2.087      0.4399899  0.4827341  39.09708   0.06682903 0.02       0.1136581 
901        0.225      474.65     1          3          1.07       2.28600001335144 3.174999952316284 0.718999981880188 3.250999927520752 2.565000057220459 2.042      2.198      2.223      1.334      1.777999997138977 0.2388436  0.2388436  0.26065    74.32273   7298.837   2.042      0.4432632  0.4858987  38.55782   0.06607991 0.02       0.1121598 
901.2000000000001 0.225      469.57     1          3          1.095      2.28600001335144 3.174999952316284 0.8199999928474426 3.250999927520752 2.565000057220459 1.954      2.121      2.108      1.293      1.879999995231628 0.2505474  0.2505474  0.271925   122.4345   6786.038   1.954      0.4548295  0.4974281  37.76456   0.06478056 0.02       0.1095611 
901.4      0.225      469.57     1          3          1.095      2.28600001335144 3.174999952316284 0.8199999928474426 3.250999927520752 2.565000057220459 1.954      2.121      2.108      1.293      1.879999995231628 0.2505664  0.2505664  0.271925   122.5337   6786.038   1.954      0.4548655  0.4974445  37.7333    0.0647231  0.02       0.1094462 
901.6      0.225      470.84     1          3          1.057      2.28600001335144 3.174999952316284 0.8199999928474426 3.250999927520752 2.565000057220459 1.83       2.02       2.019      1.245      1.853999972343445 0.2641238  0.2641238  0.285125   218.4601   7580.628   1.83       0.4630502  0.5058643  37.19403   0.06363989 0.02       0.1072798 
901.8      0.225      475.92     1          3          0.994      2.28600001335144 3.174999952316284 0.7950000166893005 3.250999927520752 2.565000057220459 1.726      2.096      2.057      1.212      1.777999997138977 0.2733157  0.2733157  0.2942     323.3165   9108.18    1.726      0.4643044  0.5074998  37.03577   0.06328571 0.02       0.1065714 
902        0.225      479.73     1          3          1.057      2.28600001335144 3.174999952316284 0.7699999809265137 3.250999927520752 2.565000057220459 1.764      1.944      2.019      1.199      1.675999999046326 0.27664    0.27664    0.297775   372.5649   7580.628   1.764      0.4753048  0.5186844  37.38551   0.06404545 0.02       0.1080909 
902.2000000000001 0.225      481        1          3          1.007      2.28600001335144 3.174999952316284 0.718999981880188 3.250999927520752 2.565000057220459 1.898      1.778      1.74       1.225      1.675999999046326 0.2692652  0.2692652  0.290625   272.021    8769.608   1.898      0.4809538  0.5240144  37.73524   0.06472669 0.02       0.1094534 
902.4      0.225      481        1          3          1.007      2.28600001335144 3.174999952316284 0.718999981880188 3.250999927520752 2.565000057220459 1.898      1.778      1.74       1.225      1.675999999046326 0.2692843  0.2692843  0.290625   272.243    8769.608   1.898      0.4809859  0.524029   37.70399   0.06466872 0.02       0.1093374 
902.6      0.225      475.92     1          3          1.057      2.28600001335144 3.174999952316284 0.6430000066757202 3.250999927520752 2.565000057220459 2.012      1.969      1.981      1.258      1.702000021934509 0.2599358  0.2599358  0.28155    182.7259   7580.628   2.012      0.4792173  0.5220679  38.18073   0.06549744 0.02       0.1109949 
902.8      0.226      483.54     1          3          1.007      2.28600001335144 3.174999952316284 0.5659999847412109 3.250999927520752 2.565000057220459 2.012      2.337      2.108      1.271      1.726999998092651 0.2560613  0.2560613  0.277975   154.8943   8769.608   2.012      0.4723608  0.5154552  38.78446   0.06640501 0.02       0.11281   
