~Version
 VERS              .         2.0                           : CWLS LOG ASCII STANDARD - VERSION 2.0
 WRAP              .         NO                            : ONE LINE PER DEPTH STEP
 DLM               .         SPACE                         : DELIMITING CHARACTER(SPACE TAB OR COMMA)
~Well Information
#_______________________________________________________________________________
#
#PARAMETER_NAME    .UNIT     VALUE                         : DESCRIPTION
#_______________________________________________________________________________
STRT               .M        880                           : First reference value
STOP               .M        1156.8                        : Last reference value
STEP               .M        0.2                           : Step increment
NULL               .         -9999                         : Missing value
COMP               .                                       : Company
WELL               .         5523                          : Well name
FLD                .         УЗЕНЬ                         : Field
LOC                .                                       : Location
CNTY               .                                       : County
STAT               .                                       : State
CTRY               .                                       : Country
SRVC               .                                       : Service Company
DATE               .         11.04.1992г                   : Date
UWI                .                                       : Unique Well ID
Block              .         7                             : 
Category           .         Нагнетательная                : 
Condition          .         Ликвидированная               : 
EREF               .m        84.5                          : 100.8
Gorizont           .         14                            : 14
Interpretator      .         Кушнир И.Е.                   : 
Kupol              .         основной                      : osnovnoi
Mud                .                                       : 
Mud_density        .                                       : 
Mud_resistivity    .                                       : 
NGDU               .         НГДУ-2                        : 
ORIGINALWELLNAME   .         5523                          : 
Spud_date          .         1992                          : 1961
Viscosity          .                                       : 
X                  .m        42337.8                       : 46154
Y                  .m        83848.03                      : 85761.93
YEAR               .         2019г                         : 
~Parameter Information Block
#_______________________________________________________________________________
#
#PARAMETER_NAME    .UNIT     VALUE                         : DESCRIPTION
#_______________________________________________________________________________
SET                .         LQC_KAZNIPI_Petrel            : 
TLFamily_CALI      .         Caliper                       : 
TLFamily_CILD      .         Conductivity                  : 
TLFamily_COLL      .         Net Reservoir Flag            : 
TLFamily_CSAT      .         Fluid Code                    : 
TLFamily_DEPT      .         Measured Depth                : 
TLFamily_GR        .         Russian Gamma Ray             : 
TLFamily_GZ1       .         Gradient 045                  : 
TLFamily_GZ2       .         Gradient 105                  : 
TLFamily_GZ3       .         Gradient 225                  : 
TLFamily_GZ4       .         Gradient 425                  : 
TLFamily_GZ5       .         Gradient 850                  : 
TLFamily_LLS       .         Lateral Log Resistivity       : 
TLFamily_MINV      .         Micro Gradient Resistivity    : 
TLFamily_MNOR      .         Micro Resistivity             : 
TLFamily_NGLD      .         Neutron Gamma                 : 
TLFamily_OGZ       .         Gradient Inverted 225         : 
TLFamily_PHIE      .         Effective Porosity            : 
TLFamily_PHIEN     .         Effective Porosity            : 
TLFamily_PHIT      .         Porosity                      : 
TLFamily_PRMB      .         Permeability                  : 
TLFamily_PRMB_DGR  .         Permeability                  : 
TLFamily_RT        .         Formation Resistivity         : 
TLFamily_SOIL_ARCHIE .         Oil Saturation                : 
TLFamily_SOIL_DW   .         Oil Saturation                : 
TLFamily_SP        .         Spontaneous Potential         : 
TLFamily_VSH_FIN   .         Shale Volume                  : 
TLFamily_VSH_GR    .         Shale Volume                  : 
TLFamily_VSH_SP    .         Shale Volume                  : 
~Curve Information
#_______________________________________________________________________________
#
#LOGNAME           .UNIT     LOG_ID                        : DESCRIPTION
#_______________________________________________________________________________
DEPT               .M                                      : Колонка глубины 
CALI               .м                                      : Каверномер 
CILD               .мСм/м                                  : Индукционный каротаж 
COLL               .unitless                               : Описание 
CSAT               .unitless                               : Описание 
GR                 .uR/h                                   : Гамма каротаж 
GZ1                .ohmm                                   : Градиент-зонд  длиной 0.45м 
GZ2                .ohmm                                   : Градиент-зонд  длиной 1.05м 
GZ3                .ohmm                                   : Градиент-зонд  длиной 2.25м 
GZ4                .ohmm                                   : Градиент-зонд  длиной 4.5м 
GZ5                .ohmm                                   : Градиент-зонд  длиной 8.5м 
LLS                .Ohmm                                   : Боковой каротаж 
MINV               .Ohmm                                   : Микро-градиент зонд 
MNOR               .Ohmm                                   : Микро-потенциал зонд 
NGLD               .у.е.                                   : Показания зонда НГК-60 аппаратуры ДРСТ-3-90 
OGZ                .ohmm                                   : Обращенный градиент-зонд 
PHIE               .v/v                                    : Описание 
PHIEN              .v/v                                    :  
PHIT               .v/v                                    : Описание 
PRMB               .mD                                     :  
PRMB_DGR           .mD                                     :  
RT                 .ohmm                                   : Description 
SOIL_ARCHIE        .v/v                                    :  
SOIL_DW            .v/v                                    :  
SP                 .мВ                                     : Потенциал самополяризации 
VSH_FIN            .v/v                                    : Описание 
VSH_GR             .v/v                                    : Shale volume 
VSH_SP             .v/v                                    : Shale Volume 
~Ascii
# ...
1110       0.222      96.19      1          2          5.109      4.85099983215332 11.81099987030029 20.48500061035156 12.44600009918213 7.89900016784668 5.093      3.201      3.48       1.225      8.484000205993652 0.2305308  0.2305308  0.290625   52.13714   13.2467    5.093      0.62607    0.6895849  44.98035   0.1821037  0.225902   0.1383054 
1110.2     0.222      112.7      1          2          4.969      4.46999979019165 9.944000244140625 16.54800033569336 11.17599964141846 6.782000064849854 4.803      3.823      3.924      1.202      8.508999824523926 0.2396518  0.2396518  0.29695    76.92913   16.54314   4.803      0.6284124  0.6894254  45.27617   0.1736309  0.206306   0.1409558 
1110.4     0.222      112.7      1          2          4.969      4.46999979019165 9.944000244140625 16.54800033569336 11.17599964141846 6.782000064849854 4.803      3.823      3.924      1.202      8.508999824523926 0.239587   0.239587   0.29695    76.7168    16.54314   4.803      0.6283249  0.68939    45.31799   0.1738273  0.206306   0.1413486 
1110.6     0.221      131.75     1          2          4.842      4.242000102996826 8.585000038146973 13.6269998550415 10.66800022125244 6.045000076293945 4.497      3.429      3.518      1.232      8.762999534606934 0.2337574  0.2337574  0.2887     59.82905   20.23794   4.497      0.6083511  0.6703158  45.48681   0.1664928  0.1900041  0.1429815 
1110.8     0.221      131.75     1          2          4.842      4.242000102996826 8.585000038146973 13.6269998550415 10.66800022125244 6.045000076293945 4.497      3.429      3.518      1.232      8.762999534606934 0.2336887  0.2336887  0.2887     59.65402   20.23794   4.497      0.6082509  0.6702749  45.52863   0.1667009  0.1900041  0.1433978 
1111       0.222      138.1      1          2          4.893      4.139999866485596 8.076999664306641 11.08699989318848 10.41399955749512 5.867000102996826 4.432      3.137      3.34       1.255      9.067999839782715 0.2250844  0.2250844  0.282375   41.33019   18.66419   4.432      0.5924648  0.6582223  46.20545   0.1736078  0.1963897  0.1508259 
1111.2     0.225      140.64     1          2          4.817      3.759000062942505 7.188000202178955 9.027000427246094 9.906000137329102 5.99399995803833 4.564      2.858      3.251      1.446      11.83600044250488 0.1703506  0.1703506  0.22985    4.003729   21.05719   4.564      0.4876453  0.5734458  47.77127   0.1803012  0.1869501  0.1736523 
1111.4     0.225      140.64     1          2          4.817      3.759000062942505 7.188000202178955 9.027000427246094 9.906000137329102 5.99399995803833 4.564      2.858      3.251      1.446      11.83600044250488 0.1702301  0.1702301  0.22985    3.983205   21.05719   4.564      0.4873295  0.5733203  47.8131    0.1806663  0.1869501  0.1743826 
1111.6     0.226      122.86     1          2          4.639      3.453999996185303 7.035999774932861 8.871999740600586 10.79500007629395 6.882999897003174 7.503      3.556      3.772      1.644      14.22399997711182 0.1152421  0.1152421  0.1754     0.3816995  27.93225   7.503      0.4297166  0.5418977  48.99792   0.1822966  0.1665792  0.1980139 
1111.8     0.226      122.86     6          6          4.639      3.453999996185303 7.035999774932861 8.871999740600586 10.79500007629395 6.882999897003174 7.503      3.556      3.772      1.644      14.22399997711182 0.1150865  0.1150865  0.1754     0.3791742  27.93225   7.503      0.4290449  0.5416458  49.03974   0.1827682  0.1665792  0.1989572 
1112       0.225      113.97     6          6          4.499      3.607000112533569 7.671000003814697 8.439999580383301 11.68400001525879 7.467999935150147 11.381     3.252      4.077      1.893      14.85900020599365 0.04154824 0.04154824 0.106925   0.01647147 34.88316   11.381     0          0.2532047  50.73256   0.1981114  0.1521292  0.2440935 
1112.2     0.227      89.84      6          6          4.182      5.282999992370606 10.8459997177124 8.185999870300293 13.71599960327148 8.406999588012695 18.986     4.75       4.483      2.132      12.82699966430664 0.01       0          0.04120001 0.004289259 57.69555   18.986     0          0          54.07638   0.2520198  0.1238742  0.3801653 
1112.4     0.227      89.84      6          6          4.182      5.282999992370606 10.8459997177124 8.185999870300293 13.71599960327148 8.406999588012695 18.986     4.75       4.483      2.132      12.82699966430664 0.01       0          0.04120001 0.004289259 57.69555   18.986     0          0          54.1182    0.2530974  0.1238742  0.3823206 
1112.6     0.228      80.95      6          6          4.067      6.75600004196167 16.25600051879883 8.541999816894531 14.98600006103516 9.017000198364258 15.472     4.979      4.953      2.142      12.31900024414063 0.01       0          0.03845001 0.004289259 69.2498    15.472     0          0          55.68402   0.2935421  0.1149767  0.4721076 
1112.8     0.228      80.95      6          6          4.067      6.75600004196167 16.25600051879883 8.541999816894531 14.98600006103516 9.017000198364258 15.472     4.979      4.953      2.142      12.31900024414063 0.01       0          0.03845001 0.004289259 69.2498    15.472     0          0          55.72585   0.2948671  0.1149767  0.4747575 
1113       0.229      78.41      6          6          4.042      7.619999885559082 19.5580005645752 8.973999977111816 15.62100028991699 9.093000411987305 15.815     4.979      4.547      2.025      10.9980001449585 0.01       0          0.07062498 0.004289259 72.0531    15.815     0          0          57.16467   0.3437841  0.1131287  0.5744395 
1113.2     0.2        93.65      6          6          4.22       9.041999816894531 26.28899955749512 8.420000076293945 16.25600051879883 8.255000114440918 7.782      4.471      4.864      1.781      9.194999694824219 0.0320127  0.0320127  0.137725   0.01096758 54.31839   7.782      0          0.1680808  56.31749   0.3203403  0.1269631  0.5137175 
1113.4     0.2        93.65      6          6          4.22       9.041999816894531 26.28899955749512 8.420000076293945 16.25600051879883 8.255000114440918 7.782      4.471      4.864      1.781      9.194999694824219 0.03154085 0.03154085 0.137725   0.01074908 54.31839   7.782      0          0.1643336  56.35931   0.3217701  0.1269631  0.5165772 
1113.6     0.2        136.83     6          6          4.956      8.052000045776367 21.20899963378906 11.72200012207031 12.69999980926514 6.477000236511231 2.965      3.493      4.026      1.484      8.508999824523926 0.09993578 0.09993578 0.2194     0.1987061  16.88806   2.965      0.001826789 0.3274745  56.40113   0.3620128  0.2045749  0.5194507 
1113.8     0.2        136.83     -9999      -9999      4.956      8.052000045776367 21.20899963378906 11.72200012207031 12.69999980926514 6.477000236511231 2.965      3.493      4.026      1.484      8.508999824523926 0.09945931 0.09945931 0.2194     0.1947088  16.88806   2.965      0          0.3262661  56.44295   0.3634567  0.2045749  0.5223384 
1114       0.2        162.23     -9999      -9999      5.452      5.790999889373779 15.7480001449585 13.5       7.925000190734863 5.486000061035156 2.879      3.277      2.845      1.337      7.822999954223633 0.1340713  0.1340713  0.259825   0.852088   7.685251   2.879      0.2164658  0.4504759  55.80795   0.3810717  0.2821437  0.4799997 
1114.2     0.2        193.98     -9999      -9999      5.782      3.276999950408936 8.711999893188477 13.5       5.790999889373779 4.293000221252441 2.879      2.744      2.565      1.316      7.163000106811523 0.1554171  0.1554171  0.2656     2.117675   4.551663   2.879      0.3110698  0.4883146  52.75995   0.3338877  0.3494309  0.3183444 
1114.4     0.2        193.98     -9999      -9999      5.782      3.276999950408936 8.711999893188477 13.5       5.790999889373779 4.293000221252441 2.879      2.744      2.565      1.316      7.163000106811523 0.1554171  0.1554171  0.2656     2.117675   4.551663   2.879      0.3110698  0.4883146  52.75995   0.3338877  0.3494309  0.3183444 
