~Version
 VERS              .         2.0                           : CWLS LOG ASCII STANDARD - VERSION 2.0
 WRAP              .         NO                            : ONE LINE PER DEPTH STEP
 DLM               .         SPACE                         : DELIMITING CHARACTER(SPACE TAB OR COMMA)
~Well Information
#_______________________________________________________________________________
#
#PARAMETER_NAME    .UNIT     VALUE                         : DESCRIPTION
#_______________________________________________________________________________
STRT               .M        880                           : First reference value
STOP               .M        1156.8                        : Last reference value
STEP               .M        0.2                           : Step increment
NULL               .         -9999                         : Missing value
COMP               .                                       : Company
WELL               .         5523                          : Well name
FLD                .         УЗЕНЬ                         : Field
LOC                .                                       : Location
CNTY               .                                       : County
STAT               .                                       : State
CTRY               .                                       : Country
SRVC               .                                       : Service Company
DATE               .         11.04.1992г                   : Date
UWI                .                                       : Unique Well ID
Block              .         7                             : 
Category           .         Нагнетательная                : 
Condition          .         Ликвидированная               : 
EREF               .m        84.5                          : 100.8
Gorizont           .         14                            : 14
Interpretator      .         Кушнир И.Е.                   : 
Kupol              .         основной                      : osnovnoi
Mud                .                                       : 
Mud_density        .                                       : 
Mud_resistivity    .                                       : 
NGDU               .         НГДУ-2                        : 
ORIGINALWELLNAME   .         5523                          : 
Spud_date          .         1992                          : 1961
Viscosity          .                                       : 
X                  .m        42337.8                       : 46154
Y                  .m        83848.03                      : 85761.93
YEAR               .         2019г                         : 
~Parameter Information Block
#_______________________________________________________________________________
#
#PARAMETER_NAME    .UNIT     VALUE                         : DESCRIPTION
#_______________________________________________________________________________
SET                .         LQC_KAZNIPI_Petrel            : 
TLFamily_CALI      .         Caliper                       : 
TLFamily_CILD      .         Conductivity                  : 
TLFamily_COLL      .         Net Reservoir Flag            : 
TLFamily_CSAT      .         Fluid Code                    : 
TLFamily_DEPT      .         Measured Depth                : 
TLFamily_GR        .         Russian Gamma Ray             : 
TLFamily_GZ1       .         Gradient 045                  : 
TLFamily_GZ2       .         Gradient 105                  : 
TLFamily_GZ3       .         Gradient 225                  : 
TLFamily_GZ4       .         Gradient 425                  : 
TLFamily_GZ5       .         Gradient 850                  : 
TLFamily_LLS       .         Lateral Log Resistivity       : 
TLFamily_MINV      .         Micro Gradient Resistivity    : 
TLFamily_MNOR      .         Micro Resistivity             : 
TLFamily_NGLD      .         Neutron Gamma                 : 
TLFamily_OGZ       .         Gradient Inverted 225         : 
TLFamily_PHIE      .         Effective Porosity            : 
TLFamily_PHIEN     .         Effective Porosity            : 
TLFamily_PHIT      .         Porosity                      : 
TLFamily_PRMB      .         Permeability                  : 
TLFamily_PRMB_DGR  .         Permeability                  : 
TLFamily_RT        .         Formation Resistivity         : 
TLFamily_SOIL_ARCHIE .         Oil Saturation                : 
TLFamily_SOIL_DW   .         Oil Saturation                : 
TLFamily_SP        .         Spontaneous Potential         : 
TLFamily_VSH_FIN   .         Shale Volume                  : 
TLFamily_VSH_GR    .         Shale Volume                  : 
TLFamily_VSH_SP    .         Shale Volume                  : 
~Curve Information
#_______________________________________________________________________________
#
#LOGNAME           .UNIT     LOG_ID                        : DESCRIPTION
#_______________________________________________________________________________
DEPT               .M                                      : Колонка глубины 
CALI               .м                                      : Каверномер 
CILD               .мСм/м                                  : Индукционный каротаж 
COLL               .unitless                               : Описание 
CSAT               .unitless                               : Описание 
GR                 .uR/h                                   : Гамма каротаж 
GZ1                .ohmm                                   : Градиент-зонд  длиной 0.45м 
GZ2                .ohmm                                   : Градиент-зонд  длиной 1.05м 
GZ3                .ohmm                                   : Градиент-зонд  длиной 2.25м 
GZ4                .ohmm                                   : Градиент-зонд  длиной 4.5м 
GZ5                .ohmm                                   : Градиент-зонд  длиной 8.5м 
LLS                .Ohmm                                   : Боковой каротаж 
MINV               .Ohmm                                   : Микро-градиент зонд 
MNOR               .Ohmm                                   : Микро-потенциал зонд 
NGLD               .у.е.                                   : Показания зонда НГК-60 аппаратуры ДРСТ-3-90 
OGZ                .ohmm                                   : Обращенный градиент-зонд 
PHIE               .v/v                                    : Описание 
PHIEN              .v/v                                    :  
PHIT               .v/v                                    : Описание 
PRMB               .mD                                     :  
PRMB_DGR           .mD                                     :  
RT                 .ohmm                                   : Description 
SOIL_ARCHIE        .v/v                                    :  
SOIL_DW            .v/v                                    :  
SP                 .мВ                                     : Потенциал самополяризации 
VSH_FIN            .v/v                                    : Описание 
VSH_GR             .v/v                                    : Shale volume 
VSH_SP             .v/v                                    : Shale Volume 
~Ascii
# ...
967.4      0.272      420.04     0          0          4.613      2.28600001335144 3.174999952316284 1.937999963760376 3.250999927520752 2.565000057220459 1.64       1.27       1.168      0.956      2.210000038146973 0.2485764  0.2485764  0.3646     112.563    2.383315   1.64       0.4040338  0.5356836  50.86019   0.3515868  0.4550911  0.2480824 
967.6      0.281      430.2      0          0          4.613      2.28600001335144 3.174999952316284 1.759999990463257 3.250999927520752 2.565000057220459 1.998      0.851      1.194      1.057      2.28600001335144 0.2194244  0.2194244  0.336825   32.46615   2.383315   1.998      0.3944286  0.5361133  51.11861   0.3557593  0.4550911  0.2564274 
967.8      0.275      422.58     0          0          4.537      2.28600001335144 3.174999952316284 1.557000041007996 3.250999927520752 2.565000057220459 2.057      1.283      1.727      1.085      2.388000011444092 0.2181826  0.2181826  0.329125   30.79133   2.834022   2.057      0.3996822  0.5354284  50.86903   0.3361892  0.4240166  0.2483618 
968        0.265      412.42     0          0          4.474      2.28600001335144 3.174999952316284 1.404999971389771 3.250999927520752 2.565000057220459 1.912      1.715      1.626      1.088      2.489000082015991 0.2226171  0.2226171  0.3283     37.20201   3.271588   1.912      0.389525   0.5213674  50.61944   0.3202513  0.3998721  0.2406305 
968.2000000000001 0.267      411.15     0          0          4.524      2.28600001335144 3.174999952316284 1.327999949455261 3.250999927520752 2.565000057220459 1.912      1.575      1.334      1.072      2.515000104904175 0.2256977  0.2256977  0.3327     42.42553   2.919242   1.912      0.3967887  0.5277805  50.24286   0.3242494  0.4189178  0.229581  
968.4      0.267      411.15     0          0          4.524      2.28600001335144 3.174999952316284 1.327999949455261 3.250999927520752 2.565000057220459 1.912      1.575      1.334      1.072      2.515000104904175 0.225677   0.225677   0.3327     42.38809   2.919242   1.912      0.3967405  0.5277628  50.24728   0.3243121  0.4189178  0.2297063 
968.6      0.27       406.07     0          0          4.817      2.28600001335144 3.174999952316284 1.302999973297119 3.250999927520752 2.565000057220459 1.926      1.359      1.346      1.027      2.539999961853027 0.2169534  0.2169534  0.345075   29.21871   1.497165   1.926      0.3778017  0.5321378  50.12469   0.3882474  0.5502318  0.2262629 
968.8      0.273      399.72     0          0          4.791      2.28600001335144 3.174999952316284 1.251999974250794 3.250999927520752 2.565000057220459 1.954      1.41       1.6        1.024      2.515000104904175 0.2199284  0.2199284  0.3459     33.17156   1.58856    1.954      0.389289   0.5387072  50.12911   0.381732   0.5370784  0.2263857 
969        0.276      384.48     0          0          4.69       2.28600001335144 3.174999952316284 1.226999998092651 3.250999927520752 2.565000057220459 1.94       1.575      1.46       1.05       2.46399998664856 0.2195148  0.2195148  0.33875    32.59159   1.999721   1.94       0.3862194  0.5308993  50.38753   0.3613187  0.488898   0.2337395 
969.2000000000001 0.277      389.56     0          0          4.397      2.28600001335144 3.174999952316284 1.175999999046326 3.250999927520752 2.565000057220459 1.94       1.372      1.41       1.057      2.413000106811523 0.2355716  0.2355716  0.336825   64.64207   3.899154   1.94       0.4228209  0.5427008  50.64594   0.3068285  0.3722213  0.2414357 
969.4      0.277      389.56     0          0          4.397      2.28600001335144 3.174999952316284 1.175999999046326 3.250999927520752 2.565000057220459 1.94       1.372      1.41       1.057      2.413000106811523 0.2355494  0.2355494  0.336825   64.58088   3.899154   1.94       0.4227735  0.5426831  50.65036   0.3068958  0.3722213  0.2415703 
969.6      0.27       381.94     0          0          4.232      2.28600001335144 3.174999952316284 1.125      3.250999927520752 2.565000057220459 2.165      1.423      1.46       1.014      2.413000106811523 0.2534237  0.2534237  0.34865    138.4139   5.679127   2.165      0.4855811  0.5883996  51.16278   0.2885645  0.3192389  0.2578901 
969.8      0.263      374.32     0          0          4.245      2.28600001335144 3.174999952316284 1.125      3.250999927520752 2.565000057220459 2.149      1.626      1.651      1.024      2.437999963760376 0.2463363  0.2463363  0.3459     102.3065   5.513336   2.149      0.4708756  0.5800499  51.80219   0.3017083  0.3231245  0.2802921 
970        0.264      369.24     0          0          4.321      2.28600001335144 3.174999952316284 1.200999975204468 3.250999927520752 2.565000057220459 2.118      1.702      1.638      1.029      2.437999963760376 0.237809   0.237809   0.344525   71.11443   4.63652    2.118      0.4506556  0.5698012  52.31461   0.3233818  0.3468052  0.2999584 
970.2000000000001 0.267      367.97     0          0          4.397      2.28600001335144 3.174999952316284 1.277999997138977 3.250999927520752 2.565000057220459 2.165      1.563      1.511      1.011      2.437999963760376 0.235057   0.235057   0.349475   63.23892   3.899154   2.165      0.4507445  0.576049   52.82703   0.3467211  0.3722213  0.321221  
970.4      0.267      367.97     0          0          4.397      2.28600001335144 3.174999952316284 1.277999997138977 3.250999927520752 2.565000057220459 2.165      1.563      1.511      1.011      2.437999963760376 0.2350256  0.2350256  0.349475   63.1543    3.899154   2.165      0.4506806  0.5760259  52.83144   0.3468162  0.3722213  0.3214112 
970.6      0.27       366.7      0          0          4.486      2.28600001335144 3.174999952316284 1.327999949455261 3.250999927520752 2.565000057220459 1.983      1.855      1.74       0.996      2.361999988555908 0.2319735  0.2319735  0.3536     55.44591   3.183327   1.983      0.4210185  0.5577146  53.08986   0.3685653  0.4043626  0.332768  
970.8      0.274      370.51     0          0          4.626      2.28600001335144 3.174999952316284 1.404999971389771 3.250999927520752 2.565000057220459 1.912      1.588      1.537      0.996      2.311000108718872 0.2245003  0.2245003  0.3536     40.31324   2.31374    1.912      0.3939874  0.5435571  52.84028   0.3912113  0.4606301  0.3217925 
971        0.273      375.59     0          0          4.588      2.28600001335144 3.174999952316284 1.455000042915344 3.250999927520752 2.565000057220459 1.884      1.512      1.473      0.968      2.336999893188477 0.2348095  0.2348095  0.3613     62.57492   2.523049   1.884      0.4131791  0.5542154  52.8447    0.3833044  0.4446256  0.3219833 
971.2000000000001 0.269      376.86     0          0          4.524      2.28600001335144 3.174999952316284 1.455000042915344 3.250999927520752 2.565000057220459 1.998      1.448      1.448      0.943      2.336999893188477 0.2431001  0.2431001  0.368175   89.1172    2.919242   1.998      0.44613    0.5779318  53.23011   0.3790149  0.4189178  0.339112  
971.4      0.269      376.86     0          0          4.524      2.28600001335144 3.174999952316284 1.455000042915344 3.250999927520752 2.565000057220459 1.998      1.448      1.448      0.943      2.336999893188477 0.2430668  0.2430668  0.368175   88.99065   2.919242   1.998      0.4460639  0.5779082  53.23453   0.3791158  0.4189178  0.3393139 
971.6      0.265      369.24     0          0          4.296      2.28600001335144 3.174999952316284 1.455000042915344 3.250999927520752 2.565000057220459 2.072      1.575      1.676      0.951      2.361999988555908 0.2510931  0.2510931  0.365975   125.3177   4.908362   2.072      0.4706298  0.5895283  53.61994   0.3481268  0.3388299  0.3574237 
971.8      0.266      370.51     0          0          4.461      2.28600001335144 3.174999952316284 1.455000042915344 3.250999927520752 2.565000057220459 1.912      1.715      1.74       0.986      2.336999893188477 0.2369949  0.2369949  0.35635    68.68771   3.369966   1.912      0.4219107  0.5555346  52.98936   0.3616821  0.3950636  0.3283005 
