~Version
 VERS              .         2.0                           : CWLS LOG ASCII STANDARD - VERSION 2.0
 WRAP              .         NO                            : ONE LINE PER DEPTH STEP
 DLM               .         SPACE                         : DELIMITING CHARACTER(SPACE TAB OR COMMA)
~Well Information
#_______________________________________________________________________________
#
#PARAMETER_NAME    .UNIT     VALUE                         : DESCRIPTION
#_______________________________________________________________________________
STRT               .M        880                           : First reference value
STOP               .M        1156.8                        : Last reference value
STEP               .M        0.2                           : Step increment
NULL               .         -9999                         : Missing value
COMP               .                                       : Company
WELL               .         5523                          : Well name
FLD                .         УЗЕНЬ                         : Field
LOC                .                                       : Location
CNTY               .                                       : County
STAT               .                                       : State
CTRY               .                                       : Country
SRVC               .                                       : Service Company
DATE               .         11.04.1992г                   : Date
UWI                .                                       : Unique Well ID
Block              .         7                             : 
Category           .         Нагнетательная                : 
Condition          .         Ликвидированная               : 
EREF               .m        84.5                          : 100.8
Gorizont           .         14                            : 14
Interpretator      .         Кушнир И.Е.                   : 
Kupol              .         основной                      : osnovnoi
Mud                .                                       : 
Mud_density        .                                       : 
Mud_resistivity    .                                       : 
NGDU               .         НГДУ-2                        : 
ORIGINALWELLNAME   .         5523                          : 
Spud_date          .         1992                          : 1961
Viscosity          .                                       : 
X                  .m        42337.8                       : 46154
Y                  .m        83848.03                      : 85761.93
YEAR               .         2019г                         : 
~Parameter Information Block
#_______________________________________________________________________________
#
#PARAMETER_NAME    .UNIT     VALUE                         : DESCRIPTION
#_______________________________________________________________________________
SET                .         LQC_KAZNIPI_Petrel            : 
TLFamily_CALI      .         Caliper                       : 
TLFamily_CILD      .         Conductivity                  : 
TLFamily_COLL      .         Net Reservoir Flag            : 
TLFamily_CSAT      .         Fluid Code                    : 
TLFamily_DEPT      .         Measured Depth                : 
TLFamily_GR        .         Russian Gamma Ray             : 
TLFamily_GZ1       .         Gradient 045                  : 
TLFamily_GZ2       .         Gradient 105                  : 
TLFamily_GZ3       .         Gradient 225                  : 
TLFamily_GZ4       .         Gradient 425                  : 
TLFamily_GZ5       .         Gradient 850                  : 
TLFamily_LLS       .         Lateral Log Resistivity       : 
TLFamily_MINV      .         Micro Gradient Resistivity    : 
TLFamily_MNOR      .         Micro Resistivity             : 
TLFamily_NGLD      .         Neutron Gamma                 : 
TLFamily_OGZ       .         Gradient Inverted 225         : 
TLFamily_PHIE      .         Effective Porosity            : 
TLFamily_PHIEN     .         Effective Porosity            : 
TLFamily_PHIT      .         Porosity                      : 
TLFamily_PRMB      .         Permeability                  : 
TLFamily_PRMB_DGR  .         Permeability                  : 
TLFamily_RT        .         Formation Resistivity         : 
TLFamily_SOIL_ARCHIE .         Oil Saturation                : 
TLFamily_SOIL_DW   .         Oil Saturation                : 
TLFamily_SP        .         Spontaneous Potential         : 
TLFamily_VSH_FIN   .         Shale Volume                  : 
TLFamily_VSH_GR    .         Shale Volume                  : 
TLFamily_VSH_SP    .         Shale Volume                  : 
~Curve Information
#_______________________________________________________________________________
#
#LOGNAME           .UNIT     LOG_ID                        : DESCRIPTION
#_______________________________________________________________________________
DEPT               .M                                      : Колонка глубины 
CALI               .м                                      : Каверномер 
CILD               .мСм/м                                  : Индукционный каротаж 
COLL               .unitless                               : Описание 
CSAT               .unitless                               : Описание 
GR                 .uR/h                                   : Гамма каротаж 
GZ1                .ohmm                                   : Градиент-зонд  длиной 0.45м 
GZ2                .ohmm                                   : Градиент-зонд  длиной 1.05м 
GZ3                .ohmm                                   : Градиент-зонд  длиной 2.25м 
GZ4                .ohmm                                   : Градиент-зонд  длиной 4.5м 
GZ5                .ohmm                                   : Градиент-зонд  длиной 8.5м 
LLS                .Ohmm                                   : Боковой каротаж 
MINV               .Ohmm                                   : Микро-градиент зонд 
MNOR               .Ohmm                                   : Микро-потенциал зонд 
NGLD               .у.е.                                   : Показания зонда НГК-60 аппаратуры ДРСТ-3-90 
OGZ                .ohmm                                   : Обращенный градиент-зонд 
PHIE               .v/v                                    : Описание 
PHIEN              .v/v                                    :  
PHIT               .v/v                                    : Описание 
PRMB               .mD                                     :  
PRMB_DGR           .mD                                     :  
RT                 .ohmm                                   : Description 
SOIL_ARCHIE        .v/v                                    :  
SOIL_DW            .v/v                                    :  
SP                 .мВ                                     : Потенциал самополяризации 
VSH_FIN            .v/v                                    : Описание 
VSH_GR             .v/v                                    : Shale volume 
VSH_SP             .v/v                                    : Shale Volume 
~Ascii
# ...
1004.2     0.229      248.59     0          0          3.039      2.717999935150147 4.216000080108643 2.903000116348267 3.072999954223633 2.591000080108643 4.12       2.934      3.124      1.408      5.02899980545044 0.1672347  0.1672347  0.2403     3.5055     23.52273   4.12       0.4537248  0.5592565  51.34778   0.2214101  0.1786858  0.2641344 
1004.4     0.229      248.59     0          0          3.039      2.717999935150147 4.216000080108643 2.903000116348267 3.072999954223633 2.591000080108643 4.12       2.934      3.124      1.408      5.02899980545044 0.1672058  0.1672058  0.2403     3.501183   23.52273   4.12       0.4536426  0.5592252  51.35289   0.2214976  0.1786858  0.2643095 
1004.6     0.229      228.27     0          0          2.429      3.733999967575073 4.394000053405762 2.802000045776367 3.352999925613403 2.717999935150147 2.837      4.776      3.721      1.481      5.460999965667725 0.1637261  0.1637261  0.220225   3.018302   139.1368   2.837      0.3370665  0.4360597  51.10399   0.1712088  0.08647197 0.2559457 
1004.8     0.229      230.81     0          0          2.315      3.352999925613403 4.342999935150147 2.928999900817871 3.250999927520752 2.717999935150147 2.879      2.833      2.4        1.392      5.715000152587891 0.1913349  0.1913349  0.2447     9.798157   193.9583   2.879      0.4251796  0.5066835  50.8551    0.1617125  0.0755034  0.2479216 
1005       0.229      227        0          0          2.607      3.226000070571899 4.927999973297119 3.029999971389771 3.250999927520752 2.743000030517578 3.166      2.541      2.426      1.415      6.019999980926514 0.1862639  0.1862639  0.238375   7.892552   82.8291    3.166      0.4372362  0.5169559  49.46321   0.1579124  0.1068701  0.2089548 
1005.2     0.229      216.84     0          0          2.67       3.581000089645386 5.460999965667725 3.029999971389771 3.378000020980835 2.869999885559082 4.211      2.845      4.102      1.525      5.435999870300293 0.161049   0.161049   0.208125   2.692632   68.93768   4.211      0.4412533  0.5183186  47.56332   0.1426544  0.115189   0.1701199 
1005.4     0.229      216.84     0          0          2.67       3.581000089645386 5.460999965667725 3.029999971389771 3.378000020980835 2.869999885559082 4.211      2.845      4.102      1.525      5.435999870300293 0.1610351  0.1610351  0.208125   2.691027   68.93768   4.211      0.441211   0.5183011  47.56842   0.1426968  0.115189   0.1702046 
1005.6     0.23       187.63     0          0          2.302      4.039000034332275 5.918000221252441 2.979000091552734 3.555999994277954 3.04800009727478 3.886      3.303      3.34       1.593      4.597000122070313 0.1515442  0.1515442  0.189425   1.79525    201.4466   3.886      0.3882225  0.4567306  46.55753   0.1147902  0.07434449 0.1552358 
1005.8     0.23       187.63     0          0          2.302      4.165999889373779 5.918000221252441 2.903000116348267 3.683000087738037 3.226000070571899 4.09       4.331      4.458      1.57       3.733999967575073 0.1566892  0.1566892  0.19575    2.23574    201.4466   4.09       0.4198533  0.4876797  47.07064   0.1183662  0.07434449 0.1623878 
1006       0.23       191.44     0          0          2.302      3.530999898910523 5.690000057220459 2.928999900817871 3.785000085830689 3.657999992370606 3.333      4.992      3.34       1.509      3.302000045776367 0.1728113  0.1728113  0.212525   4.446749   201.4466   3.333      0.4135847  0.4807205  47.32974   0.1203446  0.07434449 0.1663447 
1006.2     0.229      188.9      0          0          2.315      3.276999950408936 5.918000221252441 2.979000091552734 4.317999839782715 4.114999771118164 3.19       3.29       2.718      1.507      3.200000047683716 0.1724771  0.1724771  0.213075   4.383811   193.9583   3.19       0.4003822  0.4695688  47.58885   0.1230241  0.0755034  0.1705448 
1006.4     0.229      188.9      0          0          2.315      3.276999950408936 5.918000221252441 2.979000091552734 4.317999839782715 4.114999771118164 3.19       3.29       2.718      1.507      3.200000047683716 0.172463   0.172463   0.213075   4.381178   193.9583   3.19       0.4003395  0.4695506  47.59396   0.1230667  0.0755034  0.1706301 
1006.6     0.229      167.31     0          0          2.467      4.85099983215332 9.168999671936035 3.131999969482422 6.807000160217285 5.054999828338623 6.577      3.391      4.128      1.565      3.428999900817871 0.1533079  0.1533079  0.197125   1.935492   124.5526   6.577      0.5268721  0.5939266  47.85306   0.1327792  0.09047149 0.1750868 
1006.8     0.227      174.93     0          0          2.48       6.324999809265137 9.5        3.359999895095825 7.263999938964844 5.13100004196167 9.342      4.89       4.978      1.54       3.683000087738037 0.1583658  0.1583658  0.204      2.401464   119.9227   9.342      0.6098968  0.6705105  48.36617   0.1382856  0.09188179 0.1846895 
1007       0.225      191.44     0          0          2.632      5.359000205993652 7.747000217437744 3.740999937057495 7.263999938964844 4.75       4.18       4.915      4.953      1.299      3.835000038146973 0.2198713  0.2198713  0.270275   33.09085   77.00974   4.18       0.5724775  0.6354558  48.87928   0.1527385  0.1100968  0.1953801 
1007.2     0.237      221.92     0          0          2.81       3.961999893188477 6.426000118255615 5.011000156402588 6.223000049591065 4.139999866485596 2.213      3.582      2.311      1.06       3.885999917984009 0.2920517  0.2920517  0.336      718.8919   465.351    2.213      0.5500271  0.608152   49.64639   0.1331768  0.05281659 0.2135369 
1007.4     0.237      221.92     0          0          2.81       3.961999893188477 6.426000118255615 5.011000156402588 6.223000049591065 4.139999866485596 2.213      3.582      2.311      1.06       3.885999917984009 0.2920302  0.2920302  0.336      718.2343   465.351    2.213      0.5499983  0.6081397  49.65149   0.1332418  0.05281659 0.213667  
1007.6     0.273      265.1      0          0          4.271      2.46399998664856 5.156000137329102 6.129000186920166 3.861000061035156 3.04800009727478 2.057      2.007      1.74       0.973      2.819000005722046 0.2986741  0.2986741  0.359925   953.5129   42.57018   2.057      0.5433295  0.6130357  50.2916    0.1856089  0.1402478  0.23097   
1007.8     0.271      275.26     0          0          4.88       2.134000062942505 4.520999908447266 6.078000068664551 3.480000019073486 2.84500002861023 2.042      2.033      1.778      0.986      2.134000062942505 0.2809369  0.2809369  0.35635    447.4984   15.70891   2.042      0.5166609  0.5991545  50.8047    0.2285244  0.2107113  0.2463376 
1008       0.266      281.61     0          0          4.944      2.413000106811523 4.342999935150147 5.570000171661377 3.276999950408936 2.743000030517578 2.262      2.121      1.6        0.991      2.056999921798706 0.2759821  0.2759821  0.354975   362.2557   14.14642   2.262      0.5321247  0.6154308  51.19081   0.2393726  0.2199211  0.2588241 
1008.2     0.259      293.04     0          0          4.728      2.565000057220459 3.683000087738037 4.960999965667725 3.200000047683716 2.641999959945679 2.488      2.515      2.121      0.991      2.056999921798706 0.2841538  0.2841538  0.354975   513.3052   20.14689   2.488      0.5638005  0.6377785  50.56092   0.2146097  0.1903542  0.2388652 
1008.4     0.259      293.04     0          0          4.728      2.565000057220459 3.683000087738037 4.960999965667725 3.200000047683716 2.641999959945679 2.488      2.515      2.121      0.991      2.056999921798706 0.2841285  0.2841285  0.354975   512.7522   20.14689   2.488      0.5637667  0.6377649  50.56602   0.2146863  0.1903542  0.2390185 
1008.6     0.251      347.65     0          0          4.842      2.108000040054321 3.124000072479248 4.375999927520752 2.869999885559082 2.565000057220459 1.739      2.274      1.003      0.973      2.056999921798706 0.2865663  0.2865663  0.359925   568.9321   16.71713   1.739      0.4877504  0.5717267  50.57113   0.2222992  0.2054265  0.239172  
