~Version
 VERS              .         2.0                           : CWLS LOG ASCII STANDARD - VERSION 2.0
 WRAP              .         NO                            : ONE LINE PER DEPTH STEP
 DLM               .         SPACE                         : DELIMITING CHARACTER(SPACE TAB OR COMMA)
~Well Information
#_______________________________________________________________________________
#
#PARAMETER_NAME    .UNIT     VALUE                         : DESCRIPTION
#_______________________________________________________________________________
STRT               .M        880                           : First reference value
STOP               .M        1156.8                        : Last reference value
STEP               .M        0.2                           : Step increment
NULL               .         -9999                         : Missing value
COMP               .                                       : Company
WELL               .         5523                          : Well name
FLD                .         УЗЕНЬ                         : Field
LOC                .                                       : Location
CNTY               .                                       : County
STAT               .                                       : State
CTRY               .                                       : Country
SRVC               .                                       : Service Company
DATE               .         11.04.1992г                   : Date
UWI                .                                       : Unique Well ID
Block              .         7                             : 
Category           .         Нагнетательная                : 
Condition          .         Ликвидированная               : 
EREF               .m        84.5                          : 100.8
Gorizont           .         14                            : 14
Interpretator      .         Кушнир И.Е.                   : 
Kupol              .         основной                      : osnovnoi
Mud                .                                       : 
Mud_density        .                                       : 
Mud_resistivity    .                                       : 
NGDU               .         НГДУ-2                        : 
ORIGINALWELLNAME   .         5523                          : 
Spud_date          .         1992                          : 1961
Viscosity          .                                       : 
X                  .m        42337.8                       : 46154
Y                  .m        83848.03                      : 85761.93
YEAR               .         2019г                         : 
~Parameter Information Block
#_______________________________________________________________________________
#
#PARAMETER_NAME    .UNIT     VALUE                         : DESCRIPTION
#_______________________________________________________________________________
SET                .         LQC_KAZNIPI_Petrel            : 
TLFamily_CALI      .         Caliper                       : 
TLFamily_CILD      .         Conductivity                  : 
TLFamily_COLL      .         Net Reservoir Flag            : 
TLFamily_CSAT      .         Fluid Code                    : 
TLFamily_DEPT      .         Measured Depth                : 
TLFamily_GR        .         Russian Gamma Ray             : 
TLFamily_GZ1       .         Gradient 045                  : 
TLFamily_GZ2       .         Gradient 105                  : 
TLFamily_GZ3       .         Gradient 225                  : 
TLFamily_GZ4       .         Gradient 425                  : 
TLFamily_GZ5       .         Gradient 850                  : 
TLFamily_LLS       .         Lateral Log Resistivity       : 
TLFamily_MINV      .         Micro Gradient Resistivity    : 
TLFamily_MNOR      .         Micro Resistivity             : 
TLFamily_NGLD      .         Neutron Gamma                 : 
TLFamily_OGZ       .         Gradient Inverted 225         : 
TLFamily_PHIE      .         Effective Porosity            : 
TLFamily_PHIEN     .         Effective Porosity            : 
TLFamily_PHIT      .         Porosity                      : 
TLFamily_PRMB      .         Permeability                  : 
TLFamily_PRMB_DGR  .         Permeability                  : 
TLFamily_RT        .         Formation Resistivity         : 
TLFamily_SOIL_ARCHIE .         Oil Saturation                : 
TLFamily_SOIL_DW   .         Oil Saturation                : 
TLFamily_SP        .         Spontaneous Potential         : 
TLFamily_VSH_FIN   .         Shale Volume                  : 
TLFamily_VSH_GR    .         Shale Volume                  : 
TLFamily_VSH_SP    .         Shale Volume                  : 
~Curve Information
#_______________________________________________________________________________
#
#LOGNAME           .UNIT     LOG_ID                        : DESCRIPTION
#_______________________________________________________________________________
DEPT               .M                                      : Колонка глубины 
CALI               .м                                      : Каверномер 
CILD               .мСм/м                                  : Индукционный каротаж 
COLL               .unitless                               : Описание 
CSAT               .unitless                               : Описание 
GR                 .uR/h                                   : Гамма каротаж 
GZ1                .ohmm                                   : Градиент-зонд  длиной 0.45м 
GZ2                .ohmm                                   : Градиент-зонд  длиной 1.05м 
GZ3                .ohmm                                   : Градиент-зонд  длиной 2.25м 
GZ4                .ohmm                                   : Градиент-зонд  длиной 4.5м 
GZ5                .ohmm                                   : Градиент-зонд  длиной 8.5м 
LLS                .Ohmm                                   : Боковой каротаж 
MINV               .Ohmm                                   : Микро-градиент зонд 
MNOR               .Ohmm                                   : Микро-потенциал зонд 
NGLD               .у.е.                                   : Показания зонда НГК-60 аппаратуры ДРСТ-3-90 
OGZ                .ohmm                                   : Обращенный градиент-зонд 
PHIE               .v/v                                    : Описание 
PHIEN              .v/v                                    :  
PHIT               .v/v                                    : Описание 
PRMB               .mD                                     :  
PRMB_DGR           .mD                                     :  
RT                 .ohmm                                   : Description 
SOIL_ARCHIE        .v/v                                    :  
SOIL_DW            .v/v                                    :  
SP                 .мВ                                     : Потенциал самополяризации 
VSH_FIN            .v/v                                    : Описание 
VSH_GR             .v/v                                    : Shale volume 
VSH_SP             .v/v                                    : Shale Volume 
~Ascii
# ...
916.8      0.226      115.24     0          0          2.34       2.28600001335144 3.174999952316284 6.281000137329102 3.250999927520752 2.565000057220459 4.564      3.798      3.404      1.443      8.711999893188477 0.1604804  0.1604804  0.230675   2.62811    180.3313   4.564      0.4603063  0.5637082  53.41431   0.2127111  0.07778307 0.3476391 
917        0.226      100        0          0          2.467      2.28600001335144 3.174999952316284 6.052999973297119 3.250999927520752 2.565000057220459 6.159      3.76       4.534      1.494      8.305999755859375 0.1476772  0.1476772  0.21665    1.52229    124.5526   6.159      0.4959023  0.5967494  52.97224   0.2090086  0.09047149 0.3275457 
917.2000000000001 0.226      88.57      0          0          2.607      2.28600001335144 3.174999952316284 6.25600004196167 3.250999927520752 2.565000057220459 8.251      3.023      4.026      1.499      7.89900016784668 0.1449438  0.1449438  0.215275   1.354782   82.8291    8.251      0.5533302  0.6476046  52.78416   0.2131248  0.1068701  0.3193794 
917.4      0.226      88.57      0          0          2.607      2.28600001335144 3.174999952316284 6.25600004196167 3.250999927520752 2.565000057220459 8.251      3.023      4.026      1.499      7.89900016784668 0.1453735  0.1453735  0.215275   1.379836   82.8291    8.251      0.5544802  0.6480307  52.72309   0.2118228  0.1068701  0.3167756 
917.6      0.226      108.89     0          0          2.442      2.28600001335144 3.174999952316284 6.890999794006348 3.250999927520752 2.565000057220459 5.36       3.239      2.858      1.408      7.493000030517578 0.1721714  0.1721714  0.2403     4.327029   133.9647   5.36       0.529255   0.6181926  52.91601   0.2064504  0.08781993 0.3250808 
917.8      0.226      117.78     0          0          2.518      2.28600001335144 3.174999952316284 7.677999973297119 3.250999927520752 2.565000057220459 4.838      3.544      3.721      1.354      7.214000225067139 0.187868   0.187868   0.25515    8.45141    107.3526   4.838      0.5422109  0.6257657  52.60094   0.2038849  0.09613149 0.3116382 
918        0.226      127.94     0          0          2.759      2.28600001335144 3.174999952316284 7.958000183105469 3.250999927520752 2.565000057220459 4.001      2.845      3.086      1.37       6.882999897003174 0.1811412  0.1811412  0.25075    6.343564   53.18965   4.001      0.4833811  0.577935   52.15886   0.2109356  0.1280564  0.2938148 
918.2000000000001 0.225      133.02     0          0          2.81       2.28600001335144 3.174999952316284 8.034000396728516 3.250999927520752 2.565000057220459 4.15       2.845      2.858      1.4        6.552999973297119 0.1677129  0.1677129  0.2425     3.577732   45.84447   4.15       0.4569338  0.5637161  52.73278   0.2266276  0.1360678  0.3171874 
918.4      0.225      133.02     0          0          2.81       2.28600001335144 3.174999952316284 8.034000396728516 3.250999927520752 2.565000057220459 4.15       2.845      2.858      1.4        6.552999973297119 0.1681392  0.1681392  0.2425     3.643384   45.84447   4.15       0.4581333  0.5641708  52.67171   0.2253356  0.1360678  0.3146034 
918.6      0.225      133.02     0          0          2.759      2.28600001335144 3.174999952316284 7.703999996185303 3.250999927520752 2.565000057220459 5.559      4.42       3.95       1.433      6.223000049591065 0.1532675  0.1532675  0.233425   1.932162   53.18965   5.559      0.4879068  0.599984   53.62663   0.2429016  0.1280564  0.3577469 
918.8      0.224      138.1      0          0          2.619      2.28600001335144 3.174999952316284 7.577000141143799 3.250999927520752 2.565000057220459 4.465      3.353      3.581      1.415      5.99399995803833 0.1639168  0.1639168  0.238375   3.042956   79.98291   4.465      0.4646935  0.5710997  53.31156   0.2256308  0.1084069  0.3428547 
919        0.224      152.07     0          0          2.67       2.28600001335144 3.174999952316284 7.804999828338623 3.250999927520752 2.565000057220459 3.746      2.579      2.794      1.37       5.816999912261963 0.1802234  0.1802234  0.25075    6.100033   68.93768   3.746      0.4648037  0.5628884  52.61548   0.2137171  0.115189   0.3122451 
919.2000000000001 0.225      163.5      0          0          2.594      2.28600001335144 3.174999952316284 8.008999824523926 3.250999927520752 2.565000057220459 4.06       2.998      2.946      1.344      5.664000034332275 0.1943484  0.1943484  0.2579     11.14197   86.02694   4.06       0.517422   0.5997164  51.7924    0.1925806  0.1052297  0.2799315 
919.4      0.225      163.5      0          0          2.594      2.28600001335144 3.174999952316284 8.008999824523926 3.250999927520752 2.565000057220459 4.06       2.998      2.946      1.344      5.664000034332275 0.1947175  0.1947175  0.2579     11.31877   86.02694   4.06       0.5182189  0.6000329  51.73133   0.1914621  0.1052297  0.2776944 
919.6      0.225      168.58     0          0          2.937      2.28600001335144 3.174999952316284 7.602000236511231 3.250999927520752 2.565000057220459 3.406      2.985      2.997      1.314      5.739999771118164 0.1981766  0.1981766  0.26615    13.11806   31.66421   3.406      0.4847887  0.5744015  51.03526   0.20598    0.1582639  0.253696  
919.8      0.225      171.12     0          0          2.886      2.28600001335144 3.174999952316284 6.967000007629395 3.250999927520752 2.565000057220459 4.15       2.464      2.4        1.311      5.790999889373779 0.2008654  0.2008654  0.266975   14.71202   36.73746   4.15       0.5358872  0.6172835  50.97418   0.2003322  0.1489457  0.2517187 
920        0.225      164.77     0          0          2.924      2.28600001335144 3.174999952316284 6.560999870300293 3.250999927520752 2.565000057220459 4.803      3.823      3.124      1.375      6.146999835968018 0.1803823  0.1803823  0.249375   6.141511   32.88669   4.803      0.5240895  0.6128657  51.29411   0.2090689  0.1558347  0.2623031 
920.2000000000001 0.224      157.15     0          0          2.861      2.28600001335144 3.174999952316284 6.585999965667725 3.250999927520752 2.565000057220459 4.665      3.315      3.924      1.365      6.75600004196167 0.1831487  0.1831487  0.252125   6.910599   39.51359   4.665      0.5238874  0.6121494  51.61403   0.2090192  0.1445804  0.273458  
920.4      0.224      157.15     0          0          2.861      2.28600001335144 3.174999952316284 6.585999965667725 3.250999927520752 2.565000057220459 4.665      3.315      3.924      1.365      6.75600004196167 0.1835075  0.1835075  0.252125   7.01716    39.51359   4.665      0.5246983  0.6124638  51.55295   0.207932   0.1445804  0.2712835 
920.6      0.224      157.15     0          0          2.48       2.28600001335144 3.174999952316284 6.560999870300293 3.250999927520752 2.565000057220459 4.982      4.42       4.521      1.296      6.908999919891357 0.2100323  0.2100323  0.2711     21.75035   119.9227   4.982      0.5902633  0.6601975  51.74588   0.1850535  0.09188179 0.2782252 
920.8      0.224      159.69     0          0          2.404      2.28600001335144 3.174999952316284 6.331999778747559 3.250999927520752 2.565000057220459 4.368      3.544      3.683      1.283      7.035999774932861 0.211298   0.211298   0.274675   22.95671   149.6508   4.368      0.566452   0.6407585  52.3198    0.1920515  0.08393765 0.3001654 
921        0.224      157.15     0          0          2.48       2.28600001335144 3.174999952316284 6.026999950408936 3.250999927520752 2.565000057220459 3.829      3.201      2.832      1.278      7.010000228881836 0.2149531  0.2149531  0.27605    26.8294    119.9227   3.829      0.5456499  0.6201551  51.75072   0.1851421  0.09188179 0.2784025 
921.2000000000001 0.223      155.88     0          0          2.581      2.28600001335144 3.174999952316284 5.519000053405762 3.250999927520752 2.565000057220459 5.282      2.96       2.616      1.283      6.248000144958496 0.2176021  0.2176021  0.274675   30.03847   89.34821   5.282      0.6134591  0.6773169  50.67365   0.1729481  0.1036145  0.2422816 
