~Version
 VERS              .         2.0                           : CWLS LOG ASCII STANDARD - VERSION 2.0
 WRAP              .         NO                            : ONE LINE PER DEPTH STEP
 DLM               .         SPACE                         : DELIMITING CHARACTER(SPACE TAB OR COMMA)
~Well Information
#_______________________________________________________________________________
#
#PARAMETER_NAME    .UNIT     VALUE                         : DESCRIPTION
#_______________________________________________________________________________
STRT               .M        880                           : First reference value
STOP               .M        1156.8                        : Last reference value
STEP               .M        0.2                           : Step increment
NULL               .         -9999                         : Missing value
COMP               .                                       : Company
WELL               .         5523                          : Well name
FLD                .         УЗЕНЬ                         : Field
LOC                .                                       : Location
CNTY               .                                       : County
STAT               .                                       : State
CTRY               .                                       : Country
SRVC               .                                       : Service Company
DATE               .         11.04.1992г                   : Date
UWI                .                                       : Unique Well ID
Block              .         7                             : 
Category           .         Нагнетательная                : 
Condition          .         Ликвидированная               : 
EREF               .m        84.5                          : 100.8
Gorizont           .         14                            : 14
Interpretator      .         Кушнир И.Е.                   : 
Kupol              .         основной                      : osnovnoi
Mud                .                                       : 
Mud_density        .                                       : 
Mud_resistivity    .                                       : 
NGDU               .         НГДУ-2                        : 
ORIGINALWELLNAME   .         5523                          : 
Spud_date          .         1992                          : 1961
Viscosity          .                                       : 
X                  .m        42337.8                       : 46154
Y                  .m        83848.03                      : 85761.93
YEAR               .         2019г                         : 
~Parameter Information Block
#_______________________________________________________________________________
#
#PARAMETER_NAME    .UNIT     VALUE                         : DESCRIPTION
#_______________________________________________________________________________
SET                .         LQC_KAZNIPI_Petrel            : 
TLFamily_CALI      .         Caliper                       : 
TLFamily_CILD      .         Conductivity                  : 
TLFamily_COLL      .         Net Reservoir Flag            : 
TLFamily_CSAT      .         Fluid Code                    : 
TLFamily_DEPT      .         Measured Depth                : 
TLFamily_GR        .         Russian Gamma Ray             : 
TLFamily_GZ1       .         Gradient 045                  : 
TLFamily_GZ2       .         Gradient 105                  : 
TLFamily_GZ3       .         Gradient 225                  : 
TLFamily_GZ4       .         Gradient 425                  : 
TLFamily_GZ5       .         Gradient 850                  : 
TLFamily_LLS       .         Lateral Log Resistivity       : 
TLFamily_MINV      .         Micro Gradient Resistivity    : 
TLFamily_MNOR      .         Micro Resistivity             : 
TLFamily_NGLD      .         Neutron Gamma                 : 
TLFamily_OGZ       .         Gradient Inverted 225         : 
TLFamily_PHIE      .         Effective Porosity            : 
TLFamily_PHIEN     .         Effective Porosity            : 
TLFamily_PHIT      .         Porosity                      : 
TLFamily_PRMB      .         Permeability                  : 
TLFamily_PRMB_DGR  .         Permeability                  : 
TLFamily_RT        .         Formation Resistivity         : 
TLFamily_SOIL_ARCHIE .         Oil Saturation                : 
TLFamily_SOIL_DW   .         Oil Saturation                : 
TLFamily_SP        .         Spontaneous Potential         : 
TLFamily_VSH_FIN   .         Shale Volume                  : 
TLFamily_VSH_GR    .         Shale Volume                  : 
TLFamily_VSH_SP    .         Shale Volume                  : 
~Curve Information
#_______________________________________________________________________________
#
#LOGNAME           .UNIT     LOG_ID                        : DESCRIPTION
#_______________________________________________________________________________
DEPT               .M                                      : Колонка глубины 
CALI               .м                                      : Каверномер 
CILD               .мСм/м                                  : Индукционный каротаж 
COLL               .unitless                               : Описание 
CSAT               .unitless                               : Описание 
GR                 .uR/h                                   : Гамма каротаж 
GZ1                .ohmm                                   : Градиент-зонд  длиной 0.45м 
GZ2                .ohmm                                   : Градиент-зонд  длиной 1.05м 
GZ3                .ohmm                                   : Градиент-зонд  длиной 2.25м 
GZ4                .ohmm                                   : Градиент-зонд  длиной 4.5м 
GZ5                .ohmm                                   : Градиент-зонд  длиной 8.5м 
LLS                .Ohmm                                   : Боковой каротаж 
MINV               .Ohmm                                   : Микро-градиент зонд 
MNOR               .Ohmm                                   : Микро-потенциал зонд 
NGLD               .у.е.                                   : Показания зонда НГК-60 аппаратуры ДРСТ-3-90 
OGZ                .ohmm                                   : Обращенный градиент-зонд 
PHIE               .v/v                                    : Описание 
PHIEN              .v/v                                    :  
PHIT               .v/v                                    : Описание 
PRMB               .mD                                     :  
PRMB_DGR           .mD                                     :  
RT                 .ohmm                                   : Description 
SOIL_ARCHIE        .v/v                                    :  
SOIL_DW            .v/v                                    :  
SP                 .мВ                                     : Потенциал самополяризации 
VSH_FIN            .v/v                                    : Описание 
VSH_GR             .v/v                                    : Shale volume 
VSH_SP             .v/v                                    : Shale Volume 
~Ascii
# ...
1041       0.234      310.82     0          0          4.474      2.184000015258789 3.32699990272522 1.455000042915344 2.006999969482422 1.853999972343445 2.637      3.01       2.476      1.311      2.717999935150147 0.1806973  0.1806973  0.266975   6.224596   30.53413   2.637      0.3704033  0.4984418  53.71954   0.2614475  0.16063    0.362265  
1041.2     0.23       303.2      0          0          4.271      3.150000095367432 3.733999967575073 1.455000042915344 2.056999921798706 1.879999995231628 2.696      2.744      2.388      1.194      2.743000030517578 0.218424   0.218424   0.29915    31.11002   42.57018   2.696      0.4717601  0.5709224  53.44329   0.2446243  0.1402478  0.3490007 
1041.4     0.23       303.2      0          0          4.271      3.150000095367432 3.733999967575073 1.455000042915344 2.056999921798706 1.879999995231628 2.696      2.744      2.388      1.194      2.743000030517578 0.2185967  0.2185967  0.29915    31.33996   42.57018   2.696      0.4721235  0.571063   53.42103   0.2441011  0.1402478  0.3479543 
1041.6     0.228      314.63     0          0          4.867      2.971999883651733 4.039000034332275 1.633000016212463 2.108000040054321 1.853999972343445 2.506      1.486      2.197      1.133      2.615999937057495 0.2315141  0.2315141  0.315925   54.37019   16.0468    2.506      0.4803512  0.579221   52.38277   0.2557906  0.2088882  0.302693  
1041.8     0.228      314.63     0          0          4.867      2.971999883651733 4.039000034332275 1.633000016212463 2.108000040054321 1.853999972343445 2.506      1.486      2.197      1.133      2.615999937057495 0.2316619  0.2316619  0.315925   54.71407   16.0468    2.506      0.48064    0.5793324  52.36052   0.2553426  0.2088882  0.301797  
1042       0.229      320.98     0          0          5.083      2.769000053405762 4.039000034332275 1.810999989509583 2.134000062942505 1.802999973297119 2.329      1.042      1.257      1.138      2.489000082015991 0.2290788  0.2290788  0.31455    49.00638   11.26747   2.329      0.4572024  0.5604857  51.70326   0.2590037  0.2413339  0.2766735 
1042.2     0.234      354        0          0          5.617      2.489000082015991 3.657999992370606 2.065000057220459 1.980999946594238 1.675999999046326 1.83       0.775      1.397      1.138      2.413000106811523 0.2028296  0.2028296  0.31455    15.99757   4.700969   1.83       0.3242107  0.4788051  53.078     0.3385467  0.3448559  0.3322375 
1042.4     0.234      354        0          0          5.617      2.489000082015991 3.657999992370606 2.065000057220459 1.980999946594238 1.675999999046326 1.83       0.775      1.397      1.138      2.413000106811523 0.2029935  0.2029935  0.31455    16.10978   4.700969   1.83       0.3246859  0.4789757  53.05575   0.3380501  0.3448559  0.3312443 
1042.6     0.237      380.67     0          0          6.442      2.210000038146973 3.174999952316284 1.912999987602234 1.879999995231628 1.549000024795532 1.777      0.877      1.346      1.121      2.311000108718872 0.1677921  0.1677921  0.319225   3.589835   1.218054   1.777      0.1917749  0.4347548  52.77949   0.4588876  0.5985957  0.3191794 
1042.8     0.237      380.67     0          0          6.442      2.210000038146973 3.174999952316284 1.912999987602234 1.879999995231628 1.549000024795532 1.777      0.877      1.346      1.121      2.311000108718872 0.167949   0.167949   0.319225   3.613937   1.218054   1.777      0.1924325  0.4349602  52.75724   0.4584121  0.5985957  0.3182285 
1043       0.239      387.02     0          0          6.645      2.056999921798706 3.023000001907349 1.759999990463257 1.879999995231628 1.575000047683716 1.777      0.826      1.448      1.111      2.210000038146973 0.157384   0.157384   0.321975   2.302985   0.8736686  1.777      0.1454168  0.423671   52.60798   0.4987607  0.6855896  0.3119319 
1043.2     0.237      394.64     0          0          6.48       1.879999995231628 2.591000080108643 1.608000040054321 1.955999970436096 1.626000046730042 2.012      0.813      1.448      1.111      2.691999912261963 0.1543256  0.1543256  0.321975   2.021358   1.144593   2.012      0.179904   0.4543037  54.49072   0.5080284  0.6139952  0.4020616 
1043.4     0.237      394.64     0          0          6.48       1.879999995231628 2.591000080108643 1.608000040054321 1.955999970436096 1.626000046730042 2.012      0.813      1.448      1.111      2.691999912261963 0.1545248  0.1545248  0.321975   2.0386     1.144593   2.012      0.1808246  0.4545715  54.46847   0.507425   0.6139952  0.4008546 
1043.6     0.232      388.29     0          0          5.591      2.158999919891357 2.565000057220459 1.608000040054321 2.108000040054321 1.726999998092651 1.898      0.928      1.067      1.126      3.124000072479248 0.1900886  0.1900886  0.31785    9.290937   4.905369   1.898      0.297065   0.4779533  55.08121   0.3871558  0.3389143  0.4353973 
1043.8     0.232      388.29     0          0          5.591      2.158999919891357 2.565000057220459 1.608000040054321 2.108000040054321 1.726999998092651 1.898      0.928      1.067      1.126      3.124000072479248 0.1903035  0.1903035  0.31785    9.37651    4.905369   1.898      0.2977567  0.478189   55.05895   0.3865044  0.3389143  0.4340945 
1044       0.23       378.13     0          0          5.083      1.980999946594238 2.489000082015991 1.633000016212463 2.210000038146973 1.726999998092651 2.072      0.839      1.08       1.108      3.352999925613403 0.2139725  0.2139725  0.3228     25.73044   11.26747   2.072      0.3914859  0.5280278  54.7827    0.3297804  0.2413339  0.4182269 
1044.2     0.232      351.46     0          0          4.436      2.260999917984009 2.895999908447266 1.50600004196167 2.234999895095825 1.753000020980835 2.363      1.893      1.905      1.103      3.530999898910523 0.2133213  0.2133213  0.324175   25.02567   14.51038   2.363      0.4263582  0.5586082  55.39544   0.3359203  0.2176517  0.454189  
1044.4     0.232      351.46     0          0          4.436      2.260999917984009 2.895999908447266 1.50600004196167 2.234999895095825 1.753000020980835 2.363      1.893      1.905      1.103      3.530999898910523 0.2135449  0.2135449  0.324175   25.26553   14.51038   2.363      0.4268815  0.5587964  55.37318   0.3352426  0.2176517  0.4528336 
1044.6     0.232      346.38     0          0          4.575      2.515000104904175 2.769000053405762 1.455000042915344 2.134000062942505 1.828999996185303 1.676      0.801      1.003      1.085      3.733999967575073 0.2159546  0.2159546  0.329125   28.00019   11.18705   1.676      0.3331788  0.4831702  55.22393   0.3429406  0.2420409  0.4438404 
1044.8     0.232      346.38     0          0          4.575      2.515000104904175 2.769000053405762 1.455000042915344 2.134000062942505 1.828999996185303 1.676      0.801      1.003      1.085      3.733999967575073 0.2161735  0.2161735  0.329125   28.26284   11.18705   1.676      0.333767   0.4833831  55.20167   0.3422772  0.2420409  0.4425136 
1045       0.229      337.49     0          0          4.347      2.437999963760376 2.971999883651733 1.404999971389771 2.08299994468689 1.828999996185303 2.346      4.572      2.667      1.108      3.937000036239624 0.2235621  0.2235621  0.3228     38.73212   17.13988   2.346      0.4474442  0.5643307  54.41742   0.3007208  0.2033423  0.3980992 
1045.2     0.229      295.58     0          0          4.296      2.793999910354614 3.530999898910523 1.175999999046326 2.260999917984009 2.032000064849854 2.736      2.35       2.261      1.235      4.013000011444092 0.199486   0.199486   0.287875   13.87145   18.85623   2.736      0.4322792  0.5477356  53.25216   0.2678456  0.1955705  0.3401206 
1045.4     0.229      295.58     0          0          4.296      2.793999910354614 3.530999898910523 1.175999999046326 2.260999917984009 2.032000064849854 2.736      2.35       2.261      1.235      4.013000011444092 0.199654   0.199654   0.287875   13.97122   18.85623   2.736      0.4326954  0.547892   53.2299    0.2673364  0.1955705  0.3391022 
