~Version
 VERS              .         2.0                           : CWLS LOG ASCII STANDARD - VERSION 2.0
 WRAP              .         NO                            : ONE LINE PER DEPTH STEP
 DLM               .         SPACE                         : DELIMITING CHARACTER(SPACE TAB OR COMMA)
~Well Information
#_______________________________________________________________________________
#
#PARAMETER_NAME    .UNIT     VALUE                         : DESCRIPTION
#_______________________________________________________________________________
STRT               .M        880                           : First reference value
STOP               .M        1156.8                        : Last reference value
STEP               .M        0.2                           : Step increment
NULL               .         -9999                         : Missing value
COMP               .                                       : Company
WELL               .         5523                          : Well name
FLD                .         УЗЕНЬ                         : Field
LOC                .                                       : Location
CNTY               .                                       : County
STAT               .                                       : State
CTRY               .                                       : Country
SRVC               .                                       : Service Company
DATE               .         11.04.1992г                   : Date
UWI                .                                       : Unique Well ID
Block              .         7                             : 
Category           .         Нагнетательная                : 
Condition          .         Ликвидированная               : 
EREF               .m        84.5                          : 100.8
Gorizont           .         14                            : 14
Interpretator      .         Кушнир И.Е.                   : 
Kupol              .         основной                      : osnovnoi
Mud                .                                       : 
Mud_density        .                                       : 
Mud_resistivity    .                                       : 
NGDU               .         НГДУ-2                        : 
ORIGINALWELLNAME   .         5523                          : 
Spud_date          .         1992                          : 1961
Viscosity          .                                       : 
X                  .m        42337.8                       : 46154
Y                  .m        83848.03                      : 85761.93
YEAR               .         2019г                         : 
~Parameter Information Block
#_______________________________________________________________________________
#
#PARAMETER_NAME    .UNIT     VALUE                         : DESCRIPTION
#_______________________________________________________________________________
SET                .         LQC_KAZNIPI_Petrel            : 
TLFamily_CALI      .         Caliper                       : 
TLFamily_CILD      .         Conductivity                  : 
TLFamily_COLL      .         Net Reservoir Flag            : 
TLFamily_CSAT      .         Fluid Code                    : 
TLFamily_DEPT      .         Measured Depth                : 
TLFamily_GR        .         Russian Gamma Ray             : 
TLFamily_GZ1       .         Gradient 045                  : 
TLFamily_GZ2       .         Gradient 105                  : 
TLFamily_GZ3       .         Gradient 225                  : 
TLFamily_GZ4       .         Gradient 425                  : 
TLFamily_GZ5       .         Gradient 850                  : 
TLFamily_LLS       .         Lateral Log Resistivity       : 
TLFamily_MINV      .         Micro Gradient Resistivity    : 
TLFamily_MNOR      .         Micro Resistivity             : 
TLFamily_NGLD      .         Neutron Gamma                 : 
TLFamily_OGZ       .         Gradient Inverted 225         : 
TLFamily_PHIE      .         Effective Porosity            : 
TLFamily_PHIEN     .         Effective Porosity            : 
TLFamily_PHIT      .         Porosity                      : 
TLFamily_PRMB      .         Permeability                  : 
TLFamily_PRMB_DGR  .         Permeability                  : 
TLFamily_RT        .         Formation Resistivity         : 
TLFamily_SOIL_ARCHIE .         Oil Saturation                : 
TLFamily_SOIL_DW   .         Oil Saturation                : 
TLFamily_SP        .         Spontaneous Potential         : 
TLFamily_VSH_FIN   .         Shale Volume                  : 
TLFamily_VSH_GR    .         Shale Volume                  : 
TLFamily_VSH_SP    .         Shale Volume                  : 
~Curve Information
#_______________________________________________________________________________
#
#LOGNAME           .UNIT     LOG_ID                        : DESCRIPTION
#_______________________________________________________________________________
DEPT               .M                                      : Колонка глубины 
CALI               .м                                      : Каверномер 
CILD               .мСм/м                                  : Индукционный каротаж 
COLL               .unitless                               : Описание 
CSAT               .unitless                               : Описание 
GR                 .uR/h                                   : Гамма каротаж 
GZ1                .ohmm                                   : Градиент-зонд  длиной 0.45м 
GZ2                .ohmm                                   : Градиент-зонд  длиной 1.05м 
GZ3                .ohmm                                   : Градиент-зонд  длиной 2.25м 
GZ4                .ohmm                                   : Градиент-зонд  длиной 4.5м 
GZ5                .ohmm                                   : Градиент-зонд  длиной 8.5м 
LLS                .Ohmm                                   : Боковой каротаж 
MINV               .Ohmm                                   : Микро-градиент зонд 
MNOR               .Ohmm                                   : Микро-потенциал зонд 
NGLD               .у.е.                                   : Показания зонда НГК-60 аппаратуры ДРСТ-3-90 
OGZ                .ohmm                                   : Обращенный градиент-зонд 
PHIE               .v/v                                    : Описание 
PHIEN              .v/v                                    :  
PHIT               .v/v                                    : Описание 
PRMB               .mD                                     :  
PRMB_DGR           .mD                                     :  
RT                 .ohmm                                   : Description 
SOIL_ARCHIE        .v/v                                    :  
SOIL_DW            .v/v                                    :  
SP                 .мВ                                     : Потенциал самополяризации 
VSH_FIN            .v/v                                    : Описание 
VSH_GR             .v/v                                    : Shale volume 
VSH_SP             .v/v                                    : Shale Volume 
~Ascii
# ...
949        0.235      294.31     0          0          4.105      2.28600001335144 3.174999952316284 2.369999885559082 3.250999927520752 2.565000057220459 2.879      1.69       1.791      1.113      2.691999912261963 0.2264886  0.2264886  0.321425   43.88097   7.585451   2.879      0.5037129  0.607836   52.10485   0.2876861  0.2836537  0.2917185 
949.2000000000001 0.232      281.61     0          0          3.864      2.28600001335144 3.174999952316284 2.267999887466431 3.250999927520752 2.565000057220459 3.213      2.604      2.807      1.123      2.641999959945679 0.2354739  0.2354739  0.318675   64.37325   13.13755   3.213      0.5443329  0.6328612  51.72826   0.2521246  0.2266666  0.2775826 
949.4      0.232      281.61     0          0          3.864      2.28600001335144 3.174999952316284 2.267999887466431 3.250999927520752 2.565000057220459 3.213      2.604      2.807      1.123      2.641999959945679 0.2354473  0.2354473  0.318675   64.30035   13.13755   3.213      0.5442881  0.632844   51.73268   0.2522051  0.2266666  0.2777436 
949.6      0.229      285.42     0          0          3.572      2.28600001335144 3.174999952316284 2.115999937057495 3.250999927520752 2.565000057220459 2.618      2.312      1.943      1.07       2.591000080108643 0.2603933  0.2603933  0.33325    186.326    25.55792   2.618      0.5404475  0.6200281  51.4831    0.2207778  0.1727327  0.2688229 
949.8      0.227      287.96     0          0          3.597      2.28600001335144 3.174999952316284 2.243000030517578 3.250999927520752 2.565000057220459 2.922      2.058      2.146      1.08       2.515000104904175 0.2554474  0.2554474  0.3305     150.8908   24.14245   2.922      0.5561871  0.6356857  51.74152   0.2274322  0.1767984  0.278066  
950        0.231      289.23     0          0          3.75       2.28600001335144 3.174999952316284 2.369999885559082 3.250999927520752 2.565000057220459 2.9        2.642      2.616      1.075      2.489000082015991 0.2491442  0.2491442  0.331875   115.322    17.03521   2.9        0.5448122  0.6313642  52.25393   0.2506995  0.2038515  0.2975475 
950.2000000000001 0.241      294.31     0          0          3.953      2.28600001335144 3.174999952316284 2.496999979019165 3.250999927520752 2.565000057220459 2.329      2.604      2.476      1.05       2.46399998664856 0.2544162  0.2544162  0.33875    144.3989   10.72569   2.329      0.5045985  0.5970713  51.36935   0.2555569  0.2462392  0.2648747 
950.4      0.241      294.31     0          0          3.953      2.28600001335144 3.174999952316284 2.496999979019165 3.250999927520752 2.565000057220459 2.329      2.604      2.476      1.05       2.46399998664856 0.2543912  0.2543912  0.33875    144.2446   10.72569   2.329      0.504556   0.5970548  51.37376   0.2556329  0.2462392  0.2650266 
950.6      0.251      334.95     0          0          4.41       2.28600001335144 3.174999952316284 2.496999979019165 3.250999927520752 2.565000057220459 1.751      1.601      1.334      0.971      2.413000106811523 0.2573252  0.2573252  0.360475   163.4729   3.785329   1.751      0.4392222  0.5540119  50.87018   0.312575   0.3767517  0.2483983 
950.8      0.261      354        0          0          4.423      2.28600001335144 3.174999952316284 2.522000074386597 3.250999927520752 2.565000057220459 1.777      1.372      1.105      0.986      2.28600001335144 0.2530771  0.2530771  0.35635    136.3829   3.674826   1.777      0.4349543  0.5512112  50.7476    0.3129482  0.3813372  0.2445591 
951        0.26       374.32     0          0          4.017      2.28600001335144 3.174999952316284 2.470999956130981 3.250999927520752 2.565000057220459 1.983      1.22       1.308      0.978      2.260999917984009 0.2743953  0.2743953  0.35855    338.5518   9.270016   1.983      0.4998056  0.5906676  50.87902   0.2550142  0.2613503  0.2486782 
951.2000000000001 0.259      378.13     0          0          3.381      2.28600001335144 3.174999952316284 2.115999937057495 3.250999927520752 2.565000057220459 2.087      1.474      1.6        0.963      2.311000108718872 0.2984178  0.2984178  0.362675   943.148    39.49757   2.087      0.5460826  0.6173717  50.75644   0.1947187  0.1446043  0.2448331 
951.4      0.259      378.13     0          0          3.381      2.28600001335144 3.174999952316284 2.115999937057495 3.250999927520752 2.565000057220459 2.087      1.474      1.6        0.963      2.311000108718872 0.2983952  0.2983952  0.362675   942.2397   39.49757   2.087      0.5460527  0.6173594  50.76085   0.1947873  0.1446043  0.2449702 
951.6      0.261      411.15     0          0          3.572      2.28600001335144 3.174999952316284 2.013999938964844 3.250999927520752 2.565000057220459 1.535      1.804      1.206      0.999      2.336999893188477 0.2838314  0.2838314  0.352775   506.2948   25.55792   1.535      0.4523049  0.5369627  50.76527   0.2089201  0.1727327  0.2451075 
951.8      0.266      421.31     0          0          3.763      2.28600001335144 3.174999952316284 2.039999961853027 3.250999927520752 2.565000057220459 1.558      1.105      0.876      1.037      2.388000011444092 0.2657945  0.2657945  0.342325   234.5942   16.5379    1.558      0.4241061  0.5192299  51.15068   0.2319106  0.2063326  0.2574885 
952        0.27       427.66     0          0          3.928      2.28600001335144 3.174999952316284 1.912999987602234 3.250999927520752 2.565000057220459 1.926      1.156      1.194      1.083      2.489000082015991 0.2445685  0.2445685  0.329675   94.87673   11.35454   1.926      0.4394561  0.5423802  51.6631    0.2578986  0.2405765  0.2752207 
952.2000000000001 0.264      397.18     0          0          3.978      2.28600001335144 3.174999952316284 1.735000014305115 3.250999927520752 2.565000057220459 2.346      1.588      1.689      1.123      2.641999959945679 0.2378561  0.2378561  0.318675   71.25758   10.13168   2.346      0.4764798  0.5721377  50.52452   0.2449056  0.252035   0.2377762 
952.4      0.264      397.18     0          0          3.978      2.28600001335144 3.174999952316284 1.735000014305115 3.250999927520752 2.565000057220459 2.346      1.588      1.689      1.123      2.641999959945679 0.2378344  0.2378344  0.318675   71.19153   10.13168   2.346      0.4764381  0.5721214  50.52893   0.2449715  0.252035   0.2379079 
952.6      0.259      376.86     0          0          3.978      2.28600001335144 3.174999952316284 1.557000041007996 3.250999927520752 2.565000057220459 2.229      1.944      1.918      1.144      2.793999910354614 0.2338537  0.2338537  0.3129     60.07537   10.13168   2.229      0.455775   0.5531958  50.15235   0.2395341  0.252035   0.2270332 
952.8      0.26       374.32     0          0          4.182      2.28600001335144 3.174999952316284 1.455000042915344 3.250999927520752 2.565000057220459 2.279      2.147      1.93       1.123      3.072999954223633 0.2284637  0.2284637  0.318675   47.73753   6.364574   2.279      0.4503607  0.5585799  50.66477   0.2733676  0.3047251  0.24201   
953        0.262      364.16     0          0          4.296      2.28600001335144 3.174999952316284 1.404999971389771 3.250999927520752 2.565000057220459 2.363      1.867      1.778      1.126      3.200000047683716 0.2193121  0.2193121  0.31785    32.31095   4.908362   2.363      0.4400301  0.5584626  51.17719   0.2985997  0.3388299  0.2583696 
953.2000000000001 0.26       351.46     0          0          4.156      2.28600001335144 3.174999952316284 1.429999947547913 3.250999927520752 2.565000057220459 2.381      1.893      2.184      1.131      3.200000047683716 0.224742   0.224742   0.316475   40.73103   6.753102   2.381      0.4537806  0.5634277  51.1816    0.2779787  0.2974406  0.2585168 
953.4      0.26       351.46     0          0          4.156      2.28600001335144 3.174999952316284 1.429999947547913 3.250999927520752 2.565000057220459 2.381      1.893      2.184      1.131      3.200000047683716 0.2247177  0.2247177  0.316475   40.6888    6.753102   2.381      0.4537291  0.5634082  51.18602   0.2780524  0.2974406  0.2586642 
