~Version
 VERS              .         2.0                           : CWLS LOG ASCII STANDARD - VERSION 2.0
 WRAP              .         YES                            : ONE LINE PER DEPTH STEP
 DLM               .         SPACE                         : DELIMITING CHARACTER(SPACE TAB OR COMMA)
~Well Information
#_______________________________________________________________________________
#
#PARAMETER_NAME    .UNIT     VALUE                         : DESCRIPTION
#_______________________________________________________________________________
STRT               .M        880                           : First reference value
STOP               .M        1210                          : Last reference value
STEP               .M        0.2                           : Step increment
NULL               .         -9999                         : Missing value
COMP               .                                       : Company
WELL               .         5575                          : Well name
FLD                .         UZEN                          : Field
LOC                .                                       : Location
CNTY               .                                       : County
STAT               .                                       : State
CTRY               .                                       : Country
SRVC               .                                       : Service Company
DATE               .                                       : Date
UWI                .                                       : Unique Well ID
Block              .         7                             : 
Cartographic_reference_system .         GCS_WGS_1984                  : ESRI,PE_10_3_1- <?xml version="1.0" encoding="utf-16"?><ILateBoundCoordinateReferenceSystem name="GCS_WGS_1984"><AuthorityCode>EPSG,4326</AuthorityCode></ILateBoundCoordinateReferenceSystem>
Category           .         Нефтяная                      : 
Condition          .         В работе                      : 
EREF               .m        82.9                          : 100.8
Gorizont           .         14                            : 14
HZCS               .GCS_WGS_1984 WGS_1984_EASE-Grid_2.0_Global : ESRI,PE_10_3_1- <?xml version="1.0" encoding="utf-16"?><ILateBoundCoordinateReferenceSystem name="WGS_1984_EASE-Grid_2.0_Global"><AuthorityCode>EPSG,6933</AuthorityCode></ILateBoundCoordinateReferenceSystem>
Interpretator      .         Сагынбаева А.Н.               : 
Kupol              .         основной                      : osnovnoi
LATI               .dega     0.6568727471                  : GCS_WGS_1984
LONG               .dega     0.4417933813                  : GCS_WGS_1984
Mud                .         глинистый                     : 
Mud_density        .         1,22                          : 
Mud_resistivity    .         0                             : 
NGDU               .         НГДУ-2                        : 
ORIGINALWELLNAME   .         5575                          : 
Spud_date          .         1992                          : 1961
Viscosity          .         40                            : 
X                  .m        42627                         : 46154
Y                  .m        83797.63                      : 85761.93
YEAR               .         2019                          : 
~Parameter Information Block
#_______________________________________________________________________________
#
#PARAMETER_NAME    .UNIT     VALUE                         : DESCRIPTION
#_______________________________________________________________________________
SET                .         LQC_KAZNIPI_Petrel            : 
TLFamily_CALI      .         Caliper                       : 
TLFamily_CILD      .         Conductivity                  : 
TLFamily_COLL      .         Net Reservoir Flag            : 
TLFamily_CSAT      .         Fluid Code                    : 
TLFamily_DEPT      .         Measured Depth                : 
TLFamily_GR        .         Russian Gamma Ray             : 
TLFamily_LLS       .         Lateral Log Resistivity       : 
TLFamily_MINV      .         Micro Gradient Resistivity    : 
TLFamily_MNOR      .         Micro Resistivity             : 
TLFamily_NGLD      .         Neutron Gamma                 : 
TLFamily_PHIE      .         Effective Porosity            : 
TLFamily_PHIEN     .         Effective Porosity            : 
TLFamily_PHIT      .         Porosity                      : 
TLFamily_PRMB      .         Permeability                  : 
TLFamily_PRMB_DGR  .         Permeability                  : 
TLFamily_RT        .         Formation Resistivity         : 
TLFamily_SOIL_ARCHIE .         Oil Saturation                : 
TLFamily_SOIL_DW   .         Oil Saturation                : 
TLFamily_SP        .         Spontaneous Potential         : 
TLFamily_VSH_FIN   .         Shale Volume                  : 
TLFamily_VSH_GR    .         Shale Volume                  : 
TLFamily_VSH_SP    .         Shale Volume                  : 
~Curve Information
#_______________________________________________________________________________
#
#LOGNAME           .UNIT     LOG_ID                        : DESCRIPTION
#_______________________________________________________________________________
DEPT               .M                                      : Колонка глубины 
CALI               .м                                      : Каверномер 
CILD               .мСм/м                                  : Индукционный каротаж 
COLL               .unitless                               : Описание 
CSAT               .unitless                               :  
GR                 .uR/h                                   : Гамма каротаж 
LLS                .Ohmm                                   : Боковой каротаж 
MINV               .Ohmm                                   : Микро-градиент зонд 
MNOR               .Ohmm                                   : Микро-потенциал зонд 
NGLD               .у.е.                                   : Показания зонда НГК-60 аппаратуры ДРСТ-3-90 
PHIE               .v/v                                    : Описание 
PHIEN              .v/v                                    :  
PHIT               .v/v                                    : Описание 
PRMB               .mD                                     :  
PRMB_DGR           .mD                                     :  
RT                 .ohmm                                   : УЭС пласта 
SOIL_ARCHIE        .v/v                                    :  
SOIL_DW            .v/v                                    :  
SP                 .мВ                                     : Потенциал самополяризации 
VSH_FIN            .v/v                                    : Описание 
VSH_GR             .v/v                                    : Shale volume 
VSH_SP             .v/v                                    : Shale Volume 
~Ascii
# ...
899.2000000000001 
  0.22       528.32     1          3          4.112      1.778      
  1.766      2.083      1.567      0.1075158  0.1075158  0.1735042  
  0.2745437  555.6254   1.704      0          0.004939853 66.04      
  0.1999648  0.04912789 0.1999648 
899.4      
  0.221      527.05     1          3          4.112      1.764      
  1.766      2.083      1.567      0.1075158  0.1075158  0.1735042  
  0.2745437  555.6254   1.708      0          0.006105697 66.04      
  0.1999648  0.04912789 0.1999648 
899.6      
  0.223      515.62     1          3          4.112      1.764      
  1.753      1.943      1.567      0.1075158  0.1075158  0.1735042  
  0.2745437  555.6254   1.745      0          0.01669916 66.04      
  0.1999648  0.04912789 0.1999648 
899.8      
  0.225      506.73     1          3          4.112      1.804      
  1.664      2.032      1.567      0.1075158  0.1075158  0.1735042  
  0.2745437  555.6254   1.776      0          0.02531868 66.04      
  0.1999648  0.04912789 0.1999648 
900        
  0.225      506.73     1          3          4.112      1.804      
  1.715      2.184      1.567      0.1075158  0.1075158  0.1735042  
  0.2745437  555.6254   1.776      0          0.02531868 66.04      
  0.1999648  0.04912789 0.1999648 
900.2000000000001 
  0.226      505.46     1          3          4.112      1.844      
  1.728      2.134      1.567      0.1075158  0.1075158  0.1735042  
  0.2745437  555.6254   1.781      0          0.0266878  66.04      
  0.1999648  0.04912789 0.1999648 
900.4      
  0.226      509.27     1          3          4.112      1.791      
  1.728      2.134      1.567      0.1079158  0.1079158  0.1735042  
  0.2792681  555.6254   1.767      0          0.02429913 65.913     
  0.1987525  0.04912789 0.1987525 
900.6      
  0.224      509.27     1          3          4.112      1.817      
  1.906      2.21       1.567      0.1079158  0.1079158  0.1735042  
  0.2792681  555.6254   1.767      0          0.02429913 65.913     
  0.1987525  0.04912789 0.1987525 
900.8      
  0.221      505.46     1          3          4.112      1.83       
  1.842      2.223      1.567      0.1079158  0.1079158  0.1735042  
  0.2792681  555.6254   1.781      0          0.02814158 65.913     
  0.1987525  0.04912789 0.1987525 
901        
  0.221      505.46     1          3          4.112      1.83       
  1.537      2.134      1.567      0.1079158  0.1079158  0.1735042  
  0.2792681  555.6254   1.781      0          0.02814158 65.913     
  0.1987525  0.04912789 0.1987525 
901.2000000000001 
  0.221      501.65     1          3          4.112      1.804      
  1.753      2.045      1.567      0.1083117  0.1083117  0.1735042  
  0.2840232  555.6254   1.794      0          0.03309619 65.786     
  0.197553   0.04912789 0.197553  
901.4      
  0.222      497.84     1          3          4.112      1.844      
  1.753      2.045      1.567      0.1087034  0.1087034  0.1735042  
  0.2888081  555.6254   1.808      0          0.03824738 65.659     
  0.1963659  0.04912789 0.1963659 
901.6      
  0.223      508        1          3          4.112      1.791      
  2.083      2.019      1.567      0.1087034  0.1087034  0.1735042  
  0.2888081  555.6254   1.772      0          0.028527   65.659     
  0.1963659  0.04912789 0.1963659 
901.8      
  0.223      508        1          3          4.112      1.764      
  1.931      2.324      1.567      0.1087034  0.1087034  0.1735042  
  0.2888081  555.6254   1.772      0          0.028527   65.659     
  0.1963659  0.04912789 0.1963659 
902        
  0.223      508        1          3          4.112      1.764      
  1.778      2.095      1.567      0.1087034  0.1087034  0.1735042  
  0.2888081  555.6254   1.772      0          0.028527   65.659     
  0.1963659  0.04912789 0.1963659 
902.2000000000001 
  0.223      505.46     1          3          4.112      1.884      
  2.02       2.845      1.567      0.1083117  0.1083117  0.1735042  
  0.2840232  555.6254   1.781      0          0.02957375 65.786     
  0.197553   0.04912789 0.197553  
902.4      
  0.223      505.46     1          3          4.112      1.764      
  2.014      2.902      1.567      0.1079158  0.1079158  0.1735042  
  0.2792681  555.6254   1.781      0          0.02814158 65.913     
  0.1987525  0.04912789 0.1987525 
902.6      
  0.223      499.11     1          3          4.112      1.804      
  1.994      2.515      1.567      0.1075158  0.1075158  0.1735042  
  0.2745437  555.6254   1.803      0          0.03264414 66.04      
  0.1999648  0.04912789 0.1999648 
902.8      
  0.224      492.76     1          3          4.112      1.726      
  1.778      1.981      1.567      0.1071115  0.1071115  0.1735042  
  0.2698507  555.6254   1.826      0          0.03729835 66.167     
  0.2011899  0.04912789 0.2011899 
903        
  0.224      492.76     1          3          4.112      1.726      
  2.248      2.438      1.567      0.1071115  0.1071115  0.1735042  
  0.2698507  555.6254   1.826      0          0.03729835 66.167     
  0.2011899  0.04912789 0.2011899 
903.2000000000001 
  0.225      478.79     1          3          4.112      1.969      
  2.248      2.438      1.567      0.106703   0.106703   0.1735042  
  0.2651899  555.6254   1.88       0          0.04976703 66.294     
  0.2024277  0.04912789 0.2024277 
903.4      
  0.226      455.93     1          3          4.112      2.246      
  2.248      2.603      1.567      0.1058732  0.1058732  0.1735042  
  0.2559687  555.6254   1.974      0          0.0697568  66.548     
  0.2049423  0.04912789 0.2049423 
903.6      
  0.225      415.29     1          3          4.112      1.955      
  2.134      2.413      1.567      0.1050261  0.1050261  0.1735042  
  0.2468862  555.6254   2.167      0          0.1092848  66.802     
  0.2075092  0.04912789 0.2075092 
903.8      
  0.224      398.78     1          3          4.112      2.134      
  1.715      2.807      1.567      0.1041616  0.1041616  0.1735042  
  0.2379492  555.6254   2.257      0          0.1243332  67.056     
  0.2101289  0.04912789 0.2101289 
904        
  0.224      398.78     1          3          4.112      2.134      
  1.969      3.416      1.567      0.1041616  0.1041616  0.1735042  
  0.2379492  555.6254   2.257      0          0.1243332  67.056     
  0.2101289  0.04912789 0.2101289 
904.2000000000001 
  0.223      379.73     1          3          4.112      2.581      
  1.969      3.416      1.567      0.1028318  0.1028318  0.1735042  
  0.2248286  555.6254   2.37       0          0.141068   67.437     
  0.2141589  0.04912789 0.2141589 
904.4      
  0.222      363.22     1          3          4.112      2.737      
  2.477      3.645      1.567      0.1023795  0.1023795  0.1735042  
  0.2205335  555.6254   2.478      0          0.158517   67.564     
  0.2155294  0.04912789 0.2155294 
904.6      
  0.221      313.69     1          3          4.112      2.417      
  2.159      3.023      1.567      0.1005252  0.1005252  0.1735042  
  0.2037648  555.6254   2.869      0          0.2122518  68.072     
  0.2211484  0.04912789 0.2211484 
904.8      
  0.221      281.94     1          3          4.112      2.838      
  2.426      3.111      1.567      0.09908621 0.09908621 0.1735042  
  0.1916351  555.6254   3.192      0.02859375 0.2488908  68.453     
  0.225509   0.04912789 0.225509  
905        
  0.221      281.94     1          3          4.112      2.838      
  2.401      3.175      1.567      0.09908621 0.09908621 0.1735042  
  0.1916351  555.6254   3.192      0.02859375 0.2488908  68.453     
  0.225509   0.04912789 0.225509  
905.2000000000001 
  0.223      252.73     1          3          4.112      4.632      
  2.401      3.175      1.567      0.09710189 0.09710189 0.1735042  
  0.1760843  555.6254   3.561      0.06079932 0.2831669  68.961     
  0.2315221  0.04912789 0.2315221 
905.4      
  0.225      228.6      1          3          4.112      4.875      
  2.617      3.365      1.567      0.09504105 0.09504105 0.1735042  
  0.1612683  555.6254   3.937      0.0871156  0.3124817  69.469     
  0.2377671  0.04912789 0.2377671 
