~Version
 VERS              .         2.0                           : CWLS LOG ASCII STANDARD - VERSION 2.0
 WRAP              .         YES                            : ONE LINE PER DEPTH STEP
 DLM               .         SPACE                         : DELIMITING CHARACTER(SPACE TAB OR COMMA)
~Well Information
#_______________________________________________________________________________
#
#PARAMETER_NAME    .UNIT     VALUE                         : DESCRIPTION
#_______________________________________________________________________________
STRT               .M        880                           : First reference value
STOP               .M        1210                          : Last reference value
STEP               .M        0.2                           : Step increment
NULL               .         -9999                         : Missing value
COMP               .                                       : Company
WELL               .         5575                          : Well name
FLD                .         UZEN                          : Field
LOC                .                                       : Location
CNTY               .                                       : County
STAT               .                                       : State
CTRY               .                                       : Country
SRVC               .                                       : Service Company
DATE               .                                       : Date
UWI                .                                       : Unique Well ID
Block              .         7                             : 
Cartographic_reference_system .         GCS_WGS_1984                  : ESRI,PE_10_3_1- <?xml version="1.0" encoding="utf-16"?><ILateBoundCoordinateReferenceSystem name="GCS_WGS_1984"><AuthorityCode>EPSG,4326</AuthorityCode></ILateBoundCoordinateReferenceSystem>
Category           .         Нефтяная                      : 
Condition          .         В работе                      : 
EREF               .m        82.9                          : 100.8
Gorizont           .         14                            : 14
HZCS               .GCS_WGS_1984 WGS_1984_EASE-Grid_2.0_Global : ESRI,PE_10_3_1- <?xml version="1.0" encoding="utf-16"?><ILateBoundCoordinateReferenceSystem name="WGS_1984_EASE-Grid_2.0_Global"><AuthorityCode>EPSG,6933</AuthorityCode></ILateBoundCoordinateReferenceSystem>
Interpretator      .         Сагынбаева А.Н.               : 
Kupol              .         основной                      : osnovnoi
LATI               .dega     0.6568727471                  : GCS_WGS_1984
LONG               .dega     0.4417933813                  : GCS_WGS_1984
Mud                .         глинистый                     : 
Mud_density        .         1,22                          : 
Mud_resistivity    .         0                             : 
NGDU               .         НГДУ-2                        : 
ORIGINALWELLNAME   .         5575                          : 
Spud_date          .         1992                          : 1961
Viscosity          .         40                            : 
X                  .m        42627                         : 46154
Y                  .m        83797.63                      : 85761.93
YEAR               .         2019                          : 
~Parameter Information Block
#_______________________________________________________________________________
#
#PARAMETER_NAME    .UNIT     VALUE                         : DESCRIPTION
#_______________________________________________________________________________
SET                .         LQC_KAZNIPI_Petrel            : 
TLFamily_CALI      .         Caliper                       : 
TLFamily_CILD      .         Conductivity                  : 
TLFamily_COLL      .         Net Reservoir Flag            : 
TLFamily_CSAT      .         Fluid Code                    : 
TLFamily_DEPT      .         Measured Depth                : 
TLFamily_GR        .         Russian Gamma Ray             : 
TLFamily_LLS       .         Lateral Log Resistivity       : 
TLFamily_MINV      .         Micro Gradient Resistivity    : 
TLFamily_MNOR      .         Micro Resistivity             : 
TLFamily_NGLD      .         Neutron Gamma                 : 
TLFamily_PHIE      .         Effective Porosity            : 
TLFamily_PHIEN     .         Effective Porosity            : 
TLFamily_PHIT      .         Porosity                      : 
TLFamily_PRMB      .         Permeability                  : 
TLFamily_PRMB_DGR  .         Permeability                  : 
TLFamily_RT        .         Formation Resistivity         : 
TLFamily_SOIL_ARCHIE .         Oil Saturation                : 
TLFamily_SOIL_DW   .         Oil Saturation                : 
TLFamily_SP        .         Spontaneous Potential         : 
TLFamily_VSH_FIN   .         Shale Volume                  : 
TLFamily_VSH_GR    .         Shale Volume                  : 
TLFamily_VSH_SP    .         Shale Volume                  : 
~Curve Information
#_______________________________________________________________________________
#
#LOGNAME           .UNIT     LOG_ID                        : DESCRIPTION
#_______________________________________________________________________________
DEPT               .M                                      : Колонка глубины 
CALI               .м                                      : Каверномер 
CILD               .мСм/м                                  : Индукционный каротаж 
COLL               .unitless                               : Описание 
CSAT               .unitless                               :  
GR                 .uR/h                                   : Гамма каротаж 
LLS                .Ohmm                                   : Боковой каротаж 
MINV               .Ohmm                                   : Микро-градиент зонд 
MNOR               .Ohmm                                   : Микро-потенциал зонд 
NGLD               .у.е.                                   : Показания зонда НГК-60 аппаратуры ДРСТ-3-90 
PHIE               .v/v                                    : Описание 
PHIEN              .v/v                                    :  
PHIT               .v/v                                    : Описание 
PRMB               .mD                                     :  
PRMB_DGR           .mD                                     :  
RT                 .ohmm                                   : УЭС пласта 
SOIL_ARCHIE        .v/v                                    :  
SOIL_DW            .v/v                                    :  
SP                 .мВ                                     : Потенциал самополяризации 
VSH_FIN            .v/v                                    : Описание 
VSH_GR             .v/v                                    : Shale volume 
VSH_SP             .v/v                                    : Shale Volume 
~Ascii
# ...
924.8      
  0.231      257.81     -9999      -9999      5.941      3.01       
  2.147      1.943      1.247      0.1133859  0.1133859  0.3038722  
  0.3526466  1.919952   3.491      0.1717488  0.5185903  87.757     
  0.5772313  0.4970926  0.65737   
925        
  0.231      257.81     -9999      -9999      5.941      3.01       
  2.68       3.099      1.247      0.1133859  0.1133859  0.3038722  
  0.3526466  1.919952   3.491      0.1717488  0.5185903  87.757     
  0.5772313  0.4970926  0.65737   
925.2000000000001 
  0.231      257.81     -9999      -9999      6.042      3.262      
  3.595      3.073      1.237      0.1148017  0.1148017  0.3079462  
  0.3745961  1.775689   3.491      0.1806521  0.5248053  87.757     
  0.5852865  0.513203   0.65737   
925.4      
  0.23       274.32     -9999      -9999      6.423      2.859      
  3.595      3.073      1.267      0.09175305 0.09175305 0.2957242  
  0.1401674  1.322512   3.281      0          0.4560374  87.757     
  0.6180944  0.5788189  0.65737   
925.6      
  0.229      280.67     -9999      -9999      5.89       2.859      
  2.299      2.057      1.239      0.1179555  0.1179555  0.3071314  
  0.4285287  1.997192   3.207      0.1672589  0.5081585  87.757     
  0.5732604  0.4891507  0.65737   
925.8      
  0.23       274.32     -9999      -9999      6.042      3.803      
  2.375      2.235      1.196      0.1315051  0.1315051  0.3246496  
  0.7637492  1.775689   3.281      0.2505705  0.5487596  87.757     
  0.5852865  0.513203   0.65737   
926        
  0.23       274.32     -9999      -9999      6.042      3.803      
  2.096      2.972      1.196      0.1315051  0.1315051  0.3246496  
  0.7637492  1.775689   3.281      0.2505705  0.5487596  87.757     
  0.5852865  0.513203   0.65737   
926.2000000000001 
  0.23       269.24     -9999      -9999      6.271      3.432      
  2.464      2.756      1.224      0.1144871  0.1144871  0.3132424  
  0.3696035  1.487484   3.343      0.1618248  0.5192419  87.63      
  0.602289   0.5516914  0.6528866 
926.4      
  0.23       284.48     -9999      -9999      6.093      2.838      
  2.464      2.756      1.272      0.1006431  0.1006431  0.2936872  
  0.2047916  1.707016   3.164      0.03772433 0.4608772  87.503     
  0.5849822  0.5215354  0.648429  
926.6      
  0.229      275.59     -9999      -9999      6.22       3.144      
  2.566      2.527      1.224      0.1166769  0.1166769  0.3132424  
  0.4057859  1.547326   3.266      0.1664776  0.5168698  87.503     
  0.5956531  0.5428772  0.648429  
926.8      
  0.228      267.97     -9999      -9999      6.5        3.509      
  2.083      1.994      1.181      0.1266452  0.1266452  0.3307606  
  0.6207759  1.246055   3.359      0.2340758  0.5532611  87.376     
  0.6185315  0.5930661  0.6439968 
927        
  0.228      267.97     -9999      -9999      6.5        3.509      
  2.655      2.807      1.181      0.1259139  0.1259139  0.3307606  
  0.6017125  1.246055   3.359      0.2302028  0.5523322  87.503     
  0.6207476  0.5930661  0.648429  
927.2000000000001 
  0.228      267.97     -9999      -9999      6.601      3.262      
  3.772      4.064      1.196      0.1158959  0.1158959  0.3246496  
  0.3924933  1.152429   3.359      0.1725622  0.5333795  87.63      
  0.6325868  0.612287   0.6528866 
927.4      
  0.229      280.67     -9999      -9999      6.754      2.619      
  3.772      4.064      1.206      0.106081   0.106081   0.3205756  
  0.2582476  1.023824   3.207      0.08663613 0.503452   87.757     
  0.6499835  0.6425971  0.65737   
927.6      
  0.23       288.29     -9999      -9999      6.728      2.525      
  3.379      3.302      1.247      0.09024464 0.09024464 0.3038722  
  0.131434   1.04462    3.122      0          0.4493134  87.757     
  0.6473563  0.6373425  0.65737   
927.8      
  0.23       273.05     -9999      -9999      6.119      3.121      
  2.579      2.527      1.242      0.1114201  0.1114201  0.3059092  
  0.3242865  1.673035   3.296      0.1360445  0.5036113  87.63      
  0.5893609  0.5258352  0.6528866 
928        
  0.23       273.05     -9999      -9999      6.119      3.121      
  2.718      2.692      1.242      0.1121556  0.1121556  0.3059092  
  0.3346202  1.673035   3.296      0.1409812  0.5047666  87.503     
  0.5871321  0.5258352  0.648429  
928.2000000000001 
  0.229      261.62     -9999      -9999      6.22       3.72       
  2.591      1.956      1.194      0.1296302  0.1296302  0.3254644  
  0.7050557  1.547326   3.44       0.2578052  0.5577094  87.376     
  0.593437   0.5428772  0.6439968 
928.4      
  0.229      251.46     -9999      -9999      6.474      4.091      
  2.591      1.956      1.181      0.1288955  0.1288955  0.3307606  
  0.683306   1.271364   3.579      0.2678587  0.5699435  87.122     
  0.6117125  0.5882165  0.6352084 
928.6      
  0.23       264.16     -9999      -9999      6.627      3.262      
  3.003      2.65       1.262      0.09109157 0.09109157 0.2977612  
  0.1362683  1.129488   3.407      0          0.4673253  87.122     
  0.6262717  0.617335   0.6352084 
928.8      
  0.231      265.43     -9999      -9999      6.195      2.901      
  3.404      3.327      1.29       0.09195133 0.09195133 0.286354   
  0.1413578  1.577533   3.391      0          0.4538154  87.249     
  0.589099   0.5386082  0.63959   
929        
  0.231      265.43     -9999      -9999      6.195      2.901      
  2.566      2.731      1.29       0.08975737 0.08975737 0.286354   
  0.1287307  1.577533   3.391      0          0.4493235  87.63      
  0.5957474  0.5386082  0.6528866 
929.2000000000001 
  0.232      261.62     -9999      -9999      5.712      2.737      
  2.617      2.68       1.293      0.09962363 0.09962363 0.2851318  
  0.1960782  2.29195    3.44       0.06651805 0.4710281  87.884     
  0.562146   0.4624133  0.6618786 
929.4      
  0.234      247.65     -9999      -9999      5.534      3.509      
  3.747      2.692      1.267      0.1143866  0.1143866  0.2957242  
  0.3680228  2.630211   3.634      0.1934025  0.5213624  87.884     
  0.549508   0.4371374  0.6618786 
929.6      
  0.238      236.22     -9999      -9999      5.255      4.181      
  3.747      2.692      1.217      0.1415835  0.1415835  0.3160942  
  1.173892   3.263617   3.81       0.3448584  0.5856071  87.757     
  0.5288203  0.4002706  0.65737   
929.8      
  0.236      243.84     -9999      -9999      5.534      4.061      
  2.566      2.095      1.189      0.1483829  0.1483829  0.3275014  
  1.56881    2.630211   3.691      0.3616489  0.5953854  87.503     
  0.5427832  0.4371374  0.648429  
930        
  0.236      243.84     -9999      -9999      5.534      4.061      
  1.131      1.359      1.189      0.1498414  0.1498414  0.3275014  
  1.669491   2.630211   3.691      0.3670638  0.59687    87.249     
  0.5383637  0.4371374  0.63959   
930.2000000000001 
  0.234      257.81     -9999      -9999      5.915      3.262      
  3.353      2.807      1.196      0.1384906  0.1384906  0.3246496  
  1.028823   1.958948   3.491      0.3041592  0.5707761  87.122     
  0.5641181  0.4930278  0.6352084 
930.4      
  0.235      271.78     -9999      -9999      6.144      2.838      
  1.118      1.372      1.206      0.1283157  0.1283157  0.3205756  
  0.6666175  1.640998   3.312      0.237744   0.5431905  87.122     
  0.5826057  0.5300031  0.6352084 
930.6      
  0.239      267.97     -9999      -9999      5.382      2.658      
  1.118      1.372      1.224      0.1382357  0.1382357  0.3132424  
  1.017696   2.958308   3.359      0.2903205  0.5521652  87.376     
  0.5303234  0.4166501  0.6439968 
930.8      
  0.245      275.59     -9999      -9999      5.357      2.797      
  3.023      2.845      1.278      0.1160454  0.1160454  0.2912428  
  0.3950025  3.016062   3.266      0.1625284  0.4928162  87.503     
  0.5309013  0.4133736  0.648429  
931        
  0.245      275.59     -9999      -9999      5.357      2.797      
  2.718      3.429      1.278      0.1145701  0.1145701  0.2912428  
  0.3709148  3.016062   3.266      0.153144   0.4904596  87.757     
  0.5353718  0.4133736  0.65737   
