~Version
 VERS              .         2.0                           : CWLS LOG ASCII STANDARD - VERSION 2.0
 WRAP              .         YES                            : ONE LINE PER DEPTH STEP
 DLM               .         SPACE                         : DELIMITING CHARACTER(SPACE TAB OR COMMA)
~Well Information
#_______________________________________________________________________________
#
#PARAMETER_NAME    .UNIT     VALUE                         : DESCRIPTION
#_______________________________________________________________________________
STRT               .M        880                           : First reference value
STOP               .M        1210                          : Last reference value
STEP               .M        0.2                           : Step increment
NULL               .         -9999                         : Missing value
COMP               .                                       : Company
WELL               .         5575                          : Well name
FLD                .         UZEN                          : Field
LOC                .                                       : Location
CNTY               .                                       : County
STAT               .                                       : State
CTRY               .                                       : Country
SRVC               .                                       : Service Company
DATE               .                                       : Date
UWI                .                                       : Unique Well ID
Block              .         7                             : 
Cartographic_reference_system .         GCS_WGS_1984                  : ESRI,PE_10_3_1- <?xml version="1.0" encoding="utf-16"?><ILateBoundCoordinateReferenceSystem name="GCS_WGS_1984"><AuthorityCode>EPSG,4326</AuthorityCode></ILateBoundCoordinateReferenceSystem>
Category           .         Нефтяная                      : 
Condition          .         В работе                      : 
EREF               .m        82.9                          : 100.8
Gorizont           .         14                            : 14
HZCS               .GCS_WGS_1984 WGS_1984_EASE-Grid_2.0_Global : ESRI,PE_10_3_1- <?xml version="1.0" encoding="utf-16"?><ILateBoundCoordinateReferenceSystem name="WGS_1984_EASE-Grid_2.0_Global"><AuthorityCode>EPSG,6933</AuthorityCode></ILateBoundCoordinateReferenceSystem>
Interpretator      .         Сагынбаева А.Н.               : 
Kupol              .         основной                      : osnovnoi
LATI               .dega     0.6568727471                  : GCS_WGS_1984
LONG               .dega     0.4417933813                  : GCS_WGS_1984
Mud                .         глинистый                     : 
Mud_density        .         1,22                          : 
Mud_resistivity    .         0                             : 
NGDU               .         НГДУ-2                        : 
ORIGINALWELLNAME   .         5575                          : 
Spud_date          .         1992                          : 1961
Viscosity          .         40                            : 
X                  .m        42627                         : 46154
Y                  .m        83797.63                      : 85761.93
YEAR               .         2019                          : 
~Parameter Information Block
#_______________________________________________________________________________
#
#PARAMETER_NAME    .UNIT     VALUE                         : DESCRIPTION
#_______________________________________________________________________________
SET                .         LQC_KAZNIPI_Petrel            : 
TLFamily_CALI      .         Caliper                       : 
TLFamily_CILD      .         Conductivity                  : 
TLFamily_COLL      .         Net Reservoir Flag            : 
TLFamily_CSAT      .         Fluid Code                    : 
TLFamily_DEPT      .         Measured Depth                : 
TLFamily_GR        .         Russian Gamma Ray             : 
TLFamily_LLS       .         Lateral Log Resistivity       : 
TLFamily_MINV      .         Micro Gradient Resistivity    : 
TLFamily_MNOR      .         Micro Resistivity             : 
TLFamily_NGLD      .         Neutron Gamma                 : 
TLFamily_PHIE      .         Effective Porosity            : 
TLFamily_PHIEN     .         Effective Porosity            : 
TLFamily_PHIT      .         Porosity                      : 
TLFamily_PRMB      .         Permeability                  : 
TLFamily_PRMB_DGR  .         Permeability                  : 
TLFamily_RT        .         Formation Resistivity         : 
TLFamily_SOIL_ARCHIE .         Oil Saturation                : 
TLFamily_SOIL_DW   .         Oil Saturation                : 
TLFamily_SP        .         Spontaneous Potential         : 
TLFamily_VSH_FIN   .         Shale Volume                  : 
TLFamily_VSH_GR    .         Shale Volume                  : 
TLFamily_VSH_SP    .         Shale Volume                  : 
~Curve Information
#_______________________________________________________________________________
#
#LOGNAME           .UNIT     LOG_ID                        : DESCRIPTION
#_______________________________________________________________________________
DEPT               .M                                      : Колонка глубины 
CALI               .м                                      : Каверномер 
CILD               .мСм/м                                  : Индукционный каротаж 
COLL               .unitless                               : Описание 
CSAT               .unitless                               :  
GR                 .uR/h                                   : Гамма каротаж 
LLS                .Ohmm                                   : Боковой каротаж 
MINV               .Ohmm                                   : Микро-градиент зонд 
MNOR               .Ohmm                                   : Микро-потенциал зонд 
NGLD               .у.е.                                   : Показания зонда НГК-60 аппаратуры ДРСТ-3-90 
PHIE               .v/v                                    : Описание 
PHIEN              .v/v                                    :  
PHIT               .v/v                                    : Описание 
PRMB               .mD                                     :  
PRMB_DGR           .mD                                     :  
RT                 .ohmm                                   : УЭС пласта 
SOIL_ARCHIE        .v/v                                    :  
SOIL_DW            .v/v                                    :  
SP                 .мВ                                     : Потенциал самополяризации 
VSH_FIN            .v/v                                    : Описание 
VSH_GR             .v/v                                    : Shale volume 
VSH_SP             .v/v                                    : Shale Volume 
~Ascii
# ...
1161.6     
  0.238      426.72     -9999      -9999      9.929      1.726      
  2.033      1.981      1.219      0.139134   0.139134   0.3152794  
  1.057442   1.644938   2.109      0.1342707  0.4456336  62.865     
  0.5337741  0.5294843  0.5380639 
1161.8     
  0.235      405.13     -9999      -9999      9.471      1.764      
  1.969      2.032      1.219      0.1633358  0.1633358  0.3152794  
  2.968475   2.791834   2.222      0.2653427  0.4921191  61.341     
  0.4604352  0.4266213  0.494249  
1162       
  0.234      383.54     8          2          8.36       3.054      
  1.461      1.994      1.29       0.1692761  0.1692761  0.286354   
  3.824385   10.0736    2.347      0.3059053  0.483608   59.944     
  0.3547817  0.2526274  0.4569359 
1162.2     
  0.226      341.63     8          2          7.465      3.054      
  1.461      1.994      1.395      0.1514175  0.1514175  0.243577   
  1.785571   28.32241   2.634      0.2754331  0.4384551  57.277     
  0.2792713  0.1656384  0.3929042 
1162.4     
  0.226      341.63     8          2          7.465      4.181      
  1.512      2.426      1.42       0.1412325  0.1412325  0.233392   
  1.156449   28.32241   2.634      0.2301302  0.4075384  57.277     
  0.2792713  0.1656384  0.3929042 
1162.6     
  0.226      330.2      8          2          7.592      5.206      
  1.118      2.273      1.42       0.1395455  0.1395455  0.233392   
  1.076165   24.45824   2.726      0.2344634  0.4147968  57.277     
  0.2843835  0.1758628  0.3929042 
1162.8     
  0.219      337.82     8          2          7.912      3.803      
  1.563      1.994      1.377      0.1428437  0.1428437  0.2509102  
  1.238713   16.90083   2.664      0.2417395  0.4384474  59.69      
  0.3274741  0.2045118  0.4504365 
1163       
  0.228      351.79     -9999      -9999      8.176      2.027      
  3.099      1.803      1.341      0.137319   0.137319   0.2655766  
  0.9786744  12.45896   2.558      0.2001412  0.4376337  63.119     
  0.3886596  0.2316287  0.5456905 
1163.2     
  0.242      359.41     -9999      -9999      8.938      2.027      
  3.099      1.803      1.28       0.1384411  0.1384411  0.290428   
  1.026652   5.167145   2.504      0.1977991  0.4636343  64.516     
  0.4605664  0.3317952  0.5893375 
1163.4     
  0.242      359.41     -9999      -9999      9.548      1.913      
  2.477      1.842      1.252      0.1315987  0.1315987  0.3018352  
  0.766804   2.554259   2.504      0.1615909  0.4661521  64.516     
  0.5158684  0.4423992  0.5893375 
1163.6     
  0.242      356.87     -9999      -9999      9.548      1.899      
  1.88       1.816      1.211      0.148302   0.148302   0.3185386  
  1.563406   2.554259   2.522      0.2469956  0.5083057  64.516     
  0.5158684  0.4423992  0.5893375 
1163.8     
  0.247      350.52     -9999      -9999      9.395      2.027      
  2.134      1.473      1.211      0.1580221  0.1580221  0.3185386  
  2.366519   3.047978   2.568      0.2935179  0.5244604  63.627     
  0.4864138  0.4116005  0.5612271 
1164       
  0.249      342.9      -9999      -9999      9.268      2.901      
  1.601      2.476      1.211      0.1670354  0.1670354  0.3185386  
  3.475833   3.529536   2.625      0.3337379  0.5396946  62.611     
  0.4591007  0.3876705  0.5305308 
1164.2     
  0.232      332.74     -9999      -9999      9.192      2.901      
  1.601      2.476      1.166      0.1912577  0.1912577  0.3368716  
  9.765948   3.853363   2.705      0.4161438  0.5844712  61.849     
  0.4412543  0.3740211  0.5084874 
1164.4     
  0.232      332.74     -9999      -9999      8.786      2.543      
  1.982      2.515      1.191      0.1918272  0.1918272  0.3266866  
  10.00607   6.158798   2.705      0.4176539  0.5772411  61.849     
  0.4086648  0.3088422  0.5084874 
1164.6     
  0.232      334.01     -9999      -9999      8.481      2.198      
  2.185      2.248      1.244      0.1770625  0.1770625  0.3050944  
  5.330714   8.759692   2.695      0.3744949  0.5443512  61.849     
  0.3879755  0.2674635  0.5084874 
1164.8     
  0.232      334.01     -9999      -9999      8.481      2.088      
  1.55       1.689      1.242      0.189558   0.189558   0.3059092  
  9.083041   8.759692   2.695      0.4105632  0.5573913  59.182     
  0.3525795  0.2674635  0.4376956 
1165       
  0.232      316.23     1          2          8.913      3.612      
  1.512      2.248      1.242      0.1923483  0.1923483  0.3059092  
  10.23095   5.31852    2.846      0.4327174  0.5718381  55.753     
  0.3441238  0.3279061  0.3603415 
1165.2     
  0.213      278.13     1          2          8.963      3.612      
  1.512      2.248      1.28       0.1946862  0.1946862  0.290428   
  11.30364   5.020072   3.236      0.4714849  0.58798    48.768     
  0.2901268  0.3357306  0.244523  
1165.4     
  0.213      278.13     1          2          8.582      4.947      
  1.537      2.375      1.321      0.1870938  0.1870938  0.2737246  
  8.176902   7.795171   3.236      0.4528534  0.5663241  48.768     
  0.2625177  0.2805123  0.244523  
1165.6     
  0.213      262.89     1          2          7.389      4.401      
  1.486      2.337      1.361      0.1907143  0.1907143  0.2574286  
  9.542217   30.92096   3.423      0.4759113  0.5663891  48.768     
  0.2021647  0.1598064  0.244523  
1165.8     
  0.211      256.54     1          2          7.389      4.532      
  1.474      2.35       1.389      0.1833601  0.1833601  0.2460214  
  6.973206   30.92096   3.508      0.4638575  0.5529376  46.736     
  0.1898826  0.1598064  0.2199587 
1166       
  0.209      257.81     1          2          7.16       3.693      
  1.639      2.464      1.389      0.1855861  0.1855861  0.2460214  
  7.667654   40.28312   3.491      0.4682518  0.5541094  46.99      
  0.1831373  0.1434461  0.2228284 
1166.2     
  0.209      266.7      1          2          6.855      3.693      
  1.639      2.464      1.412      0.1732506  0.1732506  0.2366512  
  4.530839   57.29486   3.375      0.4264002  0.5226139  49.911     
  0.1921232  0.1242272  0.2600192 
1166.4     
  0.209      266.7      1          2          7.058      3.666      
  1.639      2.464      1.397      0.1773021  0.1773021  0.2427622  
  5.385462   45.31976   3.375      0.437833   0.5341691  49.911     
  0.198364   0.1367089  0.2600192 
1166.6     
  0.209      275.59     1          2          7.998      3.612      
  1.626      2.489      1.397      0.1647178  0.1647178  0.2427622  
  3.148698   15.30274   3.266      0.3913001  0.5117896  49.911     
  0.2364983  0.2129773  0.2600192 
1166.8     
  0.211      288.29     1          2          7.998      3.032      
  1.524      2.362      1.321      0.1919415  0.1919415  0.2737246  
  10.05498   15.30274   3.122      0.4558272  0.5631198  51.435     
  0.2478275  0.2129773  0.2826776 
1167       
  0.214      307.34     8          2          8.278      2.364      
  1.575      2.261      1.321      0.1828458  0.1828458  0.2737246  
  6.821922   11.07432   2.928      0.414975   0.5397559  52.959     
  0.2753902  0.2430439  0.3077364 
1167.2     
  0.223      349.25     8          2          8.582      2.364      
  1.499      2.083      1.285      0.1822201  0.1822201  0.288391   
  6.642272   7.795171   2.577      0.3769902  0.5236586  55.88      
  0.32173    0.2805123  0.3629476 
1167.4     
  0.223      349.25     8          2          8.811      2.072      
  1.499      2.083      1.293      0.1736821  0.1736821  0.2851318  
  4.615001   5.983508   2.577      0.3503991  0.5110132  55.88      
  0.3377264  0.3125052  0.3629476 
1167.6     
  0.223      359.41     8          2          9.09       1.983      
  1.41       1.994      1.3        0.1635787  0.1635787  0.28228    
  2.999387   4.335159   2.504      0.3062988  0.4887837  55.88      
  0.3597009  0.3564543  0.3629476 
1167.8     
  0.227      349.25     8          2          9.09       1.83       
  1.69       2.134      1.338      0.1445418  0.1445418  0.2667988  
  1.331751   4.335159   2.577      0.2377189  0.4523946  56.896     
  0.3704756  0.3564543  0.384497  
