~Version
 VERS              .         2.0                           : CWLS LOG ASCII STANDARD - VERSION 2.0
 WRAP              .         YES                            : ONE LINE PER DEPTH STEP
 DLM               .         SPACE                         : DELIMITING CHARACTER(SPACE TAB OR COMMA)
~Well Information
#_______________________________________________________________________________
#
#PARAMETER_NAME    .UNIT     VALUE                         : DESCRIPTION
#_______________________________________________________________________________
STRT               .M        880                           : First reference value
STOP               .M        1210                          : Last reference value
STEP               .M        0.2                           : Step increment
NULL               .         -9999                         : Missing value
COMP               .                                       : Company
WELL               .         5575                          : Well name
FLD                .         UZEN                          : Field
LOC                .                                       : Location
CNTY               .                                       : County
STAT               .                                       : State
CTRY               .                                       : Country
SRVC               .                                       : Service Company
DATE               .                                       : Date
UWI                .                                       : Unique Well ID
Block              .         7                             : 
Cartographic_reference_system .         GCS_WGS_1984                  : ESRI,PE_10_3_1- <?xml version="1.0" encoding="utf-16"?><ILateBoundCoordinateReferenceSystem name="GCS_WGS_1984"><AuthorityCode>EPSG,4326</AuthorityCode></ILateBoundCoordinateReferenceSystem>
Category           .         Нефтяная                      : 
Condition          .         В работе                      : 
EREF               .m        82.9                          : 100.8
Gorizont           .         14                            : 14
HZCS               .GCS_WGS_1984 WGS_1984_EASE-Grid_2.0_Global : ESRI,PE_10_3_1- <?xml version="1.0" encoding="utf-16"?><ILateBoundCoordinateReferenceSystem name="WGS_1984_EASE-Grid_2.0_Global"><AuthorityCode>EPSG,6933</AuthorityCode></ILateBoundCoordinateReferenceSystem>
Interpretator      .         Сагынбаева А.Н.               : 
Kupol              .         основной                      : osnovnoi
LATI               .dega     0.6568727471                  : GCS_WGS_1984
LONG               .dega     0.4417933813                  : GCS_WGS_1984
Mud                .         глинистый                     : 
Mud_density        .         1,22                          : 
Mud_resistivity    .         0                             : 
NGDU               .         НГДУ-2                        : 
ORIGINALWELLNAME   .         5575                          : 
Spud_date          .         1992                          : 1961
Viscosity          .         40                            : 
X                  .m        42627                         : 46154
Y                  .m        83797.63                      : 85761.93
YEAR               .         2019                          : 
~Parameter Information Block
#_______________________________________________________________________________
#
#PARAMETER_NAME    .UNIT     VALUE                         : DESCRIPTION
#_______________________________________________________________________________
SET                .         LQC_KAZNIPI_Petrel            : 
TLFamily_CALI      .         Caliper                       : 
TLFamily_CILD      .         Conductivity                  : 
TLFamily_COLL      .         Net Reservoir Flag            : 
TLFamily_CSAT      .         Fluid Code                    : 
TLFamily_DEPT      .         Measured Depth                : 
TLFamily_GR        .         Russian Gamma Ray             : 
TLFamily_LLS       .         Lateral Log Resistivity       : 
TLFamily_MINV      .         Micro Gradient Resistivity    : 
TLFamily_MNOR      .         Micro Resistivity             : 
TLFamily_NGLD      .         Neutron Gamma                 : 
TLFamily_PHIE      .         Effective Porosity            : 
TLFamily_PHIEN     .         Effective Porosity            : 
TLFamily_PHIT      .         Porosity                      : 
TLFamily_PRMB      .         Permeability                  : 
TLFamily_PRMB_DGR  .         Permeability                  : 
TLFamily_RT        .         Formation Resistivity         : 
TLFamily_SOIL_ARCHIE .         Oil Saturation                : 
TLFamily_SOIL_DW   .         Oil Saturation                : 
TLFamily_SP        .         Spontaneous Potential         : 
TLFamily_VSH_FIN   .         Shale Volume                  : 
TLFamily_VSH_GR    .         Shale Volume                  : 
TLFamily_VSH_SP    .         Shale Volume                  : 
~Curve Information
#_______________________________________________________________________________
#
#LOGNAME           .UNIT     LOG_ID                        : DESCRIPTION
#_______________________________________________________________________________
DEPT               .M                                      : Колонка глубины 
CALI               .м                                      : Каверномер 
CILD               .мСм/м                                  : Индукционный каротаж 
COLL               .unitless                               : Описание 
CSAT               .unitless                               :  
GR                 .uR/h                                   : Гамма каротаж 
LLS                .Ohmm                                   : Боковой каротаж 
MINV               .Ohmm                                   : Микро-градиент зонд 
MNOR               .Ohmm                                   : Микро-потенциал зонд 
NGLD               .у.е.                                   : Показания зонда НГК-60 аппаратуры ДРСТ-3-90 
PHIE               .v/v                                    : Описание 
PHIEN              .v/v                                    :  
PHIT               .v/v                                    : Описание 
PRMB               .mD                                     :  
PRMB_DGR           .mD                                     :  
RT                 .ohmm                                   : УЭС пласта 
SOIL_ARCHIE        .v/v                                    :  
SOIL_DW            .v/v                                    :  
SP                 .мВ                                     : Потенциал самополяризации 
VSH_FIN            .v/v                                    : Описание 
VSH_GR             .v/v                                    : Shale volume 
VSH_SP             .v/v                                    : Shale Volume 
~Ascii
# ...
1206.4     
  0.233      515.62     -9999      -9999      10.005     1.593      
  1.74       1.511      1.252      0.1307976  0.1307976  0.3018352  
  0.7410479  1.506699   1.754      0.003870271 0.360687   54.737     
  0.5182959  0.5488073  0.4877844 
1206.6     
  0.233      516.89     -9999      -9999      10.005     1.64       
  1.74       1.511      1.252      0.1272925  0.1272925  0.3018352  
  0.638153   1.506699   1.745      0          0.3525114  55.499     
  0.5289172  0.5488073  0.509027  
1206.8     
  0.232      518.16     -9999      -9999      9.776      1.628      
  1.778      1.346      1.257      0.134526   0.134526   0.2997982  
  0.8687711  1.962893   1.741      0.02455961 0.3623624  55.499     
  0.500825   0.492623   0.509027  
1207       
  0.23       514.35     -9999      -9999      9.598      1.664      
  1.677      1.613      1.265      0.1378119  0.1378119  0.296539   
  0.9994677  2.410928   1.737      0.04381612 0.3631381  55.499     
  0.4809912  0.4529555  0.509027  
1207.2     
  0.23       514.35     -9999      -9999      9.827      1.664      
  2.172      1.651      1.288      0.1187194  0.1187194  0.2871688  
  0.4427209  1.850608   1.75       0          0.3153778  55.753     
  0.5104526  0.5046157  0.5162896 
1207.4     
  0.23       509.27     -9999      -9999      9.675      1.652      
  2.147      1.46       1.25       0.1393557  0.1393557  0.30265    
  1.067489   2.205767   1.75       0.05635592 0.3761258  55.88      
  0.4948313  0.4697072  0.5199553 
1207.6     
  0.23       501.65     -9999      -9999      9.675      1.689      
  2.147      1.46       1.25       0.1405616  0.1405616  0.30265    
  1.123827   2.205767   1.767      0.06765007 0.3811658  55.626     
  0.491177   0.4697072  0.5126469 
1207.8     
  0.23       494.03     -9999      -9999      9.675      1.676      
  2.286      1.651      1.28       0.1283396  0.1283396  0.290428   
  0.6672961  2.205767   1.794      0          0.3478295  55.626     
  0.491177   0.4697072  0.5126469 
1208       
  0.23       482.6      -9999      -9999      9.7        1.817      
  2.807      1.676      1.321      0.110717   0.110717   0.2737246  
  0.3147061  2.142987   1.822      0          0.2903935  55.626     
  0.4939625  0.4752781  0.5126469 
1208.2     
  0.23       482.6      -9999      -9999      9.395      1.817      
  2.286      1.664      1.331      0.1189303  0.1189303  0.2696506  
  0.4467213  3.047978   1.865      0          0.3105821  55.245     
  0.4567281  0.4116005  0.5018557 
1208.4     
  0.23       486.41     -9999      -9999      9.751      1.83       
  2.566      1.816      1.252      0.1410207  0.1410207  0.3018352  
  1.146051   2.020398   1.865      0.09354807 0.3973876  54.737     
  0.4873166  0.4868488  0.4877844 
1208.6     
  0.23       492.76     -9999      -9999      9.751      1.817      
  2.566      1.816      1.252      0.1410207  0.1410207  0.3018352  
  1.146051   2.020398   1.85       0.09010656 0.3949495  54.737     
  0.4873166  0.4868488  0.4877844 
1208.8     
  0.23       497.84     -9999      -9999      9.776      1.689      
  2.68       1.486      1.199      0.1616602  0.1616602  0.3234274  
  2.763737   1.962893   1.826      0.1871943  0.4461995  54.737     
  0.4902037  0.492623   0.4877844 
1209       
  0.23       502.92     -9999      -9999      9.979      1.64       
  2.693      1.575      1.232      0.1400492  0.1400492  0.3099832  
  1.099534   1.552632   1.808      0.07469354 0.396407   54.737     
  0.5149516  0.5421187  0.4877844 
1209.2     
  0.232      502.92     -9999      -9999      10.081     1.64       
  2.02       1.321      1.257      0.1231342  0.1231342  0.2997982  
  0.534443   1.380079   1.79       0          0.3500207  55.245     
  0.5353456  0.5688356  0.5018557 
1209.4     
  0.232      506.73     -9999      -9999      10.005     1.664      
  2.045      1.46       1.278      0.1172936  0.1172936  0.2912428  
  0.4166014  1.506699   1.79       0          0.3260691  55.372     
  0.5271187  0.5488073  0.50543   
1209.6     
  0.232      511.81     -9999      -9999      10.005     1.628      
  2.045      1.46       1.278      0.1167001  0.1167001  0.2912428  
  0.4061884  1.506699   1.776      0          0.3221568  55.499     
  0.5289172  0.5488073  0.509027  
1209.8     
  0.233      518.16     -9999      -9999      9.979      1.628      
  1.855      1.321      1.27       0.1210629  0.1210629  0.294502   
  0.4892576  1.552632   1.758      0          0.3325489  55.499     
  0.5255729  0.5421187  0.509027  
1210       
  0.232      521.97     -9999      -9999      9.903      1.652      
  2.033      1.257      1.283      0.1189162  0.1189162  0.2892058  
  0.4464516  1.695085   1.737      0          0.3162942  55.499     
  0.5160291  0.5230312  0.509027  
