~Version
 VERS              .         2.0                           : CWLS LOG ASCII STANDARD - VERSION 2.0
 WRAP              .         YES                            : ONE LINE PER DEPTH STEP
 DLM               .         SPACE                         : DELIMITING CHARACTER(SPACE TAB OR COMMA)
~Well Information
#_______________________________________________________________________________
#
#PARAMETER_NAME    .UNIT     VALUE                         : DESCRIPTION
#_______________________________________________________________________________
STRT               .M        880                           : First reference value
STOP               .M        1210                          : Last reference value
STEP               .M        0.2                           : Step increment
NULL               .         -9999                         : Missing value
COMP               .                                       : Company
WELL               .         5575                          : Well name
FLD                .         UZEN                          : Field
LOC                .                                       : Location
CNTY               .                                       : County
STAT               .                                       : State
CTRY               .                                       : Country
SRVC               .                                       : Service Company
DATE               .                                       : Date
UWI                .                                       : Unique Well ID
Block              .         7                             : 
Cartographic_reference_system .         GCS_WGS_1984                  : ESRI,PE_10_3_1- <?xml version="1.0" encoding="utf-16"?><ILateBoundCoordinateReferenceSystem name="GCS_WGS_1984"><AuthorityCode>EPSG,4326</AuthorityCode></ILateBoundCoordinateReferenceSystem>
Category           .         Нефтяная                      : 
Condition          .         В работе                      : 
EREF               .m        82.9                          : 100.8
Gorizont           .         14                            : 14
HZCS               .GCS_WGS_1984 WGS_1984_EASE-Grid_2.0_Global : ESRI,PE_10_3_1- <?xml version="1.0" encoding="utf-16"?><ILateBoundCoordinateReferenceSystem name="WGS_1984_EASE-Grid_2.0_Global"><AuthorityCode>EPSG,6933</AuthorityCode></ILateBoundCoordinateReferenceSystem>
Interpretator      .         Сагынбаева А.Н.               : 
Kupol              .         основной                      : osnovnoi
LATI               .dega     0.6568727471                  : GCS_WGS_1984
LONG               .dega     0.4417933813                  : GCS_WGS_1984
Mud                .         глинистый                     : 
Mud_density        .         1,22                          : 
Mud_resistivity    .         0                             : 
NGDU               .         НГДУ-2                        : 
ORIGINALWELLNAME   .         5575                          : 
Spud_date          .         1992                          : 1961
Viscosity          .         40                            : 
X                  .m        42627                         : 46154
Y                  .m        83797.63                      : 85761.93
YEAR               .         2019                          : 
~Parameter Information Block
#_______________________________________________________________________________
#
#PARAMETER_NAME    .UNIT     VALUE                         : DESCRIPTION
#_______________________________________________________________________________
SET                .         LQC_KAZNIPI_Petrel            : 
TLFamily_CALI      .         Caliper                       : 
TLFamily_CILD      .         Conductivity                  : 
TLFamily_COLL      .         Net Reservoir Flag            : 
TLFamily_CSAT      .         Fluid Code                    : 
TLFamily_DEPT      .         Measured Depth                : 
TLFamily_GR        .         Russian Gamma Ray             : 
TLFamily_LLS       .         Lateral Log Resistivity       : 
TLFamily_MINV      .         Micro Gradient Resistivity    : 
TLFamily_MNOR      .         Micro Resistivity             : 
TLFamily_NGLD      .         Neutron Gamma                 : 
TLFamily_PHIE      .         Effective Porosity            : 
TLFamily_PHIEN     .         Effective Porosity            : 
TLFamily_PHIT      .         Porosity                      : 
TLFamily_PRMB      .         Permeability                  : 
TLFamily_PRMB_DGR  .         Permeability                  : 
TLFamily_RT        .         Formation Resistivity         : 
TLFamily_SOIL_ARCHIE .         Oil Saturation                : 
TLFamily_SOIL_DW   .         Oil Saturation                : 
TLFamily_SP        .         Spontaneous Potential         : 
TLFamily_VSH_FIN   .         Shale Volume                  : 
TLFamily_VSH_GR    .         Shale Volume                  : 
TLFamily_VSH_SP    .         Shale Volume                  : 
~Curve Information
#_______________________________________________________________________________
#
#LOGNAME           .UNIT     LOG_ID                        : DESCRIPTION
#_______________________________________________________________________________
DEPT               .M                                      : Колонка глубины 
CALI               .м                                      : Каверномер 
CILD               .мСм/м                                  : Индукционный каротаж 
COLL               .unitless                               : Описание 
CSAT               .unitless                               :  
GR                 .uR/h                                   : Гамма каротаж 
LLS                .Ohmm                                   : Боковой каротаж 
MINV               .Ohmm                                   : Микро-градиент зонд 
MNOR               .Ohmm                                   : Микро-потенциал зонд 
NGLD               .у.е.                                   : Показания зонда НГК-60 аппаратуры ДРСТ-3-90 
PHIE               .v/v                                    : Описание 
PHIEN              .v/v                                    :  
PHIT               .v/v                                    : Описание 
PRMB               .mD                                     :  
PRMB_DGR           .mD                                     :  
RT                 .ohmm                                   : УЭС пласта 
SOIL_ARCHIE        .v/v                                    :  
SOIL_DW            .v/v                                    :  
SP                 .мВ                                     : Потенциал самополяризации 
VSH_FIN            .v/v                                    : Описание 
VSH_GR             .v/v                                    : Shale volume 
VSH_SP             .v/v                                    : Shale Volume 
~Ascii
# ...
1187.2     
  0.236      494.03     -9999      -9999      9.827      1.652      
  2.68       1.892      1.25       0.1449867  0.1449867  0.30265    
  1.357259   1.850608   1.822      0.1054432  0.3977547  53.34      
  0.4777677  0.5046157  0.4509197 
1187.4     
  0.236      494.03     -9999      -9999      9.497      1.652      
  2.096      1.905      1.252      0.1561724  0.1561724  0.3018352  
  2.187009   2.70924    1.822      0.1615122  0.413861   53.34      
  0.4414023  0.4318849  0.4509197 
1187.6     
  0.236      495.3      -9999      -9999      9.497      1.689      
  2.096      1.905      1.267      0.1500615  0.1500615  0.2957242  
  1.685234   2.70924    1.817      0.1307295  0.3963678  53.34      
  0.4414023  0.4318849  0.4509197 
1187.8     
  0.236      491.49     -9999      -9999      9.624      1.676      
  2.426      1.511      1.272      0.1438898  0.1438898  0.2936872  
  1.295226   2.339604   1.831      0.1015865  0.386229   53.277     
  0.4539317  0.458544   0.4493194 
1188       
  0.235      483.87     -9999      -9999      9.649      1.702      
  2.452      1.422      1.272      0.1508124  0.1508124  0.2936872  
  1.740081   2.273012   1.86       0.1439481  0.4020245  51.308     
  0.432954   0.4639826  0.4019254 
1188.2     
  0.227      471.17     -9999      -9999      9.37       2.181      
  2.083      1.46       1.26       0.1784022  0.1784022  0.298576   
  5.644153   3.137276   1.91       0.2696238  0.4533637  47.371     
  0.3641632  0.4067758  0.3215505 
1188.4     
  0.227      471.17     -9999      -9999      8.811      2.181      
  2.248      2.362      1.255      0.1959938  0.1959938  0.300613   
  11.95195   5.983508   1.91       0.3270622  0.4759407  47.371     
  0.3170278  0.3125052  0.3215505 
1188.6     
  0.227      467.36     -9999      -9999      8.811      1.983      
  2.248      2.362      1.262      0.193142   0.193142   0.2977612  
  10.5832    5.983508   1.926      0.3210795  0.4720191  47.371     
  0.3170278  0.3125052  0.3215505 
1188.8     
  0.218      466.09     -9999      -9999      8.735      2.213      
  1.639      1.778      1.265      0.1941135  0.1941135  0.296539   
  11.03092   6.532489   1.931      0.3248618  0.4725024  47.244     
  0.3103802  0.3015021  0.3192582 
1189       
  0.216      461.01     -9999      -9999      8.709      2.279      
  2.159      2.324      1.265      0.187877   0.187877   0.296539   
  8.45465    6.731637   1.952      0.3089008  0.468312   49.403     
  0.3292789  0.2978275  0.3607302 
1189.2     
  0.227      454.66     -9999      -9999      8.989      1.858      
  2.35       2.248      1.272      0.1717667  0.1717667  0.2936872  
  4.252989   4.871559   1.98       0.2577538  0.4494699  51.181     
  0.3694561  0.3398728  0.3990394 
1189.4     
  0.227      454.66     -9999      -9999      8.76       1.858      
  2.337      2.108      1.252      0.1856558  0.1856558  0.3018352  
  7.690489   6.346555   1.98       0.3063565  0.4750853  51.181     
  0.3520588  0.3050782  0.3990394 
1189.6     
  0.227      449.58     -9999      -9999      8.76       1.926      
  2.337      2.108      1.237      0.1917668  0.1917668  0.3079462  
  9.980319   6.346555   2.002      0.329136   0.490887   51.181     
  0.3520588  0.3050782  0.3990394 
1189.8     
  0.23       445.77     -9999      -9999      8.913      1.94       
  3.163      2.184      1.341      0.144192   0.144192   0.2655766  
  1.312027   5.31852    2.019      0.1434289  0.3790172  51.562     
  0.3678323  0.3279061  0.4077585 
1190       
  0.232      440.69     -9999      -9999      9.141      1.926      
  3.341      2.311      1.341      0.1370737  0.1370737  0.2655766  
  0.9684901  4.087169   2.042      0.1095603  0.3701391  51.816     
  0.3894028  0.365132   0.4136737 
1190.2     
  0.229      436.88     -9999      -9999      9.116      2.027      
  2.388      2.692      1.371      0.1255578  0.1255578  0.2533546  
  0.5926436  4.206908   2.06       0.04278787 0.3321879  51.816     
  0.3872629  0.3608522  0.4136737 
1190.4     
  0.229      436.88     -9999      -9999      9.217      2.027      
  2.998      2.146      1.344      0.1336528  0.1336528  0.2643544  
  0.8370137  3.743689   2.06       0.09348402 0.364911   51.816     
  0.3960654  0.3784572  0.4136737 
1190.6     
  0.229      435.61     -9999      -9999      9.217      1.983      
  3.214      1.943      1.346      0.132838   0.132838   0.2635396  
  0.8084266  3.743689   2.066      0.08988612 0.363125   51.816     
  0.3960654  0.3784572  0.4136737 
1190.8     
  0.227      430.53     -9999      -9999      9.268      2.027      
  2.883      2.781      1.316      0.1440295  0.1440295  0.2757616  
  1.302969   3.529536   2.09       0.1563814  0.4031814  51.689     
  0.3991882  0.3876705  0.4107058 
1191       
  0.226      426.72     -9999      -9999      9.243      2.072      
  2.744      2.159      1.316      0.1457485  0.1457485  0.2757616  
  1.402082   3.632936   2.109      0.168592   0.4086301  51.435     
  0.3939792  0.3831265  0.4048318 
1191.2     
  0.228      431.8      -9999      -9999      9.09       2.043      
  2.452      1.765      1.293      0.170127   0.170127   0.2851318  
  3.965733   4.335159   2.084      0.2692932  0.4516929  48.387     
  0.3484993  0.3564543  0.3405443 
1191.4     
  0.228      431.8      -9999      -9999      9.09       2.043      
  2.452      1.765      1.275      0.1774602  0.1774602  0.292465   
  5.421909   4.335159   2.084      0.2956629  0.469047   48.387     
  0.3484993  0.3564543  0.3405443 
1191.6     
  0.228      441.96     -9999      -9999      9.09       1.764      
  2.261      1.575      1.267      0.1807195  0.1807195  0.2957242  
  6.230469   4.335159   2.036      0.2991168  0.4702689  48.387     
  0.3484993  0.3564543  0.3405443 
1191.8     
  0.229      444.5      -9999      -9999      8.963      1.664      
  1.334      1.511      1.313      0.1752242  0.1752242  0.2769838  
  4.928734   5.020072   2.025      0.2781784  0.4407875  44.958     
  0.3083625  0.3357306  0.2809944 
1192       
  0.23       438.15     1          2          8.659      1.714      
  1.664      2.134      1.313      0.1921851  0.1921851  0.2769838  
  10.15995   7.13183    2.054      0.3384167  0.4653899  40.64      
  0.2569659  0.2908866  0.2230453 
1192.2     
  0.22       411.48     1          2          8.074      2.797      
  1.702      2.35       1.359      0.1970087  0.1970087  0.2582434  
  12.48064   14.01672   2.187      0.3713319  0.4658376  31.496     
  0.1855598  0.2207498  0.1503698 
1192.4     
  0.22       411.48     1          2          7.693      2.797      
  1.702      2.35       1.387      0.1915922  0.1915922  0.2468362  
  9.906258   21.76517   2.187      0.3558802  0.4452028  31.496     
  0.1674062  0.1844426  0.1503698 
1192.6     
  0.22       394.97     1          2          7.693      3.099      
  1.778      2.489      1.374      0.1968884  0.1968884  0.2521324  
  12.41676   21.76517   2.279      0.3830432  0.4692846  31.496     
  0.1674062  0.1844426  0.1503698 
1192.8     
  0.218      388.62     1          2          8.024      3.032      
  1.74       2.591      1.364      0.1961273  0.1961273  0.2562064  
  12.02018   14.85002   2.316      0.3856192  0.4775545  31.115     
  0.182058   0.215605   0.1485109 
1193       
  0.215      387.35     1          2          8.176      2.944      
  1.829      2.591      1.364      0.1941508  0.1941508  0.2562064  
  11.04847   12.45896   2.323      0.3810526  0.4761191  30.226     
  0.1880472  0.2316287  0.1444658 
1193.2     
  0.214      392.43     1          2          8.263      2.776      
  1.766      2.464      1.333      0.2039937  0.2039937  0.2688358  
  16.81185   11.26785   2.293      0.4035185  0.4977563  31.75      
  0.1964914  0.2413305  0.1516523 
1193.4     
  0.214      392.43     1          2          8.354      2.776      
  1.766      2.464      1.338      0.2002104  0.2002104  0.2667988  
  14.30674   10.14365   2.293      0.3937136  0.4915581  31.75      
  0.2017829  0.2519136  0.1516523 
