~Version
 VERS              .         2.0                           : CWLS LOG ASCII STANDARD - VERSION 2.0
 WRAP              .         YES                            : ONE LINE PER DEPTH STEP
 DLM               .         SPACE                         : DELIMITING CHARACTER(SPACE TAB OR COMMA)
~Well Information
#_______________________________________________________________________________
#
#PARAMETER_NAME    .UNIT     VALUE                         : DESCRIPTION
#_______________________________________________________________________________
STRT               .M        880                           : First reference value
STOP               .M        1210                          : Last reference value
STEP               .M        0.2                           : Step increment
NULL               .         -9999                         : Missing value
COMP               .                                       : Company
WELL               .         5575                          : Well name
FLD                .         UZEN                          : Field
LOC                .                                       : Location
CNTY               .                                       : County
STAT               .                                       : State
CTRY               .                                       : Country
SRVC               .                                       : Service Company
DATE               .                                       : Date
UWI                .                                       : Unique Well ID
Block              .         7                             : 
Cartographic_reference_system .         GCS_WGS_1984                  : ESRI,PE_10_3_1- <?xml version="1.0" encoding="utf-16"?><ILateBoundCoordinateReferenceSystem name="GCS_WGS_1984"><AuthorityCode>EPSG,4326</AuthorityCode></ILateBoundCoordinateReferenceSystem>
Category           .         Нефтяная                      : 
Condition          .         В работе                      : 
EREF               .m        82.9                          : 100.8
Gorizont           .         14                            : 14
HZCS               .GCS_WGS_1984 WGS_1984_EASE-Grid_2.0_Global : ESRI,PE_10_3_1- <?xml version="1.0" encoding="utf-16"?><ILateBoundCoordinateReferenceSystem name="WGS_1984_EASE-Grid_2.0_Global"><AuthorityCode>EPSG,6933</AuthorityCode></ILateBoundCoordinateReferenceSystem>
Interpretator      .         Сагынбаева А.Н.               : 
Kupol              .         основной                      : osnovnoi
LATI               .dega     0.6568727471                  : GCS_WGS_1984
LONG               .dega     0.4417933813                  : GCS_WGS_1984
Mud                .         глинистый                     : 
Mud_density        .         1,22                          : 
Mud_resistivity    .         0                             : 
NGDU               .         НГДУ-2                        : 
ORIGINALWELLNAME   .         5575                          : 
Spud_date          .         1992                          : 1961
Viscosity          .         40                            : 
X                  .m        42627                         : 46154
Y                  .m        83797.63                      : 85761.93
YEAR               .         2019                          : 
~Parameter Information Block
#_______________________________________________________________________________
#
#PARAMETER_NAME    .UNIT     VALUE                         : DESCRIPTION
#_______________________________________________________________________________
SET                .         LQC_KAZNIPI_Petrel            : 
TLFamily_CALI      .         Caliper                       : 
TLFamily_CILD      .         Conductivity                  : 
TLFamily_COLL      .         Net Reservoir Flag            : 
TLFamily_CSAT      .         Fluid Code                    : 
TLFamily_DEPT      .         Measured Depth                : 
TLFamily_GR        .         Russian Gamma Ray             : 
TLFamily_LLS       .         Lateral Log Resistivity       : 
TLFamily_MINV      .         Micro Gradient Resistivity    : 
TLFamily_MNOR      .         Micro Resistivity             : 
TLFamily_NGLD      .         Neutron Gamma                 : 
TLFamily_PHIE      .         Effective Porosity            : 
TLFamily_PHIEN     .         Effective Porosity            : 
TLFamily_PHIT      .         Porosity                      : 
TLFamily_PRMB      .         Permeability                  : 
TLFamily_PRMB_DGR  .         Permeability                  : 
TLFamily_RT        .         Formation Resistivity         : 
TLFamily_SOIL_ARCHIE .         Oil Saturation                : 
TLFamily_SOIL_DW   .         Oil Saturation                : 
TLFamily_SP        .         Spontaneous Potential         : 
TLFamily_VSH_FIN   .         Shale Volume                  : 
TLFamily_VSH_GR    .         Shale Volume                  : 
TLFamily_VSH_SP    .         Shale Volume                  : 
~Curve Information
#_______________________________________________________________________________
#
#LOGNAME           .UNIT     LOG_ID                        : DESCRIPTION
#_______________________________________________________________________________
DEPT               .M                                      : Колонка глубины 
CALI               .м                                      : Каверномер 
CILD               .мСм/м                                  : Индукционный каротаж 
COLL               .unitless                               : Описание 
CSAT               .unitless                               :  
GR                 .uR/h                                   : Гамма каротаж 
LLS                .Ohmm                                   : Боковой каротаж 
MINV               .Ohmm                                   : Микро-градиент зонд 
MNOR               .Ohmm                                   : Микро-потенциал зонд 
NGLD               .у.е.                                   : Показания зонда НГК-60 аппаратуры ДРСТ-3-90 
PHIE               .v/v                                    : Описание 
PHIEN              .v/v                                    :  
PHIT               .v/v                                    : Описание 
PRMB               .mD                                     :  
PRMB_DGR           .mD                                     :  
RT                 .ohmm                                   : УЭС пласта 
SOIL_ARCHIE        .v/v                                    :  
SOIL_DW            .v/v                                    :  
SP                 .мВ                                     : Потенциал самополяризации 
VSH_FIN            .v/v                                    : Описание 
VSH_GR             .v/v                                    : Shale volume 
VSH_SP             .v/v                                    : Shale Volume 
~Ascii
# ...
1097.6     
  0.214      194.31     1          2          9.192      4.78       
  1.867      2.934      1.342      0.2101071  0.2101071  0.2651692  
  21.81987   3.551534   4.632      0.5761469  0.643092   59.817     
  0.1668547  0.3866882  0.1668547 
1097.8     
  0.218      187.96     6          6          9.192      6.676      
  1.867      2.934      1.45       0.1663636  0.1663636  0.22117    
  3.37765    3.551534   4.788      0.4885959  0.5698585  59.7       
  0.1660801  0.3866882  0.1660801 
1098       
  0.223      190.5      6          6          8.989      9.623      
  2.033      3.277      1.45       0.1669298  0.1669298  0.22117    
  3.460209   4.501048   4.724      0.4868769  0.5675673  59.436     
  0.1643643  0.3510301  0.1643643 
1098.2     
  0.218      212.09     6          6          9.065      3.561      
  1.728      2.781      1.453      0.1658195  0.1658195  0.2199478  
  3.300185   4.118989   4.243      0.4572116  0.5409623  59.383     
  0.1640251  0.3639776  0.1640251 
1098.4     
  0.218      212.09     1          2          9.268      3.561      
  1.512      2.223      1.392      0.1908263  0.1908263  0.2447992  
  9.587893   3.250072   4.243      0.5197135  0.593283   59.309     
  0.1635544  0.4009508  0.1635544 
1098.6     
  0.218      227.33     1          2          9.751      2.988      
  1.461      1.918      1.333      0.2125145  0.2125145  0.2688358  
  24.17919   1.849556   3.959      0.548246   0.6188371  60.375     
  0.1706708  0.504733   0.1706708 
1098.8     
  0.214      242.57     1          2          9.751      2.944      
  1.461      1.918      1.308      0.2203574  0.2203574  0.2790208  
  33.78399   1.849556   3.71       0.5487339  0.6204758  61.341     
  0.1777681  0.504733   0.1777681 
1099       
  0.218      254        1          2          9.624      2.817      
  1.639      2.223      1.308      0.2203574  0.2203574  0.2790208  
  33.78399   2.145073   3.543      0.5388744  0.6116344  61.341     
  0.1777681  0.4750893  0.1777681 
1099.2     
  0.221      264.16     1          2          9.751      2.88       
  1.448      2.095      1.3        0.2236166  0.2236166  0.28228    
  38.82211   1.849556   3.407      0.536294   0.609036   61.341     
  0.1777681  0.504733   0.1777681 
1099.4     
  0.221      264.16     1          2          9.878      2.88       
  1.144      2.108      1.288      0.2285053  0.2285053  0.2871688  
  47.8224    1.594751   3.407      0.5449466  0.6164109  61.341     
  0.1777681  0.536226   0.1777681 
1099.6     
  0.221      256.54     1          2          9.852      3.666      
  1.486      2.388      1.316      0.2161265  0.2161265  0.2757616  
  28.20619   1.643887   3.508      0.5288322  0.6038209  61.718     
  0.1807126  0.5296224  0.1807126 
1099.8     
  0.22       243.84     1          2          9.852      4.7        
  1.486      2.388      1.346      0.2014685  0.2014685  0.2635396  
  15.09539   1.643887   3.691      0.5109234  0.5916206  62.611     
  0.1880942  0.5296224  0.1880942 
1100       
  0.218      245.11     1          2          9.598      4.565      
  1.524      2.362      1.346      0.2002792  0.2002792  0.2635396  
  14.34879   2.211165   3.672      0.5072029  0.5895519  63.023     
  0.1916981  0.4692387  0.1916981 
1100.2     
  0.211      248.92     1          2          9.598      3.747      
  1.461      2.235      1.377      0.1858292  0.1858292  0.2509102  
  7.747576   2.211165   3.616      0.4701839  0.560878   63.627     
  0.1972152  0.4692387  0.1972152 
1100.4     
  0.211      248.92     1          2          9.954      3.747      
  1.334      2.032      1.374      0.1878525  0.1878525  0.2521324  
  8.445837   1.459385   3.616      0.4751575  0.56409    63.365     
  0.1947875  0.5560043  0.1947875 
1100.6     
  0.211      245.11     1          2          10.005     3.639      
  1.398      2.248      1.377      0.1873666  0.1873666  0.2509102  
  8.272608   1.37505    3.672      0.4777521  0.5657299  63.119     
  0.1925563  0.569684   0.1925563 
1100.8     
  0.209      243.84     1          2          10.005     3.803      
  1.398      2.248      1.356      0.195922   0.195922   0.2594656  
  11.91542   1.37505    3.691      0.4988863  0.5830672  63.119     
  0.1925563  0.569684   0.1925563 
1101       
  0.21       241.3      1          2          9.827      3.639      
  1.457      2.354      1.356      0.195922   0.195922   0.2594656  
  11.91542   1.692561   3.73       0.501352   0.5852526  63.119     
  0.1925563  0.5233495  0.1925563 
1101.2     
  0.212      234.95     1          2          9.624      3.534      
  1.512      2.451      1.356      0.195922   0.195922   0.2594656  
  11.91542   2.145073   3.831      0.5075648  0.5907563  63.119     
  0.1925563  0.4750893  0.1925563 
1101.4     
  0.212      234.95     1          2          9.497      3.534      
  1.423      2.184      1.338      0.2056144  0.2056144  0.2667988  
  18.01503   2.487806   3.831      0.5278445  0.6053836  62.294     
  0.1854073  0.4471869  0.1854073 
1101.6     
  0.212      219.71     1          2          9.243      3.432      
  1.41       2.299      1.342      0.2068257  0.2068257  0.2651692  
  18.97017   3.346302   4.096      0.5447686  0.6179417  61.214     
  0.1767985  0.3962021  0.1767985 
1101.8     
  0.217      194.31     6          6          9.243      3.534      
  1.88       2.362      1.346      0.2084776  0.2084776  0.2635396  
  20.35486   3.346302   4.632      0.5732628  0.6406403  59.817     
  0.1668547  0.3962021  0.1668547 
1102       
  0.219      176.53     6          6          8.836      5.283      
  1.88       2.362      1.394      0.1936358  0.1936358  0.2439844  
  10.80842   5.381048   5.098      0.56493    0.630508   57.404     
  0.1525715  0.3263449  0.1525715 
1102.2     
  0.228      152.4      6          6          8.125      14.49      
  1.372      2.108      1.473      0.1614512  0.1614512  0.2117998  
  2.739213   12.3385    5.906      0.5243002  0.5978113  57.404     
  0.1525715  0.2325495  0.1525715 
1102.4     
  0.228      152.4      6          6          7.617      14.49      
  1.969      2.629      1.473      0.1614512  0.1614512  0.2117998  
  2.739213   22.32336   5.906      0.5243002  0.5978113  57.404     
  0.1525715  0.1825453  0.1525715 
1102.6     
  0.228      154.94     6          6          8.303      10.896     
  1.893      3.023      1.493      0.1521728  0.1521728  0.2036518  
  1.844029   10.0239    5.809      0.4952282  0.5747187  58.039     
  0.1559969  0.2531381  0.1559969 
1102.8     
  0.23       163.83     1          2          8.303      8.133      
  1.728      2.68       1.457      0.1646091  0.1646091  0.2183182  
  3.134141   10.0239    5.493      0.5160726  0.5935662  59.182     
  0.1627547  0.2531381  0.1627547 
1103       
  0.222      175.26     1          2          8.786      6.071      
  1.728      2.68       1.318      0.2162834  0.2162834  0.2749468  
  28.39558   5.704418   5.135      0.606226   0.6720824  61.341     
  0.1777681  0.3186602  0.1777681 
1103.2     
  0.215      199.39     1          2          8.96       3.383      
  1.436      2.731      1.302      0.2228017  0.2228017  0.2814652  
  37.49615   4.656004   4.514      0.5923527  0.6592497  61.341     
  0.1777681  0.3462119  0.1777681 
1103.4     
  0.215      199.39     1          2          9.141      3.383      
  1.639      2.832      1.288      0.2273549  0.2273549  0.2871688  
  45.53251   3.769358   4.514      0.5994722  0.6660412  61.786     
  0.1812544  0.3774027  0.1812544 
1103.6     
  0.215      201.93     1          2          9.396      2.859      
  1.702      2.515      1.28       0.2307824  0.2307824  0.290428   
  52.6996    2.799056   4.457      0.6022935  0.6681973  61.722     
  0.1807444  0.4261715  0.1807444 
1103.8     
  0.215      195.58     1          2          9.548      3.586      
  1.207      2.146      1.272      0.2371868  0.2371868  0.2936872  
  69.25208   2.34404    4.602      0.6174535  0.6792865  60.452     
  0.1712134  0.4581895  0.1712134 
