~Version
 VERS              .         2.0                           : CWLS LOG ASCII STANDARD - VERSION 2.0
 WRAP              .         YES                            : ONE LINE PER DEPTH STEP
 DLM               .         SPACE                         : DELIMITING CHARACTER(SPACE TAB OR COMMA)
~Well Information
#_______________________________________________________________________________
#
#PARAMETER_NAME    .UNIT     VALUE                         : DESCRIPTION
#_______________________________________________________________________________
STRT               .M        880                           : First reference value
STOP               .M        1210                          : Last reference value
STEP               .M        0.2                           : Step increment
NULL               .         -9999                         : Missing value
COMP               .                                       : Company
WELL               .         5575                          : Well name
FLD                .         UZEN                          : Field
LOC                .                                       : Location
CNTY               .                                       : County
STAT               .                                       : State
CTRY               .                                       : Country
SRVC               .                                       : Service Company
DATE               .                                       : Date
UWI                .                                       : Unique Well ID
Block              .         7                             : 
Cartographic_reference_system .         GCS_WGS_1984                  : ESRI,PE_10_3_1- <?xml version="1.0" encoding="utf-16"?><ILateBoundCoordinateReferenceSystem name="GCS_WGS_1984"><AuthorityCode>EPSG,4326</AuthorityCode></ILateBoundCoordinateReferenceSystem>
Category           .         Нефтяная                      : 
Condition          .         В работе                      : 
EREF               .m        82.9                          : 100.8
Gorizont           .         14                            : 14
HZCS               .GCS_WGS_1984 WGS_1984_EASE-Grid_2.0_Global : ESRI,PE_10_3_1- <?xml version="1.0" encoding="utf-16"?><ILateBoundCoordinateReferenceSystem name="WGS_1984_EASE-Grid_2.0_Global"><AuthorityCode>EPSG,6933</AuthorityCode></ILateBoundCoordinateReferenceSystem>
Interpretator      .         Сагынбаева А.Н.               : 
Kupol              .         основной                      : osnovnoi
LATI               .dega     0.6568727471                  : GCS_WGS_1984
LONG               .dega     0.4417933813                  : GCS_WGS_1984
Mud                .         глинистый                     : 
Mud_density        .         1,22                          : 
Mud_resistivity    .         0                             : 
NGDU               .         НГДУ-2                        : 
ORIGINALWELLNAME   .         5575                          : 
Spud_date          .         1992                          : 1961
Viscosity          .         40                            : 
X                  .m        42627                         : 46154
Y                  .m        83797.63                      : 85761.93
YEAR               .         2019                          : 
~Parameter Information Block
#_______________________________________________________________________________
#
#PARAMETER_NAME    .UNIT     VALUE                         : DESCRIPTION
#_______________________________________________________________________________
SET                .         LQC_KAZNIPI_Petrel            : 
TLFamily_CALI      .         Caliper                       : 
TLFamily_CILD      .         Conductivity                  : 
TLFamily_COLL      .         Net Reservoir Flag            : 
TLFamily_CSAT      .         Fluid Code                    : 
TLFamily_DEPT      .         Measured Depth                : 
TLFamily_GR        .         Russian Gamma Ray             : 
TLFamily_LLS       .         Lateral Log Resistivity       : 
TLFamily_MINV      .         Micro Gradient Resistivity    : 
TLFamily_MNOR      .         Micro Resistivity             : 
TLFamily_NGLD      .         Neutron Gamma                 : 
TLFamily_PHIE      .         Effective Porosity            : 
TLFamily_PHIEN     .         Effective Porosity            : 
TLFamily_PHIT      .         Porosity                      : 
TLFamily_PRMB      .         Permeability                  : 
TLFamily_PRMB_DGR  .         Permeability                  : 
TLFamily_RT        .         Formation Resistivity         : 
TLFamily_SOIL_ARCHIE .         Oil Saturation                : 
TLFamily_SOIL_DW   .         Oil Saturation                : 
TLFamily_SP        .         Spontaneous Potential         : 
TLFamily_VSH_FIN   .         Shale Volume                  : 
TLFamily_VSH_GR    .         Shale Volume                  : 
TLFamily_VSH_SP    .         Shale Volume                  : 
~Curve Information
#_______________________________________________________________________________
#
#LOGNAME           .UNIT     LOG_ID                        : DESCRIPTION
#_______________________________________________________________________________
DEPT               .M                                      : Колонка глубины 
CALI               .м                                      : Каверномер 
CILD               .мСм/м                                  : Индукционный каротаж 
COLL               .unitless                               : Описание 
CSAT               .unitless                               :  
GR                 .uR/h                                   : Гамма каротаж 
LLS                .Ohmm                                   : Боковой каротаж 
MINV               .Ohmm                                   : Микро-градиент зонд 
MNOR               .Ohmm                                   : Микро-потенциал зонд 
NGLD               .у.е.                                   : Показания зонда НГК-60 аппаратуры ДРСТ-3-90 
PHIE               .v/v                                    : Описание 
PHIEN              .v/v                                    :  
PHIT               .v/v                                    : Описание 
PRMB               .mD                                     :  
PRMB_DGR           .mD                                     :  
RT                 .ohmm                                   : УЭС пласта 
SOIL_ARCHIE        .v/v                                    :  
SOIL_DW            .v/v                                    :  
SP                 .мВ                                     : Потенциал самополяризации 
VSH_FIN            .v/v                                    : Описание 
VSH_GR             .v/v                                    : Shale volume 
VSH_SP             .v/v                                    : Shale Volume 
~Ascii
# ...
1033.6     
  0.292      368.3      -9999      -9999      7.998      3.309      
  2.452      2.959      1.265      0.1397688  0.1397688  0.296539   
  1.086462   2.943096   2.444      0.1839819  0.4589685  81.788     
  0.4750613  0.4175281  0.5325946 
1033.8     
  0.27       354.33     -9999      -9999      7.871      3.803      
  2.972      3.111      1.27       0.1408491  0.1408491  0.294502   
  1.137691   3.296499   2.54       0.2039588  0.4685731  81.788     
  0.465615   0.3986354  0.5325946 
1034       
  0.242      342.9      -9999      -9999      8.074      2.088      
  2.629      1.638      1.242      0.1472033  0.1472033  0.3059092  
  1.491832   2.75       2.625      0.245713   0.4979126  81.788     
  0.4809271  0.4292595  0.5325946 
1034.2     
  0.251      349.25     -9999      -9999      8.659      2.088      
  2.629      1.638      1.211      0.1442255  0.1442255  0.3185386  
  1.313904   1.631097   2.577      0.2254884  0.5020146  81.534     
  0.5282217  0.5313144  0.5251289 
1034.4     
  0.251      349.25     -9999      -9999      8.709      1.983      
  2.21       1.613      1.244      0.130385   0.130385   0.3050944  
  0.7281231  1.559879   2.577      0.154355   0.4687598  81.28      
  0.5294225  0.541089   0.517756  
1034.6     
  0.251      342.9      -9999      -9999      8.709      2.103      
  1.918      1.803      1.244      0.1321814  0.1321814  0.3050944  
  0.7860996  1.559879   2.625      0.1715787  0.4763008  80.899     
  0.5239789  0.541089   0.506869  
1034.8     
  0.259      332.74     -9999      -9999      8.481      2.263      
  3.391      2.146      1.252      0.1360438  0.1360438  0.3018352  
  0.9268705  1.912076   2.705      0.2034029  0.4861673  80.899     
  0.5023983  0.4979275  0.506869  
1035       
  0.265      322.58     -9999      -9999      8.176      2.944      
  3.277      3.073      1.265      0.1393942  0.1393942  0.296539   
  1.069244   2.51061    2.79       0.2313461  0.4931113  80.899     
  0.4761964  0.4455238  0.506869  
1035.2     
  0.262      302.26     -9999      -9999      7.871      2.944      
  3.277      3.073      1.272      0.1448703  0.1448703  0.2936872  
  1.350538   3.296499   2.978      0.2791149  0.5136209  80.772     
  0.4509605  0.3986354  0.5032856 
1035.4     
  0.262      302.26     -9999      -9999      6.347      3.534      
  3.785      3.874      1.321      0.1523564  0.1523564  0.2737246  
  1.858524   12.85388   2.978      0.3100648  0.5020663  80.899     
  0.3677824  0.228696   0.506869  
1035.6     
  0.262      292.1      -9999      -9999      6.347      3.561      
  3.366      3.124      1.321      0.1499537  0.1499537  0.2737246  
  1.677506   12.85388   3.081      0.3115199  0.5073928  81.407     
  0.3750634  0.228696   0.5214309 
1035.8     
  0.252      281.94     -9999      -9999      6.017      3.973      
  4.026      4.521      1.338      0.1473055  0.1473055  0.2667988  
  1.498353   17.25848   3.192      0.3122704  0.5049906  81.407     
  0.3621007  0.2027705  0.5214309 
1036       
  0.242      278.13     -9999      -9999      5.839      3.333      
  3.468      2.311      1.29       0.1689632  0.1689632  0.286354   
  3.773686   20.2315    3.236      0.3936234  0.5538262  81.407     
  0.3557298  0.1900288  0.5214309 
1036.2     
  0.24       306.07     -9999      -9999      6.627      3.333      
  3.468      2.311      1.222      0.1850063  0.1850063  0.3140572  
  7.480371   10.01049   2.941      0.4139799  0.5729895  81.661     
  0.3910634  0.2532766  0.5288503 
1036.4     
  0.24       306.07     -9999      -9999      8.201      2.488      
  3.836      2.032      1.13       0.1882281  0.1882281  0.351538   
  8.582221   2.455186   2.941      0.4227259  0.60388    82.042     
  0.4948784  0.4496035  0.5401533 
1036.6     
  0.24       328.93     -9999      -9999      8.201      2.166      
  2.198      1.778      1.13       0.1843933  0.1843933  0.351538   
  7.287345   2.455186   2.736      0.392015   0.5860026  82.804     
  0.5064991  0.4496035  0.5633947 
1036.8     
  0.248      345.44     -9999      -9999      9.014      1.969      
  2.21       1.651      1.148      0.1514637  0.1514637  0.3442048  
  1.789092   1.188002   2.605      0.2615802  0.5367154  82.804     
  0.584064   0.6047333  0.5633947 
1037       
  0.259      360.68     -9999      -9999      9.267      1.926      
  2.261      1.537      1.146      0.1426363  0.1426363  0.3450196  
  1.227804   0.9477802  2.495      0.2060211  0.5167096  82.804     
  0.6132826  0.6631704  0.5633947 
1037.2     
  0.284      387.35     -9999      -9999      9.522      1.926      
  2.261      1.537      1.143      0.1331972  0.1331972  0.3462418  
  0.8209044  0.7547846  2.323      0.1285065  0.4876868  82.804     
  0.6455898  0.7277849  0.5633947 
1037.4     
  0.284      387.35     -9999      -9999      9.751      1.926      
  2.49       1.46       1.128      0.1281985  0.1281985  0.3523528  
  0.6632921  0.6152063  2.323      0.09898404 0.4864644  82.931     
  0.6792555  0.7911595  0.5673515 
1037.6     
  0.284      396.24     -9999      -9999      9.395      1.94       
  2.121      1.613      1.191      0.1197245  0.1197245  0.3266866  
  0.4621119  0.8454177  2.271      0.03347453 0.4412484  82.677     
  0.6271577  0.6948536  0.5594619 
1037.8     
  0.283      394.97     -9999      -9999      9.395      2.088      
  2.325      2.045      1.191      0.1197245  0.1197245  0.3266866  
  0.4621119  0.8454177  2.279      0.03506816 0.44223    82.677     
  0.6271577  0.6948536  0.5594619 
1038       
  0.279      392.43     -9999      -9999      9.04       2.119      
  2.185      1.105      1.191      0.133644   0.133644   0.3266866  
  0.8366994  1.160739   2.293      0.1257285  0.4655266  82.677     
  0.5849776  0.6104932  0.5594619 
1038.2     
  0.276      396.24     -9999      -9999      8.532      2.119      
  2.185      1.105      1.178      0.1559716  0.1559716  0.3319828  
  2.168353   1.826957   2.271      0.2323315  0.4980498  82.677     
  0.5333674  0.5072729  0.5594619 
1038.4     
  0.276      396.24     -9999      -9999      8.227      1.899      
  1.245      1.689      1.173      0.1674624  0.1674624  0.3340198  
  3.539714   2.398845   2.271      0.2784178  0.5133296  82.55      
  0.5047194  0.4538858  0.5555529 
1038.6     
  0.276      383.54     -9999      -9999      7.922      2.279      
  2.286      1.791      1.194      0.1493403  0.1493403  0.3254644  
  1.634189   1.691757   2.347      0.2149474  0.491843   82.169     
  0.5337095  0.5234511  0.5439678 
1038.8     
  0.266      364.49     -9999      -9999      7.922      2.507      
  2.909      2.095      1.194      0.1493403  0.1493403  0.3254644  
  1.634189   1.691757   2.469      0.2333958  0.5045567  82.169     
  0.5337095  0.5234511  0.5439678 
1039       
  0.251      355.6      -9999      -9999      7.693      2.23       
  2.198      2.07       1.196      0.1559599  0.1559599  0.3246496  
  2.16727    2.108962   2.531      0.2703551  0.517883   82.169     
  0.5111811  0.4783944  0.5439678 
1039.2     
  0.244      336.55     -9999      -9999      7.49       2.23       
  2.198      2.07       1.189      0.16612    0.16612    0.3275014  
  3.342746   2.564074   2.674      0.3269635  0.5446223  81.915     
  0.4890346  0.4417069  0.5363623 
1039.4     
  0.244      336.55     -9999      -9999      7.541      2.88       
  2.007      2.451      1.204      0.159155   0.159155   0.3213904  
  2.483672   2.441241   2.674      0.3013819  0.5316616  81.788     
  0.4916225  0.4506505  0.5325946 
1039.6     
  0.244      322.58     -9999      -9999      6.83       2.923      
  3.01       2.667      1.234      0.1650618  0.1650618  0.3091684  
  3.195233   4.839894   2.79       0.3365605  0.5370423  81.788     
  0.4366868  0.340779   0.5325946 
1039.8     
  0.243      308.61     -9999      -9999      6.373      3.19       
  2.96       2.896      1.298      0.148233   0.148233   0.2830948  
  1.558808   7.514141   2.916      0.2863682  0.5016925  81.788     
  0.4086722  0.2847498  0.5325946 
