~Version
 VERS              .         2.0                           : CWLS LOG ASCII STANDARD - VERSION 2.0
 WRAP              .         YES                            : ONE LINE PER DEPTH STEP
 DLM               .         SPACE                         : DELIMITING CHARACTER(SPACE TAB OR COMMA)
~Well Information
#_______________________________________________________________________________
#
#PARAMETER_NAME    .UNIT     VALUE                         : DESCRIPTION
#_______________________________________________________________________________
STRT               .M        880                           : First reference value
STOP               .M        1210                          : Last reference value
STEP               .M        0.2                           : Step increment
NULL               .         -9999                         : Missing value
COMP               .                                       : Company
WELL               .         5575                          : Well name
FLD                .         UZEN                          : Field
LOC                .                                       : Location
CNTY               .                                       : County
STAT               .                                       : State
CTRY               .                                       : Country
SRVC               .                                       : Service Company
DATE               .                                       : Date
UWI                .                                       : Unique Well ID
Block              .         7                             : 
Cartographic_reference_system .         GCS_WGS_1984                  : ESRI,PE_10_3_1- <?xml version="1.0" encoding="utf-16"?><ILateBoundCoordinateReferenceSystem name="GCS_WGS_1984"><AuthorityCode>EPSG,4326</AuthorityCode></ILateBoundCoordinateReferenceSystem>
Category           .         Нефтяная                      : 
Condition          .         В работе                      : 
EREF               .m        82.9                          : 100.8
Gorizont           .         14                            : 14
HZCS               .GCS_WGS_1984 WGS_1984_EASE-Grid_2.0_Global : ESRI,PE_10_3_1- <?xml version="1.0" encoding="utf-16"?><ILateBoundCoordinateReferenceSystem name="WGS_1984_EASE-Grid_2.0_Global"><AuthorityCode>EPSG,6933</AuthorityCode></ILateBoundCoordinateReferenceSystem>
Interpretator      .         Сагынбаева А.Н.               : 
Kupol              .         основной                      : osnovnoi
LATI               .dega     0.6568727471                  : GCS_WGS_1984
LONG               .dega     0.4417933813                  : GCS_WGS_1984
Mud                .         глинистый                     : 
Mud_density        .         1,22                          : 
Mud_resistivity    .         0                             : 
NGDU               .         НГДУ-2                        : 
ORIGINALWELLNAME   .         5575                          : 
Spud_date          .         1992                          : 1961
Viscosity          .         40                            : 
X                  .m        42627                         : 46154
Y                  .m        83797.63                      : 85761.93
YEAR               .         2019                          : 
~Parameter Information Block
#_______________________________________________________________________________
#
#PARAMETER_NAME    .UNIT     VALUE                         : DESCRIPTION
#_______________________________________________________________________________
SET                .         LQC_KAZNIPI_Petrel            : 
TLFamily_CALI      .         Caliper                       : 
TLFamily_CILD      .         Conductivity                  : 
TLFamily_COLL      .         Net Reservoir Flag            : 
TLFamily_CSAT      .         Fluid Code                    : 
TLFamily_DEPT      .         Measured Depth                : 
TLFamily_GR        .         Russian Gamma Ray             : 
TLFamily_LLS       .         Lateral Log Resistivity       : 
TLFamily_MINV      .         Micro Gradient Resistivity    : 
TLFamily_MNOR      .         Micro Resistivity             : 
TLFamily_NGLD      .         Neutron Gamma                 : 
TLFamily_PHIE      .         Effective Porosity            : 
TLFamily_PHIEN     .         Effective Porosity            : 
TLFamily_PHIT      .         Porosity                      : 
TLFamily_PRMB      .         Permeability                  : 
TLFamily_PRMB_DGR  .         Permeability                  : 
TLFamily_RT        .         Formation Resistivity         : 
TLFamily_SOIL_ARCHIE .         Oil Saturation                : 
TLFamily_SOIL_DW   .         Oil Saturation                : 
TLFamily_SP        .         Spontaneous Potential         : 
TLFamily_VSH_FIN   .         Shale Volume                  : 
TLFamily_VSH_GR    .         Shale Volume                  : 
TLFamily_VSH_SP    .         Shale Volume                  : 
~Curve Information
#_______________________________________________________________________________
#
#LOGNAME           .UNIT     LOG_ID                        : DESCRIPTION
#_______________________________________________________________________________
DEPT               .M                                      : Колонка глубины 
CALI               .м                                      : Каверномер 
CILD               .мСм/м                                  : Индукционный каротаж 
COLL               .unitless                               : Описание 
CSAT               .unitless                               :  
GR                 .uR/h                                   : Гамма каротаж 
LLS                .Ohmm                                   : Боковой каротаж 
MINV               .Ohmm                                   : Микро-градиент зонд 
MNOR               .Ohmm                                   : Микро-потенциал зонд 
NGLD               .у.е.                                   : Показания зонда НГК-60 аппаратуры ДРСТ-3-90 
PHIE               .v/v                                    : Описание 
PHIEN              .v/v                                    :  
PHIT               .v/v                                    : Описание 
PRMB               .mD                                     :  
PRMB_DGR           .mD                                     :  
RT                 .ohmm                                   : УЭС пласта 
SOIL_ARCHIE        .v/v                                    :  
SOIL_DW            .v/v                                    :  
SP                 .мВ                                     : Потенциал самополяризации 
VSH_FIN            .v/v                                    : Описание 
VSH_GR             .v/v                                    : Shale volume 
VSH_SP             .v/v                                    : Shale Volume 
~Ascii
# ...
944        
  0.232      278.13     -9999      -9999      6.22       2.838      
  2.274      1.93       1.257      0.103964   0.103964   0.2997982  
  0.2359519  1.547326   3.236      0.07437672 0.4799282  87.376     
  0.593437   0.5428772  0.6439968 
944.2000000000001 
  0.233      289.56     -9999      -9999      6.246      2.638      
  0.801      1.346      1.244      0.1085217  0.1085217  0.3050944  
  0.2865783  1.516523   3.108      0.09127967 0.4831538  87.376     
  0.5956749  0.5473529  0.6439968 
944.4      
  0.237      298.45     -9999      -9999      6.246      2.296      
  3.734      2.858      1.244      0.1085217  0.1085217  0.3050944  
  0.2865783  1.516523   3.016      0.07837558 0.4753301  87.376     
  0.5956749  0.5473529  0.6439968 
944.6      
  0.241      273.05     -9999      -9999      6.271      3.167      
  1.956      1.702      1.25       0.1060886  0.1060886  0.30265    
  0.2583306  1.487484   3.296      0.09834944 0.4914546  87.249     
  0.5956407  0.5516914  0.63959   
944.8      
  0.242      274.32     -9999      -9999      6.195      3.408      
  1.956      1.702      1.272      0.09855739 0.09855739 0.2936872  
  0.1873614  1.577533   3.281      0.03656941 0.4667231  87.376     
  0.5913025  0.5386082  0.6439968 
945        
  0.242      274.32     -9999      -9999      5.941      3.408      
  0.801      1.842      1.232      0.1217034  0.1217034  0.3099832  
  0.5028068  1.919952   3.281      0.1982679  0.5220213  87.376     
  0.5705447  0.4970926  0.6439968 
945.2000000000001 
  0.235      289.56     -9999      -9999      5.839      2.658      
  1.944      2.273      1.196      0.1393309  0.1393309  0.3246496  
  1.066362   2.07754    3.108      0.2690209  0.5461143  87.313     
  0.5615718  0.4813358  0.6418077 
945.4      
  0.233      289.56     -9999      -9999      5.839      2.817      
  2.375      1.511      1.196      0.1396969  0.1396969  0.3246496  
  1.083135   2.07754    3.108      0.2706888  0.546555   87.249     
  0.5604629  0.4813358  0.63959   
945.6      
  0.24       287.02     -9999      -9999      6.093      3.457      
  1.004      1.118      1.173      0.1431571  0.1431571  0.3340198  
  1.255379   1.707016   3.136      0.2890646  0.5605993  87.122     
  0.5783719  0.5215354  0.6352084 
945.8      
  0.242      320.04     -9999      -9999      6.449      2.901      
  1.004      1.118      1.196      0.1235477  0.1235477  0.3246496  
  0.5439532  1.296184   2.812      0.1492995  0.5014574  87.122     
  0.6093997  0.5835909  0.6352084 
946        
  0.242      320.04     -9999      -9999      6.982      2.901      
  0.674      1.118      1.107      0.1421546  0.1421546  0.3609082  
  1.202834   0.8583146  2.812      0.2471422  0.5570657  87.122     
  0.6628898  0.6905712  0.6352084 
946.2000000000001 
  0.235      344.17     -9999      -9999      7.109      2.198      
  0.585      0.902      1.12       0.1321956  0.1321956  0.355612   
  0.7865783  0.7780198  2.615      0.1701716  0.5240646  87.122     
  0.6770193  0.7188302  0.6352084 
946.4      
  0.24       363.22     -9999      -9999      7.109      1.752      
  1.372      1.435      1.12       0.1321956  0.1321956  0.355612   
  0.7865783  0.7780198  2.478      0.1489498  0.5110852  87.122     
  0.6770193  0.7188302  0.6352084 
946.6      
  0.255      358.14     -9999      -9999      6.957      2.134      
  0.928      1.334      1.1        0.1444523  0.1444523  0.36376    
  1.326676   0.8750712  2.513      0.217366   0.5365015  87.376     
  0.6645688  0.6851407  0.6439968 
946.8      
  0.278      358.14     -9999      -9999      6.728      2.382      
  0.928      1.334      1.082      0.1589409  0.1589409  0.3710932  
  2.461099   1.04462    2.513      0.2798807  0.5580752  87.503     
  0.6428857  0.6373425  0.648429  
947        
  0.278      358.14     -9999      -9999      6.119      2.382      
  0.623      1.041      1.072      0.1814136  0.1814136  0.3751672  
  6.417677   1.673035   2.513      0.3582262  0.5823549  87.503     
  0.5871321  0.5258352  0.648429  
947.2000000000001 
  0.284      391.16     -9999      -9999      6.042      2.013      
  0.534      0.991      1.072      0.1827624  0.1827624  0.3751672  
  6.797686   1.775689   2.301      0.3354287  0.5647714  87.63      
  0.5830448  0.513203   0.6528866 
947.4      
  0.285      411.48     -9999      -9999      6.042      1.664      
  0.902      1.6        1.072      0.1827624  0.1827624  0.3751672  
  6.797686   1.775689   2.187      0.3193918  0.5535721  87.63      
  0.5830448  0.513203   0.6528866 
947.6      
  0.296      392.43     -9999      -9999      6.449      1.858      
  0.775      1.575      1.077      0.1691114  0.1691114  0.3731302  
  3.79762    1.296184   2.293      0.2877792  0.5494831  87.63      
  0.6182387  0.5835909  0.6528866 
947.8      
  0.291      365.76     -9999      -9999      6.373      2.434      
  0.775      1.575      1.115      0.1559137  0.1559137  0.357649   
  2.163011   1.374653   2.461      0.2604981  0.539671   87.63      
  0.6113189  0.5697513  0.6528866 
948        
  0.291      365.76     -9999      -9999      6.449      2.434      
  0.737      1.245      1.161      0.1348898  0.1348898  0.3389086  
  0.8823575  1.296184   2.461      0.1610679  0.4977001  87.63      
  0.6182387  0.5835909  0.6528866 
948.2000000000001 
  0.28       361.95     -9999      -9999      6.525      2.562      
  0.915      1.422      1.176      0.1264398  0.1264398  0.3327976  
  0.61536    1.222195   2.487      0.1168086  0.482556   87.63      
  0.6253268  0.5977668  0.6528866 
948.4      
  0.277      361.95     -9999      -9999      6.525      2.399      
  1.423      1.486      1.176      0.1264398  0.1264398  0.3327976  
  0.61536    1.222195   2.487      0.1168086  0.482556   87.63      
  0.6253268  0.5977668  0.6528866 
948.6      
  0.275      339.09     -9999      -9999      6.804      2.417      
  1.207      1.956      1.184      0.1133564  0.1133564  0.3295384  
  0.3522032  0.9849903  2.654      0.05783756 0.4760812  87.757     
  0.655097   0.652824   0.65737   
948.8      
  0.272      331.47     -9999      -9999      6.931      2.619      
  1.207      1.956      1.191      0.1060967  0.1060967  0.3266866  
  0.2584205  0.8928446  2.715      0.0125177  0.4670168  87.757     
  0.6684542  0.6795384  0.65737   
949        
  0.272      331.47     -9999      -9999      6.855      2.619      
  0.801      1.524      1.171      0.1169037  0.1169037  0.3348346  
  0.4097305  0.9468961  2.715      0.09251528 0.4928299  87.757     
  0.6603966  0.6634232  0.65737   
949.2000000000001 
  0.268      336.55     -9999      -9999      6.804      2.399      
  0.775      1.13       1.189      0.1105755  0.1105755  0.3275014  
  0.3128123  0.9849903  2.674      0.04061943 0.4713913  87.884     
  0.6573513  0.652824   0.6618786 
949.4      
  0.27       339.09     -9999      -9999      6.804      2.072      
  0.915      2.108      1.189      0.1098273  0.1098273  0.3275014  
  0.3029884  0.9849903  2.654      0.03152387 0.4681572  88.011     
  0.6596185  0.652824   0.6664129 
949.6      
  0.273      317.5      -9999      -9999      6.703      2.347      
  1.715      2.083      1.191      0.1116415  0.1116415  0.3266866  
  0.3273634  1.065013   2.835      0.07435118 0.4874911  88.138     
  0.6516517  0.6323305  0.670973  
949.8      
  0.268      312.42     -9999      -9999      6.423      2.382      
  1.715      2.083      1.171      0.1286189  0.1286189  0.3348346  
  0.675294   1.322512   2.881      0.1878793  0.5240427  88.138     
  0.6248959  0.5788189  0.670973  
950        
  0.268      312.42     -9999      -9999      5.636      2.382      
  3.252      2.337      1.224      0.1280431  0.1280431  0.3132424  
  0.65891    2.4307     2.881      0.184699   0.5025693  88.138     
  0.5612102  0.4514474  0.670973  
950.2000000000001 
  0.264      309.88     -9999      -9999      5.585      2.838      
  1.461      1.41       1.239      0.1238745  0.1238745  0.3071314  
  0.5515881  2.528489   2.904      0.1639802  0.4922094  88.011     
  0.5553239  0.4442348  0.6664129 
