~Version
 VERS              .         2.0                           : CWLS LOG ASCII STANDARD - VERSION 2.0
 WRAP              .         YES                            : ONE LINE PER DEPTH STEP
 DLM               .         SPACE                         : DELIMITING CHARACTER(SPACE TAB OR COMMA)
~Well Information
#_______________________________________________________________________________
#
#PARAMETER_NAME    .UNIT     VALUE                         : DESCRIPTION
#_______________________________________________________________________________
STRT               .M        880                           : First reference value
STOP               .M        1210                          : Last reference value
STEP               .M        0.2                           : Step increment
NULL               .         -9999                         : Missing value
COMP               .                                       : Company
WELL               .         5575                          : Well name
FLD                .         UZEN                          : Field
LOC                .                                       : Location
CNTY               .                                       : County
STAT               .                                       : State
CTRY               .                                       : Country
SRVC               .                                       : Service Company
DATE               .                                       : Date
UWI                .                                       : Unique Well ID
Block              .         7                             : 
Cartographic_reference_system .         GCS_WGS_1984                  : ESRI,PE_10_3_1- <?xml version="1.0" encoding="utf-16"?><ILateBoundCoordinateReferenceSystem name="GCS_WGS_1984"><AuthorityCode>EPSG,4326</AuthorityCode></ILateBoundCoordinateReferenceSystem>
Category           .         Нефтяная                      : 
Condition          .         В работе                      : 
EREF               .m        82.9                          : 100.8
Gorizont           .         14                            : 14
HZCS               .GCS_WGS_1984 WGS_1984_EASE-Grid_2.0_Global : ESRI,PE_10_3_1- <?xml version="1.0" encoding="utf-16"?><ILateBoundCoordinateReferenceSystem name="WGS_1984_EASE-Grid_2.0_Global"><AuthorityCode>EPSG,6933</AuthorityCode></ILateBoundCoordinateReferenceSystem>
Interpretator      .         Сагынбаева А.Н.               : 
Kupol              .         основной                      : osnovnoi
LATI               .dega     0.6568727471                  : GCS_WGS_1984
LONG               .dega     0.4417933813                  : GCS_WGS_1984
Mud                .         глинистый                     : 
Mud_density        .         1,22                          : 
Mud_resistivity    .         0                             : 
NGDU               .         НГДУ-2                        : 
ORIGINALWELLNAME   .         5575                          : 
Spud_date          .         1992                          : 1961
Viscosity          .         40                            : 
X                  .m        42627                         : 46154
Y                  .m        83797.63                      : 85761.93
YEAR               .         2019                          : 
~Parameter Information Block
#_______________________________________________________________________________
#
#PARAMETER_NAME    .UNIT     VALUE                         : DESCRIPTION
#_______________________________________________________________________________
SET                .         LQC_KAZNIPI_Petrel            : 
TLFamily_CALI      .         Caliper                       : 
TLFamily_CILD      .         Conductivity                  : 
TLFamily_COLL      .         Net Reservoir Flag            : 
TLFamily_CSAT      .         Fluid Code                    : 
TLFamily_DEPT      .         Measured Depth                : 
TLFamily_GR        .         Russian Gamma Ray             : 
TLFamily_LLS       .         Lateral Log Resistivity       : 
TLFamily_MINV      .         Micro Gradient Resistivity    : 
TLFamily_MNOR      .         Micro Resistivity             : 
TLFamily_NGLD      .         Neutron Gamma                 : 
TLFamily_PHIE      .         Effective Porosity            : 
TLFamily_PHIEN     .         Effective Porosity            : 
TLFamily_PHIT      .         Porosity                      : 
TLFamily_PRMB      .         Permeability                  : 
TLFamily_PRMB_DGR  .         Permeability                  : 
TLFamily_RT        .         Formation Resistivity         : 
TLFamily_SOIL_ARCHIE .         Oil Saturation                : 
TLFamily_SOIL_DW   .         Oil Saturation                : 
TLFamily_SP        .         Spontaneous Potential         : 
TLFamily_VSH_FIN   .         Shale Volume                  : 
TLFamily_VSH_GR    .         Shale Volume                  : 
TLFamily_VSH_SP    .         Shale Volume                  : 
~Curve Information
#_______________________________________________________________________________
#
#LOGNAME           .UNIT     LOG_ID                        : DESCRIPTION
#_______________________________________________________________________________
DEPT               .M                                      : Колонка глубины 
CALI               .м                                      : Каверномер 
CILD               .мСм/м                                  : Индукционный каротаж 
COLL               .unitless                               : Описание 
CSAT               .unitless                               :  
GR                 .uR/h                                   : Гамма каротаж 
LLS                .Ohmm                                   : Боковой каротаж 
MINV               .Ohmm                                   : Микро-градиент зонд 
MNOR               .Ohmm                                   : Микро-потенциал зонд 
NGLD               .у.е.                                   : Показания зонда НГК-60 аппаратуры ДРСТ-3-90 
PHIE               .v/v                                    : Описание 
PHIEN              .v/v                                    :  
PHIT               .v/v                                    : Описание 
PRMB               .mD                                     :  
PRMB_DGR           .mD                                     :  
RT                 .ohmm                                   : УЭС пласта 
SOIL_ARCHIE        .v/v                                    :  
SOIL_DW            .v/v                                    :  
SP                 .мВ                                     : Потенциал самополяризации 
VSH_FIN            .v/v                                    : Описание 
VSH_GR             .v/v                                    : Shale volume 
VSH_SP             .v/v                                    : Shale Volume 
~Ascii
# ...
1008       
  0.332      515.62     -9999      -9999      8.43       1.582      
  0.534      1.283      1.084      0.2123005  0.2123005  0.3702784  
  23.95951   2.001162   1.745      0.3358866  0.524733   79.502     
  0.478721   0.4887543  0.4686876 
1008.2     
  0.334      513.08     -9999      -9999      8.43       1.559      
  1.944      0.838      1.084      0.2111881  0.2111881  0.3702784  
  22.8494    2.001162   1.754      0.3344497  0.5249671  79.756     
  0.4820917  0.4887543  0.4754291 
1008.4     
  0.336      508        -9999      -9999      8.786      1.617      
  1.575      1.13       1.107      0.1906407  0.1906407  0.3609082  
  9.512324   1.456234   1.772      0.2758687  0.5002937  79.756     
  0.5159621  0.5564951  0.4754291 
1008.6     
  0.33       516.89     -9999      -9999      8.633      1.702      
  1.055      1.219      1.097      0.2002546  0.2002546  0.3649822  
  14.33376   1.669407   1.741      0.3004728  0.508835   79.629     
  0.4991744  0.5263015  0.4720473 
1008.8     
  0.324      521.97     -9999      -9999      8.481      1.702      
  1.321      1.829      1.087      0.2090103  0.2090103  0.3690562  
  20.82269   1.912076   1.724      0.322955   0.5179214  79.629     
  0.4849874  0.4979275  0.4720473 
1009       
  0.324      521.97     -9999      -9999      8.76       1.652      
  1.321      1.829      1.082      0.20225    0.20225    0.3710932  
  15.60699   1.490437   1.724      0.3032867  0.5132722  79.629     
  0.511646   0.5512446  0.4720473 
1009.2     
  0.322      521.97     -9999      -9999      8.76       1.582      
  0.953      1.448      1.082      0.2011304  0.2011304  0.3710932  
  14.87922   1.490437   1.724      0.2999099  0.5122129  79.883     
  0.5150389  0.5512446  0.4788332 
1009.4     
  0.322      520.7      -9999      -9999      9.09       1.593      
  0.966      1.372      1.046      0.2024606  0.2024606  0.3857596  
  15.74781   1.110057   1.728      0.3046746  0.5253847  80.264     
  0.5554514  0.6217247  0.4891781 
1009.6     
  0.322      523.24     -9999      -9999      9.09       1.605      
  0.953      1.105      1.044      0.2026991  0.2026991  0.3865744  
  15.90877   1.110057   1.72       0.3038728  0.5251127  80.391     
  0.5571979  0.6217247  0.4926712 
1009.8     
  0.32       529.59     -9999      -9999      9.116      1.605      
  1.093      1.092      1.049      0.2002613  0.2002613  0.3845374  
  14.33784   1.084584   1.699      0.2924311  0.518383   80.264     
  0.5584123  0.6276464  0.4891781 
1010       
  0.32       529.59     -9999      -9999      8.989      1.593      
  1.093      1.092      1.041      0.2082066  0.2082066  0.3877966  
  20.12096   1.214818   1.699      0.3160065  0.5280611  80.264     
  0.5442122  0.5992463  0.4891781 
1010.2     
  0.319      530.86     -9999      -9999      8.989      1.605      
  1.207      1.118      1.041      0.2082066  0.2082066  0.3877966  
  20.12096   1.214818   1.695      0.3152496  0.5275046  80.264     
  0.5442122  0.5992463  0.4891781 
1010.4     
  0.313      532.13     -9999      -9999      8.913      1.559      
  1.105      1.105      1.052      0.205271   0.205271   0.3833152  
  17.75311   1.300119   1.691      0.3059594  0.5209338  80.518     
  0.5395279  0.5828692  0.4961866 
1010.6     
  0.308      539.75     -9999      -9999      8.836      1.57       
  1.042      1.168      1.064      0.2030446  0.2030446  0.3784264  
  16.14497   1.392651   1.667      0.2946204  0.5116326  80.518     
  0.5314599  0.5667331  0.4961866 
1010.8     
  0.305      544.83     -9999      -9999      8.913      1.57       
  1.156      1.143      1.069      0.1977614  0.1977614  0.3763894  
  12.88781   1.300119   1.652      0.2751679  0.5027196  80.645     
  0.541297   0.5828692  0.4997247 
1011       
  0.305      544.83     -9999      -9999      8.989      1.514      
  1.156      1.143      1.054      0.2011702  0.2011702  0.3825004  
  14.90452   1.214818   1.652      0.2858768  0.5108517  80.645     
  0.5494854  0.5992463  0.4997247 
1011.2     
  0.312      533.4      -9999      -9999      9.065      1.47       
  0.915      1.168      1.064      0.1943181  0.1943181  0.3784264  
  11.12757   1.135116   1.687      0.2711994  0.5061773  80.645     
  0.557904   0.6160833  0.4997247 
1011.4     
  0.318      515.62     -9999      -9999      9.065      1.714      
  0.648      1.194      1.064      0.1931393  0.1931393  0.3784264  
  10.58196   1.135116   1.745      0.2788571  0.5133104  80.899     
  0.5614761  0.6160833  0.506869  
1011.6     
  0.303      513.08     -9999      -9999      9.065      1.764      
  1.474      2.54       1.069      0.1928649  0.1928649  0.3763894  
  10.45883   1.135116   1.754      0.2797045  0.5126825  80.518     
  0.5561349  0.6160833  0.4961866 
1011.8     
  0.288      513.08     -9999      -9999      8.709      1.764      
  0.788      1.587      1.069      0.2040676  0.2040676  0.3763894  
  16.86494   1.559879   1.754      0.3142684  0.5232682  80.772     
  0.5221873  0.541089   0.5032856 
1012       
  0.288      513.08     -9999      -9999      8.201      1.689      
  0.788      1.587      1.034      0.2334217  0.2334217  0.3906484  
  58.97857   2.455186   1.754      0.3900151  0.557992   80.772     
  0.4764445  0.4496035  0.5032856 
1012.2     
  0.279      501.65     -9999      -9999      8.151      1.559      
  0.788      1.295      1.057      0.2253916  0.2253916  0.3812782  
  41.87532   2.567282   1.794      0.3777497  0.5502856  80.772     
  0.4723835  0.4414814  0.5032856 
1012.4     
  0.285      487.68     -9999      -9999      8.151      1.605      
  1.27       1.257      1.057      0.226563   0.226563   0.3812782  
  44.02038   2.567282   1.845      0.3886474  0.5574604  80.518     
  0.468834   0.4414814  0.4961866 
1012.6     
  0.293      459.74     -9999      -9999      8.278      1.714      
  1.232      1.27       1.077      0.2166917  0.2166917  0.3731302  
  28.89441   2.292056   1.958      0.381945   0.5570117  80.137     
  0.4740561  0.4624046  0.4857075 
1012.8     
  0.302      444.5      -9999      -9999      8.1        1.714      
  1.88       1.435      1.09       0.2178857  0.2178857  0.367834   
  30.404     2.686893   2.025      0.3945316  0.5615962  79.756     
  0.4543886  0.4333481  0.4754291 
1013       
  0.302      444.5      -9999      -9999      7.947      1.913      
  1.88       1.435      1.12       0.2095433  0.2095433  0.355612   
  21.30137   3.080219   2.025      0.3735901  0.5455791  79.756     
  0.4426325  0.409836   0.4754291 
1013.2     
  0.286      431.8      -9999      -9999      7.693      2.166      
  2.261      1.753      1.135      0.2110766  0.2110766  0.349501   
  22.74098   3.864367   2.084      0.3858877  0.5486851  79.375     
  0.4194678  0.3735859  0.4653498 
1013.4     
  0.272      419.1      -9999      -9999      7.693      2.279      
  2.566      2.146      1.135      0.2116237  0.2116237  0.349501   
  23.27787   3.864367   2.147      0.3957745  0.5558166  79.248     
  0.4178099  0.3735859  0.4620339 
1013.6     
  0.272      430.53     -9999      -9999      7.49       1.999      
  3.061      2.654      1.135      0.2138111  0.2138111  0.349501   
  25.55402   4.632318   2.09       0.3935526  0.5516524  79.756     
  0.4111814  0.3469337  0.4754291 
1013.8     
  0.279      435.61     -9999      -9999      7.338      1.999      
  2.35       2.667      1.107      0.2271775  0.2271775  0.3609082  
  45.1894    5.305685   2.066      0.4216238  0.5682924  80.01      
  0.4052445  0.3282298  0.4822592 
1014       
  0.279      435.61     -9999      -9999      7.693      1.676      
  2.35       2.667      1.1        0.2225455  0.2225455  0.36376    
  37.0887    3.864367   2.066      0.4111532  0.5667412  80.01      
  0.4279225  0.3735859  0.4822592 
1014.2     
  0.292      424.18     -9999      -9999      7.846      1.676      
  1.791      1.511      1.105      0.2164032  0.2164032  0.361723   
  28.54111   3.370913   2.122      0.4041481  0.5662201  80.137     
  0.4403629  0.3950183  0.4857075 
