~Version
 VERS              .         2.0                           : CWLS LOG ASCII STANDARD - VERSION 2.0
 WRAP              .         YES                            : ONE LINE PER DEPTH STEP
 DLM               .         SPACE                         : DELIMITING CHARACTER(SPACE TAB OR COMMA)
~Well Information
#_______________________________________________________________________________
#
#PARAMETER_NAME    .UNIT     VALUE                         : DESCRIPTION
#_______________________________________________________________________________
STRT               .M        880                           : First reference value
STOP               .M        1210                          : Last reference value
STEP               .M        0.2                           : Step increment
NULL               .         -9999                         : Missing value
COMP               .                                       : Company
WELL               .         5575                          : Well name
FLD                .         UZEN                          : Field
LOC                .                                       : Location
CNTY               .                                       : County
STAT               .                                       : State
CTRY               .                                       : Country
SRVC               .                                       : Service Company
DATE               .                                       : Date
UWI                .                                       : Unique Well ID
Block              .         7                             : 
Cartographic_reference_system .         GCS_WGS_1984                  : ESRI,PE_10_3_1- <?xml version="1.0" encoding="utf-16"?><ILateBoundCoordinateReferenceSystem name="GCS_WGS_1984"><AuthorityCode>EPSG,4326</AuthorityCode></ILateBoundCoordinateReferenceSystem>
Category           .         Нефтяная                      : 
Condition          .         В работе                      : 
EREF               .m        82.9                          : 100.8
Gorizont           .         14                            : 14
HZCS               .GCS_WGS_1984 WGS_1984_EASE-Grid_2.0_Global : ESRI,PE_10_3_1- <?xml version="1.0" encoding="utf-16"?><ILateBoundCoordinateReferenceSystem name="WGS_1984_EASE-Grid_2.0_Global"><AuthorityCode>EPSG,6933</AuthorityCode></ILateBoundCoordinateReferenceSystem>
Interpretator      .         Сагынбаева А.Н.               : 
Kupol              .         основной                      : osnovnoi
LATI               .dega     0.6568727471                  : GCS_WGS_1984
LONG               .dega     0.4417933813                  : GCS_WGS_1984
Mud                .         глинистый                     : 
Mud_density        .         1,22                          : 
Mud_resistivity    .         0                             : 
NGDU               .         НГДУ-2                        : 
ORIGINALWELLNAME   .         5575                          : 
Spud_date          .         1992                          : 1961
Viscosity          .         40                            : 
X                  .m        42627                         : 46154
Y                  .m        83797.63                      : 85761.93
YEAR               .         2019                          : 
~Parameter Information Block
#_______________________________________________________________________________
#
#PARAMETER_NAME    .UNIT     VALUE                         : DESCRIPTION
#_______________________________________________________________________________
SET                .         LQC_KAZNIPI_Petrel            : 
TLFamily_CALI      .         Caliper                       : 
TLFamily_CILD      .         Conductivity                  : 
TLFamily_COLL      .         Net Reservoir Flag            : 
TLFamily_CSAT      .         Fluid Code                    : 
TLFamily_DEPT      .         Measured Depth                : 
TLFamily_GR        .         Russian Gamma Ray             : 
TLFamily_LLS       .         Lateral Log Resistivity       : 
TLFamily_MINV      .         Micro Gradient Resistivity    : 
TLFamily_MNOR      .         Micro Resistivity             : 
TLFamily_NGLD      .         Neutron Gamma                 : 
TLFamily_PHIE      .         Effective Porosity            : 
TLFamily_PHIEN     .         Effective Porosity            : 
TLFamily_PHIT      .         Porosity                      : 
TLFamily_PRMB      .         Permeability                  : 
TLFamily_PRMB_DGR  .         Permeability                  : 
TLFamily_RT        .         Formation Resistivity         : 
TLFamily_SOIL_ARCHIE .         Oil Saturation                : 
TLFamily_SOIL_DW   .         Oil Saturation                : 
TLFamily_SP        .         Spontaneous Potential         : 
TLFamily_VSH_FIN   .         Shale Volume                  : 
TLFamily_VSH_GR    .         Shale Volume                  : 
TLFamily_VSH_SP    .         Shale Volume                  : 
~Curve Information
#_______________________________________________________________________________
#
#LOGNAME           .UNIT     LOG_ID                        : DESCRIPTION
#_______________________________________________________________________________
DEPT               .M                                      : Колонка глубины 
CALI               .м                                      : Каверномер 
CILD               .мСм/м                                  : Индукционный каротаж 
COLL               .unitless                               : Описание 
CSAT               .unitless                               :  
GR                 .uR/h                                   : Гамма каротаж 
LLS                .Ohmm                                   : Боковой каротаж 
MINV               .Ohmm                                   : Микро-градиент зонд 
MNOR               .Ohmm                                   : Микро-потенциал зонд 
NGLD               .у.е.                                   : Показания зонда НГК-60 аппаратуры ДРСТ-3-90 
PHIE               .v/v                                    : Описание 
PHIEN              .v/v                                    :  
PHIT               .v/v                                    : Описание 
PRMB               .mD                                     :  
PRMB_DGR           .mD                                     :  
RT                 .ohmm                                   : УЭС пласта 
SOIL_ARCHIE        .v/v                                    :  
SOIL_DW            .v/v                                    :  
SP                 .мВ                                     : Потенциал самополяризации 
VSH_FIN            .v/v                                    : Описание 
VSH_GR             .v/v                                    : Shale volume 
VSH_SP             .v/v                                    : Shale Volume 
~Ascii
# ...
988.8      
  0.253      226.06     -9999      -9999      4.925      3.054      
  2.223      3.162      1.275      0.1620385  0.1620385  0.292465   
  2.808688   4.929083   3.981      0.4293825  0.5962006  78.867     
  0.395232   0.3382475  0.4522164 
989        
  0.253      226.06     -9999      -9999      5.077      4.499      
  2.566      3.48       1.371      0.1249099  0.1249099  0.2533546  
  0.5764903  4.392972   3.981      0.2842172  0.5122648  77.724     
  0.3892264  0.3545312  0.4239216 
989.2000000000001 
  0.256      218.44     -9999      -9999      4.671      4.181      
  2.579      3.67       1.613      0.03855077 0.03855077 0.1547638  
  0.01449479 5.974917   4.12       0          0.003962679 76.327     
  0.3521607  0.3126885  0.3916328 
989.4      
  0.244      214.63     -9999      -9999      3.655      3.561      
  2.629      3.569      1.712      0.01531282 0.01531282 0.1144312  
  0.005380078 12.90014   4.193      0          0          75.438     
  0.3003587  0.2283607  0.3723567 
989.6      
  0.232      201.93     -9999      -9999      3.655      4.121      
  3.099      4.356      1.712      0.01531282 0.01531282 0.1144312  
  0.005380078 12.90014   4.457      0          0          75.438     
  0.3003587  0.2283607  0.3723567 
989.8      
  0.23       193.04     -9999      -9999      3.299      4.121      
  3.099      4.356      1.664      0.04265464 0.04265464 0.1339864  
  0.01726734 16.89343   4.662      0          0.001531109 74.295     
  0.2767629  0.2045484  0.3489774 
990        
  0.23       193.04     -9999      -9999      3.21       4.734      
  4.039      3.404      1.674      0.03519496 0.03519496 0.1299124  
  0.01256187 18.07168   4.662      0          0          75.565     
  0.2870225  0.1989939  0.3750511 
990.2000000000001 
  0.23       185.42     -9999      -9999      3.045      4.243      
  2.35       3.302      1.702      0.02079551 0.02079551 0.1185052  
  0.006797377 20.4778    4.854      0          0          76.835     
  0.2960899  0.1890921  0.4030878 
990.4      
  0.23       184.15     -9999      -9999      3.045      4.734      
  4.611      4.737      1.702      0.02079551 0.02079551 0.1185052  
  0.006797377 20.4778    4.887      0          0          76.835     
  0.2960899  0.1890921  0.4030878 
990.6      
  0.23       177.8      -9999      -9999      2.867      5.602      
  2.502      2.642      1.686      0.02504304 0.02504304 0.1250236  
  0.008147342 23.43393   5.062      0          0          77.851     
  0.3029714  0.1789619  0.4269808 
990.8      
  0.23       182.88     -9999      -9999      3.045      5.602      
  2.502      2.642      1.661      0.03098049 0.03098049 0.1352086  
  0.01049523 20.4778    4.921      0          0          78.486     
  0.3158427  0.1890921  0.4425934 
991        
  0.23       182.88     -9999      -9999      3.528      4.305      
  3.049      3.454      1.57       0.06090188 0.06090188 0.172282   
  0.03760181 14.2029    4.921      0          0.2710221  78.994     
  0.3375154  0.2195635  0.4554674 
991.2000000000001 
  0.23       193.04     -9999      -9999      4.137      4.499      
  2.401      4.381      1.506      0.07728425 0.07728425 0.1983556  
  0.07562228 8.954001   4.662      0          0.3716272  79.502     
  0.3668828  0.2650781  0.4686876 
991.4      
  0.232      212.09     -9999      -9999      4.137      3.144      
  1.067      1.435      1.506      0.07728425 0.07728425 0.1983556  
  0.07562228 8.954001   4.243      0          0.3413313  79.502     
  0.3668828  0.2650781  0.4686876 
991.6      
  0.235      247.65     -9999      -9999      4.137      2.166      
  1.817      1.232      1.387      0.1240909  0.1240909  0.2468362  
  0.5567007  8.954001   3.634      0.2486266  0.4799344  79.883     
  0.3719556  0.2650781  0.4788332 
991.8      
  0.24       251.46     -9999      -9999      4.518      2.166      
  1.817      1.232      1.265      0.1677576  0.1677576  0.296539   
  3.584553   6.709168   3.579      0.4180049  0.5834147  80.01      
  0.3902468  0.2982344  0.4822592 
992        
  0.24       251.46     -9999      -9999      5.534      2.658      
  3.861      4.369      1.186      0.1817707  0.1817707  0.3287236  
  6.516157   3.107465   3.579      0.4572825  0.6208085  80.01      
  0.445312   0.4083648  0.4822592 
992.2000000000001 
  0.239      276.86     -9999      -9999      5.966      3.944      
  3.087      1.118      1.158      0.1829754  0.1829754  0.3401308  
  6.859732   2.240158   3.251      0.4354995  0.6113153  80.137     
  0.4762284  0.4667492  0.4857075 
992.4      
  0.233      306.07     -9999      -9999      5.966      1.913      
  0.547      0.902      1.158      0.1829754  0.1829754  0.3401308  
  6.859732   2.240158   2.941      0.4083191  0.5913435  80.137     
  0.4762284  0.4667492  0.4857075 
992.6      
  0.236      336.55     -9999      -9999      5.941      1.858      
  0.559      0.711      1.115      0.2010869  0.2010869  0.357649   
  14.85168   2.282989   2.674      0.4301209  0.5994247  80.137     
  0.4744306  0.4631536  0.4857075 
992.8      
  0.259      322.58     -9999      -9999      6.195      1.858      
  0.559      0.711      1.105      0.1989143  0.1989143  0.361723   
  13.53737   1.883381   2.79       0.4360546  0.6088566  80.137     
  0.4933595  0.5010116  0.4857075 
993        
  0.259      322.58     -9999      -9999      6.423      1.689      
  0.559      0.775      1.201      0.1520341  0.1520341  0.3226126  
  1.833151   1.584625   2.79       0.2873125  0.5345237  80.518     
  0.5169046  0.5376225  0.4961866 
993.2000000000001 
  0.282      298.45     -9999      -9999      6.068      2.859      
  1.778      2.819      1.295      0.1217926  0.1217926  0.284317   
  0.5047226  2.073581   3.016      0.1664811  0.4735165  80.772     
  0.4924982  0.4817108  0.5032856 
993.4      
  0.288      280.67     -9999      -9999      6.068      3.561      
  4.661      1.486      1.295      0.1217926  0.1217926  0.284317   
  0.5047226  2.073581   3.207      0.1901561  0.4894351  80.772     
  0.4924982  0.4817108  0.5032856 
993.6      
  0.277      287.02     -9999      -9999      5.814      2.859      
  1.626      3.645      1.333      0.1117261  0.1117261  0.2688358  
  0.3285458  2.513544   3.136      0.1177423  0.4478269  80.899     
  0.4760902  0.4453114  0.506869  
993.8      
  0.246      299.72     -9999      -9999      5.484      2.859      
  1.626      3.645      1.318      0.1255586  0.1255586  0.2749468  
  0.5926639  3.227423   3.003      0.186651   0.4672632  80.772     
  0.4526915  0.4020974  0.5032856 
994        
  0.246      299.72     -9999      -9999      5.331      2.525      
  1.029      1.753      1.247      0.1581384  0.1581384  0.3038722  
  2.378294   3.62404    3.003      0.3347032  0.5414471  80.645     
  0.4416175  0.3835103  0.4997247 
994.2000000000001 
  0.233      285.75     -9999      -9999      5.458      2.452      
  0.737      1.689      1.255      0.1517563  0.1517563  0.300613   
  1.811559   3.291622   3.15       0.3256928  0.5420687  80.772     
  0.451081   0.3988764  0.5032856 
994.4      
  0.239      259.08     -9999      -9999      5.458      5.643      
  4.738      4.521      1.255      0.1517563  0.1517563  0.300613   
  1.811559   3.291622   3.474      0.3559715  0.5639456  80.772     
  0.451081   0.3988764  0.5032856 
994.6      
  0.239      228.6      -9999      -9999      5.585      5.939      
  3.772      2.095      1.326      0.1190076  0.1190076  0.2716876  
  0.448196   2.989697   3.937      0.2494918  0.521749   81.026     
  0.4626666  0.4148582  0.5104751 
994.8      
  0.235      238.76     -9999      -9999      5.306      5.939      
  3.772      2.095      1.366      0.1059536  0.1059536  0.2553916  
  0.2568475  3.693326   3.769      0.1524009  0.469471   81.534     
  0.4528424  0.380556   0.5251289 
995        
  0.235      238.76     -9999      -9999      4.62       3.432      
  1.372      1.435      1.267      0.15706    0.15706    0.2957242  
  2.271387   6.210276   3.769      0.3984093  0.582723   81.788     
  0.4201944  0.3077943  0.5325946 
