~Version
 VERS              .         2.0                           : CWLS LOG ASCII STANDARD - VERSION 2.0
 WRAP              .         YES                            : ONE LINE PER DEPTH STEP
 DLM               .         SPACE                         : DELIMITING CHARACTER(SPACE TAB OR COMMA)
~Well Information
#_______________________________________________________________________________
#
#PARAMETER_NAME    .UNIT     VALUE                         : DESCRIPTION
#_______________________________________________________________________________
STRT               .M        880                           : First reference value
STOP               .M        1210                          : Last reference value
STEP               .M        0.2                           : Step increment
NULL               .         -9999                         : Missing value
COMP               .                                       : Company
WELL               .         5575                          : Well name
FLD                .         UZEN                          : Field
LOC                .                                       : Location
CNTY               .                                       : County
STAT               .                                       : State
CTRY               .                                       : Country
SRVC               .                                       : Service Company
DATE               .                                       : Date
UWI                .                                       : Unique Well ID
Block              .         7                             : 
Cartographic_reference_system .         GCS_WGS_1984                  : ESRI,PE_10_3_1- <?xml version="1.0" encoding="utf-16"?><ILateBoundCoordinateReferenceSystem name="GCS_WGS_1984"><AuthorityCode>EPSG,4326</AuthorityCode></ILateBoundCoordinateReferenceSystem>
Category           .         Нефтяная                      : 
Condition          .         В работе                      : 
EREF               .m        82.9                          : 100.8
Gorizont           .         14                            : 14
HZCS               .GCS_WGS_1984 WGS_1984_EASE-Grid_2.0_Global : ESRI,PE_10_3_1- <?xml version="1.0" encoding="utf-16"?><ILateBoundCoordinateReferenceSystem name="WGS_1984_EASE-Grid_2.0_Global"><AuthorityCode>EPSG,6933</AuthorityCode></ILateBoundCoordinateReferenceSystem>
Interpretator      .         Сагынбаева А.Н.               : 
Kupol              .         основной                      : osnovnoi
LATI               .dega     0.6568727471                  : GCS_WGS_1984
LONG               .dega     0.4417933813                  : GCS_WGS_1984
Mud                .         глинистый                     : 
Mud_density        .         1,22                          : 
Mud_resistivity    .         0                             : 
NGDU               .         НГДУ-2                        : 
ORIGINALWELLNAME   .         5575                          : 
Spud_date          .         1992                          : 1961
Viscosity          .         40                            : 
X                  .m        42627                         : 46154
Y                  .m        83797.63                      : 85761.93
YEAR               .         2019                          : 
~Parameter Information Block
#_______________________________________________________________________________
#
#PARAMETER_NAME    .UNIT     VALUE                         : DESCRIPTION
#_______________________________________________________________________________
SET                .         LQC_KAZNIPI_Petrel            : 
TLFamily_CALI      .         Caliper                       : 
TLFamily_CILD      .         Conductivity                  : 
TLFamily_COLL      .         Net Reservoir Flag            : 
TLFamily_CSAT      .         Fluid Code                    : 
TLFamily_DEPT      .         Measured Depth                : 
TLFamily_GR        .         Russian Gamma Ray             : 
TLFamily_LLS       .         Lateral Log Resistivity       : 
TLFamily_MINV      .         Micro Gradient Resistivity    : 
TLFamily_MNOR      .         Micro Resistivity             : 
TLFamily_NGLD      .         Neutron Gamma                 : 
TLFamily_PHIE      .         Effective Porosity            : 
TLFamily_PHIEN     .         Effective Porosity            : 
TLFamily_PHIT      .         Porosity                      : 
TLFamily_PRMB      .         Permeability                  : 
TLFamily_PRMB_DGR  .         Permeability                  : 
TLFamily_RT        .         Formation Resistivity         : 
TLFamily_SOIL_ARCHIE .         Oil Saturation                : 
TLFamily_SOIL_DW   .         Oil Saturation                : 
TLFamily_SP        .         Spontaneous Potential         : 
TLFamily_VSH_FIN   .         Shale Volume                  : 
TLFamily_VSH_GR    .         Shale Volume                  : 
TLFamily_VSH_SP    .         Shale Volume                  : 
~Curve Information
#_______________________________________________________________________________
#
#LOGNAME           .UNIT     LOG_ID                        : DESCRIPTION
#_______________________________________________________________________________
DEPT               .M                                      : Колонка глубины 
CALI               .м                                      : Каверномер 
CILD               .мСм/м                                  : Индукционный каротаж 
COLL               .unitless                               : Описание 
CSAT               .unitless                               :  
GR                 .uR/h                                   : Гамма каротаж 
LLS                .Ohmm                                   : Боковой каротаж 
MINV               .Ohmm                                   : Микро-градиент зонд 
MNOR               .Ohmm                                   : Микро-потенциал зонд 
NGLD               .у.е.                                   : Показания зонда НГК-60 аппаратуры ДРСТ-3-90 
PHIE               .v/v                                    : Описание 
PHIEN              .v/v                                    :  
PHIT               .v/v                                    : Описание 
PRMB               .mD                                     :  
PRMB_DGR           .mD                                     :  
RT                 .ohmm                                   : УЭС пласта 
SOIL_ARCHIE        .v/v                                    :  
SOIL_DW            .v/v                                    :  
SP                 .мВ                                     : Потенциал самополяризации 
VSH_FIN            .v/v                                    : Описание 
VSH_GR             .v/v                                    : Shale volume 
VSH_SP             .v/v                                    : Shale Volume 
~Ascii
# ...
969.6      
  0.285      392.43     -9999      -9999      6.677      2.399      
  1.956      2.019      1.082      0.1561446  0.1561446  0.3710932  
  2.184414   1.086645   2.293      0.2365342  0.5343192  88.265     
  0.6513594  0.62716    0.6755588 
969.8      
  0.272      407.67     -9999      -9999      6.677      2.279      
  1.347      1.664      1.074      0.1578777  0.1578777  0.3743524  
  2.351992   1.086645   2.208      0.2303156  0.5299693  88.519     
  0.655984   0.62716    0.6848081 
970        
  0.272      407.67     -9999      -9999      6.677      2.279      
  1.474      1.549      1.074      0.1571081  0.1571081  0.3743524  
  2.27605    1.086645   2.208      0.227033   0.5291227  88.646     
  0.658316   0.62716    0.689472  
970.2000000000001 
  0.281      412.75     -9999      -9999      6.931      1.999      
  1.474      1.549      1.084      0.1443917  0.1443917  0.3702784  
  1.323252   0.8928446  2.18       0.1630725  0.5078938  88.646     
  0.6845052  0.6795384  0.689472  
970.4      
  0.291      410.21     -9999      -9999      6.83       2.072      
  1.69       1.41       1.082      0.1487263  0.1487263  0.3710932  
  1.591952   0.965382   2.194      0.1868037  0.515373   88.646     
  0.6738391  0.6582062  0.689472  
970.6      
  0.299      443.23     -9999      -9999      6.83       1.652      
  1.207      0.965      1.082      0.1487263  0.1487263  0.3710932  
  1.591952   0.965382   2.031      0.1568046  0.4963011  88.646     
  0.6738391  0.6582062  0.689472  
970.8      
  0.309      431.8      -9999      -9999      6.55       1.525      
  1.664      1.524      1.064      0.1652502  0.1652502  0.3784264  
  3.221018   1.198792   2.084      0.2399741  0.5275256  88.646     
  0.6459884  0.6025048  0.689472  
971        
  0.309      431.8      -9999      -9999      6.423      1.525      
  1.042      1.295      1.079      0.163817   0.163817   0.3723154  
  3.03002    1.322512   2.084      0.2341859  0.5211219  88.519     
  0.6318135  0.5788189  0.6848081 
971.2000000000001 
  0.308      420.37     -9999      -9999      5.814      1.844      
  1.042      1.295      1.143      0.1536831  0.1536831  0.3462418  
  1.966713   2.118098   2.141      0.2005742  0.4936158  88.646     
  0.5835114  0.4775507  0.689472  
971.4      
  0.296      408.94     -9999      -9999      5.915      1.764      
  1.436      2.464      1.189      0.1323889  0.1323889  0.3275014  
  0.7930897  1.958948   2.201      0.1014117  0.4534539  88.646     
  0.5912499  0.4930278  0.689472  
971.6      
  0.277      381        -9999      -9999      5.915      2.013      
  1.385      1.778      1.189      0.1316151  0.1316151  0.3275014  
  0.7673431  1.958948   2.362      0.1262433  0.4712823  88.773     
  0.5935947  0.4930278  0.6941617 
971.8      
  0.262      361.95     -9999      -9999      5.788      2.119      
  2.706      2.019      1.275      0.1005506  0.1005506  0.292465   
  0.2039854  2.161119   2.487      0          0.3900582  88.646     
  0.5815588  0.4736457  0.689472  
972        
  0.262      361.95     -9999      -9999      5.611      2.119      
  2.223      2.134      1.333      0.08193944 0.08193944 0.2688358  
  0.09223066 2.478154   2.487      0          0.3086013  88.519     
  0.5663527  0.4478973  0.6848081 
972.2000000000001 
  0.253      358.14     -9999      -9999      4.925      3.285      
  2.223      2.134      1.313      0.104482   0.104482   0.2769838  
  0.2412228  4.212472   2.513      0          0.3799227  88.519     
  0.5227327  0.3606574  0.6848081 
972.4      
  0.247      359.41     -9999      -9999      4.798      2.525      
  1.791      1.918      1.244      0.1349321  0.1349321  0.3050944  
  0.8839487  4.647219   2.504      0.1680864  0.4678906  88.519     
  0.5156435  0.346479   0.6848081 
972.6      
  0.242      344.17     -9999      -9999      4.798      2.198      
  1.766      1.651      1.244      0.1341625  0.1341625  0.3050944  
  0.8554075  4.647219   2.615      0.1807773  0.4781949  88.646     
  0.5179755  0.346479   0.689472  
972.8      
  0.24       332.74     -9999      -9999      4.874      2.452      
  3.683      2.464      1.211      0.1454442  0.1454442  0.3185386  
  1.384005   4.381943   2.705      0.2484365  0.5154738  88.773     
  0.5245285  0.3548953  0.6941617 
973        
  0.24       332.74     -9999      -9999      5.026      2.452      
  2.934      2.248      1.239      0.1295971  0.1295971  0.3071314  
  0.7040608  3.895955   2.705      0.1689991  0.4824964  89.027     
  0.5379829  0.372346   0.7036197 
973.2000000000001 
  0.239      320.04     -9999      -9999      5.23       3.408      
  2.934      2.248      1.28       0.1080187  0.1080187  0.290428   
  0.2804957  3.327329   2.812      0.04372141 0.4381299  89.154     
  0.5527555  0.3971229  0.7083881 
973.4      
  0.235      337.82     -9999      -9999      5.204      3.457      
  4.484      3.289      1.191      0.1448131  0.1448131  0.3266866  
  1.347249   3.394912   2.664      0.2401581  0.5186263  89.154     
  0.5511318  0.3938756  0.7083881 
973.6      
  0.236      378.46     -9999      -9999      5.204      1.664      
  1.359      1.829      1.191      0.1455999  0.1455999  0.3266866  
  1.393224   3.394912   2.378      0.202338   0.491531   89.027     
  0.5487477  0.3938756  0.7036197 
973.8      
  0.258      367.03     -9999      -9999      5.255      1.899      
  2.198      1.676      1.158      0.1595495  0.1595495  0.3401308  
  2.525816   3.263617   2.452      0.2739495  0.5282236  88.773     
  0.5472161  0.4002706  0.6941617 
974        
  0.258      367.03     -9999      -9999      5.636      1.899      
  1.728      1.524      1.171      0.1473525  0.1473525  0.3348346  
  1.501354   2.4307     2.452      0.2218777  0.5091318  88.519     
  0.5681277  0.4514474  0.6848081 
974.2000000000001 
  0.27       364.49     -9999      -9999      5.941      1.884      
  1.728      1.524      1.211      0.1242902  0.1242902  0.3185386  
  0.5614542  1.919952   2.469      0.100459   0.4625987  88.392     
  0.5886315  0.4970926  0.6801705 
974.4      
  0.28       370.84     -9999      -9999      5.915      1.913      
  1.664      1.626      1.275      0.0988873  0.0988873  0.292465   
  0.1900163  1.958948   2.427      0          0.3789815  88.392     
  0.5865991  0.4930278  0.6801705 
974.6      
  0.282      345.44     -9999      -9999      5.915      2.737      
  3.049      2.286      1.275      0.09964822 0.09964822 0.292465   
  0.196284   1.958948   2.605      0          0.4021637  88.265     
  0.5842933  0.4930278  0.6755588 
974.8      
  0.27       340.36     -9999      -9999      5.661      2.525      
  2.553      1.968      1.303      0.09375048 0.09375048 0.2810578  
  0.1526316  2.384156   2.644      0          0.377957   88.392     
  0.567598   0.4550256  0.6801705 
975        
  0.27       340.36     -9999      -9999      5.484      2.525      
  3.201      1.892      1.275      0.1092391  0.1092391  0.292465   
  0.2954826  2.733909   2.644      0.02525876 0.4254596  88.392     
  0.5552299  0.4302894  0.6801705 
975.2000000000001 
  0.252      344.17     -9999      -9999      5.687      2.399      
  3.201      1.892      1.283      0.1012795  0.1012795  0.2892058  
  0.210426   2.336695   2.615      0          0.402324   88.392     
  0.5694737  0.458777   0.6801705 
975.4      
  0.249      346.71     -9999      -9999      5.738      2.23       
  2.274      2.273      1.262      0.1086058  0.1086058  0.2977612  
  0.2876086  2.246324   2.596      0.01185114 0.4256583  88.392     
  0.5731981  0.4662257  0.6801705 
975.6      
  0.255      350.52     -9999      -9999      5.738      2.166      
  1.601      1.74       1.262      0.1101234  0.1101234  0.2977612  
  0.3068395  2.246324   2.568      0.0187411  0.4253711  88.138     
  0.5685993  0.4662257  0.670973  
975.8      
  0.259      349.25     -9999      -9999      5.484      2.488      
  2.756      2.451      1.244      0.1241385  0.1241385  0.3050944  
  0.5578339  2.733909   2.577      0.1174127  0.4590901  88.011     
  0.5483512  0.4302894  0.6664129 
