~Version
 VERS              .         2.0                           : CWLS LOG ASCII STANDARD - VERSION 2.0
 WRAP              .         YES                            : ONE LINE PER DEPTH STEP
 DLM               .         SPACE                         : DELIMITING CHARACTER(SPACE TAB OR COMMA)
~Well Information
#_______________________________________________________________________________
#
#PARAMETER_NAME    .UNIT     VALUE                         : DESCRIPTION
#_______________________________________________________________________________
STRT               .M        880                           : First reference value
STOP               .M        1210                          : Last reference value
STEP               .M        0.2                           : Step increment
NULL               .         -9999                         : Missing value
COMP               .                                       : Company
WELL               .         5575                          : Well name
FLD                .         UZEN                          : Field
LOC                .                                       : Location
CNTY               .                                       : County
STAT               .                                       : State
CTRY               .                                       : Country
SRVC               .                                       : Service Company
DATE               .                                       : Date
UWI                .                                       : Unique Well ID
Block              .         7                             : 
Cartographic_reference_system .         GCS_WGS_1984                  : ESRI,PE_10_3_1- <?xml version="1.0" encoding="utf-16"?><ILateBoundCoordinateReferenceSystem name="GCS_WGS_1984"><AuthorityCode>EPSG,4326</AuthorityCode></ILateBoundCoordinateReferenceSystem>
Category           .         Нефтяная                      : 
Condition          .         В работе                      : 
EREF               .m        82.9                          : 100.8
Gorizont           .         14                            : 14
HZCS               .GCS_WGS_1984 WGS_1984_EASE-Grid_2.0_Global : ESRI,PE_10_3_1- <?xml version="1.0" encoding="utf-16"?><ILateBoundCoordinateReferenceSystem name="WGS_1984_EASE-Grid_2.0_Global"><AuthorityCode>EPSG,6933</AuthorityCode></ILateBoundCoordinateReferenceSystem>
Interpretator      .         Сагынбаева А.Н.               : 
Kupol              .         основной                      : osnovnoi
LATI               .dega     0.6568727471                  : GCS_WGS_1984
LONG               .dega     0.4417933813                  : GCS_WGS_1984
Mud                .         глинистый                     : 
Mud_density        .         1,22                          : 
Mud_resistivity    .         0                             : 
NGDU               .         НГДУ-2                        : 
ORIGINALWELLNAME   .         5575                          : 
Spud_date          .         1992                          : 1961
Viscosity          .         40                            : 
X                  .m        42627                         : 46154
Y                  .m        83797.63                      : 85761.93
YEAR               .         2019                          : 
~Parameter Information Block
#_______________________________________________________________________________
#
#PARAMETER_NAME    .UNIT     VALUE                         : DESCRIPTION
#_______________________________________________________________________________
SET                .         LQC_KAZNIPI_Petrel            : 
TLFamily_CALI      .         Caliper                       : 
TLFamily_CILD      .         Conductivity                  : 
TLFamily_COLL      .         Net Reservoir Flag            : 
TLFamily_CSAT      .         Fluid Code                    : 
TLFamily_DEPT      .         Measured Depth                : 
TLFamily_GR        .         Russian Gamma Ray             : 
TLFamily_LLS       .         Lateral Log Resistivity       : 
TLFamily_MINV      .         Micro Gradient Resistivity    : 
TLFamily_MNOR      .         Micro Resistivity             : 
TLFamily_NGLD      .         Neutron Gamma                 : 
TLFamily_PHIE      .         Effective Porosity            : 
TLFamily_PHIEN     .         Effective Porosity            : 
TLFamily_PHIT      .         Porosity                      : 
TLFamily_PRMB      .         Permeability                  : 
TLFamily_PRMB_DGR  .         Permeability                  : 
TLFamily_RT        .         Formation Resistivity         : 
TLFamily_SOIL_ARCHIE .         Oil Saturation                : 
TLFamily_SOIL_DW   .         Oil Saturation                : 
TLFamily_SP        .         Spontaneous Potential         : 
TLFamily_VSH_FIN   .         Shale Volume                  : 
TLFamily_VSH_GR    .         Shale Volume                  : 
TLFamily_VSH_SP    .         Shale Volume                  : 
~Curve Information
#_______________________________________________________________________________
#
#LOGNAME           .UNIT     LOG_ID                        : DESCRIPTION
#_______________________________________________________________________________
DEPT               .M                                      : Колонка глубины 
CALI               .м                                      : Каверномер 
CILD               .мСм/м                                  : Индукционный каротаж 
COLL               .unitless                               : Описание 
CSAT               .unitless                               :  
GR                 .uR/h                                   : Гамма каротаж 
LLS                .Ohmm                                   : Боковой каротаж 
MINV               .Ohmm                                   : Микро-градиент зонд 
MNOR               .Ohmm                                   : Микро-потенциал зонд 
NGLD               .у.е.                                   : Показания зонда НГК-60 аппаратуры ДРСТ-3-90 
PHIE               .v/v                                    : Описание 
PHIEN              .v/v                                    :  
PHIT               .v/v                                    : Описание 
PRMB               .mD                                     :  
PRMB_DGR           .mD                                     :  
RT                 .ohmm                                   : УЭС пласта 
SOIL_ARCHIE        .v/v                                    :  
SOIL_DW            .v/v                                    :  
SP                 .мВ                                     : Потенциал самополяризации 
VSH_FIN            .v/v                                    : Описание 
VSH_GR             .v/v                                    : Shale volume 
VSH_SP             .v/v                                    : Shale Volume 
~Ascii
# ...
1142.4     
  0.233      405.13     -9999      -9999      9.319      1.858      
  2.045      1.994      1.244      0.1921278  0.1921278  0.3050944  
  10.13516   3.327629   2.222      0.362214   0.5144391  57.404     
  0.3423231  0.3971084  0.2875379 
1142.6     
  0.233      389.89     -9999      -9999      9.624      2.072      
  1.728      2.426      1.255      0.1775095  0.1775095  0.300613   
  5.433312   2.339604   2.308      0.3287731  0.5037442  57.404     
  0.3730409  0.458544   0.2875379 
1142.8     
  0.225      375.92     -9999      -9999      9.421      2.507      
  1.512      2.413      1.278      0.1785606  0.1785606  0.2912428  
  5.682434   2.957811   2.394      0.3435823  0.5046145  56.007     
  0.3414611  0.4166786  0.2662436 
1143       
  0.219      336.55     1          2          9.421      2.23       
  1.486      1.905      1.278      0.1820292  0.1820292  0.2912428  
  6.588413   2.957811   2.674      0.3871403  0.5349052  54.483     
  0.3309503  0.4166786  0.2452219 
1143.2     
  0.223      259.08     1          2          9.116      2.525      
  1.41       2.007      1.272      0.2064933  0.2064933  0.2936872  
  18.70318   4.206908   3.474      0.5143504  0.6144242  46.482     
  0.2642239  0.3608522  0.1675957 
1143.4     
  0.223      259.08     1          2          9.04       2.525      
  1.41       2.007      1.29       0.2012565  0.2012565  0.286354   
  14.9595    4.592887   3.474      0.5033626  0.6044843  46.482     
  0.2578712  0.3481468  0.1675957 
1143.6     
  0.223      219.71     1          2          8.684      4.091      
  1.601      2.426      1.293      0.208913   0.208913   0.2851318  
  20.7364    6.928844   4.096      0.5550102  0.6404642  46.482     
  0.2309661  0.2943366  0.1675957 
1143.8     
  0.219      199.39     1          2          7.897      5.561      
  1.588      2.375      1.278      0.2322419  0.2322419  0.2912428  
  56.08443   17.19619   4.514      0.6122925  0.6764161  44.323     
  0.1787905  0.2030701  0.1545109 
1144       
  0.21       175.26     1          2          7.592      6.343      
  1.499      2.451      1.285      0.2350403  0.2350403  0.288391   
  63.19373   24.45824   5.135      0.6388356  0.6964312  42.926     
  0.1616689  0.1758628  0.1474751 
1144.2     
  0.204      146.05     1          2          7.414      6.343      
  1.601      2.515      1.279      0.2409803  0.2409803  0.2908354  
  81.41392   30.04088   6.162      0.6755801  0.7271315  41.275     
  0.1510759  0.1617018  0.14045   
1144.4     
  0.204      146.05     1          2          7.566      6.343      
  1.601      2.515      1.278      0.2394048  0.2394048  0.2912428  
  76.12312   25.20386   6.162      0.6737214  0.7265897  41.275     
  0.1570847  0.1737194  0.14045   
1144.6     
  0.204      132.08     1          2          7.693      6.775      
  1.677      2.527      1.281      0.2364133  0.2364133  0.2900206  
  67.00484   21.76517   6.814      0.6853359  0.7379741  41.275     
  0.1624463  0.1844426  0.14045   
1144.8     
  0.205      123.19     1          2          7.719      7.027      
  1.626      2.629      1.316      0.2218592  0.2218592  0.2757616  
  36.01871   21.12127   7.306      0.6781358  0.7323812  41.148     
  0.1633407  0.1867183  0.1399631 
1145       
  0.205      121.92     1          2          7.744      6.628      
  1.639      2.68       1.323      0.2185616  0.2185616  0.2729098  
  31.29321   20.52011   7.382      0.6754902  0.7304583  41.275     
  0.1646914  0.1889329  0.14045   
1145.2     
  0.206      142.24     1          2          7.795      5.643      
  1.613      2.476      1.353      0.2054991  0.2054991  0.2606878  
  17.92672   19.34627   6.327      0.6318986  0.6931583  41.402     
  0.1672383  0.1935324  0.1409442 
1145.4     
  0.206      142.24     1          2          7.973      5.643      
  1.613      2.476      1.344      0.2041308  0.2041308  0.2643544  
  16.91044   15.75105   6.327      0.6297505  0.6947695  44.323     
  0.1824959  0.2104809  0.1545109 
1145.6     
  0.206      162.56     1          2          8.126      5.094      
  1.601      2.54       1.267      0.2329019  0.2329019  0.2957242  
  57.68538   13.19965   5.536      0.6485707  0.7107195  44.323     
  0.1903707  0.2262305  0.1545109 
1145.8     
  0.206      167.64     8          2          8.582      3.222      
  1.486      2.502      1.267      0.2239454  0.2239454  0.2957242  
  39.3704    7.795171   5.369      0.6310959  0.7013676  44.323     
  0.2175116  0.2805123  0.1545109 
1146       
  0.207      165.1      8          2          8.44       4.7        
  1.283      1.829      1.257      0.2310176  0.2310176  0.2997982  
  53.231     9.184493   5.451      0.6434964  0.70978    44.323     
  0.2084261  0.2623412  0.1545109 
1146.2     
  0.208      151.13     8          2          8.354      4.7        
  1.512      2.4        1.285      0.2207439  0.2207439  0.288391   
  34.34562   10.14365   5.955      0.6441652  0.7105358  44.958     
  0.2049911  0.2519136  0.1580687 
1146.4     
  0.208      151.13     1          2          8.024      4.84       
  1.512      2.4        1.308      0.2167384  0.2167384  0.2790208  
  28.952     14.85002   5.955      0.6384444  0.7026617  45.593     
  0.1887347  0.215605   0.1618643 
1146.6     
  0.208      157.48     1          2          8.024      5.441      
  1.715      2.388      1.314      0.2146745  0.2146745  0.2765764  
  26.51252   14.85002   5.715      0.6283126  0.6937009  45.212     
  0.1875814  0.215605   0.1595578 
1146.8     
  0.207      158.75     1          2          7.996      5.643      
  1.423      2.235      1.326      0.2102524  0.2102524  0.2716876  
  21.9555    15.33813   5.669      0.6200751  0.6865337  45.212     
  0.1861672  0.2127765  0.1595578 
1147       
  0.206      154.94     1          2          7.973      5.685      
  1.436      2.35       1.326      0.2106312  0.2106312  0.2716876  
  22.31306   15.75105   5.809      0.624988   0.6905687  45.212     
  0.1850194  0.2104809  0.1595578 
1147.2     
  0.208      158.75     1          2          8.024      5.685      
  1.613      2.451      1.326      0.2110609  0.2110609  0.2716876  
  22.72572   14.85002   5.669      0.6213429  0.6870399  43.815     
  0.1837174  0.215605   0.1518297 
1147.4     
  0.208      158.75     1          2          7.871      6.775      
  1.613      2.451      1.322      0.2162657  0.2162657  0.2733172  
  28.37418   17.72043   5.669      0.6292924  0.6913084  42.418     
  0.1728833  0.2005951  0.1451715 
1147.6     
  0.208      172.72     1          2          7.947      6.874      
  1.651      2.438      1.318      0.2161091  0.2161091  0.2749468  
  28.18531   16.23123   5.211      0.6141009  0.6790344  43.18      
  0.1782961  0.2079157  0.1486766 
1147.8     
  0.208      205.74     1          2          7.947      6.975      
  1.537      2.464      1.302      0.2226275  0.2226275  0.2814652  
  37.21849   16.23123   4.374      0.5917583  0.6586882  43.18      
  0.1782961  0.2079157  0.1486766 
1148       
  0.207      231.14     1          2          7.846      5.726      
  1.499      2.299      1.29       0.2291121  0.2291121  0.286354   
  49.07616   18.23958   3.894      0.5795186  0.6461621  43.18      
  0.1734602  0.1982439  0.1486766 
1148.2     
  0.207      276.86     1          2          7.668      5.768      
  1.601      2.375      1.269      0.2391086  0.2391086  0.2949094  
  75.16727   22.40279   3.251      0.5590659  0.6260891  44.577     
  0.1690934  0.1822807  0.1559061 
1148.4     
  0.207      276.86     1          2          7.77       5.768      
  1.601      2.375      1.253      0.2427664  0.2427664  0.3014278  
  87.85787   19.91304   3.251      0.564858   0.6331379  45.974     
  0.1777618  0.1912639  0.1642597 
1148.6     
  0.207      303.53     -9999      -9999      8.405      3.944      
  1.232      1.93       1.234      0.2261292  0.2261292  0.3091684  
  43.21343   9.563386   2.965      0.5166618  0.6099892  54.483     
  0.2516341  0.2580463  0.2452219 
