~Version
 VERS              .         2.0                           : CWLS LOG ASCII STANDARD - VERSION 2.0
 WRAP              .         YES                            : ONE LINE PER DEPTH STEP
 DLM               .         SPACE                         : DELIMITING CHARACTER(SPACE TAB OR COMMA)
~Well Information
#_______________________________________________________________________________
#
#PARAMETER_NAME    .UNIT     VALUE                         : DESCRIPTION
#_______________________________________________________________________________
STRT               .M        880                           : First reference value
STOP               .M        1210                          : Last reference value
STEP               .M        0.2                           : Step increment
NULL               .         -9999                         : Missing value
COMP               .                                       : Company
WELL               .         5575                          : Well name
FLD                .         UZEN                          : Field
LOC                .                                       : Location
CNTY               .                                       : County
STAT               .                                       : State
CTRY               .                                       : Country
SRVC               .                                       : Service Company
DATE               .                                       : Date
UWI                .                                       : Unique Well ID
Block              .         7                             : 
Cartographic_reference_system .         GCS_WGS_1984                  : ESRI,PE_10_3_1- <?xml version="1.0" encoding="utf-16"?><ILateBoundCoordinateReferenceSystem name="GCS_WGS_1984"><AuthorityCode>EPSG,4326</AuthorityCode></ILateBoundCoordinateReferenceSystem>
Category           .         Нефтяная                      : 
Condition          .         В работе                      : 
EREF               .m        82.9                          : 100.8
Gorizont           .         14                            : 14
HZCS               .GCS_WGS_1984 WGS_1984_EASE-Grid_2.0_Global : ESRI,PE_10_3_1- <?xml version="1.0" encoding="utf-16"?><ILateBoundCoordinateReferenceSystem name="WGS_1984_EASE-Grid_2.0_Global"><AuthorityCode>EPSG,6933</AuthorityCode></ILateBoundCoordinateReferenceSystem>
Interpretator      .         Сагынбаева А.Н.               : 
Kupol              .         основной                      : osnovnoi
LATI               .dega     0.6568727471                  : GCS_WGS_1984
LONG               .dega     0.4417933813                  : GCS_WGS_1984
Mud                .         глинистый                     : 
Mud_density        .         1,22                          : 
Mud_resistivity    .         0                             : 
NGDU               .         НГДУ-2                        : 
ORIGINALWELLNAME   .         5575                          : 
Spud_date          .         1992                          : 1961
Viscosity          .         40                            : 
X                  .m        42627                         : 46154
Y                  .m        83797.63                      : 85761.93
YEAR               .         2019                          : 
~Parameter Information Block
#_______________________________________________________________________________
#
#PARAMETER_NAME    .UNIT     VALUE                         : DESCRIPTION
#_______________________________________________________________________________
SET                .         LQC_KAZNIPI_Petrel            : 
TLFamily_CALI      .         Caliper                       : 
TLFamily_CILD      .         Conductivity                  : 
TLFamily_COLL      .         Net Reservoir Flag            : 
TLFamily_CSAT      .         Fluid Code                    : 
TLFamily_DEPT      .         Measured Depth                : 
TLFamily_GR        .         Russian Gamma Ray             : 
TLFamily_LLS       .         Lateral Log Resistivity       : 
TLFamily_MINV      .         Micro Gradient Resistivity    : 
TLFamily_MNOR      .         Micro Resistivity             : 
TLFamily_NGLD      .         Neutron Gamma                 : 
TLFamily_PHIE      .         Effective Porosity            : 
TLFamily_PHIEN     .         Effective Porosity            : 
TLFamily_PHIT      .         Porosity                      : 
TLFamily_PRMB      .         Permeability                  : 
TLFamily_PRMB_DGR  .         Permeability                  : 
TLFamily_RT        .         Formation Resistivity         : 
TLFamily_SOIL_ARCHIE .         Oil Saturation                : 
TLFamily_SOIL_DW   .         Oil Saturation                : 
TLFamily_SP        .         Spontaneous Potential         : 
TLFamily_VSH_FIN   .         Shale Volume                  : 
TLFamily_VSH_GR    .         Shale Volume                  : 
TLFamily_VSH_SP    .         Shale Volume                  : 
~Curve Information
#_______________________________________________________________________________
#
#LOGNAME           .UNIT     LOG_ID                        : DESCRIPTION
#_______________________________________________________________________________
DEPT               .M                                      : Колонка глубины 
CALI               .м                                      : Каверномер 
CILD               .мСм/м                                  : Индукционный каротаж 
COLL               .unitless                               : Описание 
CSAT               .unitless                               :  
GR                 .uR/h                                   : Гамма каротаж 
LLS                .Ohmm                                   : Боковой каротаж 
MINV               .Ohmm                                   : Микро-градиент зонд 
MNOR               .Ohmm                                   : Микро-потенциал зонд 
NGLD               .у.е.                                   : Показания зонда НГК-60 аппаратуры ДРСТ-3-90 
PHIE               .v/v                                    : Описание 
PHIEN              .v/v                                    :  
PHIT               .v/v                                    : Описание 
PRMB               .mD                                     :  
PRMB_DGR           .mD                                     :  
RT                 .ohmm                                   : УЭС пласта 
SOIL_ARCHIE        .v/v                                    :  
SOIL_DW            .v/v                                    :  
SP                 .мВ                                     : Потенциал самополяризации 
VSH_FIN            .v/v                                    : Описание 
VSH_GR             .v/v                                    : Shale volume 
VSH_SP             .v/v                                    : Shale Volume 
~Ascii
# ...
1052.8     
  0.258      287.02     -9999      -9999      7.516      2.543      
  3.023      3.251      1.184      0.1716798  0.1716798  0.3295384  
  4.237245   2.5007     3.136      0.3931148  0.5863976  81.026     
  0.4783595  0.4462439  0.5104751 
1053       
  0.265      295.91     -9999      -9999      7.516      2.452      
  3.036      2.286      1.186      0.1702662  0.1702662  0.3287236  
  3.989338   2.5007     3.041      0.379841   0.5779992  81.153     
  0.480174   0.4462439  0.5141041 
1053.2     
  0.271      299.72     -9999      -9999      7.82       2.452      
  3.379      2.172      1.206      0.1521706  0.1521706  0.3205756  
  1.843854   1.866284   3.003      0.3120352  0.5497212  81.28      
  0.5103183  0.5028806  0.517756  
1053.4     
  0.271      299.72     -9999      -9999      7.643      2.638      
  3.379      2.172      1.206      0.1577469  0.1577469  0.3205756  
  2.33891    2.212944   3.003      0.3332653  0.5558582  81.28      
  0.4934203  0.4690846  0.517756  
1053.6     
  0.271      297.18     -9999      -9999      7.643      2.737      
  3.214      2.451      1.206      0.1577469  0.1577469  0.3205756  
  2.33891    2.212944   3.028      0.3358541  0.5576955  81.28      
  0.4934203  0.4690846  0.517756  
1053.8     
  0.268      295.91     -9999      -9999      7.77       2.677      
  2.68       2.54       1.191      0.1598963  0.1598963  0.3266866  
  2.563457   1.958302   3.041      0.3449548  0.5660104  81.28      
  0.5054251  0.4930942  0.517756  
1054       
  0.268      299.72     -9999      -9999      7.973      2.677      
  2.871      3.238      1.163      0.1645458  0.1645458  0.3380938  
  3.125691   1.610712   3.003      0.3573242  0.5770946  81.28      
  0.5259029  0.5340499  0.517756  
1054.2     
  0.266      313.69     -9999      -9999      8.1        2.677      
  2.439      2.731      1.143      0.1705712  0.1705712  0.3462418  
  4.04157    1.425367   2.869      0.3636562  0.5794718  80.772     
  0.5323352  0.5613848  0.5032856 
1054.4     
  0.266      313.69     -9999      -9999      7.973      2.382      
  2.439      2.731      1.156      0.1697852  0.1697852  0.3409456  
  3.908341   1.610712   2.869      0.3610914  0.5747039  80.772     
  0.5186678  0.5340499  0.5032856 
1054.6     
  0.266      311.15     -9999      -9999      7.973      2.543      
  2.541      2.223      1.156      0.1697852  0.1697852  0.3409456  
  3.908341   1.610712   2.892      0.3634809  0.5763984  80.772     
  0.5186678  0.5340499  0.5032856 
1054.8     
  0.262      311.15     -9999      -9999      7.985      2.543      
  2.579      2.273      1.152      0.1715858  0.1715858  0.3425752  
  4.220303   1.592214   2.892      0.3693024  0.579349   80.645     
  0.5181497  0.5365747  0.4997247 
1055       
  0.265      316.23     -9999      -9999      7.998      2.279      
  2.388      1.892      1.148      0.1733456  0.1733456  0.3442048  
  4.549251   1.572414   2.846      0.3701615  0.578856   80.518     
  0.517755   0.5393234  0.4961866 
1055.2     
  0.27       328.93     -9999      -9999      7.973      2.279      
  2.096      1.829      1.13       0.181549   0.181549   0.351538   
  6.454843   1.610712   2.736      0.3837273  0.5834988  80.518     
  0.5151182  0.5340499  0.4961866 
1055.4     
  0.27       328.93     -9999      -9999      8.074      2.166      
  2.096      1.829      1.13       0.1779805  0.1779805  0.351538   
  5.543559   1.46149    2.736      0.3729795  0.5802922  80.518     
  0.5259318  0.5556771  0.4961866 
1055.6     
  0.27       321.31     -9999      -9999      7.643      2.296      
  2.68       2.667      1.14       0.1881942  0.1881942  0.347464   
  8.569827   2.212944   2.801      0.4092686  0.59118    80.518     
  0.4826356  0.4690846  0.4961866 
1055.8     
  0.266      320.04     -9999      -9999      7.643      2.364      
  2.858      1.994      1.14       0.1876105  0.1876105  0.347464   
  8.359095   2.212944   2.812      0.4087565  0.5914842  80.645     
  0.4844047  0.4690846  0.4997247 
1056       
  0.268      316.23     -9999      -9999      7.312      2.434      
  2.414      3.15       1.176      0.1817986  0.1817986  0.3327976  
  6.523918   3.043277   2.846      0.3957453  0.577967   80.772     
  0.4575728  0.4118601  0.5032856 
1056.2     
  0.273      299.72     -9999      -9999      7.211      2.434      
  3.137      2.565      1.24       0.1565848  0.1565848  0.306724   
  2.225812   3.354002   3.003      0.3289576  0.5423196  81.153     
  0.4549673  0.3958304  0.5141041 
1056.4     
  0.273      299.72     -9999      -9999      7.008      2.737      
  3.137      2.565      1.288      0.1420383  0.1420383  0.2871688  
  1.196885   4.07779    3.003      0.2694842  0.5051684  81.153     
  0.4397894  0.3654746  0.5141041 
1056.6     
  0.273      280.67     -9999      -9999      7.008      2.838      
  3.137      2.565      1.288      0.1420383  0.1420383  0.2871688  
  1.196885   4.07779    3.207      0.2916708  0.5211653  81.153     
  0.4397894  0.3654746  0.5141041 
1056.8     
  0.266      261.62     -9999      -9999      7.008      2.638      
  3.353      2.057      1.288      0.1414358  0.1414358  0.2871688  
  1.166518   4.07779    3.44       0.3120614  0.5369122  81.28      
  0.4416153  0.3654746  0.517756  
1057       
  0.258      241.3      -9999      -9999      7.008      7.027      
  2.883      2.984      1.377      0.1057797  0.1057797  0.2509102  
  0.2549501  4.07779    3.73       0.1470345  0.4603762  81.153     
  0.4397894  0.3654746  0.5141041 
1057.2     
  0.266      215.9      -9999      -9999      6.601      7.027      
  4.42       4.128      1.468      0.07940607 0.07940607 0.2138368  
  0.08278489 6.033464   4.169      0          0.3729113  80.772     
  0.4073658  0.311446   0.5032856 
1057.4     
  0.266      215.9      -9999      -9999      6.271      5.322      
  2.909      2.896      1.42       0.1052125  0.1052125  0.233392   
  0.2488569  8.289325   4.169      0.1866288  0.4647631  80.772     
  0.3884226  0.2735597  0.5032856 
1057.6     
  0.266      218.44     -9999      -9999      6.855      4.061      
  2.909      2.896      1.311      0.1379727  0.1379727  0.2777986  
  1.006346   4.724816   4.12       0.3541006  0.5639812  80.772     
  0.4237148  0.3441441  0.5032856 
1057.8     
  0.263      224.79     -9999      -9999      6.855      5.169      
  3.798      3.289      1.311      0.1385603  0.1385603  0.2777986  
  1.031882   4.724816   4.004      0.3478044  0.5584314  80.645     
  0.4219344  0.3441441  0.4997247 
1058       
  0.245      238.76     -9999      -9999      6.906      2.677      
  4.077      3.912      1.285      0.1474154  0.1474154  0.288391   
  1.505388   4.498469   3.769      0.3642707  0.5657129  80.772     
  0.4271989  0.3511123  0.5032856 
1058.2     
  0.241      251.46     -9999      -9999      7.566      2.677      
  3.226      2.756      1.239      0.1478114  0.1478114  0.3071314  
  1.531033   2.383195   3.579      0.350171   0.5717385  81.026     
  0.4827878  0.4551005  0.5104751 
1058.4     
  0.241      251.46     -9999      -9999      8.151      2.901      
  3.201      3.251      1.224      0.13451    0.13451    0.3132424  
  0.8681806  1.357085   3.579      0.2945479  0.5617206  81.026     
  0.5416133  0.5727515  0.5104751 
1058.6     
  0.241      251.46     -9999      -9999      7.886      3.144      
  3.201      3.251      1.242      0.1365249  0.1365249  0.3059092  
  0.9460844  1.751408   3.579      0.3036241  0.5576074  81.026     
  0.5132859  0.5160967  0.5104751 
1058.8     
  0.259      261.62     -9999      -9999      7.592      2.966      
  3.353      2.794      1.262      0.1364686  0.1364686  0.2977612  
  0.9438156  2.324292   3.44       0.2903036  0.541011   81.28      
  0.4887656  0.4597751  0.517756  
1059       
  0.275      281.94     -9999      -9999      7.592      2.638      
  1.944      2.515      1.262      0.134638   0.134638   0.2977612  
  0.8729331  2.324292   3.192      0.2562455  0.5210898  81.661     
  0.4943127  0.4597751  0.5288503 
