~Version
 VERS              .         2.0                           : CWLS LOG ASCII STANDARD - VERSION 2.0
 WRAP              .         YES                            : ONE LINE PER DEPTH STEP
 DLM               .         SPACE                         : DELIMITING CHARACTER(SPACE TAB OR COMMA)
~Well Information
#_______________________________________________________________________________
#
#PARAMETER_NAME    .UNIT     VALUE                         : DESCRIPTION
#_______________________________________________________________________________
STRT               .M        880                           : First reference value
STOP               .M        1210                          : Last reference value
STEP               .M        0.2                           : Step increment
NULL               .         -9999                         : Missing value
COMP               .                                       : Company
WELL               .         5575                          : Well name
FLD                .         UZEN                          : Field
LOC                .                                       : Location
CNTY               .                                       : County
STAT               .                                       : State
CTRY               .                                       : Country
SRVC               .                                       : Service Company
DATE               .                                       : Date
UWI                .                                       : Unique Well ID
Block              .         7                             : 
Cartographic_reference_system .         GCS_WGS_1984                  : ESRI,PE_10_3_1- <?xml version="1.0" encoding="utf-16"?><ILateBoundCoordinateReferenceSystem name="GCS_WGS_1984"><AuthorityCode>EPSG,4326</AuthorityCode></ILateBoundCoordinateReferenceSystem>
Category           .         Нефтяная                      : 
Condition          .         В работе                      : 
EREF               .m        82.9                          : 100.8
Gorizont           .         14                            : 14
HZCS               .GCS_WGS_1984 WGS_1984_EASE-Grid_2.0_Global : ESRI,PE_10_3_1- <?xml version="1.0" encoding="utf-16"?><ILateBoundCoordinateReferenceSystem name="WGS_1984_EASE-Grid_2.0_Global"><AuthorityCode>EPSG,6933</AuthorityCode></ILateBoundCoordinateReferenceSystem>
Interpretator      .         Сагынбаева А.Н.               : 
Kupol              .         основной                      : osnovnoi
LATI               .dega     0.6568727471                  : GCS_WGS_1984
LONG               .dega     0.4417933813                  : GCS_WGS_1984
Mud                .         глинистый                     : 
Mud_density        .         1,22                          : 
Mud_resistivity    .         0                             : 
NGDU               .         НГДУ-2                        : 
ORIGINALWELLNAME   .         5575                          : 
Spud_date          .         1992                          : 1961
Viscosity          .         40                            : 
X                  .m        42627                         : 46154
Y                  .m        83797.63                      : 85761.93
YEAR               .         2019                          : 
~Parameter Information Block
#_______________________________________________________________________________
#
#PARAMETER_NAME    .UNIT     VALUE                         : DESCRIPTION
#_______________________________________________________________________________
SET                .         LQC_KAZNIPI_Petrel            : 
TLFamily_CALI      .         Caliper                       : 
TLFamily_CILD      .         Conductivity                  : 
TLFamily_COLL      .         Net Reservoir Flag            : 
TLFamily_CSAT      .         Fluid Code                    : 
TLFamily_DEPT      .         Measured Depth                : 
TLFamily_GR        .         Russian Gamma Ray             : 
TLFamily_LLS       .         Lateral Log Resistivity       : 
TLFamily_MINV      .         Micro Gradient Resistivity    : 
TLFamily_MNOR      .         Micro Resistivity             : 
TLFamily_NGLD      .         Neutron Gamma                 : 
TLFamily_PHIE      .         Effective Porosity            : 
TLFamily_PHIEN     .         Effective Porosity            : 
TLFamily_PHIT      .         Porosity                      : 
TLFamily_PRMB      .         Permeability                  : 
TLFamily_PRMB_DGR  .         Permeability                  : 
TLFamily_RT        .         Formation Resistivity         : 
TLFamily_SOIL_ARCHIE .         Oil Saturation                : 
TLFamily_SOIL_DW   .         Oil Saturation                : 
TLFamily_SP        .         Spontaneous Potential         : 
TLFamily_VSH_FIN   .         Shale Volume                  : 
TLFamily_VSH_GR    .         Shale Volume                  : 
TLFamily_VSH_SP    .         Shale Volume                  : 
~Curve Information
#_______________________________________________________________________________
#
#LOGNAME           .UNIT     LOG_ID                        : DESCRIPTION
#_______________________________________________________________________________
DEPT               .M                                      : Колонка глубины 
CALI               .м                                      : Каверномер 
CILD               .мСм/м                                  : Индукционный каротаж 
COLL               .unitless                               : Описание 
CSAT               .unitless                               :  
GR                 .uR/h                                   : Гамма каротаж 
LLS                .Ohmm                                   : Боковой каротаж 
MINV               .Ohmm                                   : Микро-градиент зонд 
MNOR               .Ohmm                                   : Микро-потенциал зонд 
NGLD               .у.е.                                   : Показания зонда НГК-60 аппаратуры ДРСТ-3-90 
PHIE               .v/v                                    : Описание 
PHIEN              .v/v                                    :  
PHIT               .v/v                                    : Описание 
PRMB               .mD                                     :  
PRMB_DGR           .mD                                     :  
RT                 .ohmm                                   : УЭС пласта 
SOIL_ARCHIE        .v/v                                    :  
SOIL_DW            .v/v                                    :  
SP                 .мВ                                     : Потенциал самополяризации 
VSH_FIN            .v/v                                    : Описание 
VSH_GR             .v/v                                    : Shale volume 
VSH_SP             .v/v                                    : Shale Volume 
~Ascii
# ...
1078.4     
  0.211      118.11     1          2          8.303      6.296      
  1.347      1.968      1.336      0.2149276  0.2149276  0.2676136  
  26.80019   10.0239    7.62       0.6710067  0.7258362  58.674     
  0.1596547  0.2531381  0.1596547 
1078.6     
  0.211      119.38     1          2          8.252      6.027      
  1.372      1.956      1.323      0.2211957  0.2211957  0.2729098  
  35.01376   10.63869   7.539      0.6775283  0.7307565  58.166     
  0.1567095  0.2470595  0.1567095 
1078.8     
  0.212      119.38     1          2          8.227      6.16       
  1.588      1.905      1.311      0.2260845  0.2260845  0.2777986  
  43.13111   10.95368   7.539      0.68361    0.7359524  58.166     
  0.1567095  0.2441334  0.1567095 
1079       
  0.212      121.92     1          2          7.922      6.824      
  1.588      1.905      1.3        0.2305659  0.2305659  0.28228    
  52.21526   15.63723   7.382      0.685886   0.7377971  58.166     
  0.1567095  0.2111052  0.1567095 
1079.2     
  0.211      129.54     1          2          7.922      6.824      
  1.27       2.032      1.3        0.2308011  0.2308011  0.28228    
  52.74164   15.63723   6.948      0.6771134  0.7298484  58.039     
  0.1559969  0.2111052  0.1559969 
1079.4     
  0.211      129.54     1          2          8.278      5.768      
  1.182      2.21       1.311      0.2267808  0.2267808  0.2777986  
  44.43132   10.3207    6.948      0.6721338  0.7253084  57.785     
  0.1545993  0.2501399  0.1545993 
1079.6     
  0.211      134.62     1          2          8.151      5.768      
  1.359      2.388      1.29       0.2363965  0.2363965  0.286354   
  66.95687   11.9697    6.685      0.6780019  0.729606   57.174     
  0.1513864  0.235449   0.1513864 
1079.8     
  0.211      140.97     1          2          8.151      5.768      
  1.385      1.994      1.27       0.2456129  0.2456129  0.294502   
  99.1984    11.9697    6.384      0.6817444  0.7321181  56.515     
  0.1481488  0.235449   0.1481488 
1080       
  0.212      146.05     1          2          8.608      5.206      
  1.385      1.994      1.293      0.2362427  0.2362427  0.2851318  
  66.51904   7.021613   6.162      0.6652644  0.7175912  56.515     
  0.1481488  0.2927425  0.1481488 
1080.2     
  0.21       154.94     1          2          8.608      5.206      
  1.372      2.07       1.293      0.2362427  0.2362427  0.2851318  
  66.51904   7.021613   5.809      0.6558684  0.709137   56.515     
  0.1481488  0.2927425  0.1481488 
1080.4     
  0.21       154.94     1          2          8.76       5.094      
  1.436      2.248      1.328      0.2221809  0.2221809  0.2708728  
  36.51638   5.880177   5.809      0.6369747  0.6925199  56.388     
  0.1475512  0.314736   0.1475512 
1080.6     
  0.21       157.48     1          2          8.455      5.361      
  1.436      2.197      1.346      0.2142477  0.2142477  0.2635396  
  26.03432   8.394414   5.715      0.6224152  0.6801742  56.769     
  0.1493693  0.2721561  0.1493693 
1080.8     
  0.209      160.02     1          2          8.43       5.643      
  1.423      2.286      1.336      0.2151753  0.2151753  0.2676136  
  27.08483   8.642954   5.624      0.6209891  0.6810267  58.547     
  0.1589041  0.2689328  0.1589041 
1081       
  0.208      161.29     1          2          8.481      5.48       
  1.423      2.286      1.346      0.2111013  0.2111013  0.2635396  
  22.76489   8.143504   5.58       0.6132034  0.674304   58.547     
  0.1589041  0.2755494  0.1589041 
1081.2     
  0.208      165.1      1          2          8.481      5.48       
  1.27       2.172      1.346      0.2111013  0.2111013  0.2635396  
  22.76489   8.143504   5.451      0.6089346  0.6704727  58.547     
  0.1589041  0.2755494  0.1589041 
1081.4     
  0.208      165.1      1          2          8.328      5.361      
  1.385      2.184      1.311      0.2253603  0.2253603  0.2777986  
  41.81931   9.735641   5.451      0.6305751  0.6890513  58.547     
  0.1589041  0.2561722  0.1589041 
1081.6     
  0.208      157.48     1          2          8.354      5.643      
  1.524      2.35       1.336      0.2141652  0.2141652  0.2676136  
  25.9428    9.444647   5.715      0.6222884  0.6829489  59.055     
  0.1619649  0.2593662  0.1619649 
1081.8     
  0.209      147.32     1          2          8.176      5.48       
  1.448      2.172      1.326      0.2182392  0.2182392  0.2716876  
  30.86576   11.62549   6.109      0.6398814  0.6984164  59.055     
  0.1619649  0.238271   0.1619649 
1082       
  0.21       140.97     1          2          8.074      6.027      
  1.448      2.172      1.331      0.2197334  0.2197334  0.2696506  
  32.89677   13.09523   6.384      0.6493361  0.7045476  57.15      
  0.1512644  0.2269654  0.1512644 
1082.2     
  0.208      120.65     1          2          8.074      6.027      
  1.448      2.134      1.331      0.2197334  0.2197334  0.2696506  
  32.89677   13.09523   7.46       0.6740528  0.7266844  57.15      
  0.1512644  0.2269654  0.1512644 
1082.4     
  0.208      120.65     1          2          8.1        5.81       
  1.448      2.121      1.344      0.2144372  0.2144372  0.2643544  
  26.24548   12.70382   7.46       0.6670524  0.7206715  57.15      
  0.1512644  0.2297952  0.1512644 
1082.6     
  0.208      110.49     1          2          8.074      6.027      
  1.144      1.943      1.354      0.2103632  0.2103632  0.2602804  
  22.05943   13.09523   8.146      0.6751351  0.7280895  57.15      
  0.1512644  0.2269654  0.1512644 
1082.8     
  0.207      101.6      1          2          8.227      8.133      
  1.131      1.816      1.356      0.2099681  0.2099681  0.2594656  
  21.6909    10.95368   8.858      0.6871497  0.738566   56.896     
  0.1499923  0.2441334  0.1499923 
1083       
  0.208      92.71      1          2          8.506      9.076      
  1.131      1.816      1.354      0.2109885  0.2109885  0.2602804  
  22.65571   7.909326   9.708      0.7015793  0.7512348  56.769     
  0.1493693  0.2788521  0.1493693 
1083.2     
  0.209      87.63      1          2          8.506      9.076      
  0.966      1.892      1.354      0.2116454  0.2116454  0.2602804  
  23.29942   7.909326   10.27      0.7101429  0.758454   56.351     
  0.1473787  0.2788521  0.1473787 
1083.4     
  0.209      87.63      1          2          8.125      7.45       
  0.991      1.854      1.359      0.2101267  0.2101267  0.2582434  
  21.83811   12.3385    10.27      0.7083191  0.756616   56.007     
  0.1458081  0.2325495  0.1458081 
1083.6     
  0.209      85.09      1          2          7.795      7.235      
  1.182      1.892      1.356      0.211349   0.211349   0.2594656  
  23.00665   18.1357    10.577     0.7137725  0.7614124  56.007     
  0.1458081  0.1987068  0.1458081 
1083.8     
  0.21       81.28      1          2          7.668      8.498      
  0.89       1.562      1.351      0.2133859  0.2133859  0.2615026  
  25.09478   21.03335   11.073     0.7221927  0.7688066  56.007     
  0.1458081  0.1870365  0.1458081 
1084       
  0.21       73.66      1          2          7.77       9.277      
  0.89       1.562      1.318      0.2280799  0.2280799  0.2749468  
  46.96252   18.67267   12.218     0.749677   0.7921196  55.118     
  0.1420209  0.1963533  0.1420209 
1084.2     
  0.212      64.77      1          2          7.77       9.277      
  1.016      1.829      1.318      0.2290533  0.2290533  0.2749468  
  48.95316   18.67267   13.895     0.7652111  0.8054186  54.356     
  0.1390713  0.1963533  0.1390713 
1084.4     
  0.212      64.77      1          2          7.795      9.835      
  1.016      1.829      1.326      0.2263253  0.2263253  0.2716876  
  43.57644   18.1357    13.895     0.7627482  0.8030797  53.909     
  0.1374615  0.1987068  0.1374615 
1084.6     
  0.212      64.77      1          2          7.338      10.582     
  0.928      1.753      1.326      0.2269611  0.2269611  0.2716876  
  44.77417   30.91582   13.895     0.7633271  0.8033135  53.34      
  0.135535   0.1598172  0.135535  
