~Version
 VERS              .         2.0                           : CWLS LOG ASCII STANDARD - VERSION 2.0
 WRAP              .         YES                            : ONE LINE PER DEPTH STEP
 DLM               .         SPACE                         : DELIMITING CHARACTER(SPACE TAB OR COMMA)
~Well Information
#_______________________________________________________________________________
#
#PARAMETER_NAME    .UNIT     VALUE                         : DESCRIPTION
#_______________________________________________________________________________
STRT               .M        880                           : First reference value
STOP               .M        1210                          : Last reference value
STEP               .M        0.2                           : Step increment
NULL               .         -9999                         : Missing value
COMP               .                                       : Company
WELL               .         5575                          : Well name
FLD                .         UZEN                          : Field
LOC                .                                       : Location
CNTY               .                                       : County
STAT               .                                       : State
CTRY               .                                       : Country
SRVC               .                                       : Service Company
DATE               .                                       : Date
UWI                .                                       : Unique Well ID
Block              .         7                             : 
Cartographic_reference_system .         GCS_WGS_1984                  : ESRI,PE_10_3_1- <?xml version="1.0" encoding="utf-16"?><ILateBoundCoordinateReferenceSystem name="GCS_WGS_1984"><AuthorityCode>EPSG,4326</AuthorityCode></ILateBoundCoordinateReferenceSystem>
Category           .         Нефтяная                      : 
Condition          .         В работе                      : 
EREF               .m        82.9                          : 100.8
Gorizont           .         14                            : 14
HZCS               .GCS_WGS_1984 WGS_1984_EASE-Grid_2.0_Global : ESRI,PE_10_3_1- <?xml version="1.0" encoding="utf-16"?><ILateBoundCoordinateReferenceSystem name="WGS_1984_EASE-Grid_2.0_Global"><AuthorityCode>EPSG,6933</AuthorityCode></ILateBoundCoordinateReferenceSystem>
Interpretator      .         Сагынбаева А.Н.               : 
Kupol              .         основной                      : osnovnoi
LATI               .dega     0.6568727471                  : GCS_WGS_1984
LONG               .dega     0.4417933813                  : GCS_WGS_1984
Mud                .         глинистый                     : 
Mud_density        .         1,22                          : 
Mud_resistivity    .         0                             : 
NGDU               .         НГДУ-2                        : 
ORIGINALWELLNAME   .         5575                          : 
Spud_date          .         1992                          : 1961
Viscosity          .         40                            : 
X                  .m        42627                         : 46154
Y                  .m        83797.63                      : 85761.93
YEAR               .         2019                          : 
~Parameter Information Block
#_______________________________________________________________________________
#
#PARAMETER_NAME    .UNIT     VALUE                         : DESCRIPTION
#_______________________________________________________________________________
SET                .         LQC_KAZNIPI_Petrel            : 
TLFamily_CALI      .         Caliper                       : 
TLFamily_CILD      .         Conductivity                  : 
TLFamily_COLL      .         Net Reservoir Flag            : 
TLFamily_CSAT      .         Fluid Code                    : 
TLFamily_DEPT      .         Measured Depth                : 
TLFamily_GR        .         Russian Gamma Ray             : 
TLFamily_LLS       .         Lateral Log Resistivity       : 
TLFamily_MINV      .         Micro Gradient Resistivity    : 
TLFamily_MNOR      .         Micro Resistivity             : 
TLFamily_NGLD      .         Neutron Gamma                 : 
TLFamily_PHIE      .         Effective Porosity            : 
TLFamily_PHIEN     .         Effective Porosity            : 
TLFamily_PHIT      .         Porosity                      : 
TLFamily_PRMB      .         Permeability                  : 
TLFamily_PRMB_DGR  .         Permeability                  : 
TLFamily_RT        .         Formation Resistivity         : 
TLFamily_SOIL_ARCHIE .         Oil Saturation                : 
TLFamily_SOIL_DW   .         Oil Saturation                : 
TLFamily_SP        .         Spontaneous Potential         : 
TLFamily_VSH_FIN   .         Shale Volume                  : 
TLFamily_VSH_GR    .         Shale Volume                  : 
TLFamily_VSH_SP    .         Shale Volume                  : 
~Curve Information
#_______________________________________________________________________________
#
#LOGNAME           .UNIT     LOG_ID                        : DESCRIPTION
#_______________________________________________________________________________
DEPT               .M                                      : Колонка глубины 
CALI               .м                                      : Каверномер 
CILD               .мСм/м                                  : Индукционный каротаж 
COLL               .unitless                               : Описание 
CSAT               .unitless                               :  
GR                 .uR/h                                   : Гамма каротаж 
LLS                .Ohmm                                   : Боковой каротаж 
MINV               .Ohmm                                   : Микро-градиент зонд 
MNOR               .Ohmm                                   : Микро-потенциал зонд 
NGLD               .у.е.                                   : Показания зонда НГК-60 аппаратуры ДРСТ-3-90 
PHIE               .v/v                                    : Описание 
PHIEN              .v/v                                    :  
PHIT               .v/v                                    : Описание 
PRMB               .mD                                     :  
PRMB_DGR           .mD                                     :  
RT                 .ohmm                                   : УЭС пласта 
SOIL_ARCHIE        .v/v                                    :  
SOIL_DW            .v/v                                    :  
SP                 .мВ                                     : Потенциал самополяризации 
VSH_FIN            .v/v                                    : Описание 
VSH_GR             .v/v                                    : Shale volume 
VSH_SP             .v/v                                    : Shale Volume 
~Ascii
880.0      
  0.303      278.13     -9999      -9999      4.112      2.737      
  1.131      1.346      1.567      -9999      -9999      -9999      
  -9999      -9999      3.236      -9999      -9999      79.502     
  -9999      0.02       0.8       
880.2000000000001 
  0.291      280.67     -9999      -9999      4.112      2.944      
  1.169      1.854      1.567      -9999      -9999      -9999      
  -9999      -9999      3.207      -9999      -9999      79.502     
  -9999      0.02       0.8       
880.4      
  0.275      283.21     -9999      -9999      4.112      2.619      
  1.016      1.562      1.567      -9999      -9999      -9999      
  -9999      -9999      3.178      -9999      -9999      79.502     
  -9999      0.02       0.8       
880.6      
  0.258      245.11     -9999      -9999      4.112      2.543      
  2.896      1.803      1.567      -9999      -9999      -9999      
  -9999      -9999      3.672      -9999      -9999      79.248     
  -9999      0.02       0.8       
880.8      
  0.24       228.6      -9999      -9999      4.112      2.881      
  2.236      1.854      1.567      -9999      -9999      -9999      
  -9999      -9999      3.937      -9999      -9999      78.74      
  -9999      0.02       0.8       
881        
  0.24       228.6      -9999      -9999      4.112      3.237      
  2.236      1.854      1.567      -9999      -9999      -9999      
  -9999      -9999      3.937      -9999      -9999      78.74      
  -9999      0.02       0.8       
881.2000000000001 
  0.236      218.44     -9999      -9999      4.112      3.237      
  3.29       4.686      1.567      -9999      -9999      -9999      
  -9999      -9999      4.12       -9999      -9999      78.232     
  -9999      0.02       0.8       
881.4      
  0.236      212.09     -9999      -9999      4.112      3.309      
  2.731      3.759      1.567      -9999      -9999      -9999      
  -9999      -9999      4.243      -9999      -9999      77.216     
  -9999      0.02       0.8       
881.6      
  0.236      181.61     -9999      -9999      4.112      4.632      
  4.89       1.956      1.567      -9999      -9999      -9999      
  -9999      -9999      4.956      -9999      -9999      75.565     
  -9999      0.02       0.8       
881.8      
  0.235      166.37     -9999      -9999      4.112      3.534      
  4.077      4.94       1.567      -9999      -9999      -9999      
  -9999      -9999      5.41       -9999      -9999      74.168     
  -9999      0.02       0.8       
882        
  0.235      166.37     -9999      -9999      4.112      5.768      
  4.077      4.94       1.567      0.07207126 0.07207126 0.1735042  
  0.06054701 555.6254   5.41       0          0.3484904  74.168     
  0.3073725  0.04912789 0.3073725 
882.2000000000001 
  0.235      146.05     -9999      -9999      4.112      5.768      
  3.214      4.293      1.567      0.07967204 0.07967204 0.1735042  
  0.0837293  555.6254   6.162      0.1373448  0.4118803  72.771     
  0.2843398  0.04912789 0.2843398 
882.4      
  0.226      133.35     -9999      -9999      4.112      7.956      
  3.836      4.496      1.567      0.08720298 0.08720298 0.1735042  
  0.1154433  555.6254   6.749      0.2359363  0.4570349  71.247     
  0.2615188  0.04912789 0.2615188 
882.6      
  0.223      132.08     1          3          4.112      10.659     
  2.439      3.607      1.567      0.09398147 0.09398147 0.1735042  
  0.1541427  555.6254   6.814      0.2873756  0.4751037  69.723     
  0.2409779  0.04912789 0.2409779 
882.8      
  0.22       139.7      1          3          4.112      10.054     
  2.401      3.556      1.567      0.09957055 0.09957055 0.1735042  
  0.1956348  555.6254   6.442      0.3042536  0.4723017  68.326     
  0.2240413  0.04912789 0.2240413 
883        
  0.22       139.7      1          3          4.112      8.015      
  2.401      3.556      1.567      0.09957055 0.09957055 0.1735042  
  0.1956348  555.6254   6.442      0.3042536  0.4723017  68.326     
  0.2240413  0.04912789 0.2240413 
883.2000000000001 
  0.221      149.86     1          3          4.112      8.015      
  2.223      3.073      1.567      0.1037228  0.1037228  0.1735042  
  0.2335369  555.6254   6.006      0.3061275  0.4622941  67.183     
  0.2114588  0.04912789 0.2114588 
883.4      
  0.223      171.45     1          3          4.112      6.628      
  2.731      3.099      1.567      0.1075158  0.1075158  0.1735042  
  0.2745437  555.6254   5.249      0.2836085  0.4330486  66.04      
  0.1999648  0.04912789 0.1999648 
883.6      
  0.222      245.11     1          3          4.112      6.296      
  1.855      2.896      1.567      0.1094744  0.1094744  0.1735042  
  0.2984629  555.6254   3.672      0.1660516  0.3270654  65.405     
  0.1940295  0.04912789 0.1940295 
883.8      
  0.221      297.18     1          3          4.112      5.057      
  1.728      2.489      1.567      0.1106004  0.1106004  0.1735042  
  0.3131447  555.6254   3.028      0.09516763 0.2620102  65.024     
  0.1906177  0.04912789 0.1906177 
884        
  0.221      297.18     1          3          4.112      2.658      
  1.728      2.489      1.567      0.1106004  0.1106004  0.1735042  
  0.3131447  555.6254   3.028      0.09516763 0.2620102  65.024     
  0.1906177  0.04912789 0.1906177 
884.2000000000001 
  0.219      332.74     1          3          4.112      2.658      
  1.626      2.007      1.567      0.1116902  0.1116902  0.1735042  
  0.328043   555.6254   2.705      0.05409425 0.2222851  64.643     
  0.1873153  0.04912789 0.1873153 
884.4      
  0.22       383.54     1          3          4.112      2.057      
  1.893      2.045      1.567      0.1127445  0.1127445  0.1735042  
  0.3431302  555.6254   2.347      0          0.1682508  64.262     
  0.1841204  0.04912789 0.1841204 
884.6      
  0.221      461.01     1          3          4.112      1.871      
  1.601      1.892      1.567      0.1130881  0.1130881  0.1735042  
  0.3481967  555.6254   1.952      0          0.08909691 64.135     
  0.183079   0.04912789 0.183079  
884.8      
  0.223      487.68     1          3          4.112      1.791      
  1.69       1.867      1.567      0.113428   0.113428   0.1735042  
  0.35328    555.6254   1.845      0          0.0641971  64.008     
  0.1820492  0.04912789 0.1820492 
885        
  0.223      487.68     1          3          4.112      1.804      
  1.69       1.867      1.567      0.113428   0.113428   0.1735042  
  0.35328    555.6254   1.845      0          0.0641971  64.008     
  0.1820492  0.04912789 0.1820492 
885.2000000000001 
  0.223      502.92     1          3          4.112      1.804      
  1.664      2.045      1.567      0.113428   0.113428   0.1735042  
  0.35328    555.6254   1.79       0          0.049929   64.008     
  0.1820492  0.04912789 0.1820492 
885.4      
  0.22       515.62     1          3          4.112      1.94       
  1.69       1.994      1.567      0.113428   0.113428   0.1735042  
  0.35328    555.6254   1.745      0          0.03775678 64.008     
  0.1820492  0.04912789 0.1820492 
885.6      
  0.218      524.51     1          3          4.112      1.94       
  1.766      2.057      1.567      0.113428   0.113428   0.1735042  
  0.35328    555.6254   1.716      0          0.02965999 64.008     
  0.1820492  0.04912789 0.1820492 
885.8      
  0.218      523.24     1          3          4.112      1.926      
  1.677      2.007      1.567      0.113428   0.113428   0.1735042  
  0.35328    555.6254   1.72       0          0.03078897 64.008     
  0.1820492  0.04912789 0.1820492 
886        
  0.218      523.24     1          3          4.112      1.926      
  1.677      2.007      1.567      0.113428   0.113428   0.1735042  
  0.35328    555.6254   1.72       0          0.03078897 64.008     
  0.1820492  0.04912789 0.1820492 
886.2000000000001 
  0.218      520.7      1          3          4.112      1.913      
  1.677      1.854      1.567      0.1130881  0.1130881  0.1735042  
  0.3481967  555.6254   1.728      0          0.03185544 64.135     
  0.183079   0.04912789 0.183079  
