~Version
 VERS              .         2.0                           : CWLS LOG ASCII STANDARD - VERSION 2.0
 WRAP              .         YES                            : ONE LINE PER DEPTH STEP
 DLM               .         SPACE                         : DELIMITING CHARACTER(SPACE TAB OR COMMA)
~Well Information
#_______________________________________________________________________________
#
#PARAMETER_NAME    .UNIT     VALUE                         : DESCRIPTION
#_______________________________________________________________________________
STRT               .M        880                           : First reference value
STOP               .M        1210                          : Last reference value
STEP               .M        0.2                           : Step increment
NULL               .         -9999                         : Missing value
COMP               .                                       : Company
WELL               .         5575                          : Well name
FLD                .         UZEN                          : Field
LOC                .                                       : Location
CNTY               .                                       : County
STAT               .                                       : State
CTRY               .                                       : Country
SRVC               .                                       : Service Company
DATE               .                                       : Date
UWI                .                                       : Unique Well ID
Block              .         7                             : 
Cartographic_reference_system .         GCS_WGS_1984                  : ESRI,PE_10_3_1- <?xml version="1.0" encoding="utf-16"?><ILateBoundCoordinateReferenceSystem name="GCS_WGS_1984"><AuthorityCode>EPSG,4326</AuthorityCode></ILateBoundCoordinateReferenceSystem>
Category           .         Нефтяная                      : 
Condition          .         В работе                      : 
EREF               .m        82.9                          : 100.8
Gorizont           .         14                            : 14
HZCS               .GCS_WGS_1984 WGS_1984_EASE-Grid_2.0_Global : ESRI,PE_10_3_1- <?xml version="1.0" encoding="utf-16"?><ILateBoundCoordinateReferenceSystem name="WGS_1984_EASE-Grid_2.0_Global"><AuthorityCode>EPSG,6933</AuthorityCode></ILateBoundCoordinateReferenceSystem>
Interpretator      .         Сагынбаева А.Н.               : 
Kupol              .         основной                      : osnovnoi
LATI               .dega     0.6568727471                  : GCS_WGS_1984
LONG               .dega     0.4417933813                  : GCS_WGS_1984
Mud                .         глинистый                     : 
Mud_density        .         1,22                          : 
Mud_resistivity    .         0                             : 
NGDU               .         НГДУ-2                        : 
ORIGINALWELLNAME   .         5575                          : 
Spud_date          .         1992                          : 1961
Viscosity          .         40                            : 
X                  .m        42627                         : 46154
Y                  .m        83797.63                      : 85761.93
YEAR               .         2019                          : 
~Parameter Information Block
#_______________________________________________________________________________
#
#PARAMETER_NAME    .UNIT     VALUE                         : DESCRIPTION
#_______________________________________________________________________________
SET                .         LQC_KAZNIPI_Petrel            : 
TLFamily_CALI      .         Caliper                       : 
TLFamily_CILD      .         Conductivity                  : 
TLFamily_COLL      .         Net Reservoir Flag            : 
TLFamily_CSAT      .         Fluid Code                    : 
TLFamily_DEPT      .         Measured Depth                : 
TLFamily_GR        .         Russian Gamma Ray             : 
TLFamily_LLS       .         Lateral Log Resistivity       : 
TLFamily_MINV      .         Micro Gradient Resistivity    : 
TLFamily_MNOR      .         Micro Resistivity             : 
TLFamily_NGLD      .         Neutron Gamma                 : 
TLFamily_PHIE      .         Effective Porosity            : 
TLFamily_PHIEN     .         Effective Porosity            : 
TLFamily_PHIT      .         Porosity                      : 
TLFamily_PRMB      .         Permeability                  : 
TLFamily_PRMB_DGR  .         Permeability                  : 
TLFamily_RT        .         Formation Resistivity         : 
TLFamily_SOIL_ARCHIE .         Oil Saturation                : 
TLFamily_SOIL_DW   .         Oil Saturation                : 
TLFamily_SP        .         Spontaneous Potential         : 
TLFamily_VSH_FIN   .         Shale Volume                  : 
TLFamily_VSH_GR    .         Shale Volume                  : 
TLFamily_VSH_SP    .         Shale Volume                  : 
~Curve Information
#_______________________________________________________________________________
#
#LOGNAME           .UNIT     LOG_ID                        : DESCRIPTION
#_______________________________________________________________________________
DEPT               .M                                      : Колонка глубины 
CALI               .м                                      : Каверномер 
CILD               .мСм/м                                  : Индукционный каротаж 
COLL               .unitless                               : Описание 
CSAT               .unitless                               :  
GR                 .uR/h                                   : Гамма каротаж 
LLS                .Ohmm                                   : Боковой каротаж 
MINV               .Ohmm                                   : Микро-градиент зонд 
MNOR               .Ohmm                                   : Микро-потенциал зонд 
NGLD               .у.е.                                   : Показания зонда НГК-60 аппаратуры ДРСТ-3-90 
PHIE               .v/v                                    : Описание 
PHIEN              .v/v                                    :  
PHIT               .v/v                                    : Описание 
PRMB               .mD                                     :  
PRMB_DGR           .mD                                     :  
RT                 .ohmm                                   : УЭС пласта 
SOIL_ARCHIE        .v/v                                    :  
SOIL_DW            .v/v                                    :  
SP                 .мВ                                     : Потенциал самополяризации 
VSH_FIN            .v/v                                    : Описание 
VSH_GR             .v/v                                    : Shale volume 
VSH_SP             .v/v                                    : Shale Volume 
~Ascii
# ...
1116.8     
  0.21       135.89     1          2          7.998      6.579      
  1.537      2.324      1.267      0.2537216  0.2537216  0.2957242  
  140.1835   14.3099    6.623      0.6959116  0.7412149  50.292     
  0.1272807  0.2188917  0.1272807 
1117       
  0.209      149.86     1          2          8.354      4.875      
  1.423      2.223      1.229      0.2692028  0.2692028  0.3112054  
  271.2979   9.444647   6.006      0.6976386  0.7426658  50.292     
  0.1272807  0.2593662  0.1272807 
1117.2     
  0.208      176.53     1          2          8.633      3.432      
  1.398      2.095      1.219      0.2732768  0.2732768  0.3152794  
  322.7803   6.819688   5.098      0.6777079  0.7245333  50.292     
  0.1272807  0.2962513  0.1272807 
1117.4     
  0.208      176.53     1          2          8.787      3.432      
  1.398      2.095      1.212      0.2759407  0.2759407  0.3181312  
  361.6167   5.697766   5.098      0.6804194  0.7270836  50.546     
  0.1278502  0.318812   0.1278502 
1117.6     
  0.208      189.23     1          2          9.091      3.383      
  1.423      2.083      1.232      0.2676963  0.2676963  0.3099832  
  254.4151   3.995874   4.756      0.6609952  0.7094718  50.673     
  0.1281421  0.3685157  0.1281421 
1117.8     
  0.208      194.31     1          2          8.43       3.612      
  1.524      2.286      1.232      0.2678874  0.2678874  0.3099832  
  256.497    8.642954   4.632      0.6569796  0.7056981  50.419     
  0.127563   0.2689328  0.127563  
1118       
  0.209      198.12     1          2          8.43       3.886      
  1.448      2.172      1.25       0.2605542  0.2605542  0.30265    
  187.6091   8.642954   4.543      0.6453725  0.6951342  50.419     
  0.127563   0.2689328  0.127563  
1118.2     
  0.211      198.12     1          2          8.252      4.433      
  1.537      2.324      1.266      0.2540358  0.2540358  0.2961316  
  142.0747   10.63869   4.543      0.6374602  0.6879508  50.419     
  0.127563   0.2470595  0.127563  
1118.4     
  0.211      198.12     1          2          8.239      4.433      
  1.537      2.324      1.28       0.248517   0.248517   0.290428   
  112.2781   10.80133   4.543      0.6304582  0.681482   50.165     
  0.1270032  0.2455336  0.1270032 
1118.6     
  0.211      198.12     1          2          8.227      4.565      
  1.55       2.388      1.285      0.24648    0.24648    0.288391   
  102.9354   10.95368   4.543      0.6277997  0.6790696  50.165     
  0.1270032  0.2441334  0.1270032 
1118.8     
  0.212      199.39     1          2          7.719      4.305      
  1.461      2.159      1.29       0.244443   0.244443   0.286354   
  94.37021   19.8179    4.514      0.6239714  0.6755832  50.165     
  0.1270032  0.1916383  0.1270032 
1119       
  0.213      204.47     1          2          7.421      4.091      
  1.537      2.286      1.266      0.2542205  0.2542205  0.2961316  
  143.1988   28.06139   4.402      0.6322894  0.6830906  50.165     
  0.1270032  0.1662658  0.1270032 
1119.2     
  0.212      222.25     1          2          7.185      3.333      
  1.563      2.095      1.247      0.2619612  0.2619612  0.3038722  
  199.2115   36.96017   4.049      0.62744    0.6785559  50.165     
  0.1270032  0.1485785  0.1270032 
1119.4     
  0.212      222.25     1          2          7.185      3.333      
  1.563      2.095      1.247      0.2616816  0.2616816  0.3038722  
  196.8507   36.96017   4.049      0.6270934  0.6784098  50.546     
  0.1278502  0.1485785  0.1278502 
1119.6     
  0.212      237.49     1          2          7.185      3.237      
  1.537      2.121      1.247      0.2608636  0.2608636  0.3038722  
  190.101    36.96017   3.79       0.6142941  0.6671599  51.562     
  0.1303292  0.1485785  0.1303292 
1119.8     
  0.212      246.38     1          2          7.185      3.144      
  1.651      2.108      1.247      0.2564852  0.2564852  0.3038722  
  157.7198   36.96017   3.653      0.6017442  0.6585289  55.499     
  0.143597   0.1485785  0.143597  
1120       
  0.211      257.81     1          2          7.135      2.988      
  1.575      2.007      1.211      0.2711516  0.2711516  0.3185386  
  294.8109   39.18124   3.491      0.6124095  0.6679751  55.499     
  0.143597   0.1450799  0.143597  
1120.2     
  0.212      275.59     1          2          7.227      3.144      
  1.524      2.261      1.193      0.2784848  0.2784848  0.3258718  
  403.0622   35.19207   3.266      0.6092879  0.6650127  55.499     
  0.143597   0.1515825  0.143597  
1120.4     
  0.212      275.59     1          2          7.287      3.144      
  1.524      2.261      1.181      0.2557772  0.2557772  0.3307606  
  153.0286   34.78707   3.266      0.5792447  0.6557495  58.293     
  0.2272224  0.1523007  0.3021441 
1120.6     
  0.212      288.29     1          2          7.414      3.214      
  1.715      2.248      1.158      0.2488904  0.2488904  0.3401308  
  114.0805   30.04088   3.122      0.5599082  0.6496291  62.865     
  0.2764862  0.1617018  0.3912706 
1120.8     
  0.213      302.26     -9999      -9999      7.462      3.144      
  1.715      2.21       1.099      0.250308   0.250308   0.3641674  
  121.1906   28.42072   2.978      0.5522674  0.6561714  68.072     
  0.3450286  0.1654042  0.524653  
1121       
  0.213      325.12     -9999      -9999      7.49       2.797      
  1.321      1.753      1.064      0.2642042  0.2642042  0.3784264  
  219.21     27.5163    2.768      0.5579361  0.6590003  68.072     
  0.346128   0.1676029  0.524653  
1121.2     
  0.228      369.57     -9999      -9999      7.44       1.913      
  0.521      0.914      1.071      0.2619969  0.2619969  0.3755746  
  199.5153   29.15215   2.435      0.5270874  0.6335455  68.072     
  0.3441749  0.1636968  0.524653  
1121.4     
  0.228      369.57     -9999      -9999      7.522      1.913      
  0.521      0.914      1.081      0.2568578  0.2568578  0.3715006  
  160.2465   26.51784   2.435      0.5188572  0.6281688  68.072     
  0.3474023  0.1701516  0.524653  
1121.6     
  0.228      391.16     -9999      -9999      7.566      1.664      
  0.775      1.168      1.087      0.2568352  0.2568352  0.3690562  
  160.0919   25.20386   2.301      0.5058681  0.6159907  67.437     
  0.3400635  0.1737194  0.5064076 
1121.8     
  0.237      379.73     -9999      -9999      7.49       1.752      
  1.22       1.524      1.105      0.2616296  0.2616296  0.361723   
  196.4141   27.5163    2.37       0.5204591  0.6200442  64.897     
  0.3033134  0.1676029  0.4390239 
1122       
  0.239      364.49     -9999      -9999      8.684      2.149      
  1.613      1.715      1.123      0.2333853  0.2333853  0.3543898  
  58.88711   6.928844   2.469      0.4803673  0.6051279  64.897     
  0.3666802  0.2943366  0.4390239 
1122.2     
  0.209      375.92     -9999      -9999      8.684      4.369      
  1.728      2.451      1.229      0.1902009  0.1902009  0.3112054  
  9.335571   6.928844   2.394      0.3699475  0.5293541  64.897     
  0.3666802  0.2943366  0.4390239 
1122.4     
  0.209      375.92     -9999      -9999      9.23       4.369      
  1.728      2.451      1.229      0.1705595  0.1705595  0.3112054  
  4.039557   3.687899   2.394      0.3072049  0.508551   66.167     
  0.4261998  0.3807846  0.4716149 
1122.6     
  0.209      403.86     -9999      -9999      8.887      3.83       
  1.753      2.235      1.275      0.1560534  0.1560534  0.292465   
  2.175936   5.480659   2.228      0.2257681  0.4522211  67.31      
  0.4133685  0.3239098  0.5028272 
1122.8     
  0.217      434.34     -9999      -9999      8.709      2.543      
  1.944      2.019      1.255      0.1598878  0.1598878  0.300613   
  2.56252    6.731637   2.072      0.215698   0.4466794  69.088     
  0.4264401  0.2978275  0.5550527 
1123       
  0.222      453.39     -9999      -9999      8.709      1.817      
  1.423      1.867      1.191      0.1859614  0.1859614  0.3266866  
  7.791368   6.731637   1.985      0.2984086  0.493486   69.088     
  0.4264401  0.2978275  0.5550527 
