~Version
 VERS              .         2.0                           : CWLS LOG ASCII STANDARD - VERSION 2.0
 WRAP              .         NO                            : ONE LINE PER DEPTH STEP
 DLM               .         SPACE                         : DELIMITING CHARACTER(SPACE TAB OR COMMA)
~Well Information
#_______________________________________________________________________________
#
#PARAMETER_NAME    .UNIT     VALUE                         : DESCRIPTION
#_______________________________________________________________________________
STRT               .M        890                           : First reference value
STOP               .M        1188                          : Last reference value
STEP               .M        0.1                           : Step increment
NULL               .         -9999                         : Missing value
COMP               .                                       : Company
WELL               .         6648                          : Well name
FLD                .         Узень                         : Field
LOC                .                                       : Location
CNTY               .                                       : County
STAT               .                                       : State
CTRY               .                                       : Country
SRVC               .         SCH                           : Service Company
DATE               .         04/29/2010                    : Date
UWI                .         6648                          : Unique Well ID
Block              .         7                             : 
Category           .         Нефтяная                      : 
Condition          .         В работе                      : 
Date               .         06.09.1991                    : 
EREF               .m        85.9                          : 100.8
Gorizont           .         15                            : 14
Interpretator      .         Бекбулатова А.А.              : 
Kupol              .         Основной                      : osnovnoi
Mud                .         0                             : 
Mud_density        .         0                             : 
Mud_resistivity    .         0                             : 
NGDU               .         НГДУ-2                        : 
ORIGINALWELLNAME   .         6648                          : 
Spud_date          .         1991                          : 1961
Viscosity          .         0                             : 
X                  .m        42343.1                       : 46154
Y                  .m        84189.43                      : 85761.93
YEAR               .         2018                          : 
Исправ_15гор       .         Исправ.15гор                  : 
~Parameter Information Block
#_______________________________________________________________________________
#
#PARAMETER_NAME    .UNIT     VALUE                         : DESCRIPTION
#_______________________________________________________________________________
SET                .         LQC_KAZNIPI_Petrel            : 
PBBOTTOM           .M        1188                          : Глубина подошвы планшета
PBSCALE            .         1 _ 500                       : Вертикальный масштаб планшета
PBTOP              .M        890                           : Глубина кровли планшета
TLFamily_CALI      .         Caliper                       : 
TLFamily_CILD      .         Conductivity                  : 
TLFamily_COLL      .         Net Reservoir Flag            : 
TLFamily_CSAT      .         Fluid Code                    : 
TLFamily_DEPT      .         Measured Depth                : 
TLFamily_GR        .         Russian Gamma Ray             : 
TLFamily_LLS       .         Lateral Log Resistivity       : 
TLFamily_MINV      .         Micro Gradient Resistivity    : 
TLFamily_MNOR      .         Micro Resistivity             : 
TLFamily_NGLD      .         Neutron Gamma                 : 
TLFamily_PHIE      .         Effective Porosity            : 
TLFamily_PHIEN     .         Effective Porosity            : 
TLFamily_PHIT      .         Porosity                      : 
TLFamily_PRMB      .         Permeability                  : 
TLFamily_PRMB_DGR  .         Permeability                  : 
TLFamily_RT        .         Formation Resistivity         : 
TLFamily_SOIL_ARCHIE .         Oil Saturation                : 
TLFamily_SOIL_DW   .         Oil Saturation                : 
TLFamily_SP        .         Spontaneous Potential         : 
TLFamily_VSH_FIN   .         Shale Volume                  : 
TLFamily_VSH_GR    .         Shale Volume                  : 
TLFamily_VSH_SP    .         Shale Volume                  : 
~Curve Information
#_______________________________________________________________________________
#
#LOGNAME           .UNIT     LOG_ID                        : DESCRIPTION
#_______________________________________________________________________________
DEPT               .M                                      : Колонка глубины 
CALI               .м                                      : Каверномер 
CILD               .мСм/м                                  : Индукционный каротаж 
COLL               .unitless                               : Описание 
CSAT               .unitless                               : Описание 
GR                 .uR/h                                   : Гамма каротаж 
LLS                .Ohmm                                   : Боковой каротаж 
MINV               .Ohmm                                   : Микро-градиент зонд 
MNOR               .Ohmm                                   : Микро-потенциал зонд 
NGLD               .у.е.                                   : Показания зонда НГК-60 аппаратуры ДРСТ-3-90 
PHIE               .д.ед.                                  : Описание 
PHIEN              .д.ед.                                  :  
PHIT               .д.ед.                                  : Описание 
PRMB               .mD                                     :  
PRMB_DGR           .mD                                     :  
RT                 .ohmm                                   : УЭС пласта 
SOIL_ARCHIE        .д.ед.                                  :  
SOIL_DW            .д.ед.                                  :  
SP                 .мВ                                     : Потенциал самополяризации 
VSH_FIN            .д.ед.                                  : Описание 
VSH_GR             .д.ед.                                  : Shale volume 
VSH_SP             .д.ед.                                  : Shale Volume 
~Ascii
# ...
1168.8     -9999      433.319    -9999      -9999      5.674      2.184      2.263      1.594      0.81       0.1163642  0.1163642  0.368223   0.4004095  32.13803   2.308      0.03037421 0.4883561  33.199     0.7632086  0.157307   0.7632086 
1168.9     -9999      440.319    -9999      -9999      5.65       2.222      2.279      1.617      0.814      0.1262305  0.1262305  0.3672162  0.6098921  33.54658   2.271      0.08984806 0.4976681  32.744     0.7302597  0.1545757  0.7302597 
1169       -9999      447.319    -9999      -9999      5.613      2.254      2.305      1.658      0.818      0.1382135  0.1382135  0.3662094  1.016734   35.84      2.236      0.1528199  0.5089777  32.178     0.6908967  0.1504575  0.6908967 
1169.1     -9999      455.319    -9999      -9999      5.563      2.266      2.344      1.723      0.822      0.1516845  0.1516845  0.3652026  1.806024   39.19028   2.196      0.2120911  0.5202572  31.515     0.6470245  0.1450662  0.6470245 
1169.2     -9999      462.319    -9999      -9999      5.511      2.253      2.397      1.807      0.824      0.1666649  0.1666649  0.3646992  3.421336   43.00722   2.163      0.2689663  0.5329784  30.763     0.600104   0.1396641  0.600104  
1169.3     -9999      468.319    -9999      -9999      5.464      2.226      2.46       1.892      0.824      0.1825792  0.1825792  0.3646992  6.744773   46.77602   2.135      0.3206449  0.5460799  29.936     0.5518789  0.1349547  0.5518789 
1169.4     -9999      473.319    -9999      -9999      5.425      2.21       2.52       1.956      0.823      0.198256   0.198256   0.3649509  13.16256   50.15285   2.113      0.3645969  0.5583702  29.072     0.505136   0.1311677  0.505136  
1169.5     -9999      477.319    -9999      -9999      5.393      2.232      2.554      1.978      0.822      0.2122304  0.2122304  0.3652026  23.88801   53.10487   2.095      0.3987861  0.5684953  28.241     0.4635521  0.1281399  0.4635521 
1169.6     -9999      480.319    -9999      -9999      5.368      2.304      2.542      1.956      0.819      0.2238191  0.2238191  0.3659577  39.15887   55.53154   2.082      0.4243113  0.5768256  27.535     0.4307231  0.1258231  0.4307231 
1169.7     -9999      483.319    -9999      -9999      5.348      2.42       2.479      1.914      0.814      0.2324762  0.2324762  0.3672162  56.64751   57.55247   2.069      0.4413887  0.5828303  27.023     0.4083031  0.1239999  0.4083031 
1169.8     -9999      484.319    -9999      -9999      5.335      2.553      2.384      1.89       0.808      0.238352   0.238352   0.3687264  72.78051   58.90534   2.065      0.4529051  0.5876554  26.708     0.395074   0.122829   0.395074  
1169.9     -9999      483.319    -9999      -9999      5.329      2.665      2.29       1.911      0.801      0.2428401  0.2428401  0.3704883  88.13441   59.54044   2.069      0.4622106  0.5923338  26.506     0.3868128  0.1222923  0.3868128 
1170       -9999      481.319    -9999      -9999      5.329      2.727      2.231      1.976      0.795      0.2471637  0.2471637  0.3719985  105.9812   59.54044   2.078      0.471491   0.5971169  26.293     0.3782873  0.1222923  0.3782873 
1170.1     -9999      479.319    -9999      -9999      -9999      2.718      2.219      2.053      0.791      0.2521542  0.2521542  0.3730053  131.1188   -9999      2.086      0.4815485  0.6018139  25.983     0.3662155  -9999      0.3662155 
1170.2     -9999      477.319    -9999      -9999      -9999      2.643      2.24       2.097      0.789      0.2575221  0.2575221  0.3735087  164.8515   -9999      2.095      0.4920009  0.6064175  25.59      0.3514744  -9999      0.3514744 
1170.3     -9999      476.319    -9999      -9999      -9999      2.529      2.264      2.079      0.788      0.262191   0.262191   0.3737604  201.1736   -9999      2.099      0.5003361  0.6098577  25.218     0.3380892  -9999      0.3380892 
1170.4     -9999      476.319    -9999      -9999      -9999      2.406      2.265      2.006      0.788      0.2649232  0.2649232  0.3737604  226.036    -9999      2.099      0.5048272  0.6115307  24.98      0.3298098  -9999      0.3298098 
1170.5     -9999      478.319    -9999      -9999      -9999      2.296      2.241      1.914      0.791      0.2649354  0.2649354  0.3730053  226.1541   -9999      2.091      0.5039591  0.610335   24.912     0.3274845  -9999      0.3274845 
1170.6     -9999      481.319    -9999      -9999      -9999      2.202      2.211      1.847      0.795      0.263478   0.263478   0.3719985  212.5245   -9999      2.078      0.5001093  0.6076023  24.952     0.3288502  -9999      0.3288502 
1170.7     -9999      485.319    -9999      -9999      -9999      2.119      2.195      1.826      0.799      0.2618595  0.2618595  0.3709917  198.3494   -9999      2.06       0.4953634  0.604256   25.006     0.3307036  -9999      0.3307036 
1170.8     -9999      489.319    -9999      -9999      -9999      2.039      2.201      1.835      0.803      0.2605227  0.2605227  0.3699849  187.3572   -9999      2.044      0.4912508  0.6012324  25.035     0.3317036  -9999      0.3317036 
1170.9     -9999      494.319    -9999      -9999      -9999      1.966      2.209      1.834      0.806      0.2590929  0.2590929  0.3692298  176.2735   -9999      2.023      0.4863231  0.5977721  25.094     0.3337482  -9999      0.3337482 
1171       -9999      499.319    -9999      -9999      -9999      1.911      2.197      1.787      0.809      0.2560761  0.2560761  0.3684747  154.9918   -9999      2.003      0.4786313  0.5933172  25.289     0.3406018  -9999      0.3406018 
1171.1     -9999      504.319    -9999      -9999      -9999      1.887      2.154      1.691      0.812      0.2502695  0.2502695  0.3677196  120.9918   -9999      1.983      0.4656008  0.5868863  25.71      0.3559095  -9999      0.3559095 
1171.2     -9999      508.319    -9999      -9999      -9999      1.903      2.096      1.575      0.815      0.241212   0.241212   0.3669645  82.22216   -9999      1.967      0.4460636  0.5783713  26.363     0.3810683  -9999      0.3810683 
1171.3     -9999      512.319    -9999      -9999      -9999      1.962      2.046      1.483      0.82       0.2286945  0.2286945  0.365706   48.20986   -9999      1.952      0.4176601  0.56658    27.183     0.4151863  -9999      0.4151863 
1171.4     -9999      514.319    -9999      -9999      -9999      2.057      2.017      1.45       0.825      0.2142457  0.2142457  0.3644475  26.03208   -9999      1.944      0.3824112  0.553188   28.065     0.4551569  -9999      0.4551569 
1171.5     -9999      514.319    -9999      -9999      -9999      2.174      2.001      1.48       0.83       0.1991352  0.1991352  0.363189   13.66549   -9999      1.944      0.34179    0.5390294  28.917     0.4971327  -9999      0.4971327 
1171.6     -9999      512.319    -9999      -9999      -9999      2.287      1.982      1.547      0.833      0.1850101  0.1850101  0.3624339  7.481602   -9999      1.952      0.299583   0.5259077  29.68      0.5376478  -9999      0.5376478 
1171.7     -9999      508.319    -9999      -9999      -9999      2.369      1.959      1.606      0.835      0.1723715  0.1723715  0.3619305  4.364124   -9999      1.967      0.2577317  0.5142227  30.33      0.5744211  -9999      0.5744211 
1171.8     -9999      503.319    -9999      -9999      -9999      2.397      1.959      1.615      0.833      0.1625578  0.1625578  0.3624339  2.871593   -9999      1.987      0.2225514  0.5062019  30.855     0.6056852  -9999      0.6056852 
1171.9     -9999      498.319    -9999      -9999      -9999      2.366      2.003      1.556      0.828      0.1560959  0.1560959  0.3636924  2.179885   -9999      2.007      0.1983708  0.502205   31.233     0.6290802  -9999      0.6290802 
1172       -9999      495.319    -9999      -9999      -9999      2.292      2.076      1.445      0.819      0.1544079  0.1544079  0.3659577  2.028463   -9999      2.019      0.1930041  0.5036086  31.422     0.64106    -9999      0.64106   
1172.1     -9999      493.319    -9999      -9999      -9999      2.204      2.127      1.322      0.809      0.1578088  0.1578088  0.3684747  2.345096   -9999      2.027      0.2096406  0.510703   31.38      0.6383814  -9999      0.6383814 
