~Version
 VERS              .         2.0                           : CWLS LOG ASCII STANDARD - VERSION 2.0
 WRAP              .         NO                            : ONE LINE PER DEPTH STEP
 DLM               .         SPACE                         : DELIMITING CHARACTER(SPACE TAB OR COMMA)
~Well Information
#_______________________________________________________________________________
#
#PARAMETER_NAME    .UNIT     VALUE                         : DESCRIPTION
#_______________________________________________________________________________
STRT               .M        890                           : First reference value
STOP               .M        1188                          : Last reference value
STEP               .M        0.1                           : Step increment
NULL               .         -9999                         : Missing value
COMP               .                                       : Company
WELL               .         6648                          : Well name
FLD                .         Узень                         : Field
LOC                .                                       : Location
CNTY               .                                       : County
STAT               .                                       : State
CTRY               .                                       : Country
SRVC               .         SCH                           : Service Company
DATE               .         04/29/2010                    : Date
UWI                .         6648                          : Unique Well ID
Block              .         7                             : 
Category           .         Нефтяная                      : 
Condition          .         В работе                      : 
Date               .         06.09.1991                    : 
EREF               .m        85.9                          : 100.8
Gorizont           .         15                            : 14
Interpretator      .         Бекбулатова А.А.              : 
Kupol              .         Основной                      : osnovnoi
Mud                .         0                             : 
Mud_density        .         0                             : 
Mud_resistivity    .         0                             : 
NGDU               .         НГДУ-2                        : 
ORIGINALWELLNAME   .         6648                          : 
Spud_date          .         1991                          : 1961
Viscosity          .         0                             : 
X                  .m        42343.1                       : 46154
Y                  .m        84189.43                      : 85761.93
YEAR               .         2018                          : 
Исправ_15гор       .         Исправ.15гор                  : 
~Parameter Information Block
#_______________________________________________________________________________
#
#PARAMETER_NAME    .UNIT     VALUE                         : DESCRIPTION
#_______________________________________________________________________________
SET                .         LQC_KAZNIPI_Petrel            : 
PBBOTTOM           .M        1188                          : Глубина подошвы планшета
PBSCALE            .         1 _ 500                       : Вертикальный масштаб планшета
PBTOP              .M        890                           : Глубина кровли планшета
TLFamily_CALI      .         Caliper                       : 
TLFamily_CILD      .         Conductivity                  : 
TLFamily_COLL      .         Net Reservoir Flag            : 
TLFamily_CSAT      .         Fluid Code                    : 
TLFamily_DEPT      .         Measured Depth                : 
TLFamily_GR        .         Russian Gamma Ray             : 
TLFamily_LLS       .         Lateral Log Resistivity       : 
TLFamily_MINV      .         Micro Gradient Resistivity    : 
TLFamily_MNOR      .         Micro Resistivity             : 
TLFamily_NGLD      .         Neutron Gamma                 : 
TLFamily_PHIE      .         Effective Porosity            : 
TLFamily_PHIEN     .         Effective Porosity            : 
TLFamily_PHIT      .         Porosity                      : 
TLFamily_PRMB      .         Permeability                  : 
TLFamily_PRMB_DGR  .         Permeability                  : 
TLFamily_RT        .         Formation Resistivity         : 
TLFamily_SOIL_ARCHIE .         Oil Saturation                : 
TLFamily_SOIL_DW   .         Oil Saturation                : 
TLFamily_SP        .         Spontaneous Potential         : 
TLFamily_VSH_FIN   .         Shale Volume                  : 
TLFamily_VSH_GR    .         Shale Volume                  : 
TLFamily_VSH_SP    .         Shale Volume                  : 
~Curve Information
#_______________________________________________________________________________
#
#LOGNAME           .UNIT     LOG_ID                        : DESCRIPTION
#_______________________________________________________________________________
DEPT               .M                                      : Колонка глубины 
CALI               .м                                      : Каверномер 
CILD               .мСм/м                                  : Индукционный каротаж 
COLL               .unitless                               : Описание 
CSAT               .unitless                               : Описание 
GR                 .uR/h                                   : Гамма каротаж 
LLS                .Ohmm                                   : Боковой каротаж 
MINV               .Ohmm                                   : Микро-градиент зонд 
MNOR               .Ohmm                                   : Микро-потенциал зонд 
NGLD               .у.е.                                   : Показания зонда НГК-60 аппаратуры ДРСТ-3-90 
PHIE               .д.ед.                                  : Описание 
PHIEN              .д.ед.                                  :  
PHIT               .д.ед.                                  : Описание 
PRMB               .mD                                     :  
PRMB_DGR           .mD                                     :  
RT                 .ohmm                                   : УЭС пласта 
SOIL_ARCHIE        .д.ед.                                  :  
SOIL_DW            .д.ед.                                  :  
SP                 .мВ                                     : Потенциал самополяризации 
VSH_FIN            .д.ед.                                  : Описание 
VSH_GR             .д.ед.                                  : Shale volume 
VSH_SP             .д.ед.                                  : Shale Volume 
~Ascii
# ...
1002.2     0.257      371.319    -9999      -9999      3.689      2.61       2.096      2.349      1.034      0.1626586  0.1626586  0.3118422  2.883967   2.414706   2.693      0.3167804  0.5285684  28.412     0.4520714  0.4526661  0.4514768 
1002.3     0.265      391.319    -9999      -9999      3.941      2.114      1.911      2.208      1.005      0.1574219  0.1574219  0.3191415  2.306709   1.676859   2.555      0.2794587  0.5167762  28.482     0.4900595  0.5253452  0.4547739 
1002.4     0.271      425.319    -9999      -9999      4.227      1.792      1.758      2.024      0.971      0.1491978  0.1491978  0.3276993  1.624286   1.108566   2.351      0.214922   0.4942567  28.587     0.5409138  0.6220661  0.4597615 
1002.5     0.277      455.319    -9999      -9999      4.509      1.621      1.662      1.817      0.936      0.1385976  0.1385976  0.3365088  1.033529   0.7371246  2.196      0.1356519  0.4711035  28.688     0.5997308  0.7348549  0.4646067 
1002.6     0.28       469.319    -9999      -9999      4.749      1.553      1.596      1.605      0.906      0.134809   0.134809   0.3440598  0.8793229  0.5208522  2.131      0.1019603  0.4652608  28.762     0.6340932  0.8        0.4681864 
1002.7     0.283      477.319    -9999      -9999      4.92       1.544      1.509      1.401      0.882      0.1404242  0.1404242  0.3501006  1.117263   0.4066781  2.095      0.1263612  0.4744684  28.815     0.635383   0.8        0.4707659 
1002.8     0.285      482.319    -9999      -9999      5.02       1.57       1.369      1.221      0.867      0.1437882  0.1437882  0.3538761  1.289626   0.3518894  2.073      0.1399395  0.4797828  28.866     0.6366301  0.8        0.4732603 
1002.9     0.286      484.319    -9999      -9999      5.059      1.592      1.194      1.079      0.859      0.1452092  0.1452092  0.3558897  1.3702     0.3325806  2.065      0.1457259  0.4825118  28.939     0.6384258  0.8        0.4768517 
1003       0.288      484.319    -9999      -9999      5.051      1.615      1.037      0.99       0.853      0.1462784  0.1462784  0.3573999  1.434131   0.3364531  2.065      0.151167   0.4852822  28.993     0.6397622  0.8        0.4795243 
1003.1     0.289      483.319    -9999      -9999      5.007      1.67       0.945      0.957      0.848      0.1470854  0.1470854  0.3586584  1.484352   0.3585719  2.069      0.1559915  0.4879566  29.048     0.6411303  0.8        0.4822605 
1003.2     0.29       479.319    -9999      -9999      4.931      1.727      0.93       0.974      0.843      0.1471592  0.1471592  0.3599169  1.489028   0.4002558  2.086      0.1595933  0.4912724  29.191     0.6447204  0.8        0.4894408 
1003.3     0.29       472.319    -9999      -9999      4.834      1.779      0.961      1.02       0.838      0.1471324  0.1471324  0.3611754  1.487331   0.4605712  2.117      0.1652588  0.4960949  29.344     0.6486151  0.8        0.4972302 
1003.4     0.289      465.319    -9999      -9999      4.728      1.815      0.993      1.068      0.835      0.146841   0.146841   0.3619305  1.468959   0.5369225  2.149      0.1696823  0.5001621  29.467     0.6517864  0.8        0.5035728 
1003.5     0.287      456.319    -9999      -9999      4.631      1.837      0.992      1.093      0.837      0.1474395  0.1474395  0.3614271  1.506935   0.6178324  2.191      0.1800992  0.5052733  29.535     0.6484474  0.7897845  0.5071104 
1003.6     0.284      446.319    -9999      -9999      4.556      1.85       0.957      1.088      0.845      0.1509627  0.1509627  0.3594135  1.751272   0.6886585  2.241      0.2052505  0.5133227  29.548     0.631669   0.7555489  0.5077892 
1003.7     0.28       436.319    -9999      -9999      4.505      1.868      0.907      1.061      0.857      0.1517551  0.1517551  0.3563931  1.811465   0.7414032  2.292      0.217176   0.5171307  29.535     0.6201153  0.7331203  0.5071104 
1003.8     0.273      425.319    -9999      -9999      4.473      1.911      0.864      1.024      0.871      0.150497   0.150497   0.3528693  1.716829   0.7765414  2.351      0.2208281  0.5187538  29.535     0.6132495  0.7193886  0.5071104 
1003.9     0.265      414.319    -9999      -9999      4.444      1.995      0.844      0.989      0.886      0.1484449  0.1484449  0.3490938  1.572961   0.8098224  2.414      0.2211802  0.5194111  29.569     0.608027   0.7071665  0.5088875 
1004       0.255      399.319    -9999      -9999      4.397      2.135      0.855      0.966      0.903      0.146929   0.146929   0.3448149  1.474479   0.8668153  2.504      0.2275689  0.5226362  29.619     0.5996544  0.6877978  0.5115108 
1004.1     0.246      384.319    -9999      -9999      4.315      2.329      0.921      0.971      0.922      0.1472883  0.1472883  0.3400326  1.497252   0.9760202  2.602      0.2429724  0.5280029  29.645     0.5840736  0.6552673  0.5128798 
1004.2     0.238      375.319    -9999      -9999      4.19       2.562      1.083      1.031      0.944      0.1497527  0.1497527  0.3344952  1.663188   1.169537   2.664      0.2620342  0.5316037  29.61      0.5598258  0.6086137  0.5110378 
1004.3     0.233      367.319    -9999      -9999      4.026      2.8        1.381      1.175      0.97       0.1534148  0.1534148  0.327951   1.94434    1.482787   2.722      0.284667   0.5351207  29.502     0.5288976  0.5524042  0.5053909 
1004.4     0.23       359.319    -9999      -9999      3.843      2.989      1.809      1.408      0.998      0.1571314  0.1571314  0.3209034  2.278312   1.932341   2.783      0.3066744  0.5382377  29.335     0.4962787  0.4957886  0.4967689 
1004.5     0.23       351.319    -9999      -9999      3.669      3.083      2.299      1.703      1.025      0.1600447  0.1600447  0.3141075  2.579725   2.485609   2.846      0.324809   0.5405737  29.13      0.4668571  0.4473482  0.4863661 
1004.6     0.231      342.319    -9999      -9999      3.525      3.065      2.731      1.994      1.049      0.1619763  0.1619763  0.3080667  2.801256   3.06146    2.921      0.3399338  0.5432112  28.892     0.442698   0.4108594  0.4745366 
1004.7     0.233      332.319    -9999      -9999      3.421      2.971      2.987      2.205      1.068      0.1636015  0.1636015  0.3032844  3.002305   3.558662   3.009      0.3546992  0.5473886  28.596     0.4232816  0.3863718  0.4601914 
1004.8     0.235      315.319    -9999      -9999      3.342      2.883      3.005      2.285      1.081      0.1662849  0.1662849  0.3000123  3.366339   3.98964    3.171      0.3792433  0.559007   28.202     0.4052345  0.3687507  0.4417184 
1004.9     0.236      299.319    -9999      -9999      3.264      2.893      2.806      2.237      1.093      0.1699025  0.1699025  0.2969919  3.927943   4.466347   3.341      0.4055195  0.5713883  27.675     0.3851193  0.3521413  0.4180973 
1005       0.235      288.319    -9999      -9999      3.159      3.051      2.492      2.141      1.106      0.174725   0.174725   0.2937198  4.824906   5.199227   3.468      0.4299043  0.5811775  27.015     0.3605904  0.3309577  0.3902231 
1005.1     0.233      278.319    -9999      -9999      3.014      3.338      2.211      2.113      1.124      0.1796241  0.1796241  0.2891892  5.946102   6.413028   3.593      0.4526418  0.5892545  26.251     0.3320155  0.3037829  0.3602479 
1005.2     0.231      269.319    -9999      -9999      2.831      3.671      2.105      2.243      1.15       0.1830754  0.1830754  0.282645   6.889051   8.357338   3.713      0.4698761  0.5935362  25.434     0.301726   0.2726484  0.3308035 
1005.3     0.228      261.319    -9999      -9999      2.626      3.949      2.254      2.532      1.184      0.1840987  0.1840987  0.2740872  7.196348   11.24343   3.827      0.4798769  0.5931954  24.614     0.2726925  0.2415444  0.3038405 
1005.4     0.226      253.319    -9999      -9999      2.423      4.113      2.629      2.888      1.221      0.1831584  0.1831584  0.2647743  6.913481   15.08248   3.948      0.4851282  0.5903612  23.831     0.2473208  0.2142419  0.2803997 
1005.5     0.225      246.319    -9999      -9999      2.245      4.179      3.098      3.187      1.259      0.1803716  0.1803716  0.2552097  6.138721   19.51353   4.06       0.4850115  0.5845963  23.11      0.2267821  0.1928533  0.260711  
