~Version
 VERS              .         2.0                           : CWLS LOG ASCII STANDARD - VERSION 2.0
 WRAP              .         NO                            : ONE LINE PER DEPTH STEP
 DLM               .         SPACE                         : DELIMITING CHARACTER(SPACE TAB OR COMMA)
~Well Information
#_______________________________________________________________________________
#
#PARAMETER_NAME    .UNIT     VALUE                         : DESCRIPTION
#_______________________________________________________________________________
STRT               .M        890                           : First reference value
STOP               .M        1188                          : Last reference value
STEP               .M        0.1                           : Step increment
NULL               .         -9999                         : Missing value
COMP               .                                       : Company
WELL               .         6648                          : Well name
FLD                .         Узень                         : Field
LOC                .                                       : Location
CNTY               .                                       : County
STAT               .                                       : State
CTRY               .                                       : Country
SRVC               .         SCH                           : Service Company
DATE               .         04/29/2010                    : Date
UWI                .         6648                          : Unique Well ID
Block              .         7                             : 
Category           .         Нефтяная                      : 
Condition          .         В работе                      : 
Date               .         06.09.1991                    : 
EREF               .m        85.9                          : 100.8
Gorizont           .         15                            : 14
Interpretator      .         Бекбулатова А.А.              : 
Kupol              .         Основной                      : osnovnoi
Mud                .         0                             : 
Mud_density        .         0                             : 
Mud_resistivity    .         0                             : 
NGDU               .         НГДУ-2                        : 
ORIGINALWELLNAME   .         6648                          : 
Spud_date          .         1991                          : 1961
Viscosity          .         0                             : 
X                  .m        42343.1                       : 46154
Y                  .m        84189.43                      : 85761.93
YEAR               .         2018                          : 
Исправ_15гор       .         Исправ.15гор                  : 
~Parameter Information Block
#_______________________________________________________________________________
#
#PARAMETER_NAME    .UNIT     VALUE                         : DESCRIPTION
#_______________________________________________________________________________
SET                .         LQC_KAZNIPI_Petrel            : 
PBBOTTOM           .M        1188                          : Глубина подошвы планшета
PBSCALE            .         1 _ 500                       : Вертикальный масштаб планшета
PBTOP              .M        890                           : Глубина кровли планшета
TLFamily_CALI      .         Caliper                       : 
TLFamily_CILD      .         Conductivity                  : 
TLFamily_COLL      .         Net Reservoir Flag            : 
TLFamily_CSAT      .         Fluid Code                    : 
TLFamily_DEPT      .         Measured Depth                : 
TLFamily_GR        .         Russian Gamma Ray             : 
TLFamily_LLS       .         Lateral Log Resistivity       : 
TLFamily_MINV      .         Micro Gradient Resistivity    : 
TLFamily_MNOR      .         Micro Resistivity             : 
TLFamily_NGLD      .         Neutron Gamma                 : 
TLFamily_PHIE      .         Effective Porosity            : 
TLFamily_PHIEN     .         Effective Porosity            : 
TLFamily_PHIT      .         Porosity                      : 
TLFamily_PRMB      .         Permeability                  : 
TLFamily_PRMB_DGR  .         Permeability                  : 
TLFamily_RT        .         Formation Resistivity         : 
TLFamily_SOIL_ARCHIE .         Oil Saturation                : 
TLFamily_SOIL_DW   .         Oil Saturation                : 
TLFamily_SP        .         Spontaneous Potential         : 
TLFamily_VSH_FIN   .         Shale Volume                  : 
TLFamily_VSH_GR    .         Shale Volume                  : 
TLFamily_VSH_SP    .         Shale Volume                  : 
~Curve Information
#_______________________________________________________________________________
#
#LOGNAME           .UNIT     LOG_ID                        : DESCRIPTION
#_______________________________________________________________________________
DEPT               .M                                      : Колонка глубины 
CALI               .м                                      : Каверномер 
CILD               .мСм/м                                  : Индукционный каротаж 
COLL               .unitless                               : Описание 
CSAT               .unitless                               : Описание 
GR                 .uR/h                                   : Гамма каротаж 
LLS                .Ohmm                                   : Боковой каротаж 
MINV               .Ohmm                                   : Микро-градиент зонд 
MNOR               .Ohmm                                   : Микро-потенциал зонд 
NGLD               .у.е.                                   : Показания зонда НГК-60 аппаратуры ДРСТ-3-90 
PHIE               .д.ед.                                  : Описание 
PHIEN              .д.ед.                                  :  
PHIT               .д.ед.                                  : Описание 
PRMB               .mD                                     :  
PRMB_DGR           .mD                                     :  
RT                 .ohmm                                   : УЭС пласта 
SOIL_ARCHIE        .д.ед.                                  :  
SOIL_DW            .д.ед.                                  :  
SP                 .мВ                                     : Потенциал самополяризации 
VSH_FIN            .д.ед.                                  : Описание 
VSH_GR             .д.ед.                                  : Shale volume 
VSH_SP             .д.ед.                                  : Shale Volume 
~Ascii
# ...
1094       0.212      184.319    -9999      -9999      6.721      5.067      1.593      2.061      1.136      0.1298003  0.1298003  0.2861688  0.7101896  1.436002   5.425      0.4013373  0.618211   26.734     0.473844   0.5596835  0.3880044 
1094.1     0.211      177.319    -9999      -9999      6.728      5.361      1.648      2.137      1.143      0.1314329  0.1314329  0.2844069  0.7614016  1.415231   5.64       0.4185217  0.6258777  26.126     0.4635576  0.5630232  0.364092  
1094.2     0.211      170.319    8          2          6.744      5.649      1.697      2.215      1.146      0.1343012  0.1343012  0.2836518  0.8604816  1.368876   5.871      0.4400013  0.6356927  25.312     0.4525777  0.5707319  0.3344234 
1094.3     0.21       163.319    8          2          6.757      5.898      1.729      2.276      1.144      0.1841926  0.1841926  0.2841552  7.225224   1.332332   6.123      0.583002   0.6852578  24.358     0.302917   0.5770729  0.3029172 
1094.4     0.21       157.319    8          2          6.755      6.118      1.742      2.312      1.14       0.1950087  0.1950087  0.285162   11.46018   1.33789    6.357      0.6101416  0.698842   23.348     0.273192   0.5760929  0.2731918 
1094.5     0.21       153.319    8          2          6.733      6.338      1.738      2.326      1.137      0.2042325  0.2042325  0.2859171  16.98401   1.40058    6.522      0.6299983  0.7087297  22.361     0.247529   0.5654208  0.2475285 
1094.6     0.209      150.319    8          2          6.695      6.597      1.721      2.326      1.135      0.2116646  0.2116646  0.2864205  23.31848   1.515857   6.653      0.644671   0.7161426  21.446     0.226533   0.5474511  0.2265332 
1094.7     0.209      144.319    8          2          6.66       6.907      1.696      2.32       1.133      0.2176843  0.2176843  0.2869239  30.14388   1.630412   6.929      0.6597959  0.7253637  20.624     0.209817   0.5314056  0.2098175 
1094.8     0.209      138.319    8          2          6.644      7.255      1.668      2.311      1.13       0.2227776  0.2227776  0.287679   37.45754   1.685624   7.23       0.6731675  0.7341347  19.9       0.196671   0.524228   0.1966715 
1094.9     0.209      133.319    8          2          6.654      7.621      1.64       2.298      1.125      0.2274427  0.2274427  0.2889375  45.70332   1.650901   7.501      0.684509   0.7418947  19.269     0.186348   0.5287025  0.1863479 
1095       0.209      128.319    8          2          6.68       8.005      1.612      2.282      1.118      0.2318538  0.2318538  0.2906994  55.1636    1.563933   7.793      0.6952538  0.749696   18.73      0.17832    0.5405159  0.1783201 
1095.1     0.209      123.319    8          2          6.706      8.43       1.583      2.263      1.111      0.2356696  0.2356696  0.2924613  64.91295   1.481545   8.109      0.705108   0.7571532  18.276     0.172096   0.5525932  0.1720955 
1095.2     0.209      118.319    8          2          6.717      8.918      1.554      2.241      1.104      0.2390604  0.2390604  0.2942232  75.01303   1.448009   8.452      0.7143616  0.7643801  17.889     0.16716    0.5577838  0.1671603 
1095.3     0.209      112.319    8          2          6.709      9.445      1.527      2.223      1.099      0.2416643  0.2416643  0.2954817  83.82384   1.472322   8.903      0.7238632  0.772036   17.548     0.163083   0.5540041  0.1630834 
1095.4     0.21       106.319    8          2          6.69       9.946      1.51       2.213      1.095      0.2438347  0.2438347  0.2964885  91.95346   1.531716   9.406      0.7329813  0.7794849  17.235     0.159557   0.5451296  0.159557  
1095.5     0.21       100.319    8          2          6.664      10.338     1.505      2.211      1.091      0.2458266  0.2458266  0.2974953  100.1065   1.616893   9.968      0.7419894  0.7869443  16.955     0.156572   0.5332153  0.1565716 
1095.6     0.21       95.319     8          2          6.631      10.557     1.513      2.216      1.084      0.2483333  0.2483333  0.2992572  111.4019   1.731857   10.491     0.7503232  0.7939157  16.733     0.154315   0.5184677  0.1543147 
1095.7     0.21       90.319     8          2          6.591      10.586     1.525      2.223      1.075      0.2510298  0.2510298  0.3015225  124.9798   1.882222   11.072     0.7588385  0.8011773  16.6       0.153008   0.5011376  0.1530081 
1095.8     0.21       87.319     8          2          6.55       10.444     1.536      2.226      1.066      0.2533876  0.2533876  0.3037878  138.2008   2.049902   11.452     0.7645521  0.8061146  16.571     0.152728   0.4839752  0.1527276 
1095.9     0.211      84.319     8          2          6.525      10.177     1.538      2.22       1.056      0.2556772  0.2556772  0.3063048  152.3772   2.159396   11.86      0.7701958  0.8111039  16.642     0.153417   0.4738     0.1534171 
1096       0.211      83.319     8          2          6.529      9.847      1.532      2.206      1.048      0.2572031  0.2572031  0.3083184  162.6234   2.141493   12.002     0.772657   0.8134034  16.791     0.154895   0.4754134  0.1548951 
1096.1     0.211      83.319     8          2          6.562      9.537      1.517      2.186      1.041      0.2582673  0.2582673  0.3100803  170.1748   1.999337   12.002     0.7734731  0.8143404  16.997     0.157009   0.4889364  0.1570095 
1096.2     0.212      83.319     8          2          6.606      9.331      1.499      2.168      1.037      0.2584188  0.2584188  0.3110871  171.2778   1.824363   12.002     0.7735888  0.814733   17.239     0.159601   0.5075673  0.1596008 
1096.3     0.212      85.319     8          2          6.636      9.306      1.483      2.161      1.034      0.258234   0.258234   0.3118422  169.9334   1.713927   11.721     0.770915   0.8127307  17.493     0.162449   0.5206757  0.162449  
1096.4     0.212      87.319     8          2          6.634      9.281      1.477      2.171      1.034      0.257309   0.257309   0.3118422  163.3599   1.721078   11.452     0.7676804  0.8102562  17.732     0.165252   0.5197912  0.1652522 
1096.5     0.211      89.319     8          2          6.591      9.349      1.482      2.196      1.036      0.2559961  0.2559961  0.3113388  154.4641   1.882222   11.196     0.7641542  0.8075043  17.933     0.167705   0.5011376  0.1677047 
1096.6     0.211      92.319     8          2          6.513      9.418      1.494      2.224      1.039      0.2545632  0.2545632  0.3105837  145.3069   2.214012   10.832     0.7592938  0.8035567  18.096     0.169759   0.4689922  0.1697585 
1096.7     0.211      94.319     8          2          6.411      9.349      1.504      2.244      1.042      0.2531801  0.2531801  0.3098286  136.9834   2.737692   10.602     0.7557009  0.8006998  18.243     0.171662   0.4300465  0.1716616 
1096.8     0.211      96.319     8          2          6.302      9.067      1.511      2.251      1.044      0.2519973  0.2519973  0.3093252  130.2443   3.43492    10.382     0.7522768  0.798011   18.398     0.173721   0.3919959  0.1737213 
1096.9     0.21       97.319     1          2          6.201      8.615      1.514      2.248      1.043      0.2514689  0.2514689  0.3095769  127.342    4.238548   10.275     0.750614   0.7968776  18.571     0.176085   0.3597498  0.1760854 
1097       0.21       97.319     1          2          6.117      8.122      1.515      2.242      1.04       0.2513874  0.2513874  0.310332   126.9004   5.048359   10.275     0.7505437  0.7971358  18.751     0.17862    0.3349612  0.1786197 
1097.1     0.21       96.319     1          2          6.053      7.725      1.515      2.237      1.036      0.2516392  0.2516392  0.3113388  128.2702   5.76772    10.382     0.7519698  0.7986467  18.909     0.180908   0.3172275  0.1809077 
1097.2     0.21       96.319     1          2          6.001      7.49       1.511      2.233      1.031      0.2523703  0.2523703  0.3125973  132.3332   6.427029   10.382     0.7525958  0.7993615  19.017     0.182506   0.3035125  0.1825064 
1097.3     0.21       95.319     1          2          5.954      7.397      1.506      2.227      1.027      0.2531841  0.2531841  0.3136041  137.0066   7.08756    10.491     0.7544947  0.8010477  19.056     0.183091   0.2916272  0.1830907 
