~Version
 VERS              .         2.0                           : CWLS LOG ASCII STANDARD - VERSION 2.0
 WRAP              .         NO                            : ONE LINE PER DEPTH STEP
 DLM               .         SPACE                         : DELIMITING CHARACTER(SPACE TAB OR COMMA)
~Well Information
#_______________________________________________________________________________
#
#PARAMETER_NAME    .UNIT     VALUE                         : DESCRIPTION
#_______________________________________________________________________________
STRT               .M        890                           : First reference value
STOP               .M        1188                          : Last reference value
STEP               .M        0.1                           : Step increment
NULL               .         -9999                         : Missing value
COMP               .                                       : Company
WELL               .         6648                          : Well name
FLD                .         Узень                         : Field
LOC                .                                       : Location
CNTY               .                                       : County
STAT               .                                       : State
CTRY               .                                       : Country
SRVC               .         SCH                           : Service Company
DATE               .         04/29/2010                    : Date
UWI                .         6648                          : Unique Well ID
Block              .         7                             : 
Category           .         Нефтяная                      : 
Condition          .         В работе                      : 
Date               .         06.09.1991                    : 
EREF               .m        85.9                          : 100.8
Gorizont           .         15                            : 14
Interpretator      .         Бекбулатова А.А.              : 
Kupol              .         Основной                      : osnovnoi
Mud                .         0                             : 
Mud_density        .         0                             : 
Mud_resistivity    .         0                             : 
NGDU               .         НГДУ-2                        : 
ORIGINALWELLNAME   .         6648                          : 
Spud_date          .         1991                          : 1961
Viscosity          .         0                             : 
X                  .m        42343.1                       : 46154
Y                  .m        84189.43                      : 85761.93
YEAR               .         2018                          : 
Исправ_15гор       .         Исправ.15гор                  : 
~Parameter Information Block
#_______________________________________________________________________________
#
#PARAMETER_NAME    .UNIT     VALUE                         : DESCRIPTION
#_______________________________________________________________________________
SET                .         LQC_KAZNIPI_Petrel            : 
PBBOTTOM           .M        1188                          : Глубина подошвы планшета
PBSCALE            .         1 _ 500                       : Вертикальный масштаб планшета
PBTOP              .M        890                           : Глубина кровли планшета
TLFamily_CALI      .         Caliper                       : 
TLFamily_CILD      .         Conductivity                  : 
TLFamily_COLL      .         Net Reservoir Flag            : 
TLFamily_CSAT      .         Fluid Code                    : 
TLFamily_DEPT      .         Measured Depth                : 
TLFamily_GR        .         Russian Gamma Ray             : 
TLFamily_LLS       .         Lateral Log Resistivity       : 
TLFamily_MINV      .         Micro Gradient Resistivity    : 
TLFamily_MNOR      .         Micro Resistivity             : 
TLFamily_NGLD      .         Neutron Gamma                 : 
TLFamily_PHIE      .         Effective Porosity            : 
TLFamily_PHIEN     .         Effective Porosity            : 
TLFamily_PHIT      .         Porosity                      : 
TLFamily_PRMB      .         Permeability                  : 
TLFamily_PRMB_DGR  .         Permeability                  : 
TLFamily_RT        .         Formation Resistivity         : 
TLFamily_SOIL_ARCHIE .         Oil Saturation                : 
TLFamily_SOIL_DW   .         Oil Saturation                : 
TLFamily_SP        .         Spontaneous Potential         : 
TLFamily_VSH_FIN   .         Shale Volume                  : 
TLFamily_VSH_GR    .         Shale Volume                  : 
TLFamily_VSH_SP    .         Shale Volume                  : 
~Curve Information
#_______________________________________________________________________________
#
#LOGNAME           .UNIT     LOG_ID                        : DESCRIPTION
#_______________________________________________________________________________
DEPT               .M                                      : Колонка глубины 
CALI               .м                                      : Каверномер 
CILD               .мСм/м                                  : Индукционный каротаж 
COLL               .unitless                               : Описание 
CSAT               .unitless                               : Описание 
GR                 .uR/h                                   : Гамма каротаж 
LLS                .Ohmm                                   : Боковой каротаж 
MINV               .Ohmm                                   : Микро-градиент зонд 
MNOR               .Ohmm                                   : Микро-потенциал зонд 
NGLD               .у.е.                                   : Показания зонда НГК-60 аппаратуры ДРСТ-3-90 
PHIE               .д.ед.                                  : Описание 
PHIEN              .д.ед.                                  :  
PHIT               .д.ед.                                  : Описание 
PRMB               .mD                                     :  
PRMB_DGR           .mD                                     :  
RT                 .ohmm                                   : УЭС пласта 
SOIL_ARCHIE        .д.ед.                                  :  
SOIL_DW            .д.ед.                                  :  
SP                 .мВ                                     : Потенциал самополяризации 
VSH_FIN            .д.ед.                                  : Описание 
VSH_GR             .д.ед.                                  : Shale volume 
VSH_SP             .д.ед.                                  : Shale Volume 
~Ascii
# ...
1019.2     0.289      433.319    -9999      -9999      5.446      1.913      1.134      0.963      0.848      0.2230301  0.2230301  0.3586584  37.86319   3.680578   2.308      0.442037   0.5869684  26.331     0.4109947  0.3810937  0.4408958 
1019.3     0.289      437.319    -9999      -9999      5.501      1.954      0.964      0.887      0.854      0.2194464  0.2194464  0.3571482  32.49664   3.401403   2.287      0.4316768  0.5813098  26.333     0.4172781  0.3935685  0.4409877 
1019.4     0.288      439.319    -9999      -9999      5.534      1.999      0.833      0.854      0.864      0.2153509  0.2153509  0.3546312  27.28848   3.244168   2.276      0.4209661  0.5753204  26.374     0.4220615  0.4012487  0.4428743 
1019.5     0.288      441.319    -9999      -9999      5.546      2.028      0.757      0.858      0.875      0.2113278  0.2113278  0.3518625  22.98587   3.188811   2.266      0.4101595  0.5691388  26.477     0.4258628  0.4040785  0.4476472 
1019.6     0.287      444.319    -9999      -9999      5.545      2.025      0.745      0.891      0.883      0.2079657  0.2079657  0.3498489  19.91531   3.193388   2.251      0.3999959  0.5634254  26.656     0.4299491  0.4038419  0.4560563 
1019.7     0.285      450.319    -9999      -9999      5.546      1.989      0.805      0.946      0.884      0.2056807  0.2056807  0.3495972  18.06606   3.188811   2.221      0.3903683  0.5583558  26.908     0.4361106  0.4040785  0.4681428 
1019.8     0.282      457.319    -9999      -9999      5.567      1.931      0.934      1.011      0.88       0.2033922  0.2033922  0.350604   16.38609   3.094202   2.187      0.3799258  0.5537254  27.212     0.4460963  0.4090786  0.483114  
1019.9     0.279      466.319    -9999      -9999      5.621      1.869      1.093      1.071      0.871      0.2007773  0.2007773  0.3528693  14.65687   2.863608   2.144      0.3670272  0.5487137  27.536     0.4608848  0.4222222  0.4995474 
1020       0.277      475.319    -9999      -9999      5.706      1.822      1.219      1.111      0.861      0.1971282  0.1971282  0.3553863  12.54442   2.534951   2.104      0.3511249  0.5431076  27.839     0.47957    0.443772   0.515368  
1020.1     0.274      484.319    -9999      -9999      5.802      1.793      1.26       1.121      0.85       0.1934713  0.1934713  0.358155   10.73288   2.208888   2.065      0.3346397  0.5376001  28.087     0.4990415  0.4694362  0.5286468 
1020.2     0.272      493.319    -9999      -9999      5.88       1.783      1.211      1.102      0.84       0.1907468  0.1907468  0.360672   9.555447   1.975103   2.027      0.3204731  0.5326961  28.267     0.5149249  0.4913773  0.5384727 
1020.3     0.27       500.319    -9999      -9999      5.914      1.788      1.115      1.063      0.834      0.1895217  0.1895217  0.3621822  9.069024   1.8811     1.999      0.3121741  0.5294576  28.388     0.5232135  0.5012594  0.5451676 
1020.4     0.269      505.319    -9999      -9999      5.895      1.804      1.019      1.014      0.831      0.1903164  0.1903164  0.3629373  9.381642   1.933065   1.979      0.3114346  0.5284549  28.483     0.5230938  0.4957128  0.5504748 
1020.5     0.267      507.319    -9999      -9999      5.838      1.829      0.948      0.967      0.831      0.1920532  0.1920532  0.3629373  10.10297   2.097733   1.971      0.3155614  0.5291654  28.585     0.5178307  0.4794383  0.556223  
1020.6     0.266      508.319    -9999      -9999      5.769      1.862      0.899      0.928      0.834      0.1931908  0.1931908  0.3621822  10.60525   2.315947   1.967      0.3184237  0.5291722  28.717     0.5120951  0.4604509  0.5637392 
1020.7     0.266      507.319    -9999      -9999      5.717      1.897      0.866      0.909      0.837      0.1932876  0.1932876  0.3614271  10.64912   2.495271   1.971      0.3193701  0.5291432  28.867     0.5095136  0.4466401  0.572387  
1020.8     0.266      506.319    -9999      -9999      5.703      1.933      0.85       0.918      0.84       0.1918631  0.1918631  0.360672   10.0214    2.545881   1.975      0.3156223  0.5276591  28.999     0.5115421  0.4429931  0.5800912 
1020.9     0.267      504.319    -9999      -9999      5.739      1.961      0.864      0.961      0.842      0.1891612  0.1891612  0.3601686  8.930641   2.417768   1.983      0.3084294  0.5255989  29.065     0.5182042  0.4524318  0.5839766 
1021       0.269      502.319    -9999      -9999      5.82       1.981      0.919      1.033      0.843      0.1855942  0.1855942  0.3599169  7.67032    2.152593   1.991      0.2981946  0.52284    29.033     0.5282505  0.474411   0.58209   
1021.1     0.272      499.319    -9999      -9999      5.929      1.992      1.004      1.113      0.841      0.1822897  0.1822897  0.3604203  6.662003   1.841064   2.003      0.2891342  0.5213698  28.893     0.5397898  0.5056822  0.5738974 
1021.2     0.274      496.319    -9999      -9999      6.044      1.995      1.092      1.178      0.836      0.1798922  0.1798922  0.3616788  6.014475   1.561128   2.015      0.2829028  0.5213886  28.666     0.5508685  0.5409121  0.5608249 
1021.3     0.274      494.319    -9999      -9999      6.146      1.995      1.15       1.213      0.83       0.1784737  0.1784737  0.363189   5.661397   1.34867    2.023      0.2792827  0.5221137  28.39      0.5597434  0.574208   0.5452788 
1021.4     0.273      492.319    -9999      -9999      6.223      1.994      1.168      1.22       0.825      0.1778289  0.1778289  0.3644475  5.507831   1.20766    2.031      0.278345   0.5234141  28.118     0.5655109  0.6006942  0.5303277 
1021.5     0.271      491.319    -9999      -9999      6.271      1.988      1.168      1.217      0.822      0.1776659  0.1776659  0.3652026  5.469684   1.127319   2.035      0.2784351  0.5243248  27.903     0.5682929  0.6178196  0.5187662 
1021.6     0.269      491.319    -9999      -9999      6.291      1.976      1.185      1.226      0.822      0.1774527  0.1774527  0.3652026  5.420166   1.095442   2.035      0.2776799  0.5241066  27.79      0.5689391  0.6250985  0.5127797 
1021.7     0.269      492.319    -9999      -9999      6.284      1.967      1.238      1.25       0.826      0.1767373  0.1767373  0.3641958  5.257292   1.106495   2.031      0.2744646  0.5220881  27.805     0.568056   0.6225412  0.5135708 
1021.8     0.269      492.319    -9999      -9999      6.251      1.982      1.31       1.276      0.833      0.1756793  0.1756793  0.3624339  5.025323   1.160124   2.031      0.2706602  0.5195531  27.949     0.5659232  0.6106254  0.5212209 
1021.9     0.271      491.319    -9999      -9999      6.195      2.035      1.36       1.285      0.842      0.174605   0.174605   0.3601686  4.80027    1.257144   2.035      0.2674302  0.5170317  28.18      0.562314   0.5909244  0.5337036 
1022       0.273      489.319    -9999      -9999      6.122      2.118      1.367      1.271      0.851      0.1741516  0.1741516  0.3579033  4.70835    1.395901   2.044      0.2672884  0.5157323  28.429     0.5568233  0.5661939  0.5474526 
1022.1     0.276      487.319    -9999      -9999      6.046      2.197      1.344      1.248      0.859      0.1744116  0.1744116  0.3558897  4.760853   1.556657   2.052      0.26958    0.5152662  28.622     0.5499335  0.541546   0.5583211 
1022.2     0.278      485.319    -9999      -9999      5.982      2.235      1.326      1.233      0.865      0.1753985  0.1753985  0.3543795  4.9655     1.706306   2.06       0.2744864  0.5159844  28.706     0.5423668  0.521624   0.5631096 
1022.3     0.28       486.319    -9999      -9999      5.942      2.21       1.339      1.234      0.869      0.1767426  0.1767426  0.3533727  5.258464   1.807056   2.056      0.2786365  0.5160842  28.668     0.5352429  0.5095468  0.5609389 
1022.4     0.28       489.319    -9999      -9999      5.929      2.128      1.374      1.237      0.872      0.1778972  0.1778972  0.3526176  5.52389    1.841064   2.044      0.2807429  0.5152426  28.532     0.5294559  0.5056822  0.5532297 
1022.5     0.28       494.319    -9999      -9999      5.943      2.02       1.4        1.227      0.872      0.1789619  0.1789619  0.3526176  5.780509   1.804466   2.023      0.2809953  0.5138524  28.342     0.5262295  0.5098453  0.5426138 
