~Version
 VERS              .         2.0                           : CWLS LOG ASCII STANDARD - VERSION 2.0
 WRAP              .         NO                            : ONE LINE PER DEPTH STEP
 DLM               .         SPACE                         : DELIMITING CHARACTER(SPACE TAB OR COMMA)
~Well Information
#_______________________________________________________________________________
#
#PARAMETER_NAME    .UNIT     VALUE                         : DESCRIPTION
#_______________________________________________________________________________
STRT               .M        890                           : First reference value
STOP               .M        1188                          : Last reference value
STEP               .M        0.1                           : Step increment
NULL               .         -9999                         : Missing value
COMP               .                                       : Company
WELL               .         6648                          : Well name
FLD                .         Узень                         : Field
LOC                .                                       : Location
CNTY               .                                       : County
STAT               .                                       : State
CTRY               .                                       : Country
SRVC               .         SCH                           : Service Company
DATE               .         04/29/2010                    : Date
UWI                .         6648                          : Unique Well ID
Block              .         7                             : 
Category           .         Нефтяная                      : 
Condition          .         В работе                      : 
Date               .         06.09.1991                    : 
EREF               .m        85.9                          : 100.8
Gorizont           .         15                            : 14
Interpretator      .         Бекбулатова А.А.              : 
Kupol              .         Основной                      : osnovnoi
Mud                .         0                             : 
Mud_density        .         0                             : 
Mud_resistivity    .         0                             : 
NGDU               .         НГДУ-2                        : 
ORIGINALWELLNAME   .         6648                          : 
Spud_date          .         1991                          : 1961
Viscosity          .         0                             : 
X                  .m        42343.1                       : 46154
Y                  .m        84189.43                      : 85761.93
YEAR               .         2018                          : 
Исправ_15гор       .         Исправ.15гор                  : 
~Parameter Information Block
#_______________________________________________________________________________
#
#PARAMETER_NAME    .UNIT     VALUE                         : DESCRIPTION
#_______________________________________________________________________________
SET                .         LQC_KAZNIPI_Petrel            : 
PBBOTTOM           .M        1188                          : Глубина подошвы планшета
PBSCALE            .         1 _ 500                       : Вертикальный масштаб планшета
PBTOP              .M        890                           : Глубина кровли планшета
TLFamily_CALI      .         Caliper                       : 
TLFamily_CILD      .         Conductivity                  : 
TLFamily_COLL      .         Net Reservoir Flag            : 
TLFamily_CSAT      .         Fluid Code                    : 
TLFamily_DEPT      .         Measured Depth                : 
TLFamily_GR        .         Russian Gamma Ray             : 
TLFamily_LLS       .         Lateral Log Resistivity       : 
TLFamily_MINV      .         Micro Gradient Resistivity    : 
TLFamily_MNOR      .         Micro Resistivity             : 
TLFamily_NGLD      .         Neutron Gamma                 : 
TLFamily_PHIE      .         Effective Porosity            : 
TLFamily_PHIEN     .         Effective Porosity            : 
TLFamily_PHIT      .         Porosity                      : 
TLFamily_PRMB      .         Permeability                  : 
TLFamily_PRMB_DGR  .         Permeability                  : 
TLFamily_RT        .         Formation Resistivity         : 
TLFamily_SOIL_ARCHIE .         Oil Saturation                : 
TLFamily_SOIL_DW   .         Oil Saturation                : 
TLFamily_SP        .         Spontaneous Potential         : 
TLFamily_VSH_FIN   .         Shale Volume                  : 
TLFamily_VSH_GR    .         Shale Volume                  : 
TLFamily_VSH_SP    .         Shale Volume                  : 
~Curve Information
#_______________________________________________________________________________
#
#LOGNAME           .UNIT     LOG_ID                        : DESCRIPTION
#_______________________________________________________________________________
DEPT               .M                                      : Колонка глубины 
CALI               .м                                      : Каверномер 
CILD               .мСм/м                                  : Индукционный каротаж 
COLL               .unitless                               : Описание 
CSAT               .unitless                               : Описание 
GR                 .uR/h                                   : Гамма каротаж 
LLS                .Ohmm                                   : Боковой каротаж 
MINV               .Ohmm                                   : Микро-градиент зонд 
MNOR               .Ohmm                                   : Микро-потенциал зонд 
NGLD               .у.е.                                   : Показания зонда НГК-60 аппаратуры ДРСТ-3-90 
PHIE               .д.ед.                                  : Описание 
PHIEN              .д.ед.                                  :  
PHIT               .д.ед.                                  : Описание 
PRMB               .mD                                     :  
PRMB_DGR           .mD                                     :  
RT                 .ohmm                                   : УЭС пласта 
SOIL_ARCHIE        .д.ед.                                  :  
SOIL_DW            .д.ед.                                  :  
SP                 .мВ                                     : Потенциал самополяризации 
VSH_FIN            .д.ед.                                  : Описание 
VSH_GR             .д.ед.                                  : Shale volume 
VSH_SP             .д.ед.                                  : Shale Volume 
~Ascii
# ...
1077       0.274      385.319    -9999      -9999      6.209      2.322      0.592      1.107      0.919      0.1447148  0.1447148  0.3407877  1.341613   1.232153   2.595      0.2302882  0.5249369  29.209     0.5941603  0.5957893  0.5925312 
1077.1     0.275      391.319    -9999      -9999      6.188      2.324      0.55       1.005      0.925      0.1469999  0.1469999  0.3392775  1.478947   1.269829   2.555      0.2351645  0.5226679  28.943     0.5826594  0.5885069  0.576812  
1077.2     0.276      395.319    -9999      -9999      6.123      2.33       0.52       0.932      0.929      0.1519753  0.1519753  0.3382707  1.828558   1.3939     2.53       0.253583   0.525348   28.696     0.5645316  0.5665256  0.5625376 
1077.3     0.277      399.319    -9999      -9999      6.03       2.33       0.501      0.877      0.928      0.1588014  0.1588014  0.3385224  2.446499   1.592791   2.504      0.2781154  0.530937   28.523     0.5446091  0.5364954  0.5527228 
1077.4     0.279      402.319    -9999      -9999      5.926      2.324      0.49       0.83       0.922      0.1661351  0.1661351  0.3400326  3.344898   1.849002   2.486      0.303596   0.5385329  28.459     0.5269622  0.5047945  0.5491297 
1077.5     0.281      407.319    -9999      -9999      5.824      2.318      0.487      0.793      0.914      0.1725619  0.1725619  0.3420462  4.399706   2.14028    2.455      0.3222616  0.5440049  28.504     0.5135887  0.4755235  0.551654  
1077.6     0.283      413.319    -9999      -9999      5.738      2.311      0.495      0.776      0.903      0.178      0.178      0.3448149  5.548169   2.421238   2.419      0.3357422  0.5483362  28.631     0.5054997  0.4521669  0.5588325 
1077.7     0.284      419.319    -9999      -9999      5.675      2.308      0.512      0.787      0.892      0.1818267  0.1818267  0.3475836  6.531759   2.650198   2.385      0.3435891  0.5510679  28.805     0.5022935  0.4357882  0.5687988 
1077.8     0.285      424.319    -9999      -9999      5.641      2.307      0.533      0.823      0.882      0.1839271  0.1839271  0.3501006  7.143895   2.782634   2.357      0.3465112  0.5523991  28.996     0.5035559  0.4271967  0.5799151 
1077.9     0.285      429.319    -9999      -9999      5.639      2.309      0.551      0.87       0.874      0.1842568  0.1842568  0.3521142  7.245037   2.790628   2.329      0.3438602  0.5516049  29.177     0.5086588  0.4266966  0.590621  
1078       0.285      433.319    -9999      -9999      5.659      2.312      0.56       0.912      0.868      0.1834924  0.1834924  0.3536244  7.012653   2.711717   2.308      0.3386753  0.5500227  29.323     0.5155516  0.4317238  0.5993792 
1078.1     0.284      435.319    -9999      -9999      5.691      2.318      0.559      0.938      0.864      0.1823019  0.1823019  0.3546312  6.665484   2.590076   2.297      0.3334229  0.5485954  29.408     0.5222099  0.4398908  0.604529  
1078.2     0.284      436.319    -9999      -9999      5.719      2.326      0.553      0.947      0.863      0.1812734  0.1812734  0.3548829  6.379408   2.488125   2.292      0.3294446  0.547311   29.416     0.5260895  0.4471635  0.6050156 
1078.3     0.283      436.319    -9999      -9999      5.734      2.339      0.546      0.947      0.865      0.1808096  0.1808096  0.3543795  6.254483   2.435167   2.292      0.3279471  0.546468   29.347     0.5259693  0.4511091  0.6008295 
1078.4     0.282      436.319    -9999      -9999      5.728      2.353      0.542      0.944      0.868      0.1815171  0.1815171  0.3536244  6.446062   2.456214   2.292      0.3302288  0.5465587  29.226     0.5215374  0.4495267  0.5935482 
1078.5     0.28       436.319    -9999      -9999      5.699      2.367      0.541      0.943      0.87       0.1835494  0.1835494  0.353121   7.029729   2.560527   2.292      0.3366925  0.5481152  29.095     0.5138533  0.4419565  0.58575   
1078.6     0.278      437.319    -9999      -9999      5.648      2.378      0.542      0.944      0.871      0.1863966  0.1863966  0.3528693  7.937356   2.754838   2.287      0.3448547  0.5501224  28.997     0.5044627  0.4289515  0.5799738 
1078.7     0.275      438.319    -9999      -9999      5.584      2.383      0.543      0.946      0.868      0.1901324  0.1901324  0.3536244  9.308331   3.019671   2.281      0.3552861  0.5535858  28.958     0.4954302  0.4131717  0.5776888 
1078.8     0.273      440.319    -9999      -9999      5.522      2.377      0.545      0.949      0.863      0.193532   0.193532   0.3548829  10.76067   3.300487   2.271      0.3638505  0.5566554  28.988     0.4889423  0.3984387  0.5794458 
1078.9     0.271      442.319    -9999      -9999      5.478      2.366      0.545      0.95       0.857      0.195811   0.195811   0.3563931  11.85915   3.515476   2.261      0.3689988  0.5588517  29.081     0.4866123  0.3883029  0.5849218 
1079       0.27       444.319    -9999      -9999      5.46       2.354      0.542      0.949      0.851      0.1965993  0.1965993  0.3579033  12.26464   3.607413   2.251      0.3698937  0.559702   29.223     0.4887998  0.3842311  0.5933686 
1079.1     0.269      447.319    -9999      -9999      5.472      2.346      0.535      0.946      0.847      0.195508   0.195508   0.3589101  11.70689   3.545858   2.236      0.3648418  0.5580176  29.389     0.4951577  0.3869409  0.6033746 
1079.2     0.269      448.319    -9999      -9999      5.506      2.344      0.527      0.942      0.847      0.1926003  0.1926003  0.3589101  10.34146   3.377099   2.231      0.3558217  0.5549214  29.55      0.5039693  0.3947227  0.6132157 
1079.3     0.27       449.319    -9999      -9999      5.551      2.347      0.523      0.94       0.85       0.1888298  0.1888298  0.358155   8.805307   3.166026   2.226      0.343943   0.5503976  29.675     0.5131066  0.4052634  0.6209497 
1079.4     0.272      449.319    -9999      -9999      5.597      2.352      0.525      0.94       0.854      0.1853282  0.1853282  0.3571482  7.583794   2.963891   2.226      0.3331601  0.5463374  29.74      0.5206666  0.4163293  0.6250039 
1079.5     0.274      449.319    -9999      -9999      5.632      2.356      0.531      0.941      0.859      0.1826884  0.1826884  0.3558897  6.776266   2.818784   2.226      0.3247756  0.5428227  29.736     0.5248524  0.424951   0.6247538 
1079.6     0.276      448.319    -9999      -9999      5.651      2.36       0.537      0.942      0.862      0.1818482  0.1818482  0.3551346  6.537756   2.743009   2.231      0.3227728  0.5419244  29.668     0.5251102  0.4297059  0.6205145 
1079.7     0.277      446.319    -9999      -9999      5.652      2.361      0.544      0.943      0.863      0.1826577  0.1826577  0.3548829  6.767405   2.739079   2.241      0.3268017  0.5435334  29.56      0.5218945  0.4299576  0.6138315 
1079.8     0.278      445.319    -9999      -9999      5.639      2.36       0.55       0.942      0.863      0.1843287  0.1843287  0.3548829  7.267287   2.790628   2.246      0.3328181  0.5456471  29.448     0.516831   0.4266966  0.6069654 
1079.9     0.279      444.319    -9999      -9999      5.619      2.355      0.555      0.938      0.862      0.1861528  0.1861528  0.3551346  7.855257   2.871833   2.251      0.3392058  0.5480793  29.373     0.5120659  0.421728   0.6024039 
1080       0.278      442.319    -9999      -9999      5.597      2.35       0.557      0.933      0.862      0.1870336  0.1870336  0.3551346  8.155945   2.963891   2.261      0.3432843  0.5499064  29.374     0.509397   0.4163293  0.6024646 
1080.1     0.278      441.319    -9999      -9999      5.576      2.343      0.555      0.927      0.863      0.1866673  0.1866673  0.3548829  8.029529   3.054518   2.266      0.3428437  0.5498654  29.469     0.5097442  0.4112405  0.6082478 
1080.2     0.278      439.319    -9999      -9999      5.556      2.339      0.549      0.92       0.865      0.1851248  0.1851248  0.3543795  7.518265   3.143402   2.276      0.3394434  0.5490137  29.649     0.5128931  0.4064519  0.6193344 
1080.3     0.277      437.319    -9999      -9999      5.534      2.337      0.542      0.916      0.866      0.1833429  0.1833429  0.3541278  6.968081   3.244168   2.287      0.335361   0.5482125  29.88      0.51753    0.4012487  0.6338114 
