~Version
 VERS              .         2.0                           : CWLS LOG ASCII STANDARD - VERSION 2.0
 WRAP              .         NO                            : ONE LINE PER DEPTH STEP
 DLM               .         SPACE                         : DELIMITING CHARACTER(SPACE TAB OR COMMA)
~Well Information
#_______________________________________________________________________________
#
#PARAMETER_NAME    .UNIT     VALUE                         : DESCRIPTION
#_______________________________________________________________________________
STRT               .M        890                           : First reference value
STOP               .M        1188                          : Last reference value
STEP               .M        0.1                           : Step increment
NULL               .         -9999                         : Missing value
COMP               .                                       : Company
WELL               .         6648                          : Well name
FLD                .         Узень                         : Field
LOC                .                                       : Location
CNTY               .                                       : County
STAT               .                                       : State
CTRY               .                                       : Country
SRVC               .         SCH                           : Service Company
DATE               .         04/29/2010                    : Date
UWI                .         6648                          : Unique Well ID
Block              .         7                             : 
Category           .         Нефтяная                      : 
Condition          .         В работе                      : 
Date               .         06.09.1991                    : 
EREF               .m        85.9                          : 100.8
Gorizont           .         15                            : 14
Interpretator      .         Бекбулатова А.А.              : 
Kupol              .         Основной                      : osnovnoi
Mud                .         0                             : 
Mud_density        .         0                             : 
Mud_resistivity    .         0                             : 
NGDU               .         НГДУ-2                        : 
ORIGINALWELLNAME   .         6648                          : 
Spud_date          .         1991                          : 1961
Viscosity          .         0                             : 
X                  .m        42343.1                       : 46154
Y                  .m        84189.43                      : 85761.93
YEAR               .         2018                          : 
Исправ_15гор       .         Исправ.15гор                  : 
~Parameter Information Block
#_______________________________________________________________________________
#
#PARAMETER_NAME    .UNIT     VALUE                         : DESCRIPTION
#_______________________________________________________________________________
SET                .         LQC_KAZNIPI_Petrel            : 
PBBOTTOM           .M        1188                          : Глубина подошвы планшета
PBSCALE            .         1 _ 500                       : Вертикальный масштаб планшета
PBTOP              .M        890                           : Глубина кровли планшета
TLFamily_CALI      .         Caliper                       : 
TLFamily_CILD      .         Conductivity                  : 
TLFamily_COLL      .         Net Reservoir Flag            : 
TLFamily_CSAT      .         Fluid Code                    : 
TLFamily_DEPT      .         Measured Depth                : 
TLFamily_GR        .         Russian Gamma Ray             : 
TLFamily_LLS       .         Lateral Log Resistivity       : 
TLFamily_MINV      .         Micro Gradient Resistivity    : 
TLFamily_MNOR      .         Micro Resistivity             : 
TLFamily_NGLD      .         Neutron Gamma                 : 
TLFamily_PHIE      .         Effective Porosity            : 
TLFamily_PHIEN     .         Effective Porosity            : 
TLFamily_PHIT      .         Porosity                      : 
TLFamily_PRMB      .         Permeability                  : 
TLFamily_PRMB_DGR  .         Permeability                  : 
TLFamily_RT        .         Formation Resistivity         : 
TLFamily_SOIL_ARCHIE .         Oil Saturation                : 
TLFamily_SOIL_DW   .         Oil Saturation                : 
TLFamily_SP        .         Spontaneous Potential         : 
TLFamily_VSH_FIN   .         Shale Volume                  : 
TLFamily_VSH_GR    .         Shale Volume                  : 
TLFamily_VSH_SP    .         Shale Volume                  : 
~Curve Information
#_______________________________________________________________________________
#
#LOGNAME           .UNIT     LOG_ID                        : DESCRIPTION
#_______________________________________________________________________________
DEPT               .M                                      : Колонка глубины 
CALI               .м                                      : Каверномер 
CILD               .мСм/м                                  : Индукционный каротаж 
COLL               .unitless                               : Описание 
CSAT               .unitless                               : Описание 
GR                 .uR/h                                   : Гамма каротаж 
LLS                .Ohmm                                   : Боковой каротаж 
MINV               .Ohmm                                   : Микро-градиент зонд 
MNOR               .Ohmm                                   : Микро-потенциал зонд 
NGLD               .у.е.                                   : Показания зонда НГК-60 аппаратуры ДРСТ-3-90 
PHIE               .д.ед.                                  : Описание 
PHIEN              .д.ед.                                  :  
PHIT               .д.ед.                                  : Описание 
PRMB               .mD                                     :  
PRMB_DGR           .mD                                     :  
RT                 .ohmm                                   : УЭС пласта 
SOIL_ARCHIE        .д.ед.                                  :  
SOIL_DW            .д.ед.                                  :  
SP                 .мВ                                     : Потенциал самополяризации 
VSH_FIN            .д.ед.                                  : Описание 
VSH_GR             .д.ед.                                  : Shale volume 
VSH_SP             .д.ед.                                  : Shale Volume 
~Ascii
# ...
909.8      0.225      501.319    1          3          1.208      2.067      1.6        1.78       1.11       0.2538804  0.2538804  0.292713   141.1365   87.50465   1.995      0.4662944  0.5258324  13.718     0.1176745  0.1045004  0.1308486 
909.9      0.225      499.319    1          3          1.212      2.06       1.611      1.807      1.115      0.2525254  0.2525254  0.2914545  133.2111   86.99962   2.003      0.464807   0.5245256  13.786     0.1179671  0.1047477  0.1311865 
910        0.225      497.319    1          3          1.212      2.066      1.627      1.843      1.121      0.250956   0.250956   0.2899443  124.5866   86.99962   2.011      0.4628988  0.5227895  13.857     0.1181464  0.1047477  0.1315451 
910.1      0.224      494.319    1          3          1.208      2.086      1.645      1.879      1.129      0.248905   0.248905   0.2879307  114.1518   87.50465   2.023      0.4605545  0.5206271  13.949     0.1182597  0.1045004  0.1320189 
910.2000000000001 0.224      492.319    1          3          1.201      2.121      1.66       1.904      1.138      0.2466125  0.2466125  0.2856654  103.519    88.39552   2.031      0.4571957  0.5175     14.062     0.1183421  0.1040691  0.1326151 
910.3      0.224      489.319    1          3          1.195      2.167      1.666      1.912      1.148      0.2440607  0.2440607  0.2831484  92.84403   89.16631   2.044      0.4538936  0.5144408  14.169     0.1184477  0.1037008  0.1331945 
910.4      0.224      487.319    1          3          1.191      2.222      1.664      1.905      1.158      0.2415193  0.2415193  0.2806314  83.307     89.68394   2.052      0.4499014  0.5107214  14.24      0.1185215  0.103456   0.133587  
910.5      0.224      486.319    1          3          1.194      2.278      1.656      1.891      1.166      0.2394644  0.2394644  0.2786178  76.31659   89.29545   2.056      0.4462985  0.5073833  14.252     0.1186468  0.1036395  0.133654  
910.6      0.224      484.319    1          3          1.203      2.331      1.645      1.877      1.171      0.2381651  0.2381651  0.2773593  72.20266   88.14007   2.065      0.4448077  0.5060358  14.197     0.1187703  0.1041922  0.1333485 
910.7000000000001 0.223      483.319    1          3          1.218      2.374      1.635      1.871      1.172      0.2378663  0.2378663  0.2771076  71.28847   86.24754   2.069      0.4447049  0.5059922  14.079     0.118913   0.1051197  0.1327062 
910.8      0.223      482.319    1          3          1.234      2.4        1.629      1.876      1.168      0.2388526  0.2388526  0.2781144  74.35107   84.27361   2.073      0.4472037  0.5083627  13.913     0.1189753  0.1061182  0.1318323 
910.9      0.223      482.319    1          3          1.246      2.406      1.628      1.891      1.161      0.2406481  0.2406481  0.2798763  80.26844   82.82287   2.073      0.4507977  0.5117016  13.723     0.1188733  0.1068734  0.1308733 
911        0.223      482.319    1          3          1.25       2.389      1.635      1.914      1.155      0.2422686  0.2422686  0.2813865  86.01212   82.34486   2.073      0.4539985  0.5145971  13.532     0.1185392  0.1071262  0.1299522 
911.1      0.223      483.319    1          3          1.245      2.353      1.648      1.939      1.15       0.2437095  0.2437095  0.282645   91.46365   82.94282   2.069      0.4563186  0.5165935  13.361     0.1179865  0.1068102  0.1291628 
911.2000000000001 0.223      485.319    1          3          1.233      2.302      1.67       1.964      1.139      0.2467039  0.2467039  0.2854137  103.9233   84.39563   2.06       0.4609691  0.5207413  13.223     0.1173024  0.1060556  0.1285492 
911.3      0.223      488.319    1          3          1.217      2.247      1.7        1.987      1.128      0.2497085  0.2497085  0.2881824  118.1316   86.37244   2.048      0.4651581  0.5244542  13.123     0.1165874  0.1050576  0.1281172 
911.4      0.223      491.319    1          3          1.199      2.192      1.737      2.008      1.121      0.2516944  0.2516944  0.2899443  128.5727   88.65172   2.035      0.4672457  0.5262054  13.065     0.1159088  0.1039462  0.1278715 
911.5      0.223      493.319    1          3          1.179      2.141      1.773      2.022      1.118      0.2526627  0.2526627  0.2906994  133.9939   91.25484   2.027      0.4680421  0.5267544  13.048     0.1152626  0.102725   0.1278001 
911.6      0.223      494.319    1          3          1.156      2.098      1.799      2.027      1.117      0.2531273  0.2531273  0.2909511  136.6753   94.34311   2.023      0.4684     0.5268925  13.071     0.1146176  0.1013384  0.1278968 
911.7000000000001 0.223      494.319    1          3          1.133      2.067      1.803      2.019      1.115      0.2538137  0.2538137  0.2914545  140.7354   97.53586   2.023      0.4696522  0.5279068  13.132     0.1140631  0.09997053 0.1281557 
911.8      0.223      495.319    1          3          1.112      2.05       1.777      2          1.111      0.2549568  0.2549568  0.2924613  147.7668   100.5453   2.019      0.471233   0.529276   13.226     0.11365    0.09873772 0.1285623 
911.9      0.223      496.319    1          3          1.097      2.044      1.726      1.975      1.107      0.2560165  0.2560165  0.2934681  154.5981   102.7515   2.015      0.4726491  0.5305679  13.35      0.1134898  0.09786647 0.1291131 
912        0.223      496.319    1          3          1.09       2.042      1.661      1.948      1.105      0.2564736  0.2564736  0.2939715  157.642    103.7976   2.015      0.4734679  0.5313858  13.499     0.1136299  0.09746252 0.1297973 
912.1      0.223      496.319    1          3          1.092      2.036      1.6        1.923      1.109      0.2553172  0.2553172  0.2929647  150.0554   103.4977   2.015      0.4713914  0.529557   13.665     0.1140834  0.09757776 0.1305891 
912.2000000000001 0.223      496.319    1          3          1.1        2.031      1.554      1.901      1.119      0.2525838  0.2525838  0.2904477  133.5434   102.3064   2.015      0.4664126  0.5250481  13.836     0.1147392  0.0980401  0.1314384 
912.3      0.223      495.319    1          3          1.114      2.031      1.528      1.881      1.133      0.2487892  0.2487892  0.2869239  113.5893   100.2547   2.019      0.4598343  0.5190913  13.996     0.1155597  0.09885447 0.132265  
912.4      0.223      495.319    1          3          1.128      2.045      1.519      1.859      1.151      0.2440066  0.2440066  0.2823933  92.63026   98.24413   2.019      0.4506248  0.510648   14.128     0.1163232  0.09967563 0.1329708 
912.5      0.223      495.319    1          3          1.142      2.074      1.525      1.836      1.169      0.239257   0.239257   0.2778627  75.64467   96.27386   2.019      0.4411383  0.5019309  14.219     0.1169869  0.1005036  0.1334703 
912.6      0.222      494.319    1          3          1.153      2.108      1.544      1.812      1.183      0.2355855  0.2355855  0.2743389  64.68057   94.75354   2.023      0.4340861  0.4954527  14.262     0.1174345  0.1011589  0.13371   
912.7000000000001 0.222      493.319    1          3          1.165      2.144      1.575      1.793      1.192      0.2332051  0.2332051  0.2720736  58.43634   93.12242   2.027      0.4295874  0.4913508  14.258     0.1177832  0.1018788  0.1336876 
912.8      0.222      491.319    1          3          1.183      2.178      1.612      1.782      1.194      0.2325634  0.2325634  0.2715702  56.85855   90.7282    2.035      0.4292726  0.4912151  14.213     0.1182026  0.1029681  0.133437  
912.9      0.222      489.319    1          3          1.21       2.212      1.65       1.783      1.19       0.2333685  0.2333685  0.272577   58.84483   87.25177   2.044      0.4321649  0.4941589  14.134     0.1188137  0.104624   0.1330034 
913        0.221      487.319    1          3          1.245      2.248      1.684      1.795      1.183      0.2348671  0.2348671  0.2743389  62.72873   82.94282   2.052      0.436356   0.4983793  14.024     0.1196115  0.1068102  0.1324129 
