~Version
 VERS              .         2.0                           : CWLS LOG ASCII STANDARD - VERSION 2.0
 WRAP              .         NO                            : ONE LINE PER DEPTH STEP
 DLM               .         SPACE                         : DELIMITING CHARACTER(SPACE TAB OR COMMA)
~Well Information
#_______________________________________________________________________________
#
#PARAMETER_NAME    .UNIT     VALUE                         : DESCRIPTION
#_______________________________________________________________________________
STRT               .M        890                           : First reference value
STOP               .M        1188                          : Last reference value
STEP               .M        0.1                           : Step increment
NULL               .         -9999                         : Missing value
COMP               .                                       : Company
WELL               .         6648                          : Well name
FLD                .         Узень                         : Field
LOC                .                                       : Location
CNTY               .                                       : County
STAT               .                                       : State
CTRY               .                                       : Country
SRVC               .         SCH                           : Service Company
DATE               .         04/29/2010                    : Date
UWI                .         6648                          : Unique Well ID
Block              .         7                             : 
Category           .         Нефтяная                      : 
Condition          .         В работе                      : 
Date               .         06.09.1991                    : 
EREF               .m        85.9                          : 100.8
Gorizont           .         15                            : 14
Interpretator      .         Бекбулатова А.А.              : 
Kupol              .         Основной                      : osnovnoi
Mud                .         0                             : 
Mud_density        .         0                             : 
Mud_resistivity    .         0                             : 
NGDU               .         НГДУ-2                        : 
ORIGINALWELLNAME   .         6648                          : 
Spud_date          .         1991                          : 1961
Viscosity          .         0                             : 
X                  .m        42343.1                       : 46154
Y                  .m        84189.43                      : 85761.93
YEAR               .         2018                          : 
Исправ_15гор       .         Исправ.15гор                  : 
~Parameter Information Block
#_______________________________________________________________________________
#
#PARAMETER_NAME    .UNIT     VALUE                         : DESCRIPTION
#_______________________________________________________________________________
SET                .         LQC_KAZNIPI_Petrel            : 
PBBOTTOM           .M        1188                          : Глубина подошвы планшета
PBSCALE            .         1 _ 500                       : Вертикальный масштаб планшета
PBTOP              .M        890                           : Глубина кровли планшета
TLFamily_CALI      .         Caliper                       : 
TLFamily_CILD      .         Conductivity                  : 
TLFamily_COLL      .         Net Reservoir Flag            : 
TLFamily_CSAT      .         Fluid Code                    : 
TLFamily_DEPT      .         Measured Depth                : 
TLFamily_GR        .         Russian Gamma Ray             : 
TLFamily_LLS       .         Lateral Log Resistivity       : 
TLFamily_MINV      .         Micro Gradient Resistivity    : 
TLFamily_MNOR      .         Micro Resistivity             : 
TLFamily_NGLD      .         Neutron Gamma                 : 
TLFamily_PHIE      .         Effective Porosity            : 
TLFamily_PHIEN     .         Effective Porosity            : 
TLFamily_PHIT      .         Porosity                      : 
TLFamily_PRMB      .         Permeability                  : 
TLFamily_PRMB_DGR  .         Permeability                  : 
TLFamily_RT        .         Formation Resistivity         : 
TLFamily_SOIL_ARCHIE .         Oil Saturation                : 
TLFamily_SOIL_DW   .         Oil Saturation                : 
TLFamily_SP        .         Spontaneous Potential         : 
TLFamily_VSH_FIN   .         Shale Volume                  : 
TLFamily_VSH_GR    .         Shale Volume                  : 
TLFamily_VSH_SP    .         Shale Volume                  : 
~Curve Information
#_______________________________________________________________________________
#
#LOGNAME           .UNIT     LOG_ID                        : DESCRIPTION
#_______________________________________________________________________________
DEPT               .M                                      : Колонка глубины 
CALI               .м                                      : Каверномер 
CILD               .мСм/м                                  : Индукционный каротаж 
COLL               .unitless                               : Описание 
CSAT               .unitless                               : Описание 
GR                 .uR/h                                   : Гамма каротаж 
LLS                .Ohmm                                   : Боковой каротаж 
MINV               .Ohmm                                   : Микро-градиент зонд 
MNOR               .Ohmm                                   : Микро-потенциал зонд 
NGLD               .у.е.                                   : Показания зонда НГК-60 аппаратуры ДРСТ-3-90 
PHIE               .д.ед.                                  : Описание 
PHIEN              .д.ед.                                  :  
PHIT               .д.ед.                                  : Описание 
PRMB               .mD                                     :  
PRMB_DGR           .mD                                     :  
RT                 .ohmm                                   : УЭС пласта 
SOIL_ARCHIE        .д.ед.                                  :  
SOIL_DW            .д.ед.                                  :  
SP                 .мВ                                     : Потенциал самополяризации 
VSH_FIN            .д.ед.                                  : Описание 
VSH_GR             .д.ед.                                  : Shale volume 
VSH_SP             .д.ед.                                  : Shale Volume 
~Ascii
# ...
893.3      0.24       180.319    -9999      -9999      -9999      10.249     2.384      1.998      -9999      -9999      -9999      -9999      -9999      -9999      5.546      -9999      -9999      25.436     0.330872   -9999      0.3308724 
893.4      0.242      172.319    -9999      -9999      -9999      12.23      2.288      1.861      -9999      -9999      -9999      -9999      -9999      -9999      5.803      -9999      -9999      25.073     0.318621   -9999      0.318621  
893.5      0.244      164.319    -9999      -9999      -9999      13.9       2.479      1.918      -9999      -9999      -9999      -9999      -9999      -9999      6.086      -9999      -9999      24.708     0.306804   -9999      0.3068037 
893.6      0.245      157.319    -9999      -9999      -9999      14.806     2.871      2.163      -9999      -9999      -9999      -9999      -9999      -9999      6.357      -9999      -9999      24.306     0.294357   -9999      0.2943574 
893.7000000000001 0.245      151.319    -9999      -9999      -9999      14.645     3.292      2.525      -9999      -9999      -9999      -9999      -9999      -9999      6.609      -9999      -9999      23.828     0.280314   -9999      0.2803141 
893.8      0.244      146.319    -9999      -9999      -9999      13.44      3.586      2.912      -9999      -9999      -9999      -9999      -9999      -9999      6.834      -9999      -9999      23.243     0.26421    -9999      0.2642103 
893.9      0.241      142.319    -9999      -9999      -9999      11.554     3.694      3.264      -9999      -9999      -9999      -9999      -9999      -9999      7.026      -9999      -9999      22.541     0.246398   -9999      0.2463983 
894        0.238      141.319    -9999      -9999      -9999      9.539      3.646      3.553      -9999      -9999      -9999      -9999      -9999      -9999      7.076      -9999      -9999      21.745     0.228103   -9999      0.228103  
894.1      0.235      143.319    -9999      -9999      -9999      7.85       3.503      3.76       -9999      -9999      -9999      -9999      -9999      -9999      6.977      -9999      -9999      20.901     0.210788   -9999      0.2107884 
894.2000000000001 0.233      147.319    -9999      -9999      -9999      6.692      3.313      3.855      -9999      -9999      -9999      -9999      -9999      -9999      6.788      -9999      -9999      20.058     0.195501   -9999      0.1955009 
894.3      0.231      152.319    -9999      -9999      -9999      6.022      3.104      3.824      -9999      -9999      -9999      -9999      -9999      -9999      6.565      -9999      -9999      19.249     0.182589   -9999      0.1825886 
894.4      0.23       156.319    -9999      -9999      -9999      5.679      2.902      3.688      -9999      -9999      -9999      -9999      -9999      -9999      6.397      -9999      -9999      18.49      0.171931   -9999      0.1719308 
894.5      0.229      159.319    -9999      -9999      -9999      5.518      2.737      3.504      -9999      -9999      -9999      -9999      -9999      -9999      6.277      -9999      -9999      17.796     0.163333   -9999      0.1633331 
894.6      0.228      161.319    -9999      -9999      -9999      5.455      2.629      3.331      -9999      -9999      -9999      -9999      -9999      -9999      6.199      -9999      -9999      17.184     0.156598   -9999      0.1565976 
894.7000000000001 0.227      161.319    -9999      -9999      -9999      5.454      2.576      3.204      -9999      -9999      -9999      -9999      -9999      -9999      6.199      -9999      -9999      16.666     0.151476   -9999      0.1514758 
894.8      0.226      162.319    -9999      -9999      -9999      5.486      2.561      3.13       -9999      -9999      -9999      -9999      -9999      -9999      6.161      -9999      -9999      16.235     0.147595   -9999      0.1475946 
894.9      0.225      166.319    -9999      -9999      -9999      5.508      2.566      3.097      -9999      -9999      -9999      -9999      -9999      -9999      6.013      -9999      -9999      15.871     0.144571   -9999      0.1445713 
895        0.225      170.319    -9999      -9999      -9999      5.479      2.578      3.095      -9999      -9999      -9999      -9999      -9999      -9999      5.871      -9999      -9999      15.55      0.142089   -9999      0.1420894 
895.1      0.224      174.319    -9999      -9999      -9999      5.382      2.589      3.117      -9999      -9999      -9999      -9999      -9999      -9999      5.737      -9999      -9999      15.26      0.139989   -9999      0.1399889 
895.2000000000001 0.224      179.319    -9999      -9999      -9999      5.239      2.598      3.151      -9999      -9999      -9999      -9999      -9999      -9999      5.577      -9999      -9999      15.006     0.138255   -9999      0.1382551 
895.3      0.224      184.319    -9999      -9999      -9999      5.103      2.607      3.182      -9999      -9999      -9999      -9999      -9999      -9999      5.425      -9999      -9999      14.799     0.136913   -9999      0.1369127 
895.4      0.224      188.319    -9999      -9999      -9999      5.021      2.612      3.19       -9999      -9999      -9999      -9999      -9999      -9999      5.31       -9999      -9999      14.651     0.13599    -9999      0.1359904 
895.5      0.225      190.319    -9999      -9999      -9999      5.018      2.609      3.164      -9999      -9999      -9999      -9999      -9999      -9999      5.254      -9999      -9999      14.565     0.135469   -9999      0.1354686 
895.6      0.225      192.319    -9999      -9999      -9999      5.078      2.59       3.101      -9999      -9999      -9999      -9999      -9999      -9999      5.2        -9999      -9999      14.537     0.135301   -9999      0.1353009 
895.7000000000001 0.225      192.319    -9999      -9999      -9999      5.159      2.556      3.017      -9999      -9999      -9999      -9999      -9999      -9999      5.2        -9999      -9999      14.559     0.135433   -9999      0.1354326 
895.8      0.225      193.319    -9999      -9999      -9999      5.217      2.515      2.934      -9999      -9999      -9999      -9999      -9999      -9999      5.173      -9999      -9999      14.618     0.135789   -9999      0.135789  
895.9      0.225      195.319    -9999      -9999      -9999      5.223      2.479      2.874      -9999      -9999      -9999      -9999      -9999      -9999      5.12       -9999      -9999      14.704     0.136317   -9999      0.1363172 
896        0.225      198.319    -9999      -9999      -9999      5.171      2.454      2.848      1.209      0.2225969  0.2225969  0.2677947  37.17003   -9999      5.042      0.6126635  0.6680391  14.807     0.136963   -9999      0.1369634 
896.1      0.225      202.319    -9999      -9999      -9999      5.085      2.44       2.859      1.209      0.2223613  0.2223613  0.2677947  36.79839   -9999      4.943      0.6086815  0.6645809  14.918     0.137677   -9999      0.1376768 
896.2000000000001 0.225      207.319    -9999      -9999      2.022      4.995      2.433      2.898      1.207      0.2175628  0.2175628  0.2682981  29.98815   26.94502   4.823      0.596549   0.6576607  15.034     0.1537432  0.1690449  0.1384415 
896.3      0.225      213.319    -9999      -9999      2.022      4.918      2.434      2.95       1.204      0.218184   0.218184   0.2690532  30.79317   26.94502   4.688      0.592152   0.653747   15.154     0.1541492  0.1690449  0.1392535 
896.4      0.225      219.319    -9999      -9999      2.007      4.842      2.443      3.002      1.202      0.2188017  0.2188017  0.2695566  31.61526   27.53627   4.56       0.5878354  0.6497182  15.269     0.1538027  0.1675532  0.1400521 
896.5      0.225      225.319    -9999      -9999      1.981      4.727      2.46       3.038      1.201      0.21936    0.21936    0.2698083  32.37703   28.59201   4.438      0.5834821  0.645509   15.367     0.1528737  0.1649988  0.1407486 
