~Version
 VERS              .         2.0                           : CWLS LOG ASCII STANDARD - VERSION 2.0
 WRAP              .         NO                            : ONE LINE PER DEPTH STEP
 DLM               .         SPACE                         : DELIMITING CHARACTER(SPACE TAB OR COMMA)
~Well Information
#_______________________________________________________________________________
#
#PARAMETER_NAME    .UNIT     VALUE                         : DESCRIPTION
#_______________________________________________________________________________
STRT               .M        890                           : First reference value
STOP               .M        1188                          : Last reference value
STEP               .M        0.1                           : Step increment
NULL               .         -9999                         : Missing value
COMP               .                                       : Company
WELL               .         6648                          : Well name
FLD                .         Узень                         : Field
LOC                .                                       : Location
CNTY               .                                       : County
STAT               .                                       : State
CTRY               .                                       : Country
SRVC               .         SCH                           : Service Company
DATE               .         04/29/2010                    : Date
UWI                .         6648                          : Unique Well ID
Block              .         7                             : 
Category           .         Нефтяная                      : 
Condition          .         В работе                      : 
Date               .         06.09.1991                    : 
EREF               .m        85.9                          : 100.8
Gorizont           .         15                            : 14
Interpretator      .         Бекбулатова А.А.              : 
Kupol              .         Основной                      : osnovnoi
Mud                .         0                             : 
Mud_density        .         0                             : 
Mud_resistivity    .         0                             : 
NGDU               .         НГДУ-2                        : 
ORIGINALWELLNAME   .         6648                          : 
Spud_date          .         1991                          : 1961
Viscosity          .         0                             : 
X                  .m        42343.1                       : 46154
Y                  .m        84189.43                      : 85761.93
YEAR               .         2018                          : 
Исправ_15гор       .         Исправ.15гор                  : 
~Parameter Information Block
#_______________________________________________________________________________
#
#PARAMETER_NAME    .UNIT     VALUE                         : DESCRIPTION
#_______________________________________________________________________________
SET                .         LQC_KAZNIPI_Petrel            : 
PBBOTTOM           .M        1188                          : Глубина подошвы планшета
PBSCALE            .         1 _ 500                       : Вертикальный масштаб планшета
PBTOP              .M        890                           : Глубина кровли планшета
TLFamily_CALI      .         Caliper                       : 
TLFamily_CILD      .         Conductivity                  : 
TLFamily_COLL      .         Net Reservoir Flag            : 
TLFamily_CSAT      .         Fluid Code                    : 
TLFamily_DEPT      .         Measured Depth                : 
TLFamily_GR        .         Russian Gamma Ray             : 
TLFamily_LLS       .         Lateral Log Resistivity       : 
TLFamily_MINV      .         Micro Gradient Resistivity    : 
TLFamily_MNOR      .         Micro Resistivity             : 
TLFamily_NGLD      .         Neutron Gamma                 : 
TLFamily_PHIE      .         Effective Porosity            : 
TLFamily_PHIEN     .         Effective Porosity            : 
TLFamily_PHIT      .         Porosity                      : 
TLFamily_PRMB      .         Permeability                  : 
TLFamily_PRMB_DGR  .         Permeability                  : 
TLFamily_RT        .         Formation Resistivity         : 
TLFamily_SOIL_ARCHIE .         Oil Saturation                : 
TLFamily_SOIL_DW   .         Oil Saturation                : 
TLFamily_SP        .         Spontaneous Potential         : 
TLFamily_VSH_FIN   .         Shale Volume                  : 
TLFamily_VSH_GR    .         Shale Volume                  : 
TLFamily_VSH_SP    .         Shale Volume                  : 
~Curve Information
#_______________________________________________________________________________
#
#LOGNAME           .UNIT     LOG_ID                        : DESCRIPTION
#_______________________________________________________________________________
DEPT               .M                                      : Колонка глубины 
CALI               .м                                      : Каверномер 
CILD               .мСм/м                                  : Индукционный каротаж 
COLL               .unitless                               : Описание 
CSAT               .unitless                               : Описание 
GR                 .uR/h                                   : Гамма каротаж 
LLS                .Ohmm                                   : Боковой каротаж 
MINV               .Ohmm                                   : Микро-градиент зонд 
MNOR               .Ohmm                                   : Микро-потенциал зонд 
NGLD               .у.е.                                   : Показания зонда НГК-60 аппаратуры ДРСТ-3-90 
PHIE               .д.ед.                                  : Описание 
PHIEN              .д.ед.                                  :  
PHIT               .д.ед.                                  : Описание 
PRMB               .mD                                     :  
PRMB_DGR           .mD                                     :  
RT                 .ohmm                                   : УЭС пласта 
SOIL_ARCHIE        .д.ед.                                  :  
SOIL_DW            .д.ед.                                  :  
SP                 .мВ                                     : Потенциал самополяризации 
VSH_FIN            .д.ед.                                  : Описание 
VSH_GR             .д.ед.                                  : Shale volume 
VSH_SP             .д.ед.                                  : Shale Volume 
~Ascii
# ...
1131.4     0.209      374.319    1          2          4.911      2.55       0.961      1.346      1.073      0.2574159  0.2574159  0.3020259  164.106    62.13448   2.672      0.5402474  0.599949   16.3       0.135182   0.1201812  0.1501828 
1131.5     0.209      376.319    1          2          4.89       2.541      0.934      1.349      1.072      0.2580934  0.2580934  0.3022776  168.9169   64.91062   2.657      0.5400853  0.5994612  16.25      0.1338916  0.1180552  0.149728  
1131.6     0.209      380.319    1          2          4.875      2.539      0.883      1.347      1.071      0.2586765  0.2586765  0.3025293  173.1705   66.96921   2.629      0.5387008  0.5979124  16.193     0.1328874  0.1165597  0.1492151 
1131.7     0.209      382.319    1          2          4.872      2.543      0.821      1.342      1.069      0.2593154  0.2593154  0.3030327  177.9545   67.38867   2.616      0.5386189  0.5977219  16.134     0.1324766  0.1162629  0.1486903 
1131.8     0.209      384.319    1          2          4.883      2.545      0.767      1.334      1.066      0.2599701  0.2599701  0.3037878  182.9935   65.8633    2.602      0.5384703  0.5976493  16.079     0.1327808  0.1173549  0.1482067 
1131.9     0.209      386.319    1          2          4.91       2.541      0.734      1.326      1.063      0.2603375  0.2603375  0.3045429  185.8835   62.26393   2.589      0.5379529  0.5974573  16.036     0.1339557  0.1200791  0.1478323 
1132       0.209      388.319    1          2          4.953      2.528      0.728      1.32       1.061      0.2601376  0.2601376  0.3050463  184.3056   56.93325   2.575      0.5364658  0.596616   16.012     0.1360868  0.1245489  0.1476248 
1132.1     0.209      390.319    1          2          5.01       2.519      0.74       1.317      1.059      0.259611   0.259611   0.3055497  180.2118   50.56379   2.562      0.5345427  0.5956291  16.019     0.1392082  0.1307313  0.1476852 
1132.2     0.209      392.319    1          2          5.075      2.51       0.759      1.317      1.058      0.2585759  0.2585759  0.3058014  172.4294   44.16542   2.549      0.531804   0.5941033  16.062     0.1431075  0.1381568  0.1480583 
1132.3     0.209      393.319    1          2          5.143      2.498      0.775      1.322      1.056      0.2576085  0.2576085  0.3063048  165.4598   38.3365    2.542      0.5296665  0.5932832  16.141     0.1475645  0.1463768  0.1487522 
1132.4     0.209      392.319    1          2          5.207      2.505      0.789      1.329      1.052      0.2571101  0.2571101  0.3073116  161.9799   33.55512   2.549      0.5294801  0.5942761  16.246     0.1521257  0.1545596  0.1496918 
1132.5     0.209      391.319    1          2          5.264      2.534      0.81       1.336      1.048      0.256682   0.256682   0.3083184  159.0494   29.80113   2.555      0.5293163  0.5952303  16.358     0.1564739  0.1622317  0.150716  
1132.6     0.21       390.319    1          2          5.31       2.589      0.845      1.341      1.046      0.2559609  0.2559609  0.3088218  154.2324   27.0801    2.562      0.528767   0.5956826  16.46      0.1601844  0.1687001  0.1516688 
1132.7     0.21       390.319    1          2          5.341      2.659      0.897      1.346      1.048      0.2545888  0.2545888  0.3083184  145.4659   25.38793   2.562      0.5265558  0.5943805  16.54      0.1628168  0.173204   0.1524296 
1132.8     0.21       391.319    1          2          5.352      2.726      0.962      1.358      1.052      0.2532293  0.2532293  0.3073116  137.2712   24.81325   2.555      0.5237318  0.5921353  16.593     0.1638856  0.174831   0.1529403 
1132.9     0.21       394.319    1          2          5.346      2.771      1.032      1.385      1.059      0.251579   0.251579   0.3055497  127.9413   25.12507   2.536      0.5193311  0.5881123  16.615     0.1635477  0.1739417  0.1531538 
1133       0.21       399.319    1          2          5.325      2.782      1.099      1.426      1.067      0.2500939  0.2500939  0.3035361  120.0892   26.24769   2.504      0.5139585  0.5828609  16.602     0.161946   0.1708646  0.1530275 
1133.1     0.21       404.319    1          2          5.298      2.754      1.157      1.471      1.076      0.2485479  0.2485479  0.3012708  112.4262   27.76503   2.473      0.5084613  0.5773291  16.552     0.1597665  0.1669882  0.1525448 
1133.2     0.21       410.319    1          2          5.266      2.698      1.2        1.505      1.085      0.2471539  0.2471539  0.2990055  105.937    29.67734   2.437      0.5026368  0.5713416  16.468     0.157126   0.1625077  0.1517444 
1133.3     0.21       415.319    1          2          5.228      2.625      1.224      1.518      1.094      0.2458967  0.2458967  0.2967402  100.4065   32.11998   2.408      0.4976085  0.5659366  16.367     0.1540712  0.157343   0.1507993 
1133.4     0.21       419.319    1          2          5.179      2.545      1.23       1.511      1.101      0.2453347  0.2453347  0.2949783  98.02827   35.56886   2.385      0.494334   0.561924   16.274     0.1504353  0.1509248  0.1499457 
1133.5     0.211      422.319    1          2          5.117      2.47       1.223      1.492      1.107      0.2452056  0.2452056  0.2934681  97.49      40.46836   2.368      0.492401   0.5589532  16.205     0.1462501  0.1431777  0.1493226 
1133.6     0.211      423.319    1          2          5.045      2.401      1.209      1.469      1.114      0.244905   0.244905   0.2917062  96.24811   47.01115   2.362      0.4912531  0.5566282  16.165     0.1418219  0.1346786  0.1489652 
1133.7     0.212      423.319    1          2          4.973      2.343      1.191      1.443      1.118      0.2452495  0.2452495  0.2906994  97.67275   54.6118    2.362      0.4918756  0.5560094  16.143     0.137727   0.1266841  0.1487699 
1133.8     0.213      422.319    1          2          4.911      2.297      1.165      1.409      1.122      0.2453274  0.2453274  0.2896926  97.99769   62.13448   2.368      0.4926205  0.5557458  16.135     0.1344402  0.1201812  0.1486991 
1133.9     0.214      421.319    1          2          4.865      2.264      1.129      1.366      1.127      0.2448043  0.2448043  0.2884341  95.83586   68.37779   2.373      0.4921794  0.5546977  16.152     0.1322115  0.1155732  0.1488497 
1134       0.214      418.319    1          2          4.837      2.246      1.087      1.319      1.133      0.2436364  0.2436364  0.2869239  91.17904   72.48129   2.391      0.4918649  0.5541306  16.224     0.1311743  0.1128553  0.1494933 
1134.1     0.215      416.319    1          2          4.826      2.248      1.05       1.278      1.138      0.2423004  0.2423004  0.2856654  86.12911   74.15993   2.402      0.4905242  0.5529836  16.39      0.131409   0.1118051  0.1510129 
1134.2     0.215      414.319    1          2          4.827      2.276      1.031      1.254      1.142      0.2407953  0.2407953  0.2846586  80.77398   74.00574   2.414      0.4889482  0.5520055  16.695     0.1329191  0.1119002  0.153938  
1134.3     0.215      413.319    1          2          4.843      2.342      1.034      1.253      1.144      0.2392054  0.2392054  0.2841552  75.47837   71.58172   2.419      0.4864899  0.5507514  17.183     0.1362115  0.1134323  0.1589907 
1134.4     0.214      413.319    1          2          4.881      2.464      1.055      1.274      1.145      0.2369954  0.2369954  0.2839035  68.68923   66.13803   2.419      0.4823219  0.54875    17.887     0.1421456  0.1171556  0.1671357 
1134.5     0.214      415.319    1          2          4.953      2.664      1.084      1.31       1.145      0.2337337  0.2337337  0.2839035  59.7687    56.93325   2.408      0.4749138  0.5450601  18.813     0.1520296  0.1245489  0.1795104 
1134.6     0.214      419.319    1          2          5.07       2.933      1.114      1.36       1.142      0.2294262  0.2294262  0.2846586  49.73796   44.62743   2.385      0.4639289  0.5399756  19.929     0.1673709  0.1375709  0.1971709 
1134.7     0.214      427.319    1          2          5.233      3.21       1.143      1.424      1.136      0.2236433  0.2236433  0.2861688  38.86645   31.78746   2.34       0.4469547  0.5320007  21.181     0.1894711  0.1580131  0.2209292 
