~Version
 VERS              .         2.0                           : CWLS LOG ASCII STANDARD - VERSION 2.0
 WRAP              .         NO                            : ONE LINE PER DEPTH STEP
 DLM               .         SPACE                         : DELIMITING CHARACTER(SPACE TAB OR COMMA)
~Well Information
#_______________________________________________________________________________
#
#PARAMETER_NAME    .UNIT     VALUE                         : DESCRIPTION
#_______________________________________________________________________________
STRT               .M        890                           : First reference value
STOP               .M        1188                          : Last reference value
STEP               .M        0.1                           : Step increment
NULL               .         -9999                         : Missing value
COMP               .                                       : Company
WELL               .         6648                          : Well name
FLD                .         Узень                         : Field
LOC                .                                       : Location
CNTY               .                                       : County
STAT               .                                       : State
CTRY               .                                       : Country
SRVC               .         SCH                           : Service Company
DATE               .         04/29/2010                    : Date
UWI                .         6648                          : Unique Well ID
Block              .         7                             : 
Category           .         Нефтяная                      : 
Condition          .         В работе                      : 
Date               .         06.09.1991                    : 
EREF               .m        85.9                          : 100.8
Gorizont           .         15                            : 14
Interpretator      .         Бекбулатова А.А.              : 
Kupol              .         Основной                      : osnovnoi
Mud                .         0                             : 
Mud_density        .         0                             : 
Mud_resistivity    .         0                             : 
NGDU               .         НГДУ-2                        : 
ORIGINALWELLNAME   .         6648                          : 
Spud_date          .         1991                          : 1961
Viscosity          .         0                             : 
X                  .m        42343.1                       : 46154
Y                  .m        84189.43                      : 85761.93
YEAR               .         2018                          : 
Исправ_15гор       .         Исправ.15гор                  : 
~Parameter Information Block
#_______________________________________________________________________________
#
#PARAMETER_NAME    .UNIT     VALUE                         : DESCRIPTION
#_______________________________________________________________________________
SET                .         LQC_KAZNIPI_Petrel            : 
PBBOTTOM           .M        1188                          : Глубина подошвы планшета
PBSCALE            .         1 _ 500                       : Вертикальный масштаб планшета
PBTOP              .M        890                           : Глубина кровли планшета
TLFamily_CALI      .         Caliper                       : 
TLFamily_CILD      .         Conductivity                  : 
TLFamily_COLL      .         Net Reservoir Flag            : 
TLFamily_CSAT      .         Fluid Code                    : 
TLFamily_DEPT      .         Measured Depth                : 
TLFamily_GR        .         Russian Gamma Ray             : 
TLFamily_LLS       .         Lateral Log Resistivity       : 
TLFamily_MINV      .         Micro Gradient Resistivity    : 
TLFamily_MNOR      .         Micro Resistivity             : 
TLFamily_NGLD      .         Neutron Gamma                 : 
TLFamily_PHIE      .         Effective Porosity            : 
TLFamily_PHIEN     .         Effective Porosity            : 
TLFamily_PHIT      .         Porosity                      : 
TLFamily_PRMB      .         Permeability                  : 
TLFamily_PRMB_DGR  .         Permeability                  : 
TLFamily_RT        .         Formation Resistivity         : 
TLFamily_SOIL_ARCHIE .         Oil Saturation                : 
TLFamily_SOIL_DW   .         Oil Saturation                : 
TLFamily_SP        .         Spontaneous Potential         : 
TLFamily_VSH_FIN   .         Shale Volume                  : 
TLFamily_VSH_GR    .         Shale Volume                  : 
TLFamily_VSH_SP    .         Shale Volume                  : 
~Curve Information
#_______________________________________________________________________________
#
#LOGNAME           .UNIT     LOG_ID                        : DESCRIPTION
#_______________________________________________________________________________
DEPT               .M                                      : Колонка глубины 
CALI               .м                                      : Каверномер 
CILD               .мСм/м                                  : Индукционный каротаж 
COLL               .unitless                               : Описание 
CSAT               .unitless                               : Описание 
GR                 .uR/h                                   : Гамма каротаж 
LLS                .Ohmm                                   : Боковой каротаж 
MINV               .Ohmm                                   : Микро-градиент зонд 
MNOR               .Ohmm                                   : Микро-потенциал зонд 
NGLD               .у.е.                                   : Показания зонда НГК-60 аппаратуры ДРСТ-3-90 
PHIE               .д.ед.                                  : Описание 
PHIEN              .д.ед.                                  :  
PHIT               .д.ед.                                  : Описание 
PRMB               .mD                                     :  
PRMB_DGR           .mD                                     :  
RT                 .ohmm                                   : УЭС пласта 
SOIL_ARCHIE        .д.ед.                                  :  
SOIL_DW            .д.ед.                                  :  
SP                 .мВ                                     : Потенциал самополяризации 
VSH_FIN            .д.ед.                                  : Описание 
VSH_GR             .д.ед.                                  : Shale volume 
VSH_SP             .д.ед.                                  : Shale Volume 
~Ascii
# ...
1039.6     0.262      437.319    -9999      -9999      6.071      2.303      2.375      1.856      0.93       0.1493019  0.1493019  0.338019   1.631516   1.501831   2.287      0.2051709  0.4972109  29.237     0.57187    0.5495331  0.5942069 
1039.7     0.259      437.319    -9999      -9999      6.057      2.273      2.337      1.809      0.919      0.1522063  0.1522063  0.3407877  1.846661   1.532291   2.287      0.2183968  0.5033606  29.298     0.5714589  0.545046   0.5978718 
1039.8     0.256      437.319    -9999      -9999      6.032      2.232      2.279      1.751      0.908      0.1555643  0.1555643  0.3435564  2.131012   1.588228   2.287      0.233112   0.5098909  29.37      0.5696731  0.5371241  0.6022222 
1039.9     0.253      435.319    -9999      -9999      6.007      2.187      2.208      1.689      0.898      0.1585868  0.1585868  0.3460734  2.424206   1.646209   2.297      0.2474     0.5166901  29.448     0.5681413  0.5293173  0.6069654 
1040       0.25       432.319    -9999      -9999      5.993      2.143      2.136      1.64       0.89       0.1603837  0.1603837  0.348087   2.617297   1.679597   2.313      0.2571729  0.5221357  29.54      0.5687979  0.5249953  0.6126007 
1040.1     0.247      428.319    -9999      -9999      5.991      2.108      2.077      1.614      0.884      0.1609456  0.1609456  0.3495972  2.680782   1.684421   2.335      0.2627148  0.5262982  29.643     0.5716714  0.5243807  0.618962  
1040.2     0.245      424.319    -9999      -9999      5.999      2.09       2.043      1.616      0.882      0.1599839  0.1599839  0.3501006  2.573046   1.665206   2.357      0.2621104  0.5278728  29.746     0.5761113  0.5268432  0.6253792 
1040.3     0.243      420.319    -9999      -9999      6.006      2.097      2.039      1.64       0.883      0.158536   0.158536   0.3498489  2.41896    1.648571   2.379      0.2594798  0.5282409  29.827     0.5797362  0.5290074  0.6304649 
1040.4     0.243      417.319    -9999      -9999      6.004      2.125      2.064      1.676      0.887      0.1572565  0.1572565  0.3488421  2.290499   1.653307   2.396      0.2567229  0.5276365  29.863     0.5805624  0.5283883  0.6327364 
1040.5     0.242      413.319    -9999      -9999      5.992      2.168      2.111      1.713      0.892      0.1568378  0.1568378  0.3475836  2.249957   1.682008   2.419      0.2583273  0.528353   29.841     0.5780177  0.5246879  0.6313474 
1040.6     0.243      411.319    -9999      -9999      5.975      2.218      2.169      1.746      0.895      0.1576874  0.1576874  0.3468285  2.332981   1.723523   2.431      0.2635212  0.5298333  29.769     0.5731549  0.5194901  0.6268197 
1040.7     0.243      409.319    -9999      -9999      5.962      2.264      2.226      1.772      0.898      0.1585509  0.1585509  0.3460734  2.420505   1.755958   2.443      0.2687077  0.5313147  29.675     0.5682499  0.51555    0.6209497 
1040.8     0.243      407.319    -9999      -9999      5.961      2.301      2.273      1.787      0.901      0.1586741  0.1586741  0.3453183  2.433251   1.758478   2.455      0.2708804  0.5319613  29.594     0.5655885  0.5152482  0.6159288 
1040.9     0.243      405.319    -9999      -9999      5.976      2.328      2.307      1.79       0.908      0.1565793  0.1565793  0.3435564  2.225286   1.721052   2.467      0.2640778  0.5292607  29.553     0.5665974  0.5197943  0.6134004 
1041       0.242      403.319    -9999      -9999      6.009      2.339      2.326      1.786      0.92       0.1518547  0.1518547  0.340536   1.819182   1.641494   2.479      0.245895   0.5223472  29.556     0.5717614  0.5299376  0.6135852 
1041.1     0.24       400.319    -9999      -9999      6.053      2.337      2.337      1.779      0.937      0.1449576  0.1449576  0.3362571  1.355581   1.541107   2.498      0.2175477  0.5120036  29.589     0.5796953  0.5437706  0.6156201 
1041.2     0.239      397.319    -9999      -9999      6.1        2.33       2.342      1.775      0.956      0.1372325  0.1372325  0.3314748  0.9750742  1.440648   2.517      0.1822352  0.4994268  29.632     0.5886129  0.5589457  0.6182801 
1041.3     0.238      393.319    -9999      -9999      6.137      2.325      2.34       1.774      0.973      0.1306468  0.1306468  0.3271959  0.7362971  1.366192   2.542      0.1503964  0.4886718  29.66      0.5956035  0.5711896  0.6200173 
1041.4     0.238      390.319    -9999      -9999      6.15       2.333      2.327      1.771      0.985      0.1269471  0.1269471  0.3241755  0.6288197  1.340955   2.562      0.1320692  0.4822912  29.656     0.5976619  0.5755548  0.619769  
1041.5     0.237      388.319    -9999      -9999      6.13       2.364      2.309      1.766      0.992      0.12669    0.12669    0.3224136  0.6219617  1.379976   2.575      0.1325978  0.4814195  29.617     0.5931019  0.5688528  0.6173511 
1041.6     0.237      387.319    -9999      -9999      6.075      2.419      2.297      1.762      0.995      0.1295415  0.1295415  0.3216585  0.7023947  1.49324    2.582      0.1503345  0.48552    29.555     0.5821727  0.5508218  0.6135236 
1041.7     0.238      387.319    -9999      -9999      5.992      2.493      2.31       1.773      0.998      0.1337368  0.1337368  0.3209034  0.8400176  1.682008   2.582      0.1735964  0.4907233  29.492     0.5671715  0.5246879  0.609655  
1041.8     0.239      389.319    -9999      -9999      5.898      2.573      2.354      1.81       1.001      0.1380122  0.1380122  0.3201483  1.008044   1.924766   2.569      0.1940318  0.4945802  29.453     0.5519274  0.4965844  0.6072704 
1041.9     0.24       391.319    -9999      -9999      5.814      2.642      2.424      1.874      1.005      0.1409084  0.1409084  0.3191415  1.140576   2.171197   2.555      0.2064466  0.4960994  29.456     0.5401002  0.4727469  0.6074536 
1042       0.241      395.319    -9999      -9999      5.757      2.684      2.491      1.952      1.011      0.1414341  0.1414341  0.3176313  1.166434   2.35615    2.53       0.2053577  0.492814   29.508     0.533931   0.4572264  0.6106355 
1042.1     0.242      396.319    -9999      -9999      5.739      2.683      2.519      2.012      1.018      0.1395593  0.1395593  0.3158694  1.0768     2.417768   2.523      0.1950225  0.4877919  29.597     0.534273   0.4524318  0.6161142 
1042.2     0.242      395.319    -9999      -9999      5.757      2.637      2.483      2.026      1.024      0.1361621  0.1361621  0.3143592  0.9315605  2.35615    2.53       0.178627   0.4822338  29.704     0.5399911  0.4572264  0.6227558 
1042.3     0.243      393.319    -9999      -9999      5.798      2.556      2.386      1.981      1.028      0.1322681  0.1322681  0.3133524  0.789012   2.221597   2.542      0.1594739  0.4768276  29.806     0.5487404  0.4683377  0.6291431 
1042.4     0.244      391.319    -9999      -9999      5.847      2.471      2.263      1.896      1.029      0.1288606  0.1288606  0.3131007  0.6822906  2.070829   2.555      0.1422046  0.4728646  29.893     0.5583032  0.481972   0.6346345 
1042.5     0.245      389.319    -9999      -9999      5.888      2.409      2.165      1.813      1.026      0.1268651  0.1268651  0.3138558  0.6266252  1.95257    2.569      0.132692   0.4721052  29.971     0.5666384  0.4936848  0.639592  
1042.6     0.246      388.319    -9999      -9999      5.916      2.39       2.129      1.774      1.017      0.126865   0.126865   0.3161211  0.6266228  1.875713   2.575      0.1336404  0.4751266  30.058     0.5735033  0.5018468  0.6451597 
1042.7     0.246      388.319    -9999      -9999      5.936      2.41       2.159      1.796      1.005      0.1276425  0.1276425  0.3191415  0.6477491  1.822673   2.575      0.1382382  0.4794512  30.177     0.5803     0.5077595  0.6528406 
1042.8     0.246      390.319    -9999      -9999      5.956      2.449      2.23       1.862      0.993      0.1279195  0.1279195  0.3221619  0.6554468  1.771135   2.562      0.1378184  0.4816623  30.34      0.5886134  0.5137417  0.6634851 
1042.9     0.245      392.319    -9999      -9999      5.986      2.482      2.303      1.933      0.982      0.1271416  0.1271416  0.3249306  0.6340578  1.696544   2.549      0.1311541  0.4820301  30.527     0.5993606  0.5228475  0.6758738 
