~Version
 VERS              .         2.0                           : CWLS LOG ASCII STANDARD - VERSION 2.0
 WRAP              .         NO                            : ONE LINE PER DEPTH STEP
 DLM               .         SPACE                         : DELIMITING CHARACTER(SPACE TAB OR COMMA)
~Well Information
#_______________________________________________________________________________
#
#PARAMETER_NAME    .UNIT     VALUE                         : DESCRIPTION
#_______________________________________________________________________________
STRT               .M        890                           : First reference value
STOP               .M        1188                          : Last reference value
STEP               .M        0.1                           : Step increment
NULL               .         -9999                         : Missing value
COMP               .                                       : Company
WELL               .         6648                          : Well name
FLD                .         Узень                         : Field
LOC                .                                       : Location
CNTY               .                                       : County
STAT               .                                       : State
CTRY               .                                       : Country
SRVC               .         SCH                           : Service Company
DATE               .         04/29/2010                    : Date
UWI                .         6648                          : Unique Well ID
Block              .         7                             : 
Category           .         Нефтяная                      : 
Condition          .         В работе                      : 
Date               .         06.09.1991                    : 
EREF               .m        85.9                          : 100.8
Gorizont           .         15                            : 14
Interpretator      .         Бекбулатова А.А.              : 
Kupol              .         Основной                      : osnovnoi
Mud                .         0                             : 
Mud_density        .         0                             : 
Mud_resistivity    .         0                             : 
NGDU               .         НГДУ-2                        : 
ORIGINALWELLNAME   .         6648                          : 
Spud_date          .         1991                          : 1961
Viscosity          .         0                             : 
X                  .m        42343.1                       : 46154
Y                  .m        84189.43                      : 85761.93
YEAR               .         2018                          : 
Исправ_15гор       .         Исправ.15гор                  : 
~Parameter Information Block
#_______________________________________________________________________________
#
#PARAMETER_NAME    .UNIT     VALUE                         : DESCRIPTION
#_______________________________________________________________________________
SET                .         LQC_KAZNIPI_Petrel            : 
PBBOTTOM           .M        1188                          : Глубина подошвы планшета
PBSCALE            .         1 _ 500                       : Вертикальный масштаб планшета
PBTOP              .M        890                           : Глубина кровли планшета
TLFamily_CALI      .         Caliper                       : 
TLFamily_CILD      .         Conductivity                  : 
TLFamily_COLL      .         Net Reservoir Flag            : 
TLFamily_CSAT      .         Fluid Code                    : 
TLFamily_DEPT      .         Measured Depth                : 
TLFamily_GR        .         Russian Gamma Ray             : 
TLFamily_LLS       .         Lateral Log Resistivity       : 
TLFamily_MINV      .         Micro Gradient Resistivity    : 
TLFamily_MNOR      .         Micro Resistivity             : 
TLFamily_NGLD      .         Neutron Gamma                 : 
TLFamily_PHIE      .         Effective Porosity            : 
TLFamily_PHIEN     .         Effective Porosity            : 
TLFamily_PHIT      .         Porosity                      : 
TLFamily_PRMB      .         Permeability                  : 
TLFamily_PRMB_DGR  .         Permeability                  : 
TLFamily_RT        .         Formation Resistivity         : 
TLFamily_SOIL_ARCHIE .         Oil Saturation                : 
TLFamily_SOIL_DW   .         Oil Saturation                : 
TLFamily_SP        .         Spontaneous Potential         : 
TLFamily_VSH_FIN   .         Shale Volume                  : 
TLFamily_VSH_GR    .         Shale Volume                  : 
TLFamily_VSH_SP    .         Shale Volume                  : 
~Curve Information
#_______________________________________________________________________________
#
#LOGNAME           .UNIT     LOG_ID                        : DESCRIPTION
#_______________________________________________________________________________
DEPT               .M                                      : Колонка глубины 
CALI               .м                                      : Каверномер 
CILD               .мСм/м                                  : Индукционный каротаж 
COLL               .unitless                               : Описание 
CSAT               .unitless                               : Описание 
GR                 .uR/h                                   : Гамма каротаж 
LLS                .Ohmm                                   : Боковой каротаж 
MINV               .Ohmm                                   : Микро-градиент зонд 
MNOR               .Ohmm                                   : Микро-потенциал зонд 
NGLD               .у.е.                                   : Показания зонда НГК-60 аппаратуры ДРСТ-3-90 
PHIE               .д.ед.                                  : Описание 
PHIEN              .д.ед.                                  :  
PHIT               .д.ед.                                  : Описание 
PRMB               .mD                                     :  
PRMB_DGR           .mD                                     :  
RT                 .ohmm                                   : УЭС пласта 
SOIL_ARCHIE        .д.ед.                                  :  
SOIL_DW            .д.ед.                                  :  
SP                 .мВ                                     : Потенциал самополяризации 
VSH_FIN            .д.ед.                                  : Описание 
VSH_GR             .д.ед.                                  : Shale volume 
VSH_SP             .д.ед.                                  : Shale Volume 
~Ascii
# ...
1056.6     0.226      299.319    -9999      -9999      4.219      3.465      2.994      2.541      1.144      0.1312288  0.1312288  0.2841552  0.7548049  21.38848   3.341      0.2555546  0.5133588  31.467     0.4634131  0.1857622  0.7410641 
1056.7     0.226      299.319    -9999      -9999      4.133      3.516      3.062      2.583      1.16       0.1312508  0.1312508  0.280128   0.7555104  24.19619   3.341      0.2556628  0.5090486  31.251     0.4511432  0.176638   0.7256483 
1056.8     0.226      298.319    -9999      -9999      4.066      3.53       3.124      2.574      1.166      0.1324991  0.1324991  0.2786178  0.7968233  26.63662   3.352      0.2629119  0.509969   31.11      0.4427841  0.1698413  0.7157268 
1056.9     0.226      298.319    -9999      -9999      4.028      3.52       3.17       2.539      1.167      0.1338766  0.1338766  0.2783661  0.8450391  28.12861   3.352      0.2695218  0.5116194  31.022     0.437847   0.1661034  0.7095907 
1057       0.227      297.319    -9999      -9999      4.024      3.494      3.195      2.505      1.163      0.1357364  0.1357364  0.2793729  0.9147971  28.29044   3.363      0.2793554  0.5160593  30.953     0.4352622  0.1657148  0.7048097 
1057.1     0.228      295.319    -9999      -9999      4.052      3.449      3.201      2.487      1.155      0.138003   0.138003   0.2813865  1.007648   27.17687   3.386      0.2919436  0.5228706  30.891     0.4344954  0.1684545  0.7005363 
1057.2     0.229      294.319    -9999      -9999      4.106      3.377      3.192      2.475      1.142      0.1408691  0.1408691  0.2846586  1.138662   25.15153   3.398      0.3056606  0.5308078  30.848     0.4357259  0.1738669  0.6975849 
1057.3     0.229      293.319    -9999      -9999      4.178      3.286      3.166      2.453      1.125      0.1440028  0.1440028  0.2889375  1.301488   22.6839    3.409      0.3198718  0.539755   30.84      0.4391959  0.181355   0.6970369 
1057.4     0.23       291.319    -9999      -9999      4.258      3.194      3.124      2.412      1.107      0.1466908  0.1466908  0.2934681  1.45958    20.22497   3.433      0.3329388  0.548956   30.876     0.4447797  0.1900538  0.6995055 
1057.5     0.23       290.319    -9999      -9999      4.332      3.131      3.075      2.358      1.089      0.1490143  0.1490143  0.2979987  1.611629   18.18844   3.444      0.342994   0.5565907  30.948     0.4514678  0.1984713  0.7044643 
1057.6     0.23       288.319    -9999      -9999      4.388      3.109      3.034      2.308      1.075      0.1503595  0.1503595  0.3015225  1.706792   16.78473   3.468      0.3502371  0.5628269  31.043     0.4580697  0.2050882  0.711051  
1057.7     0.23       286.319    -9999      -9999      4.408      3.133      3.021      2.28       1.069      0.1502717  0.1502717  0.3030327  1.700417   16.31011   3.493      0.3520942  0.5656356  31.147     0.462912   0.2075045  0.7183195 
1057.8     0.23       283.319    -9999      -9999      4.383      3.201      3.051      2.282      1.069      0.1494784  0.1494784  0.3030327  1.643842   16.90553   3.53       0.3523106  0.5670403  31.258     0.4653162  0.2044885  0.7261438 
1057.9     0.23       281.319    -9999      -9999      4.321      3.308      3.128      2.314      1.075      0.1477038  0.1477038  0.3015225  1.524018   18.47766   3.555      0.3477021  0.5652497  31.383     0.4661174  0.1971969  0.7350379 
1058       0.23       279.319    -9999      -9999      4.244      3.444      3.252      2.377      1.081      0.1459196  0.1459196  0.3000123  1.412354   20.63518   3.58       0.3429255  0.5634012  31.527     0.4669476  0.1885019  0.7453932 
1058.1     0.23       278.319    -9999      -9999      4.179      3.583      3.422      2.471      1.083      0.1446204  0.1446204  0.2995089  1.336225   22.65138   3.593      0.338913   0.5622477  31.69      0.469359   0.1814612  0.7572567 
1058.2     0.23       279.319    -9999      -9999      4.149      3.685      3.626      2.593      1.08       0.1438042  0.1438042  0.300264   1.29051    23.64726   3.58       0.3345152  0.5611919  31.862     0.4741204  0.1783009  0.76994   
1058.3     0.23       282.319    -9999      -9999      4.156      3.712      3.828      2.727      1.072      0.143663   0.143663   0.3022776  1.282762   23.41104   3.542      0.3306018  0.5605041  32.027     0.4806502  0.1790334  0.782267  
1058.4     0.23       284.319    -9999      -9999      4.189      3.658      3.96       2.833      1.061      0.1440841  0.1440841  0.3050463  1.306003   22.32882   3.517      0.3300827  0.5619199  32.169     0.4877644  0.182527   0.7930018 
1058.5     0.23       287.319    -9999      -9999      4.23       3.543      3.96       2.871      1.051      0.1447144  0.1447144  0.3075633  1.341593   21.05369   3.48       0.3293046  0.5625631  32.274     0.4934814  0.1869628  0.8       
1058.6     0.231      288.319    -9999      -9999      4.262      3.419      3.808      2.82       1.043      0.1461445  0.1461445  0.3095769  1.425963   20.10927   3.468      0.3339454  0.5652026  32.332     0.4952498  0.1904996  0.8       
1058.7     0.232      288.319    -9999      -9999      4.278      3.326      3.56       2.704      1.038      0.1471071  0.1471071  0.3108354  1.485723   19.65307   3.468      0.3377429  0.5673747  32.33      0.4961465  0.1922929  0.8       
1058.8     0.233      289.319    -9999      -9999      4.282      3.286      3.312      2.574      1.036      0.1477348  0.1477348  0.3113388  1.526037   19.54065   3.456      0.3391203  0.5677583  32.245     0.4957696  0.192744   0.7987954 
1058.9     0.235      289.319    -9999      -9999      4.284      3.288      3.142      2.477      1.034      0.1506052  0.1506052  0.3118422  1.724774   19.48468   3.456      0.3501043  0.5713404  32.053     0.4885969  0.1929698  0.7842239 
1059       0.237      291.319    -9999      -9999      4.302      3.308      3.072      2.434      1.03       0.1549974  0.1549974  0.312849   2.080105   18.9881    3.433      0.3641842  0.5754547  31.75      0.4783383  0.1950148  0.7616618 
1059.1     0.239      293.319    -9999      -9999      4.346      3.309      3.088      2.44       1.023      0.1604302  0.1604302  0.3146109  2.622497   17.82687   3.409      0.380944   0.5810237  31.373     0.4672142  0.2001053  0.7343231 
1059.2     0.241      296.319    -9999      -9999      4.421      3.27       3.164      2.475      1.013      0.1659233  0.1659233  0.3171279  3.314827   16.00883   3.375      0.3959981  0.5863969  30.989     0.4581956  0.2090903  0.7073009 
1059.3     0.242      300.319    -9999      -9999      4.519      3.19       3.283      2.519      1.002      0.1702329  0.1702329  0.3198966  3.983683   13.90971   3.33       0.4056053  0.5899286  30.672     0.4535263  0.2214416  0.6856111 
1059.4     0.242      304.319    -9999      -9999      4.629      3.09       3.41       2.548      0.991      0.1728801  0.1728801  0.3226653  4.459824   11.87961   3.286      0.4098683  0.5918208  30.463     0.4538944  0.2361764  0.6716124 
1059.5     0.241      308.319    -9999      -9999      4.738      3.002      3.489      2.54       0.981      0.1739306  0.1739306  0.3251823  4.664177   10.16037   3.243      0.4093339  0.5920312  30.362     0.4583384  0.2517442  0.6649327 
1059.6     0.24       312.319    -9999      -9999      4.834      2.948      3.463      2.486      0.974      0.1736051  0.1736051  0.3269442  4.599868   8.853474   3.202      0.4048265  0.5904799  30.333     0.464664   0.266303   0.663025  
1059.7     0.24       316.319    -9999      -9999      4.908      2.934      3.321      2.408      0.97       0.1726766  0.1726766  0.327951   4.421278   7.961981   3.161      0.3984131  0.5877462  30.332     0.4705285  0.2780976  0.6629594 
1059.8     0.242      320.319    -9999      -9999      4.953      2.96       3.116      2.343      0.967      0.1723689  0.1723689  0.3287061  4.363631   7.464347   3.122      0.3939574  0.5854747  30.317     0.4737491  0.2855239  0.6619744 
1059.9     0.244      325.319    -9999      -9999      4.966      2.995      2.928      2.312      0.967      0.172603   0.172603   0.3287061  4.407416   7.326465   3.074      0.3902561  0.5824711  30.262     0.4730397  0.287706   0.6583735 
