~Version
 VERS              .         2.0                           : CWLS LOG ASCII STANDARD - VERSION 2.0
 WRAP              .         NO                            : ONE LINE PER DEPTH STEP
 DLM               .         SPACE                         : DELIMITING CHARACTER(SPACE TAB OR COMMA)
~Well Information
#_______________________________________________________________________________
#
#PARAMETER_NAME    .UNIT     VALUE                         : DESCRIPTION
#_______________________________________________________________________________
STRT               .M        890                           : First reference value
STOP               .M        1188                          : Last reference value
STEP               .M        0.1                           : Step increment
NULL               .         -9999                         : Missing value
COMP               .                                       : Company
WELL               .         6648                          : Well name
FLD                .         Узень                         : Field
LOC                .                                       : Location
CNTY               .                                       : County
STAT               .                                       : State
CTRY               .                                       : Country
SRVC               .         SCH                           : Service Company
DATE               .         04/29/2010                    : Date
UWI                .         6648                          : Unique Well ID
Block              .         7                             : 
Category           .         Нефтяная                      : 
Condition          .         В работе                      : 
Date               .         06.09.1991                    : 
EREF               .m        85.9                          : 100.8
Gorizont           .         15                            : 14
Interpretator      .         Бекбулатова А.А.              : 
Kupol              .         Основной                      : osnovnoi
Mud                .         0                             : 
Mud_density        .         0                             : 
Mud_resistivity    .         0                             : 
NGDU               .         НГДУ-2                        : 
ORIGINALWELLNAME   .         6648                          : 
Spud_date          .         1991                          : 1961
Viscosity          .         0                             : 
X                  .m        42343.1                       : 46154
Y                  .m        84189.43                      : 85761.93
YEAR               .         2018                          : 
Исправ_15гор       .         Исправ.15гор                  : 
~Parameter Information Block
#_______________________________________________________________________________
#
#PARAMETER_NAME    .UNIT     VALUE                         : DESCRIPTION
#_______________________________________________________________________________
SET                .         LQC_KAZNIPI_Petrel            : 
PBBOTTOM           .M        1188                          : Глубина подошвы планшета
PBSCALE            .         1 _ 500                       : Вертикальный масштаб планшета
PBTOP              .M        890                           : Глубина кровли планшета
TLFamily_CALI      .         Caliper                       : 
TLFamily_CILD      .         Conductivity                  : 
TLFamily_COLL      .         Net Reservoir Flag            : 
TLFamily_CSAT      .         Fluid Code                    : 
TLFamily_DEPT      .         Measured Depth                : 
TLFamily_GR        .         Russian Gamma Ray             : 
TLFamily_LLS       .         Lateral Log Resistivity       : 
TLFamily_MINV      .         Micro Gradient Resistivity    : 
TLFamily_MNOR      .         Micro Resistivity             : 
TLFamily_NGLD      .         Neutron Gamma                 : 
TLFamily_PHIE      .         Effective Porosity            : 
TLFamily_PHIEN     .         Effective Porosity            : 
TLFamily_PHIT      .         Porosity                      : 
TLFamily_PRMB      .         Permeability                  : 
TLFamily_PRMB_DGR  .         Permeability                  : 
TLFamily_RT        .         Formation Resistivity         : 
TLFamily_SOIL_ARCHIE .         Oil Saturation                : 
TLFamily_SOIL_DW   .         Oil Saturation                : 
TLFamily_SP        .         Spontaneous Potential         : 
TLFamily_VSH_FIN   .         Shale Volume                  : 
TLFamily_VSH_GR    .         Shale Volume                  : 
TLFamily_VSH_SP    .         Shale Volume                  : 
~Curve Information
#_______________________________________________________________________________
#
#LOGNAME           .UNIT     LOG_ID                        : DESCRIPTION
#_______________________________________________________________________________
DEPT               .M                                      : Колонка глубины 
CALI               .м                                      : Каверномер 
CILD               .мСм/м                                  : Индукционный каротаж 
COLL               .unitless                               : Описание 
CSAT               .unitless                               : Описание 
GR                 .uR/h                                   : Гамма каротаж 
LLS                .Ohmm                                   : Боковой каротаж 
MINV               .Ohmm                                   : Микро-градиент зонд 
MNOR               .Ohmm                                   : Микро-потенциал зонд 
NGLD               .у.е.                                   : Показания зонда НГК-60 аппаратуры ДРСТ-3-90 
PHIE               .д.ед.                                  : Описание 
PHIEN              .д.ед.                                  :  
PHIT               .д.ед.                                  : Описание 
PRMB               .mD                                     :  
PRMB_DGR           .mD                                     :  
RT                 .ohmm                                   : УЭС пласта 
SOIL_ARCHIE        .д.ед.                                  :  
SOIL_DW            .д.ед.                                  :  
SP                 .мВ                                     : Потенциал самополяризации 
VSH_FIN            .д.ед.                                  : Описание 
VSH_GR             .д.ед.                                  : Shale volume 
VSH_SP             .д.ед.                                  : Shale Volume 
~Ascii
# ...
982.4      0.261      442.319    -9999      -9999      4.612      2.105      1.787      1.467      0.874      0.1011345  0.1011345  0.3521142  0.2091291  0.6350546  2.261      0          0.4353646  33.307     0.7605445  0.7809674  0.7401217 
982.5      0.262      441.319    -9999      -9999      4.653      2.093      1.809      1.464      0.884      0.09580895 0.09580895 0.3495972  0.1666373  0.5984737  2.266      0          0.4231853  33.279     0.7690553  0.8        0.7381105 
982.6      0.265      440.319    -9999      -9999      4.662      2.093      1.787      1.45       0.893      0.09293867 0.09293867 0.3473319  0.1474374  0.5907297  2.271      0          0.4155875  33.33      0.7708886  0.8        0.7417772 
982.7000000000001 0.267      438.319    -9999      -9999      4.633      2.11       1.751      1.428      0.9        0.09141915 0.09141915 0.34557    0.1381855  0.6160471  2.281      0          0.411759   33.438     0.7701541  0.7907183  0.7495899 
982.8      0.269      436.319    -9999      -9999      4.574      2.143      1.717      1.398      0.902      0.09397681 0.09397681 0.3450666  0.154112   0.6709529  2.292      0          0.4177612  33.555     0.7608781  0.7636275  0.7581288 
982.9      0.271      433.319    -9999      -9999      4.497      2.19       1.68       1.359      0.904      0.09826492 0.09826492 0.3445632  0.1850388  0.7500358  2.308      0          0.4275646  33.622     0.7463585  0.729663   0.7630538 
983        0.271      430.319    -9999      -9999      4.418      2.246      1.631      1.315      0.906      0.1035196  0.1035196  0.3440598  0.231522   0.8408701  2.324      0          0.438722   33.6       0.7289097  0.6963857  0.7614337 
983.1      0.27       428.319    -9999      -9999      4.35       2.303      1.575      1.277      0.907      0.1091469  0.1091469  0.3438081  0.2943224  0.9278192  2.335      0          0.4496581  33.488     0.7110946  0.6689597  0.7532294 
983.2000000000001 0.269      426.319    -9999      -9999      4.305      2.35       1.542      1.262      0.908      0.1138118  0.1138118  0.3435564  0.3591103  0.9902466  2.346      0.005169385 0.4584812  33.319     0.6961959  0.6514068  0.740985  
983.3      0.267      425.319    -9999      -9999      4.292      2.373      1.56       1.276      0.911      0.116025   0.116025   0.3428013  0.3946595  1.009051   2.351      0.02269485 0.4618648  33.137     0.6872009  0.6464223  0.7279795 
983.4      0.265      425.319    -9999      -9999      4.315      2.367      1.638      1.319      0.915      0.1153621  0.1153621  0.3417945  0.3836581  0.9760202  2.351      0.01780563 0.4597587  32.982     0.6861587  0.6552673  0.7170501 
983.5      0.265      425.319    -9999      -9999      4.367      2.335      1.755      1.382      0.919      0.1121907  0.1121907  0.3407877  0.3351219  0.9052728  2.351      0          0.4534898  32.877     0.692718   0.6757133  0.7097227 
983.6      0.265      425.319    -9999      -9999      4.431      2.29       1.881      1.452      0.923      0.1074934  0.1074934  0.3397809  0.2742816  0.8251998  2.351      0          0.4443778  32.824     0.7039015  0.7017555  0.7060476 
983.7000000000001 0.267      425.319    -9999      -9999      4.492      2.247      1.992      1.514      0.925      0.1028317  0.1028317  0.3392775  0.2248285  0.7554823  2.351      0          0.4354711  32.816     0.7165023  0.7275105  0.7054942 
983.8      0.27       425.319    -9999      -9999      4.539      2.22       2.076      1.554      0.925      0.09917729 0.09917729 0.3392775  0.192381   0.7058095  2.351      0          0.4286456  32.84      0.7275764  0.7479974  0.7071554 
983.9      0.273      423.319    -9999      -9999      4.57       2.212      2.13       1.564      0.921      0.09734125 0.09734125 0.3402843  0.1778911  0.6748474  2.362      0          0.4276029  32.889     0.736191   0.7618249  0.7105571 
984        0.275      421.319    -9999      -9999      4.594      2.224      2.151      1.543      0.913      0.09677703 0.09677703 0.3422979  0.1736615  0.6518132  2.373      0          0.4301119  32.957     0.7440026  0.7727052  0.7153001 
984.1      0.276      418.319    -9999      -9999      4.618      2.249      2.138      1.5        0.904      0.09620237 0.09620237 0.3445632  0.1694569  0.6295649  2.391      0          0.4336836  33.045     0.7526086  0.7837411  0.7214761 
984.2000000000001 0.276      416.319    -9999      -9999      4.644      2.283      2.098      1.451      0.895      0.0952169  0.0952169  0.3468285  0.1624823  0.6063185  2.402      0          0.4355997  33.152     0.7624594  0.7958745  0.7290444 
984.3      0.275      413.319    -9999      -9999      4.664      2.317      2.044      1.411      0.889      0.09464512 0.09464512 0.3483387  0.1585679  0.5890226  2.419      0          0.4381498  33.271     0.7687684  0.8        0.7375368 
984.4      0.274      411.319    -9999      -9999      4.665      2.351      1.991      1.391      0.887      0.09381763 0.09381763 0.3488421  0.1530693  0.5881712  2.431      0          0.4385057  33.383     0.7728014  0.8        0.7456028 
984.5      0.273      410.319    -9999      -9999      4.633      2.381      1.953      1.394      0.889      0.09385185 0.09385185 0.3483387  0.1532929  0.6160471  2.437      0          0.4387126  33.466     0.7711723  0.7907183  0.7516263 
984.6      0.271      409.319    -9999      -9999      4.564      2.41       1.94       1.418      0.894      0.0973966  0.0973966  0.3470802  0.1783115  0.6807323  2.443      0          0.4447204  33.5       0.756617   0.7591288  0.754105  
984.7000000000001 0.27       409.319    -9999      -9999      4.469      2.434      1.955      1.459      0.899      0.1032282  0.1032282  0.3458217  0.2286625  0.7810497  2.443      0          0.4539128  33.479     0.7351318  0.7176902  0.7525733 
984.8      0.271      409.319    -9999      -9999      4.368      2.452      1.995      1.509      0.901      0.1104007  0.1104007  0.3453183  0.3104891  0.9039642  2.443      0          0.4655924  33.411     0.7118716  0.6761127  0.7476304 
984.9      0.271      409.319    -9999      -9999      4.286      2.462      2.045      1.561      0.9        0.1171677  0.1171677  0.34557    0.4143703  1.01785    2.443      0.04830008 0.4766427  33.307     0.6921281  0.6441346  0.7401217 
985        0.273      410.319    -9999      -9999      4.24       2.46       2.092      1.608      0.895      0.1227636  0.1227636  0.3468285  0.5260628  1.087908   2.437      0.08514069 0.4856716  33.181     0.6789846  0.6268626  0.7311066 
985.1      0.275      411.319    -9999      -9999      4.232      2.441      2.126      1.645      0.886      0.1272102  0.1272102  0.3490938  0.6359165  1.100575   2.431      0.1120299  0.4935932  33.036     0.6723745  0.6239064  0.7208425 
985.2000000000001 0.276      413.319    -9999      -9999      4.255      2.408      2.143      1.668      0.876      0.1302222  0.1302222  0.3516108  0.7230842  1.064548   2.419      0.1279219  0.4988639  32.871     0.6708746  0.6324434  0.7093058 
985.3      0.278      415.319    -9999      -9999      4.294      2.365      2.142      1.672      0.866      0.1324563  0.1324563  0.3541278  0.7953702  1.006134   2.408      0.138907   0.5030414  32.682     0.6717319  0.6471868  0.6962771 
985.4      0.28       418.319    -9999      -9999      4.34       2.298      2.116      1.656      0.858      0.1338559  0.1338559  0.3561414  0.844294   0.9413425  2.391      0.1439127  0.5049536  32.474     0.6735925  0.6650187  0.6821663 
985.5      0.281      422.319    -9999      -9999      4.391      2.241      2.064      1.622      0.853      0.134134   0.134134   0.3573999  0.8543671  0.8743737  2.368      0.1415738  0.5040498  32.258     0.6765634  0.6853637  0.6677632 
985.6      0.283      425.319    -9999      -9999      4.449      2.212      1.992      1.579      0.852      0.1326598  0.1326598  0.3576516  0.8023061  0.8039842  2.351      0.1303364  0.5005226  32.053     0.6817932  0.7092589  0.6543275 
