~Version
 VERS              .         2.0                           : CWLS LOG ASCII STANDARD - VERSION 2.0
 WRAP              .         NO                            : ONE LINE PER DEPTH STEP
 DLM               .         SPACE                         : DELIMITING CHARACTER(SPACE TAB OR COMMA)
~Well Information
#_______________________________________________________________________________
#
#PARAMETER_NAME    .UNIT     VALUE                         : DESCRIPTION
#_______________________________________________________________________________
STRT               .M        890                           : First reference value
STOP               .M        1188                          : Last reference value
STEP               .M        0.1                           : Step increment
NULL               .         -9999                         : Missing value
COMP               .                                       : Company
WELL               .         6648                          : Well name
FLD                .         Узень                         : Field
LOC                .                                       : Location
CNTY               .                                       : County
STAT               .                                       : State
CTRY               .                                       : Country
SRVC               .         SCH                           : Service Company
DATE               .         04/29/2010                    : Date
UWI                .         6648                          : Unique Well ID
Block              .         7                             : 
Category           .         Нефтяная                      : 
Condition          .         В работе                      : 
Date               .         06.09.1991                    : 
EREF               .m        85.9                          : 100.8
Gorizont           .         15                            : 14
Interpretator      .         Бекбулатова А.А.              : 
Kupol              .         Основной                      : osnovnoi
Mud                .         0                             : 
Mud_density        .         0                             : 
Mud_resistivity    .         0                             : 
NGDU               .         НГДУ-2                        : 
ORIGINALWELLNAME   .         6648                          : 
Spud_date          .         1991                          : 1961
Viscosity          .         0                             : 
X                  .m        42343.1                       : 46154
Y                  .m        84189.43                      : 85761.93
YEAR               .         2018                          : 
Исправ_15гор       .         Исправ.15гор                  : 
~Parameter Information Block
#_______________________________________________________________________________
#
#PARAMETER_NAME    .UNIT     VALUE                         : DESCRIPTION
#_______________________________________________________________________________
SET                .         LQC_KAZNIPI_Petrel            : 
PBBOTTOM           .M        1188                          : Глубина подошвы планшета
PBSCALE            .         1 _ 500                       : Вертикальный масштаб планшета
PBTOP              .M        890                           : Глубина кровли планшета
TLFamily_CALI      .         Caliper                       : 
TLFamily_CILD      .         Conductivity                  : 
TLFamily_COLL      .         Net Reservoir Flag            : 
TLFamily_CSAT      .         Fluid Code                    : 
TLFamily_DEPT      .         Measured Depth                : 
TLFamily_GR        .         Russian Gamma Ray             : 
TLFamily_LLS       .         Lateral Log Resistivity       : 
TLFamily_MINV      .         Micro Gradient Resistivity    : 
TLFamily_MNOR      .         Micro Resistivity             : 
TLFamily_NGLD      .         Neutron Gamma                 : 
TLFamily_PHIE      .         Effective Porosity            : 
TLFamily_PHIEN     .         Effective Porosity            : 
TLFamily_PHIT      .         Porosity                      : 
TLFamily_PRMB      .         Permeability                  : 
TLFamily_PRMB_DGR  .         Permeability                  : 
TLFamily_RT        .         Formation Resistivity         : 
TLFamily_SOIL_ARCHIE .         Oil Saturation                : 
TLFamily_SOIL_DW   .         Oil Saturation                : 
TLFamily_SP        .         Spontaneous Potential         : 
TLFamily_VSH_FIN   .         Shale Volume                  : 
TLFamily_VSH_GR    .         Shale Volume                  : 
TLFamily_VSH_SP    .         Shale Volume                  : 
~Curve Information
#_______________________________________________________________________________
#
#LOGNAME           .UNIT     LOG_ID                        : DESCRIPTION
#_______________________________________________________________________________
DEPT               .M                                      : Колонка глубины 
CALI               .м                                      : Каверномер 
CILD               .мСм/м                                  : Индукционный каротаж 
COLL               .unitless                               : Описание 
CSAT               .unitless                               : Описание 
GR                 .uR/h                                   : Гамма каротаж 
LLS                .Ohmm                                   : Боковой каротаж 
MINV               .Ohmm                                   : Микро-градиент зонд 
MNOR               .Ohmm                                   : Микро-потенциал зонд 
NGLD               .у.е.                                   : Показания зонда НГК-60 аппаратуры ДРСТ-3-90 
PHIE               .д.ед.                                  : Описание 
PHIEN              .д.ед.                                  :  
PHIT               .д.ед.                                  : Описание 
PRMB               .mD                                     :  
PRMB_DGR           .mD                                     :  
RT                 .ohmm                                   : УЭС пласта 
SOIL_ARCHIE        .д.ед.                                  :  
SOIL_DW            .д.ед.                                  :  
SP                 .мВ                                     : Потенциал самополяризации 
VSH_FIN            .д.ед.                                  : Описание 
VSH_GR             .д.ед.                                  : Shale volume 
VSH_SP             .д.ед.                                  : Shale Volume 
~Ascii
# ...
946.1      0.23       299.319    -9999      -9999      3.813      3.305      2.596      1.801      1.097      0.09991644 0.09991644 0.2959851  0.1985423  2.018075   3.341      0.05605437 0.4767042  32.754     0.5941474  0.4870776  0.7012173 
946.2000000000001 0.23       299.319    -9999      -9999      3.764      3.391      2.63       1.949      1.098      0.1015945  0.1015945  0.2957334  0.2132723  2.166361   3.341      0.0696482  0.4794288  32.786     0.5882997  0.4731775  0.7034219 
946.3      0.231      301.319    -9999      -9999      3.717      3.476      2.546      2.053      1.092      0.1049354  0.1049354  0.2972436  0.2459327  2.318823   3.319      0.09269119 0.4852828  32.813     0.5827521  0.4602176  0.7052866 
946.4      0.232      304.319    -9999      -9999      3.688      3.561      2.377      2.106      1.083      0.1080338  0.1080338  0.2995089  0.2806764  2.418201   3.286      0.1112392  0.490486   32.853     0.5802277  0.4523987  0.7080566 
946.5      0.234      308.319    -9999      -9999      3.687      3.626      2.223      2.134      1.074      0.1095398  0.1095398  0.3017742  0.2992963  2.421704   3.243      0.1164466  0.4921022  32.923     0.5825284  0.4521315  0.7129254 
946.6      0.235      312.319    -9999      -9999      3.711      3.64       2.184      2.153      1.065      0.1096422  0.1096422  0.3040395  0.3006056  2.339044   3.202      0.1118782  0.4914952  33.018     0.5890828  0.4585888  0.7195767 
946.7000000000001 0.236      315.319    -9999      -9999      3.747      3.58       2.313      2.154      1.056      0.1091632  0.1091632  0.3063048  0.2945276  2.220314   3.171      0.1044062  0.4906823  33.114     0.5973987  0.4684483  0.7263491 
946.8      0.237      317.319    -9999      -9999      3.78       3.45       2.597      2.103      1.048      0.1087994  0.1087994  0.3083184  0.2899928  2.11678    3.151      0.09912769 0.4906397  33.187     0.604603   0.4776721  0.7315338 
946.9      0.237      318.319    -9999      -9999      3.802      3.276      2.965      1.967      1.04       0.1094406  0.1094406  0.310332   0.2980321  2.050454   3.142      0.1025223  0.4931079  33.216     0.6087619  0.483922   0.7336017 
947        0.236      320.319    -9999      -9999      3.81       3.104      3.3        1.747      1.032      0.1112053  0.1112053  0.3123456  0.3213297  2.026854   3.122      0.1122834  0.4964521  33.205     0.609516   0.4862149  0.732817  
947.1      0.235      323.319    -9999      -9999      3.81       2.944      3.471      1.486      1.024      0.113689   0.113689   0.3143592  0.3572345  2.026854   3.093      0.1253758  0.5001032  33.165     0.6080916  0.4862149  0.7299682 
947.2000000000001 0.234      328.319    -9999      -9999      3.812      2.916      3.385      1.25       1.018      0.1157832  0.1157832  0.3158694  0.390611   2.020996   3.046      0.1329628  0.5010517  33.107     0.6063217  0.4867899  0.7258535 
947.3      0.234      334.319    -9999      -9999      3.823      2.96       3.048      1.1        1.013      0.1172983  0.1172983  0.3171279  0.4166848  1.989082   2.991      0.1353632  0.5000873  33.04      0.6055441  0.4899641  0.7211242 
947.4      0.234      341.319    -9999      -9999      3.854      3.003      2.564      1.063      1.008      0.1178501  0.1178501  0.3183864  0.4266072  1.901827   2.93       0.1305234  0.4970377  32.972     0.6076857  0.4990216  0.7163497 
947.5      0.235      350.319    -9999      -9999      3.91       3.001      2.088      1.121      1.002      0.1173163  0.1173163  0.3198966  0.4170041  1.753792   2.855      0.1163918  0.4912075  32.909     0.6138797  0.51581    0.7119494 
947.6      0.237      358.319    -9999      -9999      3.993      2.924      1.719      1.222      0.994      0.1156255  0.1156255  0.3219102  0.3879923  1.555312   2.791      0.09557761 0.4848537  32.859     0.6251051  0.5417373  0.7084729 
947.7000000000001 0.24       365.319    -9999      -9999      4.093      2.772      1.477      1.302      0.985      0.1129301  0.1129301  0.3241755  0.3458578  1.345777   2.737      0.06830232 0.4778568  32.817     0.6401376  0.5747118  0.7055633 
947.8      0.242      370.319    -9999      -9999      4.19       2.576      1.314      1.318      0.977      0.1098056  0.1098056  0.3261891  0.3027084  1.169537   2.7        0.0391368  0.4712833  32.777     0.6557075  0.6086137  0.7028013 
947.9      0.244      373.319    -9999      -9999      4.263      2.381      1.18       1.264      0.97       0.1075728  0.1075728  0.327951   0.2752117  1.052296   2.679      0.01819862 0.4673339  32.739     0.6678128  0.63544    0.7001855 
948        0.246      374.319    -9999      -9999      4.295      2.234      1.051      1.167      0.967      0.1065984  0.1065984  0.3287061  0.2640094  1.004679   2.672      0.009171454 0.4657823  32.715     0.6730536  0.6475692  0.6985378 
948.1      0.246      373.319    -9999      -9999      4.286      2.165      0.929      1.069      0.969      0.1064126  0.1064126  0.3282027  0.2619248  1.01785    2.679      0.00888188 0.4656236  32.737     0.6720914  0.6441346  0.7000482 
948.2000000000001 0.246      371.319    -9999      -9999      4.246      2.185      0.823      1.003      0.974      0.1065781  0.1065781  0.3269442  0.2637812  1.078503   2.693      0.01264122 0.465949   32.83      0.6677759  0.6290889  0.7064629 
948.3      0.245      368.319    -9999      -9999      4.189      2.274      0.745      0.984      0.983      0.1058185  0.1058185  0.3246789  0.2553724  1.171231   2.715      0.01025701 0.4643695  32.998     0.6632133  0.6082543  0.7181723 
948.4      0.243      365.319    -9999      -9999      4.126      2.391      0.703      1.008      0.995      0.104002   0.104002   0.3216585  0.2363349  1.283023   2.737      0          0.460049   33.209     0.6595651  0.586028   0.7331021 
948.5      0.242      363.319    -9999      -9999      4.063      2.496      0.7        1.063      1.01       0.1014702  0.1014702  0.317883   0.2121452  1.405485   2.752      0          0.4527399  33.402     0.6557962  0.5646142  0.7469783 
948.6      0.241      360.319    -9999      -9999      4.004      2.568      0.738      1.135      1.025      0.09950576 0.09950576 0.3141075  0.195095   1.53075    2.775      0          0.447037   33.517     0.6503083  0.5452699  0.7553468 
948.7000000000001 0.24       357.319    -9999      -9999      3.954      2.62       0.826      1.222      1.039      0.09857695 0.09857695 0.3105837  0.1875177  1.645609   2.799      0          0.4435253  33.519     0.6424447  0.5293961  0.7554932 
948.8      0.238      356.319    -9999      -9999      3.916      2.669      0.979      1.333      1.049      0.09921302 0.09921302 0.3080667  0.1926743  1.738632   2.806      0          0.4424476  33.418     0.6328899  0.5176418  0.7481381 
948.9      0.237      354.319    -9999      -9999      3.894      2.72       1.208      1.485      1.052      0.1014521  0.1014521  0.3073116  0.2119811  1.794871   2.822      0          0.447368   33.259     0.6238166  0.5109565  0.7366768 
949        0.237      354.319    -9999      -9999      3.882      2.764      1.501      1.688      1.05       0.1044304  0.1044304  0.307815   0.2406927  1.82631    2.822      0.01680548 0.4534425  33.099     0.6163169  0.5073463  0.7252876 
949.1      0.237      353.319    -9999      -9999      3.871      2.787      1.802      1.915      1.045      0.1075904  0.1075904  0.3090735  0.2754189  1.855613   2.83       0.04327593 0.46128    32.982     0.6105548  0.5040595  0.7170501 
949.2000000000001 0.237      352.319    -9999      -9999      3.849      2.796      2.024      2.102      1.04       0.1106957  0.1106957  0.310332   0.3144205  1.915637   2.838      0.0679291  0.4687808  32.915     0.6049585  0.4975495  0.7123676 
949.3      0.236      351.319    -9999      -9999      3.811      2.815      2.081      2.172      1.039      0.1131721  0.1131721  0.3105837  0.3494461  2.023923   2.846      0.08692481 0.4739284  32.88      0.5982169  0.4865023  0.7099314 
