~Version
 VERS              .         2.0                           : CWLS LOG ASCII STANDARD - VERSION 2.0
 WRAP              .         NO                            : ONE LINE PER DEPTH STEP
 DLM               .         SPACE                         : DELIMITING CHARACTER(SPACE TAB OR COMMA)
~Well Information
#_______________________________________________________________________________
#
#PARAMETER_NAME    .UNIT     VALUE                         : DESCRIPTION
#_______________________________________________________________________________
STRT               .M        890                           : First reference value
STOP               .M        1188                          : Last reference value
STEP               .M        0.1                           : Step increment
NULL               .         -9999                         : Missing value
COMP               .                                       : Company
WELL               .         6648                          : Well name
FLD                .         Узень                         : Field
LOC                .                                       : Location
CNTY               .                                       : County
STAT               .                                       : State
CTRY               .                                       : Country
SRVC               .         SCH                           : Service Company
DATE               .         04/29/2010                    : Date
UWI                .         6648                          : Unique Well ID
Block              .         7                             : 
Category           .         Нефтяная                      : 
Condition          .         В работе                      : 
Date               .         06.09.1991                    : 
EREF               .m        85.9                          : 100.8
Gorizont           .         15                            : 14
Interpretator      .         Бекбулатова А.А.              : 
Kupol              .         Основной                      : osnovnoi
Mud                .         0                             : 
Mud_density        .         0                             : 
Mud_resistivity    .         0                             : 
NGDU               .         НГДУ-2                        : 
ORIGINALWELLNAME   .         6648                          : 
Spud_date          .         1991                          : 1961
Viscosity          .         0                             : 
X                  .m        42343.1                       : 46154
Y                  .m        84189.43                      : 85761.93
YEAR               .         2018                          : 
Исправ_15гор       .         Исправ.15гор                  : 
~Parameter Information Block
#_______________________________________________________________________________
#
#PARAMETER_NAME    .UNIT     VALUE                         : DESCRIPTION
#_______________________________________________________________________________
SET                .         LQC_KAZNIPI_Petrel            : 
PBBOTTOM           .M        1188                          : Глубина подошвы планшета
PBSCALE            .         1 _ 500                       : Вертикальный масштаб планшета
PBTOP              .M        890                           : Глубина кровли планшета
TLFamily_CALI      .         Caliper                       : 
TLFamily_CILD      .         Conductivity                  : 
TLFamily_COLL      .         Net Reservoir Flag            : 
TLFamily_CSAT      .         Fluid Code                    : 
TLFamily_DEPT      .         Measured Depth                : 
TLFamily_GR        .         Russian Gamma Ray             : 
TLFamily_LLS       .         Lateral Log Resistivity       : 
TLFamily_MINV      .         Micro Gradient Resistivity    : 
TLFamily_MNOR      .         Micro Resistivity             : 
TLFamily_NGLD      .         Neutron Gamma                 : 
TLFamily_PHIE      .         Effective Porosity            : 
TLFamily_PHIEN     .         Effective Porosity            : 
TLFamily_PHIT      .         Porosity                      : 
TLFamily_PRMB      .         Permeability                  : 
TLFamily_PRMB_DGR  .         Permeability                  : 
TLFamily_RT        .         Formation Resistivity         : 
TLFamily_SOIL_ARCHIE .         Oil Saturation                : 
TLFamily_SOIL_DW   .         Oil Saturation                : 
TLFamily_SP        .         Spontaneous Potential         : 
TLFamily_VSH_FIN   .         Shale Volume                  : 
TLFamily_VSH_GR    .         Shale Volume                  : 
TLFamily_VSH_SP    .         Shale Volume                  : 
~Curve Information
#_______________________________________________________________________________
#
#LOGNAME           .UNIT     LOG_ID                        : DESCRIPTION
#_______________________________________________________________________________
DEPT               .M                                      : Колонка глубины 
CALI               .м                                      : Каверномер 
CILD               .мСм/м                                  : Индукционный каротаж 
COLL               .unitless                               : Описание 
CSAT               .unitless                               : Описание 
GR                 .uR/h                                   : Гамма каротаж 
LLS                .Ohmm                                   : Боковой каротаж 
MINV               .Ohmm                                   : Микро-градиент зонд 
MNOR               .Ohmm                                   : Микро-потенциал зонд 
NGLD               .у.е.                                   : Показания зонда НГК-60 аппаратуры ДРСТ-3-90 
PHIE               .д.ед.                                  : Описание 
PHIEN              .д.ед.                                  :  
PHIT               .д.ед.                                  : Описание 
PRMB               .mD                                     :  
PRMB_DGR           .mD                                     :  
RT                 .ohmm                                   : УЭС пласта 
SOIL_ARCHIE        .д.ед.                                  :  
SOIL_DW            .д.ед.                                  :  
SP                 .мВ                                     : Потенциал самополяризации 
VSH_FIN            .д.ед.                                  : Описание 
VSH_GR             .д.ед.                                  : Shale volume 
VSH_SP             .д.ед.                                  : Shale Volume 
~Ascii
# ...
929.6      0.226      199.319    -9999      -9999      2.724      5.154      4.178      3.669      1.161      0.1317662  0.1317662  0.2798763  0.7723036  9.756894   5.017      0.3870424  0.5997304  31.857     0.4488184  0.2559442  0.6416927 
929.7000000000001 0.226      198.319    -9999      -9999      2.727      5.063      4.27       3.62       1.169      0.132618   0.132618   0.2778627  0.8008746  9.714626   5.042      0.3918927  0.5999108  31.575     0.4401355  0.2563983  0.6238728 
929.8      0.226      197.319    -9999      -9999      2.735      5.141      4.255      3.479      1.175      0.1334158  0.1334158  0.2763525  0.8285968  9.60282    5.068      0.3965197  0.6005026  31.329     0.4331414  0.2576131  0.6086697 
929.9      0.226      195.319    -9999      -9999      2.75       5.301      4.144      3.328      1.18       0.1337007  0.1337007  0.275094   0.8387229  9.396626   5.12       0.400518   0.6017369  31.137     0.4284647  0.2599066  0.5970229 
930        0.226      194.319    -9999      -9999      2.775      5.419      3.958      3.214      1.184      0.1333389  0.1333389  0.2740872  0.8258834  9.062767   5.146      0.4005285  0.6014308  31.007     0.4265099  0.2637744  0.5892453 
930.1      0.226      192.319    -9999      -9999      2.811      5.41       3.742      3.142      1.186      0.1325556  0.1325556  0.2735838  0.7987484  8.602741   5.2        0.4003888  0.602161   30.94      0.4273581  0.2694454  0.5852708 
930.2000000000001 0.226      192.319    -9999      -9999      2.851      5.261      3.56       3.091      1.185      0.1318709  0.1318709  0.2738355  0.7757583  8.118936   5.2        0.397678   0.6016014  30.927     0.4301959  0.2758896  0.5845022 
930.3      0.226      193.319    -9999      -9999      2.886      5.036      3.477      3.042      1.179      0.1322737  0.1322737  0.2753457  0.7892026  7.717985   5.173      0.3978067  0.6023831  30.943     0.4335514  0.2816545  0.5854483 
930.4      0.226      194.319    -9999      -9999      2.908      4.828      3.523      2.984      1.168      0.1343367  0.1343367  0.2781144  0.8617873  7.476151   5.146      0.4044084  0.606132   30.953     0.4356899  0.2853397  0.5860401 
930.5      0.226      196.319    -9999      -9999      2.917      4.687      3.686      2.929      1.153      0.1381637  0.1381637  0.2818899  1.014575   7.379416   5.094      0.4160258  0.6116014  30.922     0.4355341  0.2868612  0.5842069 
930.6      0.226      198.319    -9999      -9999      2.916      4.583      3.921      2.919      1.138      0.1427924  0.1427924  0.2856654  1.236002   7.390103   5.042      0.429809   0.6176549  30.837     0.4329486  0.2866917  0.5792054 
930.7000000000001 0.227      200.319    -9999      -9999      2.911      4.453      4.169      3.008      1.123      0.1478908  0.1478908  0.2894409  1.536226   7.443767   4.992      0.4443755  0.6239514  30.714     0.4289396  0.285846   0.5720331 
930.8      0.227      201.319    -9999      -9999      2.903      4.271      4.355      3.199      1.111      0.152418   0.152418   0.2924613  1.863415   7.530435   4.967      0.4575004  0.6297445  30.579     0.4243736  0.284498   0.5642492 
930.9      0.227      203.319    -9999      -9999      2.891      4.096      4.413      3.415      1.103      0.1559483  0.1559483  0.2944749  2.166204   7.662344   4.918      0.4657325  0.6327453  30.453     0.4197775  0.2824879  0.557067  
931        0.227      205.319    -9999      -9999      2.873      4.024      4.308      3.529      1.1        0.1582945  0.1582945  0.29523    2.394174   7.864543   4.87       0.470203   0.6336552  30.335     0.4149562  0.2794993  0.550413  
931.1      0.227      207.319    -9999      -9999      2.846      4.11       4.073      3.47       1.101      0.1599415  0.1599415  0.2949783  2.568404   8.177893   4.823      0.4725631  0.6331707  30.208     0.4092023  0.2750757  0.543329  
931.2000000000001 0.227      209.319    -9999      -9999      2.811      4.321      3.804      3.271      1.104      0.1614971  0.1614971  0.2942232  2.744582   8.602741   4.777      0.4746333  0.6322315  30.056     0.4022003  0.2694454  0.5349553 
931.3      0.227      210.319    -9999      -9999      2.77       4.556      3.616      3.052      1.108      0.163193   0.163193   0.2932164  2.950447   9.128577   4.755      0.4782625  0.6321274  29.873     0.3940103  0.2629962  0.5250244 
931.4      0.227      211.319    -9999      -9999      2.723      4.719      3.578      2.924      1.113      0.1649005  0.1649005  0.2919579  3.173326   9.771019   4.732      0.4817932  0.6317863  29.671     0.3850225  0.255793   0.514252  
931.5      0.227      212.319    -9999      -9999      2.674      4.783      3.677      2.924      1.117      0.1668174  0.1668174  0.2909511  3.443668   10.48899   4.71       0.4858603  0.6318424  29.472     0.3761627  0.2484932  0.5038322 
931.6      0.227      213.319    -9999      -9999      2.632      4.781      3.839      3.01       1.119      0.1688135  0.1688135  0.2904477  3.749682   11.14624   4.688      0.4900402  0.6323325  29.296     0.3685884  0.2424023  0.4947745 
931.7000000000001 0.227      214.319    -9999      -9999      2.606      4.756      3.973      3.113      1.119      0.1706114  0.1706114  0.2904477  4.048513   11.57358   4.666      0.4936072  0.6330159  29.154     0.3631403  0.2387068  0.4875737 
931.8      0.227      214.319    -9999      -9999      2.6        4.712      4.035      3.18       1.115      0.1726919  0.1726919  0.2914545  4.424159   11.67451   4.666      0.4989247  0.6355432  29.041     0.3598867  0.237862   0.4819115 
931.9      0.228      215.319    -9999      -9999      2.615      4.631      4.029      3.201      1.106      0.1753285  0.1753285  0.2937198  4.950715   11.42383   4.644      0.5043961  0.6385688  28.953     0.3587614  0.2399796  0.4775433 
932        0.228      216.319    -9999      -9999      2.647      4.52       3.986      3.185      1.096      0.1775209  0.1775209  0.2962368  5.435958   10.90691   4.623      0.5086874  0.6413851  28.9       0.3597451  0.2445603  0.4749299 
932.1      0.228      218.319    -9999      -9999      2.691      4.436      3.927      3.14       1.085      0.1790968  0.1790968  0.2990055  5.813867   10.23411   4.58       0.510312   0.6429754  28.916     0.3633597  0.2510019  0.4757175 
932.2000000000001 0.228      219.319    -9999      -9999      2.74       4.443      3.876      3.064      1.076      0.1790988  0.1790988  0.3012708  5.814366   9.533591   4.56       0.5093102  0.6438134  29.044     0.3702182  0.2583753  0.482061  
932.3      0.227      220.319    -9999      -9999      2.791      4.544      3.862      2.972      1.07       0.1771312  0.1771312  0.302781   5.346347   8.855355   4.539      0.5034919  0.6424929  29.305     0.380757   0.2662799  0.4952341 
932.4      0.227      220.319    -9999      -9999      2.844      4.661      3.926      2.897      1.065      0.1737493  0.1737493  0.3040395  4.628256   8.201596   4.539      0.4950856  0.6406483  29.683     0.3948186  0.2747508  0.5148865 
932.5      0.227      221.319    -9999      -9999      2.896      4.686      4.072      2.872      1.06       0.1695662  0.1695662  0.305298   3.872006   7.607104   4.518      0.4831305  0.6372418  30.135     0.4113084  0.2833237  0.5392932 
932.6      0.227      222.319    -9999      -9999      2.947      4.562      4.262      2.898      1.054      0.1652633  0.1652633  0.3068082  3.22282    7.065921   4.498      0.4703276  0.6338531  30.607     0.4289238  0.2919915  0.5658561 
932.7000000000001 0.227      225.319    -9999      -9999      2.995      4.323      4.42       2.937      1.047      0.1612487  0.1612487  0.3085701  2.715657   6.591793   4.438      0.4554394  0.6291369  31.061     0.4464285  0.3003915  0.5924655 
932.8      0.227      228.319    -9999      -9999      3.037      4.079      4.485      2.948      1.04       0.1576192  0.1576192  0.310332   2.326206   6.203104   4.38       0.4410945  0.6246982  31.474     0.4627661  0.3079396  0.6175925 
