~Version
 VERS              .         2.0                           : CWLS LOG ASCII STANDARD - VERSION 2.0
 WRAP              .         NO                            : ONE LINE PER DEPTH STEP
 DLM               .         SPACE                         : DELIMITING CHARACTER(SPACE TAB OR COMMA)
~Well Information
#_______________________________________________________________________________
#
#PARAMETER_NAME    .UNIT     VALUE                         : DESCRIPTION
#_______________________________________________________________________________
STRT               .M        890                           : First reference value
STOP               .M        1188                          : Last reference value
STEP               .M        0.1                           : Step increment
NULL               .         -9999                         : Missing value
COMP               .                                       : Company
WELL               .         6648                          : Well name
FLD                .         Узень                         : Field
LOC                .                                       : Location
CNTY               .                                       : County
STAT               .                                       : State
CTRY               .                                       : Country
SRVC               .         SCH                           : Service Company
DATE               .         04/29/2010                    : Date
UWI                .         6648                          : Unique Well ID
Block              .         7                             : 
Category           .         Нефтяная                      : 
Condition          .         В работе                      : 
Date               .         06.09.1991                    : 
EREF               .m        85.9                          : 100.8
Gorizont           .         15                            : 14
Interpretator      .         Бекбулатова А.А.              : 
Kupol              .         Основной                      : osnovnoi
Mud                .         0                             : 
Mud_density        .         0                             : 
Mud_resistivity    .         0                             : 
NGDU               .         НГДУ-2                        : 
ORIGINALWELLNAME   .         6648                          : 
Spud_date          .         1991                          : 1961
Viscosity          .         0                             : 
X                  .m        42343.1                       : 46154
Y                  .m        84189.43                      : 85761.93
YEAR               .         2018                          : 
Исправ_15гор       .         Исправ.15гор                  : 
~Parameter Information Block
#_______________________________________________________________________________
#
#PARAMETER_NAME    .UNIT     VALUE                         : DESCRIPTION
#_______________________________________________________________________________
SET                .         LQC_KAZNIPI_Petrel            : 
PBBOTTOM           .M        1188                          : Глубина подошвы планшета
PBSCALE            .         1 _ 500                       : Вертикальный масштаб планшета
PBTOP              .M        890                           : Глубина кровли планшета
TLFamily_CALI      .         Caliper                       : 
TLFamily_CILD      .         Conductivity                  : 
TLFamily_COLL      .         Net Reservoir Flag            : 
TLFamily_CSAT      .         Fluid Code                    : 
TLFamily_DEPT      .         Measured Depth                : 
TLFamily_GR        .         Russian Gamma Ray             : 
TLFamily_LLS       .         Lateral Log Resistivity       : 
TLFamily_MINV      .         Micro Gradient Resistivity    : 
TLFamily_MNOR      .         Micro Resistivity             : 
TLFamily_NGLD      .         Neutron Gamma                 : 
TLFamily_PHIE      .         Effective Porosity            : 
TLFamily_PHIEN     .         Effective Porosity            : 
TLFamily_PHIT      .         Porosity                      : 
TLFamily_PRMB      .         Permeability                  : 
TLFamily_PRMB_DGR  .         Permeability                  : 
TLFamily_RT        .         Formation Resistivity         : 
TLFamily_SOIL_ARCHIE .         Oil Saturation                : 
TLFamily_SOIL_DW   .         Oil Saturation                : 
TLFamily_SP        .         Spontaneous Potential         : 
TLFamily_VSH_FIN   .         Shale Volume                  : 
TLFamily_VSH_GR    .         Shale Volume                  : 
TLFamily_VSH_SP    .         Shale Volume                  : 
~Curve Information
#_______________________________________________________________________________
#
#LOGNAME           .UNIT     LOG_ID                        : DESCRIPTION
#_______________________________________________________________________________
DEPT               .M                                      : Колонка глубины 
CALI               .м                                      : Каверномер 
CILD               .мСм/м                                  : Индукционный каротаж 
COLL               .unitless                               : Описание 
CSAT               .unitless                               : Описание 
GR                 .uR/h                                   : Гамма каротаж 
LLS                .Ohmm                                   : Боковой каротаж 
MINV               .Ohmm                                   : Микро-градиент зонд 
MNOR               .Ohmm                                   : Микро-потенциал зонд 
NGLD               .у.е.                                   : Показания зонда НГК-60 аппаратуры ДРСТ-3-90 
PHIE               .д.ед.                                  : Описание 
PHIEN              .д.ед.                                  :  
PHIT               .д.ед.                                  : Описание 
PRMB               .mD                                     :  
PRMB_DGR           .mD                                     :  
RT                 .ohmm                                   : УЭС пласта 
SOIL_ARCHIE        .д.ед.                                  :  
SOIL_DW            .д.ед.                                  :  
SP                 .мВ                                     : Потенциал самополяризации 
VSH_FIN            .д.ед.                                  : Описание 
VSH_GR             .д.ед.                                  : Shale volume 
VSH_SP             .д.ед.                                  : Shale Volume 
~Ascii
# ...
965.9      0.227      294.319    -9999      -9999      3.221      3.107      2.855      2.448      1.089      0.1308336  0.1308336  0.2979987  0.7421885  4.753084   3.398      0.2594982  0.5310678  32.289     0.5065609  0.3433069  0.6698148 
966        0.227      294.319    -9999      -9999      3.268      3.033      2.862      2.388      1.078      0.134219   0.134219   0.3007674  0.8574715  4.440569   3.398      0.2757922  0.5382017  32.085     0.5046921  0.3529745  0.6564097 
966.1      0.227      294.319    -9999      -9999      3.311      2.983      2.874      2.343      1.068      0.1370098  0.1370098  0.3032844  0.9658544  4.172683   3.398      0.2886571  0.5441298  31.919     0.5038625  0.3620577  0.6456672 
966.2000000000001 0.227      295.319    -9999      -9999      3.346      2.961      2.89       2.315      1.059      0.1391459  0.1391459  0.3055497  1.057982   3.966614   3.386      0.2970116  0.5480729  31.813     0.5042539  0.3696233  0.6388845 
966.3      0.227      297.319    -9999      -9999      3.37       2.967      2.901      2.297      1.052      0.1405298  0.1405298  0.3073116  1.122307   3.831222   3.363      0.3008122  0.5498325  31.766     0.5053992  0.3749022  0.6358963 
966.4      0.227      299.319    -9999      -9999      3.382      2.999      2.904      2.288      1.046      0.1416418  0.1416418  0.3088218  1.176812   3.765269   3.341      0.3034532  0.5510651  31.762     0.5066062  0.3775699  0.6356424 
966.5      0.227      302.319    -9999      -9999      3.389      3.047      2.901      2.29       1.042      0.1421389  0.1421389  0.3098286  1.20203    3.727323   3.308      0.3023332  0.5503396  31.786     0.5081506  0.3791349  0.6371663 
966.6      0.227      305.319    -9999      -9999      3.405      3.096      2.901      2.307      1.038      0.1422049  0.1422049  0.3108354  1.205418   3.642016   3.275      0.2993264  0.549072   31.819     0.5110015  0.3827362  0.6392668 
966.7000000000001 0.227      307.319    -9999      -9999      3.447      3.126      2.908      2.332      1.035      0.1410151  0.1410151  0.3115905  1.145776   3.427261   3.254      0.2920464  0.5468757  31.853     0.5168952  0.3923533  0.641437  
966.8      0.227      309.319    -9999      -9999      3.529      3.121      2.914      2.351      1.031      0.1385123  0.1385123  0.3125973  1.029775   3.043792   3.233      0.27873    0.5432723  31.881     0.5275303  0.4118316  0.6432288 
966.9      0.227      310.319    -9999      -9999      3.652      3.079      2.904      2.348      1.029      0.1335969  0.1335969  0.3131007  0.8350192  2.547513   3.222      0.2544796  0.5367799  31.909     0.5439509  0.4428771  0.6450248 
967        0.227      311.319    -9999      -9999      3.8        2.983      2.867      2.312      1.029      0.1265049  0.1265049  0.3131007  0.6170714  2.056396   3.212      0.2170662  0.5266781  31.948     0.5654418  0.4833505  0.6475332 
967.1      0.227      312.319    -9999      -9999      3.941      2.912      2.805      2.25       1.03       0.1186099  0.1186099  0.312849   0.440657   1.676859   3.202      0.1706547  0.5145276  32.015     0.5886034  0.5253452  0.6518617 
967.2000000000001 0.228      313.319    -9999      -9999      4.043      2.905      2.74       2.18       1.032      0.1116051  0.1116051  0.3123456  0.3268547  1.446756   3.192      0.1242137  0.502632   32.119     0.6083047  0.5579811  0.6586283 
967.3      0.229      315.319    -9999      -9999      4.081      2.924      2.691      2.127      1.032      0.1081053  0.1081053  0.3123456  0.2815343  1.36935    3.171      0.09677798 0.4953891  32.249     0.6189099  0.5706512  0.6671686 
967.4      0.23       318.319    -9999      -9999      4.056      2.948      2.673      2.104      1.029      0.1089709  0.1089709  0.3131007  0.2921216  1.419794   3.142      0.09915423 0.4952681  32.365     0.6185751  0.5622837  0.6748664 
967.5      0.232      322.319    -9999      -9999      3.992      2.952      2.68       2.112      1.021      0.11381    0.11381    0.3151143  0.3590831  1.557563   3.103      0.1275084  0.5018706  32.421     0.6100131  0.5414173  0.6786088 
967.6      0.234      326.319    -9999      -9999      3.927      2.921      2.698      2.133      1.007      0.121031   0.121031   0.3186381  0.4885905  1.711176   3.064      0.1681013  0.5130584  32.391     0.5988095  0.5210174  0.6766016 
967.7000000000001 0.237      330.319    -9999      -9999      3.891      2.844      2.704      2.145      0.988      0.1287862  0.1287862  0.3234204  0.6801282  1.80268    3.027      0.2073994  0.5254813  32.285     0.5898007  0.5100515  0.6695497 
967.8      0.24       332.319    -9999      -9999      3.894      2.731      2.676      2.121      0.968      0.1351599  0.1351599  0.3284544  0.8925796  1.794871   3.009      0.2379235  0.5369384  32.148     0.585741   0.5109565  0.6605255 
967.9      0.242      334.319    -9999      -9999      3.926      2.605      2.597      2.05       0.951      0.1391842  0.1391842  0.3327333  1.05971    1.713654   2.991      0.255056   0.5442702  32.022     0.5865124  0.5207096  0.6523153 
968        0.244      333.319    -9999      -9999      3.968      2.493      2.464      1.937      0.94       0.1408485  0.1408485  0.335502   1.137666   1.612607   3          0.2637674  0.5493069  31.923     0.5898589  0.5337936  0.6459243 
968.1      0.245      331.319    -9999      -9999      4.004      2.419      2.285      1.804      0.935      0.1411541  0.1411541  0.3367605  1.152589   1.53075    3.018      0.2672155  0.5520722  31.834     0.5927467  0.5452699  0.6402234 
968.2000000000001 0.246      328.319    -9999      -9999      4.022      2.399      2.089      1.684      0.936      0.141156   0.141156   0.3365088  1.15268    1.491394   3.046      0.2703927  0.5539272  31.718     0.5919783  0.5511001  0.6328565 
968.3      0.245      325.319    -9999      -9999      4.014      2.44       1.907      1.6        0.94       0.1423176  0.1423176  0.335502   1.211227   1.50876    3.074      0.2786862  0.5564643  31.55      0.5854072  0.5485012  0.6223132 
968.4      0.243      321.319    -9999      -9999      3.978      2.538      1.765      1.566      0.947      0.1447117  0.1447117  0.3337401  1.341435   1.58944    3.112      0.2931775  0.5604388  31.329     0.5728133  0.536957   0.6086697 
968.5      0.24       318.319    -9999      -9999      3.912      2.685      1.678      1.583      0.957      0.1479311  0.1479311  0.3312231  1.538866   1.748724   3.142      0.3097086  0.5640486  31.094     0.5554303  0.5164199  0.5944407 
968.6      0.238      316.319    -9999      -9999      3.827      2.863      1.664      1.65       0.97       0.1507357  0.1507357  0.327951   1.734396   1.977602   3.161      0.3228267  0.5657293  30.9       0.5370162  0.4911235  0.5829088 
968.7000000000001 0.236      314.319    -9999      -9999      3.735      3.053      1.742      1.757      0.987      0.1516934  0.1516934  0.3236721  1.806709   2.259205   3.181      0.3285423  0.5645862  30.802     0.5211475  0.4651384  0.5771567 
968.8      0.234      313.319    -9999      -9999      3.653      3.231      1.917      1.895      1.007      0.1491747  0.1491747  0.3186381  1.622693   2.543829   3.192      0.3197819  0.5582916  30.917     0.5135253  0.4431389  0.5839117 
968.9      0.233      312.319    -9999      -9999      3.592      3.384      2.159      2.048      1.026      0.1452535  0.1452535  0.3138558  1.372796   2.778581   3.202      0.3048373  0.5503094  31.093     0.5109159  0.4274511  0.5943808 
969        0.232      311.319    -9999      -9999      3.555      3.507      2.408      2.2        1.043      0.1405351  0.1405351  0.3095769  1.122558   2.931401   3.212      0.2855989  0.5414855  31.29      0.5122479  0.4182074  0.6062885 
969.1      0.231      311.319    -9999      -9999      3.543      3.595      2.601      2.334      1.054      0.1364909  0.1364909  0.3068082  0.9447134  2.98275    3.212      0.2671977  0.533831   31.464     0.5161131  0.4152525  0.6169736 
