~Version
 VERS              .         2.0                           : CWLS LOG ASCII STANDARD - VERSION 2.0
 WRAP              .         NO                            : ONE LINE PER DEPTH STEP
 DLM               .         SPACE                         : DELIMITING CHARACTER(SPACE TAB OR COMMA)
~Well Information
#_______________________________________________________________________________
#
#PARAMETER_NAME    .UNIT     VALUE                         : DESCRIPTION
#_______________________________________________________________________________
STRT               .M        890                           : First reference value
STOP               .M        1188                          : Last reference value
STEP               .M        0.1                           : Step increment
NULL               .         -9999                         : Missing value
COMP               .                                       : Company
WELL               .         6648                          : Well name
FLD                .         Узень                         : Field
LOC                .                                       : Location
CNTY               .                                       : County
STAT               .                                       : State
CTRY               .                                       : Country
SRVC               .         SCH                           : Service Company
DATE               .         04/29/2010                    : Date
UWI                .         6648                          : Unique Well ID
Block              .         7                             : 
Category           .         Нефтяная                      : 
Condition          .         В работе                      : 
Date               .         06.09.1991                    : 
EREF               .m        85.9                          : 100.8
Gorizont           .         15                            : 14
Interpretator      .         Бекбулатова А.А.              : 
Kupol              .         Основной                      : osnovnoi
Mud                .         0                             : 
Mud_density        .         0                             : 
Mud_resistivity    .         0                             : 
NGDU               .         НГДУ-2                        : 
ORIGINALWELLNAME   .         6648                          : 
Spud_date          .         1991                          : 1961
Viscosity          .         0                             : 
X                  .m        42343.1                       : 46154
Y                  .m        84189.43                      : 85761.93
YEAR               .         2018                          : 
Исправ_15гор       .         Исправ.15гор                  : 
~Parameter Information Block
#_______________________________________________________________________________
#
#PARAMETER_NAME    .UNIT     VALUE                         : DESCRIPTION
#_______________________________________________________________________________
SET                .         LQC_KAZNIPI_Petrel            : 
PBBOTTOM           .M        1188                          : Глубина подошвы планшета
PBSCALE            .         1 _ 500                       : Вертикальный масштаб планшета
PBTOP              .M        890                           : Глубина кровли планшета
TLFamily_CALI      .         Caliper                       : 
TLFamily_CILD      .         Conductivity                  : 
TLFamily_COLL      .         Net Reservoir Flag            : 
TLFamily_CSAT      .         Fluid Code                    : 
TLFamily_DEPT      .         Measured Depth                : 
TLFamily_GR        .         Russian Gamma Ray             : 
TLFamily_LLS       .         Lateral Log Resistivity       : 
TLFamily_MINV      .         Micro Gradient Resistivity    : 
TLFamily_MNOR      .         Micro Resistivity             : 
TLFamily_NGLD      .         Neutron Gamma                 : 
TLFamily_PHIE      .         Effective Porosity            : 
TLFamily_PHIEN     .         Effective Porosity            : 
TLFamily_PHIT      .         Porosity                      : 
TLFamily_PRMB      .         Permeability                  : 
TLFamily_PRMB_DGR  .         Permeability                  : 
TLFamily_RT        .         Formation Resistivity         : 
TLFamily_SOIL_ARCHIE .         Oil Saturation                : 
TLFamily_SOIL_DW   .         Oil Saturation                : 
TLFamily_SP        .         Spontaneous Potential         : 
TLFamily_VSH_FIN   .         Shale Volume                  : 
TLFamily_VSH_GR    .         Shale Volume                  : 
TLFamily_VSH_SP    .         Shale Volume                  : 
~Curve Information
#_______________________________________________________________________________
#
#LOGNAME           .UNIT     LOG_ID                        : DESCRIPTION
#_______________________________________________________________________________
DEPT               .M                                      : Колонка глубины 
CALI               .м                                      : Каверномер 
CILD               .мСм/м                                  : Индукционный каротаж 
COLL               .unitless                               : Описание 
CSAT               .unitless                               : Описание 
GR                 .uR/h                                   : Гамма каротаж 
LLS                .Ohmm                                   : Боковой каротаж 
MINV               .Ohmm                                   : Микро-градиент зонд 
MNOR               .Ohmm                                   : Микро-потенциал зонд 
NGLD               .у.е.                                   : Показания зонда НГК-60 аппаратуры ДРСТ-3-90 
PHIE               .д.ед.                                  : Описание 
PHIEN              .д.ед.                                  :  
PHIT               .д.ед.                                  : Описание 
PRMB               .mD                                     :  
PRMB_DGR           .mD                                     :  
RT                 .ohmm                                   : УЭС пласта 
SOIL_ARCHIE        .д.ед.                                  :  
SOIL_DW            .д.ед.                                  :  
SP                 .мВ                                     : Потенциал самополяризации 
VSH_FIN            .д.ед.                                  : Описание 
VSH_GR             .д.ед.                                  : Shale volume 
VSH_SP             .д.ед.                                  : Shale Volume 
~Ascii
# ...
1151.8     0.217      319.319    1          2          5.852      3.215      2.351      2.446      1.076      0.1992577  0.1992577  0.3012708  13.73705   23.38049   3.132      0.4740608  0.5940344  24.356     0.3091307  0.1791289  0.3091307 
1151.9     0.216      319.319    1          2          5.87       3.151      2.24       2.409      1.071      0.2102128  0.2102128  0.3025293  21.91844   22.64029   3.132      0.4980147  0.6038548  23.383     0.2797469  0.1814975  0.2797469 
1152       0.216      319.319    1          2          5.883      3.143      2.17       2.382      1.066      0.2195026  0.2195026  0.3037878  32.57463   22.1203    3.132      0.5165696  0.6118426  22.479     0.2554096  0.1832277  0.2554096 
1152.1     0.215      320.319    1          2          5.902      3.134      2.128      2.36       1.063      0.2266558  0.2266558  0.3045429  44.19493   21.38174   3.122      0.5291788  0.6169437  21.675     0.2360217  0.1857861  0.2360217 
1152.2     0.215      321.319    1          2          5.933      3.155      2.101      2.343      1.061      0.2320602  0.2320602  0.3050463  55.6513    20.22928   3.112      0.5380482  0.6204629  20.994     0.2211701  0.1900373  0.2211701 
1152.3     0.215      322.319    1          2          5.969      3.204      2.079      2.33       1.058      0.2364249  0.2364249  0.3058014  67.03794   18.96868   3.103      0.5448667  0.6234183  20.447     0.2102319  0.1950963  0.2102319 
1152.4     0.214      324.319    1          2          5.995      3.266      2.055      2.324      1.053      0.2403133  0.2403133  0.3070599  79.13033   18.10737   3.083      0.5499237  0.6256769  20.019     0.2022625  0.1988336  0.2022625 
1152.5     0.214      327.319    1          2          6.003      3.324      2.03       2.323      1.047      0.2438404  0.2438404  0.3085701  91.97596   17.85032   3.055      0.5536926  0.6273288  19.671     0.1961505  0.1999979  0.1961505 
1152.6     0.214      330.319    1          2          5.997      3.367      2.008      2.326      1.041      0.2469777  0.2469777  0.3100803  105.1441   18.04275   3.027      0.5567232  0.6286745  19.376     0.1912199  0.1991241  0.1912199 
1152.7     0.214      335.319    1          2          5.99       3.391      1.998      2.334      1.037      0.2492849  0.2492849  0.3110871  116.0162   18.26992   2.982      0.5571972  0.6280482  19.13      0.1872795  0.1981094  0.1872795 
1152.8     0.214      340.319    1          2          5.994      3.399      2.004      2.347      1.036      0.2503553  0.2503553  0.3113388  121.4353   18.13976   2.938      0.5557584  0.6261269  18.97      0.1847986  0.1986886  0.1847986 
1152.9     0.215      345.319    1          2          6.01       3.389      2.024      2.366      1.038      0.2499024  0.2499024  0.3108354  119.1121   17.62836   2.896      0.5520407  0.6227849  18.96      0.1846456  0.2010223  0.1846456 
1153       0.215      350.319    1          2          6.027      3.351      2.05       2.389      1.039      0.2485578  0.2485578  0.3105837  112.4739   17.10081   2.855      0.5469094  0.6190395  19.173     0.1879572  0.2035318  0.1879572 
1153.1     0.216      356.319    1          2          6.033      3.264      2.074      2.409      1.038      0.2461452  0.2461452  0.3108354  101.4763   16.9184    2.806      0.5393166  0.6143201  19.664     0.1960309  0.204425   0.1960309 
1153.2     0.216      362.319    1          2          6.024      3.116      2.09       2.409      1.037      0.2416598  0.2416598  0.3110871  83.80782   17.19274   2.76       0.5282332  0.6082743  20.455     0.2103857  0.2030867  0.2103857 
1153.3     0.217      369.319    1          2          6.007      2.916      2.087      2.372      1.035      0.2348523  0.2348523  0.3115905  62.68904   17.72315   2.708      0.5120087  0.6001295  21.521     0.2325401  0.2005826  0.2325401 
1153.4     0.218      377.319    1          2          6.007      2.697      2.05       2.277      1.032      0.225339   0.225339   0.3123456  41.78137   17.72315   2.65       0.4889477  0.5893149  22.797     0.2636565  0.2005826  0.2636565 
1153.5     0.219      385.319    1          2          6.054      2.502      1.959      2.118      1.032      0.212191   0.212191   0.3123456  23.84786   16.29518   2.595      0.4561493  0.574526   24.178     0.303499   0.2075822  0.303499  
1153.6     0.221      393.319    -9999      -9999      6.167      2.362      1.799      1.908      1.032      0.1968186  0.1968186  0.3123456  12.37985   13.31519   2.542      0.4136847  0.5566822  25.552     0.350082   0.2254269  0.350082  
1153.7     0.222      401.319    -9999      -9999      6.339      2.321      1.582      1.677      1.031      0.1807419  0.1807419  0.3125973  6.236435   9.791262   2.492      0.3626011  0.5368394  26.816     0.3995618  0.255577   0.3995618 
1153.8     0.224      411.319    -9999      -9999      6.54       2.279      1.341      1.461      1.024      0.1664818  0.1664818  0.3143592  3.394728   6.836289   2.431      0.3072954  0.5171955  27.915     0.4481133  0.2959574  0.4481133 
1153.9     0.225      421.319    -9999      -9999      6.733      2.243      1.122      1.289      1.012      0.154523   0.154523   0.3173796  2.038441   4.841855   2.373      0.2524067  0.4998965  28.846     0.493505   0.3407226  0.493505  
1154       0.226      434.319    -9999      -9999      6.898      2.234      0.96       1.172      0.997      0.144329   0.144329   0.3211551  1.319716   3.605263   2.302      0.1952319  0.4826494  29.647     0.5358368  0.3843246  0.5358368 
1154.1     0.226      447.319    -9999      -9999      7.04       2.235      0.861      1.103      0.984      0.1342142  0.1342142  0.3244272  0.8572944  2.797144   2.236      0.1308751  0.4640252  30.364     0.5764031  0.4262904  0.5764031 
1154.2     0.226      461.319    -9999      -9999      7.176      2.232      0.806      1.063      0.973      0.123715   0.123715   0.3271959  0.5478484  2.193563   2.168      0.0533554  0.4422461  31.033     0.6166087  0.4707726  0.6166087 
1154.3     0.226      475.319    -9999      -9999      7.322      2.211      0.773      1.033      0.968      0.111751   0.111751   0.3284544  0.3288954  1.689754   2.104      0          0.4144148  31.664     0.6566769  0.5237045  0.6566769 
1154.4     0.227      487.319    -9999      -9999      7.468      2.164      0.749      1.003      0.967      0.09915801 0.09915801 0.3287061  0.1922228  1.301657   2.052      0          0.382463   32.247     0.6956003  0.5825878  0.6956003 
1154.5     0.228      497.319    -9999      -9999      7.594      2.09       0.741      0.977      0.968      0.08730434 0.08730434 0.3284544  0.1159434  1.039188   2.011      0          0.3490694  32.751     0.7307578  0.6387007  0.7307578 
1154.6     0.23       506.319    -9999      -9999      7.685      1.998      0.763      0.963      0.968      0.07800326 0.07800326 0.3284544  0.07797722 0.8831994  1.975      0          0.319306   33.141     0.7589428  0.6825589  0.7589428 
1154.7     0.232      514.319    -9999      -9999      7.744      1.902      0.824      0.965      0.969      0.0713175  0.0713175  0.3282027  0.05863152 0.7948083  1.944      0          0.2945217  33.404     0.77844    0.7125911  0.77844   
1154.8     0.233      520.319    -9999      -9999      7.785      1.814      0.921      0.979      0.967      0.06811726 0.06811726 0.3287061  0.0511511  0.7386482  1.922      0          0.2815388  33.553     0.7896631  0.7342355  0.7896631 
1154.9     0.235      527.319    -9999      -9999      7.819      1.746      1.039      1.001      0.961      0.06779747 0.06779747 0.3302163  0.05045819 0.6950991  1.896      0          0.2779731  33.626     0.7952086  0.7526824  0.7952086 
1155       0.237      533.319    -9999      -9999      7.851      1.7        1.156      1.026      0.949      0.07018876 0.07018876 0.3332367  0.05587585 0.6564592  1.875      0          0.2859129  33.651     0.797115   0.7704674  0.797115  
1155.1     0.239      537.319    -9999      -9999      7.874      1.68       1.256      1.056      0.934      0.07403987 0.07403987 0.3370122  0.06585004 0.6300206  1.861      0          0.300119   33.648     0.7968858  0.7835095  0.7968858 
