~Version
 VERS              .         2.0                           : CWLS LOG ASCII STANDARD - VERSION 2.0
 WRAP              .         NO                            : ONE LINE PER DEPTH STEP
 DLM               .         SPACE                         : DELIMITING CHARACTER(SPACE TAB OR COMMA)
~Well Information
#_______________________________________________________________________________
#
#PARAMETER_NAME    .UNIT     VALUE                         : DESCRIPTION
#_______________________________________________________________________________
STRT               .M        890                           : First reference value
STOP               .M        1188                          : Last reference value
STEP               .M        0.1                           : Step increment
NULL               .         -9999                         : Missing value
COMP               .                                       : Company
WELL               .         6648                          : Well name
FLD                .         Узень                         : Field
LOC                .                                       : Location
CNTY               .                                       : County
STAT               .                                       : State
CTRY               .                                       : Country
SRVC               .         SCH                           : Service Company
DATE               .         04/29/2010                    : Date
UWI                .         6648                          : Unique Well ID
Block              .         7                             : 
Category           .         Нефтяная                      : 
Condition          .         В работе                      : 
Date               .         06.09.1991                    : 
EREF               .m        85.9                          : 100.8
Gorizont           .         15                            : 14
Interpretator      .         Бекбулатова А.А.              : 
Kupol              .         Основной                      : osnovnoi
Mud                .         0                             : 
Mud_density        .         0                             : 
Mud_resistivity    .         0                             : 
NGDU               .         НГДУ-2                        : 
ORIGINALWELLNAME   .         6648                          : 
Spud_date          .         1991                          : 1961
Viscosity          .         0                             : 
X                  .m        42343.1                       : 46154
Y                  .m        84189.43                      : 85761.93
YEAR               .         2018                          : 
Исправ_15гор       .         Исправ.15гор                  : 
~Parameter Information Block
#_______________________________________________________________________________
#
#PARAMETER_NAME    .UNIT     VALUE                         : DESCRIPTION
#_______________________________________________________________________________
SET                .         LQC_KAZNIPI_Petrel            : 
PBBOTTOM           .M        1188                          : Глубина подошвы планшета
PBSCALE            .         1 _ 500                       : Вертикальный масштаб планшета
PBTOP              .M        890                           : Глубина кровли планшета
TLFamily_CALI      .         Caliper                       : 
TLFamily_CILD      .         Conductivity                  : 
TLFamily_COLL      .         Net Reservoir Flag            : 
TLFamily_CSAT      .         Fluid Code                    : 
TLFamily_DEPT      .         Measured Depth                : 
TLFamily_GR        .         Russian Gamma Ray             : 
TLFamily_LLS       .         Lateral Log Resistivity       : 
TLFamily_MINV      .         Micro Gradient Resistivity    : 
TLFamily_MNOR      .         Micro Resistivity             : 
TLFamily_NGLD      .         Neutron Gamma                 : 
TLFamily_PHIE      .         Effective Porosity            : 
TLFamily_PHIEN     .         Effective Porosity            : 
TLFamily_PHIT      .         Porosity                      : 
TLFamily_PRMB      .         Permeability                  : 
TLFamily_PRMB_DGR  .         Permeability                  : 
TLFamily_RT        .         Formation Resistivity         : 
TLFamily_SOIL_ARCHIE .         Oil Saturation                : 
TLFamily_SOIL_DW   .         Oil Saturation                : 
TLFamily_SP        .         Spontaneous Potential         : 
TLFamily_VSH_FIN   .         Shale Volume                  : 
TLFamily_VSH_GR    .         Shale Volume                  : 
TLFamily_VSH_SP    .         Shale Volume                  : 
~Curve Information
#_______________________________________________________________________________
#
#LOGNAME           .UNIT     LOG_ID                        : DESCRIPTION
#_______________________________________________________________________________
DEPT               .M                                      : Колонка глубины 
CALI               .м                                      : Каверномер 
CILD               .мСм/м                                  : Индукционный каротаж 
COLL               .unitless                               : Описание 
CSAT               .unitless                               : Описание 
GR                 .uR/h                                   : Гамма каротаж 
LLS                .Ohmm                                   : Боковой каротаж 
MINV               .Ohmm                                   : Микро-градиент зонд 
MNOR               .Ohmm                                   : Микро-потенциал зонд 
NGLD               .у.е.                                   : Показания зонда НГК-60 аппаратуры ДРСТ-3-90 
PHIE               .д.ед.                                  : Описание 
PHIEN              .д.ед.                                  :  
PHIT               .д.ед.                                  : Описание 
PRMB               .mD                                     :  
PRMB_DGR           .mD                                     :  
RT                 .ohmm                                   : УЭС пласта 
SOIL_ARCHIE        .д.ед.                                  :  
SOIL_DW            .д.ед.                                  :  
SP                 .мВ                                     : Потенциал самополяризации 
VSH_FIN            .д.ед.                                  : Описание 
VSH_GR             .д.ед.                                  : Shale volume 
VSH_SP             .д.ед.                                  : Shale Volume 
~Ascii
# ...
1114.4     0.209      119.319    1          2          5.349      6.818      1.25       1.817      1.12       0.2355606  0.2355606  0.290196   64.61176   24.96869   8.381      0.7095214  0.7600027  16.971     0.1655619  0.1743857  0.156738  
1114.5     0.209      119.319    1          2          5.374      6.852      1.27       1.831      1.122      0.2345333  0.2345333  0.2896926  61.84198   23.70262   8.381      0.7084135  0.7593185  16.916     0.1671495  0.1781308  0.1561682 
1114.6     0.209      119.319    1          2          5.384      6.918      1.288      1.844      1.124      0.2335883  0.2335883  0.2891892  59.39904   23.21438   8.381      0.7073863  0.7586658  17.027     0.1684877  0.1796512  0.1573243 
1114.7     0.209      117.319    1          2          5.378      7.014      1.303      1.857      1.123      0.2335644  0.2335644  0.2894409  59.33852   23.50612   8.524      0.7096744  0.7608088  17.267     0.1693228  0.1787373  0.1599083 
1114.8     0.209      113.319    1          2          5.357      7.126      1.315      1.872      1.12       0.2342598  0.2342598  0.290196   61.12474   24.55636   8.825      0.7151026  0.7655712  17.578     0.1695038  0.1755755  0.1634321 
1114.9     0.209      110.319    1          2          5.329      7.23       1.322      1.886      1.114      0.235828   0.235828   0.2917062  65.35275   26.03004   9.065      0.7202975  0.7700365  17.893     0.169328   0.1714465  0.1672096 
1115       0.209      107.319    1          2          5.299      7.298      1.32       1.895      1.108      0.2375068  0.2375068  0.2932164  70.2038    27.70729   9.318      0.725588   0.7745317  18.154     0.1688169  0.1671302  0.1705036 
1115.1     0.209      104.319    1          2          5.276      7.317      1.312      1.897      1.102      0.239214   0.239214   0.2947266  75.50605   29.06599   9.586      0.730899   0.7790337  18.31      0.16822    0.1638948  0.1725452 
1115.2     0.208      103.319    1          2          5.264      7.289      1.3        1.893      1.098      0.2404426  0.2404426  0.2957334  79.56789   29.80113   9.679      0.7333081  0.7810047  18.334     0.1675479  0.1622317  0.1728642 
1115.3     0.208      103.319    1          2          5.268      7.229      1.291      1.885      1.095      0.2413417  0.2413417  0.2964885  82.67825   29.55403   9.679      0.7341736  0.7816714  18.226     0.1671116  0.1627842  0.171439  
1115.4     0.208      103.319    1          2          5.294      7.158      1.286      1.876      1.093      0.241696   0.241696   0.2969919  83.93702   27.99713   9.679      0.734513   0.7820203  18.013     0.1675634  0.1664215  0.1687054 
1115.5     0.208      105.319    1          2          5.338      7.085      1.287      1.87       1.09       0.2419468  0.2419468  0.297747   84.83973   25.54697   9.495      0.7323529  0.7803374  17.746     0.1690916  0.1727629  0.1654202 
1115.6     0.208      108.319    1          2          5.397      7.02       1.291      1.868      1.089      0.2412512  0.2412512  0.2979987  82.35991   22.59465   9.232      0.7281207  0.7770688  17.478     0.1719621  0.1816471  0.1622771 
1115.7     0.208      111.319    1          2          5.457      6.966      1.293      1.869      1.088      0.2403565  0.2403565  0.2982504  79.27635   19.94195   8.983      0.7237173  0.7737565  17.25      0.175436   0.1911506  0.1597214 
1115.8     0.208      114.319    1          2          5.509      6.927      1.289      1.87       1.088      0.2392255  0.2392255  0.2982504  75.54321   17.89622   8.747      0.7190924  0.7702688  17.085     0.1788632  0.1997882  0.1579382 
1115.9     0.208      118.319    1          2          5.542      6.897      1.28       1.869      1.089      0.2381946  0.2381946  0.2979987  72.29357   16.70823   8.452      0.7134576  0.7657543  16.994     0.1812246  0.2054711  0.1569781 
1116       0.208      122.319    1          2          5.554      6.862      1.265      1.865      1.089      0.2378608  0.2378608  0.2979987  71.2718    16.29606   8.175      0.708586   0.7616782  16.986     0.182236   0.2075775  0.1568944 
1116.1     0.208      125.319    1          2          5.542      6.802      1.248      1.861      1.088      0.2383281  0.2383281  0.2982504  72.70654   16.70823   7.98       0.7057692  0.7591009  17.062     0.1815826  0.2054711  0.157694  
1116.2     0.208      128.319    1          2          5.512      6.71       1.233      1.858      1.085      0.2396528  0.2396528  0.2990055  76.9324    17.78481   7.793      0.7039097  0.7571517  17.222     0.1798566  0.2002984  0.1594149 
1116.3     0.208      131.319    1          2          5.471      6.595      1.222      1.857      1.081      0.2413644  0.2413644  0.3000123  82.75851   19.3692    7.615      0.7025313  0.7555411  17.454     0.1777209  0.1934388  0.162003  
1116.4     0.208      132.319    1          2          5.434      6.482      1.217      1.86       1.077      0.2428133  0.2428133  0.3010191  88.03377   20.91986   7.557      0.7030143  0.7556969  17.737     0.1763812  0.1874503  0.1653122 
1116.5     0.208      132.319    1          2          5.409      6.403      1.219      1.864      1.074      0.243613   0.243613   0.3017742  91.08805   22.03727   7.557      0.7038635  0.7563885  18.035     0.1762462  0.1835093  0.168983  
1116.6     0.208      131.319    1          2          5.397      6.379      1.224      1.868      1.073      0.2435907  0.2435907  0.3020259  91.00172   22.59465   7.615      0.7049006  0.7574257  18.307     0.1770763  0.1816471  0.1725054 
1116.7     0.208      130.319    1          2          5.386      6.42       1.23       1.87       1.074      0.2431638  0.2431638  0.3017742  89.35971   23.11792   7.673      0.7054999  0.7580489  18.511     0.1776072  0.1799569  0.1752576 
1116.8     0.209      128.319    1          2          5.361      6.587      1.234      1.867      1.076      0.243024   0.243024   0.3012708  88.82838   24.35275   7.793      0.7074902  0.7596287  18.625     0.1765056  0.1761734  0.1768377 
1116.9     0.209      128.319    1          2          5.314      6.812      1.233      1.861      1.08       0.243093   0.243093   0.300264   89.09019   26.85557   7.793      0.7075625  0.7591916  18.652     0.1732455  0.1692746  0.1772164 
1117       0.209      127.319    1          2          5.247      6.97       1.228      1.852      1.085      0.2434499  0.2434499  0.2990055  90.45689   30.87449   7.854      0.7090027  0.7596942  18.622     0.1683501  0.1599046  0.1767957 
1117.1     0.21       128.319    1          2          5.173      7.108      1.219      1.844      1.093      0.2431527  0.2431527  0.2969919  89.31741   36.01585   7.793      0.7076251  0.7576868  18.575     0.163149   0.1501571  0.1761409 
1117.2     0.21       129.319    1          2          5.108      7.212      1.21       1.838      1.102      0.2422625  0.2422625  0.2947266  85.98981   41.23361   7.733      0.7056238  0.7552917  18.556     0.1589822  0.1420866  0.1758777 
1117.3     0.21       130.319    1          2          5.062      7.262      1.206      1.835      1.111      0.2408252  0.2408252  0.2924613  80.87692   45.37679   7.673      0.7030106  0.7526186  18.587     0.1564731  0.1366387  0.1763076 
1117.4     0.21       132.319    1          2          5.046      7.245      1.21       1.835      1.117      0.2394556  0.2394556  0.2909511  76.28812   46.91341   7.557      0.6993905  0.7493776  18.658     0.156047   0.1347931  0.1773008 
1117.5     0.209      133.319    1          2          5.064      7.155      1.223      1.838      1.119      0.2384529  0.2384529  0.2904477  73.09442   45.18825   7.501      0.6972349  0.7477452  18.725     0.15756    0.1368712  0.1782489 
1117.6     0.209      132.319    1          2          5.119      7.008      1.242      1.847      1.115      0.2383531  0.2383531  0.2914545  72.78389   40.30024   7.557      0.6981798  0.749139   18.736     0.1609134  0.1434212  0.1784056 
1117.7     0.209      131.319    1          2          5.208      6.831      1.264      1.862      1.107      0.2386755  0.2386755  0.2934681  73.79174   33.48534   7.615      0.6996146  0.7512305  18.664     0.1660381  0.154691   0.1773852 
