~Version
 VERS              .         2.0                           : CWLS LOG ASCII STANDARD - VERSION 2.0
 WRAP              .         NO                            : ONE LINE PER DEPTH STEP
 DLM               .         SPACE                         : DELIMITING CHARACTER(SPACE TAB OR COMMA)
~Well Information
#_______________________________________________________________________________
#
#PARAMETER_NAME    .UNIT     VALUE                         : DESCRIPTION
#_______________________________________________________________________________
STRT               .м        0                             : First reference value
STOP               .м        1215.4                        : Last reference value
STEP               .м        0.2                           : Step increment
NULL               .         -9999                         : Missing value
COMP               .                                       : Company
WELL               .         6943                          : Well name
FLD                .         Узень                         : Field
LOC                .                                       : Location
CNTY               .                                       : County
STAT               .                                       : State
CTRY               .                                       : Country
SRVC               .                                       : Service Company
DATE               .         18.3.2016                     : Date
UWI                .                                       : Unique Well ID
Block              .         7                             : 
Cartographic_reference_system .         GCS_WGS_1984                  : ESRI,PE_10_3_1- <?xml version="1.0" encoding="utf-16"?><ILateBoundCoordinateReferenceSystem name="GCS_WGS_1984"><AuthorityCode>EPSG,4326</AuthorityCode></ILateBoundCoordinateReferenceSystem>
Category           .         Нефтяная                      : 
Condition          .         В работе                      : 
Date               .         15.04.2016                    : 
EREF               .m        82.9                          : 100.8
GRP                .                                       : Group name
Gorizont           .         14                            : 14
HZCS               .GCS_WGS_1984 WGS_1984_EASE-Grid_2.0_Global : ESRI,PE_10_3_1- <?xml version="1.0" encoding="utf-16"?><ILateBoundCoordinateReferenceSystem name="WGS_1984_EASE-Grid_2.0_Global"><AuthorityCode>EPSG,6933</AuthorityCode></ILateBoundCoordinateReferenceSystem>
ISS                .                                       : Well surveys
Interpretator      .         Кушербаева А.С                : 
Kupol              .         основной                      : osnovnoi
LATI               .dega     0.6562396588                  : GCS_WGS_1984
LONG               .dega     0.4442180783                  : GCS_WGS_1984
Mud                .         полимерный                    : 
Mud_density        .         1.34                          : 
Mud_resistivity    .         0.60                          : 
NGDU               .         НГДУ-2                        : 
ORIGINALWELLNAME   .         6943                          : 
Spud_date          .         2016                          : 1961
TIME               .                                       : LOG TIME
Viscosity          .         40                            : 
X                  .m        42860.95                      : 46154
Y                  .m        83716.87                      : 85761.93
YEAR               .         2019г                         : 
~Parameter Information Block
#_______________________________________________________________________________
#
#PARAMETER_NAME    .UNIT     VALUE                         : DESCRIPTION
#_______________________________________________________________________________
SET                .         LQC_KAZNIPI_Petrel            : 
TLFamily_CALI      .         Caliper                       : 
TLFamily_COLL      .         Net Reservoir Flag            : 
TLFamily_CSAT      .         Fluid Code                    : 
TLFamily_DEPT      .         Measured Depth                : 
TLFamily_DT        .         Compressional Slowness        : 
TLFamily_GR        .         Russian Gamma Ray             : 
TLFamily_GZ3       .         Gradient 225                  : 
TLFamily_IK1       .         Resistivity 05                : 
TLFamily_IK2       .         Resistivity 07                : 
TLFamily_IK3       .         Resistivity 10                : 
TLFamily_IK4       .         Resistivity 14                : 
TLFamily_IK5       .         Resistivity 20                : 
TLFamily_LLS       .         Lateral Log Resistivity       : 
TLFamily_MBK       .         Micro Lateral Log Resistivity : 
TLFamily_MINV      .         Micro Gradient Resistivity    : 
TLFamily_MNOR      .         Micro Resistivity             : 
TLFamily_NNKTB_1   .         Neutron Far                   : 
TLFamily_NNKTM_1   .         Neutron Near                  : 
TLFamily_NPHI      .         Neutron Porosity              : 
TLFamily_OGZ       .         Gradient Inverted 225         : 
TLFamily_PHIE      .         Effective Porosity            : 
TLFamily_PHIED     .         Effective Porosity            : 
TLFamily_PHIEN     .         Effective Porosity            : 
TLFamily_PHIES     .         Effective Porosity            : 
TLFamily_PHIT      .         Porosity                      : 
TLFamily_PRMB      .         Permeability                  : 
TLFamily_PRMB_DGR  .         Permeability                  : 
TLFamily_RHOB      .         Bulk Density                  : 
TLFamily_RT        .         Formation Resistivity         : 
TLFamily_SOIL_ARCHIE .         Oil Saturation                : 
TLFamily_SOIL_DW   .         Oil Saturation                : 
TLFamily_SP        .         Spontaneous Potential         : 
TLFamily_VSH_FIN   .         Shale Volume                  : 
TLFamily_VSH_GR    .         Shale Volume                  : 
TLFamily_VSH_SP    .         Shale Volume                  : 
~Curve Information
#_______________________________________________________________________________
#
#LOGNAME           .UNIT     LOG_ID                        : DESCRIPTION
#_______________________________________________________________________________
DEPT               .м                                      : Колонка глубины 
CALI               .м                                      : Каверномер 
COLL               .unitless                               : Описание 
CSAT               .unitless                               : Описание 
DT                 .мкс/м                                  : Интервальное время пробега продольной волны 
GR                 .uR/h                                   : Гамма каротаж 
GZ3                .Ohmm                                   : Градиент-зонд  длиной 2.25м 
IK1                .Ohmm                                   : И0.10И0.40 
IK2                .Ohmm                                   : И0.14И0.56 
IK3                .Ohmm                                   : И0.20И0.8 
IK4                .Ohmm                                   : И0.28И1.12 
IK5                .Ohmm                                   : И0.40И1.60 
LLS                .Ohmm                                   : Боковой каротаж 
MBK                .Ohmm                                   : Микробоковой каротаж 
MINV               .Ohmm                                   : Микро-градиент зонд 
MNOR               .Ohmm                                   : Микро-потенциал зонд 
NNKTB_1            .у.е.                                   : Показания большого зонда 2ННКт аппаратуры СРК 
NNKTM_1            .у.е.                                   : Показания малого зонда 2ННКт аппаратуры СРК 
NPHI               .v/v                                    : Total porosity 
OGZ                .Ohmm                                   : Обращенный градиент-зонд 
PHIE               .v/v                                    : Описание 
PHIED              .v/v                                    :  
PHIEN              .v/v                                    :  
PHIES              .v/v                                    :  
PHIT               .v/v                                    : Описание 
PRMB               .mD                                     :  
PRMB_DGR           .mD                                     :  
RHOB               .г/см3                                  : Плотность по ГГКп 
RT                 .ohmm                                   : Удельное электрическое сопротивление 
SOIL_ARCHIE        .v/v                                    :  
SOIL_DW            .v/v                                    :  
SP                 .мВ                                     : Потенциал самополяризации 
VSH_FIN            .v/v                                    : Описание 
VSH_GR             .v/v                                    : Shale volume 
VSH_SP             .v/v                                    : Shale Volume 
~Ascii
# ...
1058.4     0.227      -9999      -9999      340.516    8.615105   2.13       2.58       2.25       2.08       2          1.93       2.13       1.7        3.53       2.12       2.411948   1.524449   -9999      3.17       0.07667296 -0.01199602 -9999      0.1653419  0.1510216  0.0736762  4.785071   2.514554   1.93       0          0          385.97     0.4742691  0.3423679  0.6061702 
1058.6     0.227      -9999      -9999      338.3196   8.493123   2.16       2.5        2.22       2.08       2.03       1.99       2.17       1.7        3.56       2.24       2.425814   1.531076   -9999      3.33       0.07628811 -0.01218675 -9999      0.164763   0.1498357  0.07247679 5.41341    2.516763   1.99       0          0          386.22     0.4691592  0.3255469  0.6127715 
1058.8     0.227      -9999      -9999      336.0129   8.366879   2.21       2.71       2.33       2.16       2.07       2.01       2.19       1.66       3.14       2.12       2.440863   1.538916   -9999      3.43       0.07561858 -0.01262084 -9999      0.163858   0.148458   0.07043647 6.15072    2.519159   2.01       0          0          386.5      0.4646419  0.3090078  0.620276  
1059       0.227      -9999      -9999      333.579    8.24624    2.21       2.54       2.25       2.1        2.06       2.01       2.2        1.75       3.77       2.22       2.457997   1.547752   -9999      3.42       0.07468335 -0.013262  -9999      0.1626287  0.1468954  0.06768227 6.948941   2.521711   2.01       0          0          386.76     0.4606397  0.2939888  0.6272905 
1059.2     0.226      -9999      -9999      330.9539   8.140131   2.22       2.63       2.28       2.12       2.06       2.01       2.22       1.66       3.12       2.36       2.4794     1.557447   -9999      3.26       0.07272127 -0.014702  -9999      0.1601445  0.1448153  0.06224899 7.736215   2.524394   2.01       0          0          387.16     0.4598867  0.2813833  0.6383901 
1059.4     0.224      -9999      -9999      328.0648   8.054545   2.18       2.53       2.27       2.15       2.12       2.04       2.27       1.61       3.33       2.48       2.507916   1.568011   -9999      2.97       0.06953393 -0.01710991 -9999      0.1561778  0.1420893  0.05433693 8.435741   2.527327   2.04       0          0          387.71     0.4628296  0.2716108  0.6540484 
1059.6     0.227      -9999      -9999      324.8743   7.99128    2.13       2.81       2.45       2.29       2.21       2.12       2.33       1.78       3.57       2.51       2.546455   1.579607   -9999      2.66       0.06712676 -0.01886591 -9999      0.1531194  0.139499   0.04903526 8.993192   2.530691   2.12       0          0          387.88     0.4616613  0.2646057  0.6587169 
1059.8     0.225      -9999      -9999      321.3897   7.947893   2.17       2.94       2.5        2.31       2.26       2.2        2.4        1.84       4.04       2.59       2.59759    1.592538   -9999      2.46       0.06445323 -0.02095365 -9999      0.1498601  0.1365461  0.04375102 9.396632   2.534837   2.2        0          0          387.93     0.4598793  0.2599065  0.6598521 
1060       0.224      -9999      -9999      317.5691   7.918589   2.17       2.99       2.61       2.39       2.35       2.27       2.47       1.79       3.37       2.3        2.663634   1.60721    -9999      2.47       0.06105117 -0.02387996 -9999      0.1459823  0.1329417  0.03784199 9.679316   2.540202   2.27       0          0          387.96     0.4585888  0.2567798  0.6603978 
1060.2     0.225      -9999      -9999      313.3822   7.896907   2.26       3.38       2.88       2.62       2.49       2.36       2.55       1.94       4          2.94       2.746209   1.623945   -9999      2.55       0.05697428 -0.02767979 -9999      0.1416283  0.1286354  0.0318024  9.893931   2.547089   2.36       0          0          387.95     0.4571254  0.2544907  0.6597601 
1060.4     0.225      -9999      -9999      308.8376   7.878626   2.37       3.46       2.97       2.68       2.53       2.38       2.63       1.85       4.52       2.86       2.845654   1.642664   -9999      2.84       0.05284929 -0.03178962 -9999      0.1374882  0.1238945  0.02667197 10.07857   2.555406   2.38       0          0          387.76     0.4531968  0.2525765  0.6538171 
1060.6     0.224      -9999      -9999      304.0576   7.863967   2.5        3.57       2.85       2.52       2.42       2.31       2.68       1.95       4.39       2.73       2.959531   1.662622   -9999      3.19       0.04831061 -0.036253  -9999      0.1328742  0.1187513  0.02197798 10.22912   2.564287   2.31       0          0          387.56     0.44934    0.2510519  0.6476281 
1060.8     0.223      -9999      -9999      299.3637   7.858277   2.84       2.48       2.21       2.1        2.11       2.19       2.81       1.59       2.8        1.99       3.08147    1.682211   -9999      3.7        0.04388624 -0.04016657 -9999      0.1279391  0.1138448  0.01819859 10.28816   2.57196    2.19       0          0          387.38     0.4462647  0.2504627  0.6420668 
1061       0.225      -9999      -9999      295.3206   7.870523   3.27       2.68       2.54       2.32       2.4        2.43       3.13       1.71       3.08       2.54       3.200753   1.69911    -9999      4.27       0.04190897 -0.04107698 -9999      0.1248949  0.1107737  0.01672684 10.16151   2.576062   2.43       0          0          386.86     0.4392874  0.2517327  0.6268422 
1061.2     0.225      -9999      -9999      292.6523   7.910401   3.86       5.39       4.4        3.76       3.73       3.4        3.79       3.41       5.41       3.91       3.303489   1.710665   -9999      4.67       0.04078447 -0.03985441 -9999      0.1214233  0.109619   0.01594356 9.759809   2.574092   3.4        0          0          386.71     0.4390945  0.255913   0.6222759 
1061.4     0.225      -9999      -9999      292.0308   7.98447    4.44       5.39       4.700000000000001 4.79       4.87       4.49       4.5        3.32       7.25       5.86       3.375293   1.714603   -9999      4.75       0.04199973 -0.03504306 -9999      0.1190425  0.1116087  0.01679171 9.055347   2.564229   4.49       0          0          386.79     0.4440349  0.2638626  0.6242072 
1061.6     0.226      -9999      -9999      293.7998   8.092792   4.74       12.18      8.020000000000001 6.16       5.51       4.76       4.49       4.62       12.55      6.85       3.405026   1.709747   -9999      4.3        0.0473274  -0.02525872 -9999      0.1199135  0.1176803  0.02107543 8.115647   2.546134   4.76       0          0          386.71     0.4487799  0.2759353  0.6216244 
1061.8     0.225      -9999      -9999      297.7832   8.227794   4.59       6.3        5.419999999999999 5.140000000000001 4.560000000000001 4.069999999999999 3.75       3.05       9.14       6.46       3.387992   1.69647    -9999      3.41       0.05557653 -0.01184819 -9999      0.1230012  0.1269898  0.02996195 7.079805   2.521235   4.07       0          0          386.64     0.4555446  0.2917576  0.6193315 
1062       0.23       -9999      -9999      303.2842   8.375992   3.88       3.8        3.34       3.27       3.05       2.95       2.67       1.88       3.8        3.01       3.327468   1.676736   -9999      2.56       0.06539516 0.003437167 -9999      0.1273532  0.1381166  0.04554441 6.094285   2.492621   2.95       0          0          386.59     0.4638892  0.310173   0.6176053 
1062.2     0.23       -9999      -9999      309.3176   8.521999   2.93       2.93       2.7        2.67       2.5        2.4        2.24       1.62       3.25       2.53       3.233593   1.653486   -9999      2.18       0.07472156 0.01814366 -9999      0.1312995  0.1491486  0.06779265 5.257586   2.464036   2.4        0          0          386.69     0.4747691  0.3294526  0.6200856 
1062.4     0.228      -9999      -9999      314.9283   8.653487   2.43       2.48       2.34       2.33       2.28       2.21       2.17       1.57       3.34       2.24       3.120341   1.629865   -9999      2.09       0.08316505 0.03122861 -9999      0.1351015  0.1589856  0.09717992 4.602866   2.438895   2.21       0          0          386.68     0.4836587  0.3478385  0.6194789 
