~Version
 VERS              .         2.0                           : CWLS LOG ASCII STANDARD - VERSION 2.0
 WRAP              .         NO                            : ONE LINE PER DEPTH STEP
 DLM               .         SPACE                         : DELIMITING CHARACTER(SPACE TAB OR COMMA)
~Well Information
#_______________________________________________________________________________
#
#PARAMETER_NAME    .UNIT     VALUE                         : DESCRIPTION
#_______________________________________________________________________________
STRT               .м        0                             : First reference value
STOP               .м        1215.4                        : Last reference value
STEP               .м        0.2                           : Step increment
NULL               .         -9999                         : Missing value
COMP               .                                       : Company
WELL               .         6943                          : Well name
FLD                .         Узень                         : Field
LOC                .                                       : Location
CNTY               .                                       : County
STAT               .                                       : State
CTRY               .                                       : Country
SRVC               .                                       : Service Company
DATE               .         18.3.2016                     : Date
UWI                .                                       : Unique Well ID
Block              .         7                             : 
Cartographic_reference_system .         GCS_WGS_1984                  : ESRI,PE_10_3_1- <?xml version="1.0" encoding="utf-16"?><ILateBoundCoordinateReferenceSystem name="GCS_WGS_1984"><AuthorityCode>EPSG,4326</AuthorityCode></ILateBoundCoordinateReferenceSystem>
Category           .         Нефтяная                      : 
Condition          .         В работе                      : 
Date               .         15.04.2016                    : 
EREF               .m        82.9                          : 100.8
GRP                .                                       : Group name
Gorizont           .         14                            : 14
HZCS               .GCS_WGS_1984 WGS_1984_EASE-Grid_2.0_Global : ESRI,PE_10_3_1- <?xml version="1.0" encoding="utf-16"?><ILateBoundCoordinateReferenceSystem name="WGS_1984_EASE-Grid_2.0_Global"><AuthorityCode>EPSG,6933</AuthorityCode></ILateBoundCoordinateReferenceSystem>
ISS                .                                       : Well surveys
Interpretator      .         Кушербаева А.С                : 
Kupol              .         основной                      : osnovnoi
LATI               .dega     0.6562396588                  : GCS_WGS_1984
LONG               .dega     0.4442180783                  : GCS_WGS_1984
Mud                .         полимерный                    : 
Mud_density        .         1.34                          : 
Mud_resistivity    .         0.60                          : 
NGDU               .         НГДУ-2                        : 
ORIGINALWELLNAME   .         6943                          : 
Spud_date          .         2016                          : 1961
TIME               .                                       : LOG TIME
Viscosity          .         40                            : 
X                  .m        42860.95                      : 46154
Y                  .m        83716.87                      : 85761.93
YEAR               .         2019г                         : 
~Parameter Information Block
#_______________________________________________________________________________
#
#PARAMETER_NAME    .UNIT     VALUE                         : DESCRIPTION
#_______________________________________________________________________________
SET                .         LQC_KAZNIPI_Petrel            : 
TLFamily_CALI      .         Caliper                       : 
TLFamily_COLL      .         Net Reservoir Flag            : 
TLFamily_CSAT      .         Fluid Code                    : 
TLFamily_DEPT      .         Measured Depth                : 
TLFamily_DT        .         Compressional Slowness        : 
TLFamily_GR        .         Russian Gamma Ray             : 
TLFamily_GZ3       .         Gradient 225                  : 
TLFamily_IK1       .         Resistivity 05                : 
TLFamily_IK2       .         Resistivity 07                : 
TLFamily_IK3       .         Resistivity 10                : 
TLFamily_IK4       .         Resistivity 14                : 
TLFamily_IK5       .         Resistivity 20                : 
TLFamily_LLS       .         Lateral Log Resistivity       : 
TLFamily_MBK       .         Micro Lateral Log Resistivity : 
TLFamily_MINV      .         Micro Gradient Resistivity    : 
TLFamily_MNOR      .         Micro Resistivity             : 
TLFamily_NNKTB_1   .         Neutron Far                   : 
TLFamily_NNKTM_1   .         Neutron Near                  : 
TLFamily_NPHI      .         Neutron Porosity              : 
TLFamily_OGZ       .         Gradient Inverted 225         : 
TLFamily_PHIE      .         Effective Porosity            : 
TLFamily_PHIED     .         Effective Porosity            : 
TLFamily_PHIEN     .         Effective Porosity            : 
TLFamily_PHIES     .         Effective Porosity            : 
TLFamily_PHIT      .         Porosity                      : 
TLFamily_PRMB      .         Permeability                  : 
TLFamily_PRMB_DGR  .         Permeability                  : 
TLFamily_RHOB      .         Bulk Density                  : 
TLFamily_RT        .         Formation Resistivity         : 
TLFamily_SOIL_ARCHIE .         Oil Saturation                : 
TLFamily_SOIL_DW   .         Oil Saturation                : 
TLFamily_SP        .         Spontaneous Potential         : 
TLFamily_VSH_FIN   .         Shale Volume                  : 
TLFamily_VSH_GR    .         Shale Volume                  : 
TLFamily_VSH_SP    .         Shale Volume                  : 
~Curve Information
#_______________________________________________________________________________
#
#LOGNAME           .UNIT     LOG_ID                        : DESCRIPTION
#_______________________________________________________________________________
DEPT               .м                                      : Колонка глубины 
CALI               .м                                      : Каверномер 
COLL               .unitless                               : Описание 
CSAT               .unitless                               : Описание 
DT                 .мкс/м                                  : Интервальное время пробега продольной волны 
GR                 .uR/h                                   : Гамма каротаж 
GZ3                .Ohmm                                   : Градиент-зонд  длиной 2.25м 
IK1                .Ohmm                                   : И0.10И0.40 
IK2                .Ohmm                                   : И0.14И0.56 
IK3                .Ohmm                                   : И0.20И0.8 
IK4                .Ohmm                                   : И0.28И1.12 
IK5                .Ohmm                                   : И0.40И1.60 
LLS                .Ohmm                                   : Боковой каротаж 
MBK                .Ohmm                                   : Микробоковой каротаж 
MINV               .Ohmm                                   : Микро-градиент зонд 
MNOR               .Ohmm                                   : Микро-потенциал зонд 
NNKTB_1            .у.е.                                   : Показания большого зонда 2ННКт аппаратуры СРК 
NNKTM_1            .у.е.                                   : Показания малого зонда 2ННКт аппаратуры СРК 
NPHI               .v/v                                    : Total porosity 
OGZ                .Ohmm                                   : Обращенный градиент-зонд 
PHIE               .v/v                                    : Описание 
PHIED              .v/v                                    :  
PHIEN              .v/v                                    :  
PHIES              .v/v                                    :  
PHIT               .v/v                                    : Описание 
PRMB               .mD                                     :  
PRMB_DGR           .mD                                     :  
RHOB               .г/см3                                  : Плотность по ГГКп 
RT                 .ohmm                                   : Удельное электрическое сопротивление 
SOIL_ARCHIE        .v/v                                    :  
SOIL_DW            .v/v                                    :  
SP                 .мВ                                     : Потенциал самополяризации 
VSH_FIN            .v/v                                    : Описание 
VSH_GR             .v/v                                    : Shale volume 
VSH_SP             .v/v                                    : Shale Volume 
~Ascii
# ...
1121.4     0.223      8          2          372.9278   9.07244    2.51       6.49       4.01       3.03       3.4        3.35       2.94       2.5        4.39       4.78       2.426364   1.533783   0.227719   2.19       0.1856055  0.2825074  0.1252898  0.2459213  0.2854786  7.674021   3.79377    2.198213   3.35       0.450266   0.5769724  378.44     0.3103915  0.3764092  0.2443738 
1121.6     0.225      8          2          368.667    9.311818   2.61       5.91       4.11       3.14       3.19       3.28       2.72       3.02       4.14       3.81       2.444441   1.538652   0.20627    2.08       0.1613821  0.2733317  0.09181441 0.2309499  0.2729814  2.731158   2.998781   2.213536   3.28       0.3728753  0.5354747  381.44     0.3468351  0.4143446  0.2793255 
1121.8     0.225      8          2          364.1569   9.540645   2.63       2.97       3.11       2.63       2.49       2.68       2.35       2.32       3.57       2.82       2.462991   1.54071    0.1854798  2          0.1337532  0.1794919  0.05532008 0.2121863  0.2606648  0.8406051  2.395081   2.224312   2.68       0.188004   0.4310421  385.36     0.3944235  0.4541769  0.3346702 
1122       0.231      8          2          360.3531   9.744703   2.6        3.04       2.76       2.6        2.26       2.31       2.11       1.94       4.07       2.73       2.475586   1.53952    0.1674758  1.93       0.1072795  0.1653431  0.02109772 0.1934613  0.2500047  0.2717909  1.960028   2.229756   2.31       0          0.3162909  388.87     0.44357    0.4929169  0.3942232 
1122.2     0.236      -9999      -9999      357.7325   9.912445   2.58       2.83       2.49       2.5        2.25       2.14       1.98       1.69       3.77       2.47       2.479013   1.535608   0.153708   1.87       0.08805456 0.1541222  0          0.1761091  0.241958   0.1197132  1.662258   2.230762   2.14       0          0.2209087  391.99     0.4914972  0.5272245  0.45577   
1122.4     0.241      -9999      -9999      356.3023   10.03646   2.5        2.53       2.2        2.17       2.13       1.93       1.85       1.57       3.45       2.26       2.473513   1.530155   0.1448265  1.84       0.08157027 0.1469145  0          0.1631405  0.2368754  0.09078985 1.471607   2.229009   1.93       0          0.1456072  394.16     0.5287665  0.554114   0.5034189 
1122.6     0.245      -9999      -9999      355.7535   10.11413   2.27       2.21       1.98       1.89       1.93       1.76       1.76       1.51       3.33       2.11       2.461908   1.524568   0.1406948  1.82       0.07701628 0.1425059  0          0.1540326  0.2345619  0.07476294 1.363501   2.226208   1.76       0          0.08148019 395.75     0.5562363  0.5716495  0.5408231 
1122.8     0.245      -9999      -9999      355.6638   10.14851   2.14       1.8        1.71       1.63       1.7        1.62       1.69       1.43       2.93       2.08       2.44808    1.520061   0.1405566  1.84       0.07444702 0.1406334  0          0.148894   0.2344523  0.0670035  1.31822    2.223366   1.62       0          0.03117115 396.75     0.5723668  0.5795876  0.565146  
1123       0.235      -9999      -9999      355.6353   10.14769   2.08       1.86       1.63       1.56       1.59       1.57       1.66       1.46       2.88       2.03       2.43574    1.517439   0.1431976  1.88       0.0736801  0.1411087  0          0.1473602  0.2357599  0.06484736 1.319274   2.220793   1.57       0          0.01603777 397.17     0.577177   0.5793985  0.5749555 
1123.2     0.236      -9999      -9999      355.3955   10.12354   2.12       1.81       1.62       1.54       1.53       1.58       1.65       1.41       2.81       1.89       2.427737   1.517029   0.1470457  1.9        0.07393685 0.1430764  0          0.1478737  0.2375754  0.06556135 1.350954   2.218369   1.58       0          0.02527457 397.25     0.5748469  0.5738115  0.5758822 
1123.4     0.255      -9999      -9999      354.8019   10.08961   2.1        1.86       1.62       1.53       1.52       1.58       1.66       1.32       2.69       1.88       2.425869   1.518795   0.1505267  1.97       0.07430615 0.145387   0          0.1486123  0.2390466  0.06660213 1.39673    2.216017   1.58       0          0.03088451 397.28     0.5707735  0.5660567  0.5754902 
1123.6     0.25       -9999      -9999      353.7928   10.05746   2.1        1.92       1.66       1.55       1.54       1.58       1.68       1.43       2.92       2          2.430716   1.522449   0.1524234  2          0.07454872 0.147599   0          0.1490974  0.2395351  0.06729475 1.441552   2.213981   1.58       0          0.03325776 397.26     0.5662927  0.5588027  0.5737828 
1123.8     0.246      -9999      -9999      352.3477   10.03383   2.08       1.94       1.69       1.56       1.53       1.55       1.69       1.36       3.07       2.08       2.441552   1.52754    0.152126   2.06       0.07471944 0.1494832  0          0.1494389  0.2387234  0.06778653 1.475408   2.212803   1.55       0          0.02250378 397.1      0.5609741  0.5535307  0.5684174 
1124       0.243      -9999      -9999      350.4756   10.01899   2.02       1.89       1.64       1.54       1.49       1.51       1.71       1.37       2.83       1.97       2.456459   1.533537   0.1498675  2.1        0.07491074 0.1508156  0          0.1498215  0.2367269  0.06834184 1.497071   2.213076   1.51       0          0.004983528 396.75     0.554222   0.5502459  0.5581981 
1124.2     0.232      -9999      -9999      348.2228   10.00804   2.03       1.97       1.7        1.56       1.51       1.49       1.73       1.42       3.02       2.25       2.472821   1.539889   0.1465548  2.16       0.07524669 0.1514412  0          0.1504934  0.2340147  0.06932811 1.513269   2.215316   1.49       0          0          396.19     0.5453437  0.5478332  0.5428542 
1124.4     0.221      -9999      -9999      345.6692   9.993587   1.95       1.96       1.67       1.57       1.53       1.5        1.78       1.47       2.76       2.28       2.488095   1.546132   0.1434205  2.19       0.07534    0.1507301  0          0.15068    0.2312341  0.06960454 1.534903   2.219588   1.5        0          0          395.69     0.5370078  0.544667   0.5293487 
1124.6     0.222      -9999      -9999      342.9208   9.968812   1.91       2.49       1.97       1.76       1.66       1.57       1.86       1.61       3.15       2.53       2.500643   1.551864   0.1415704  2.13       0.07562135 0.1493967  0          0.1512427  0.2289828  0.0704448  1.572717   2.225609   1.57       0          0.005772071 395.11     0.5267531  0.539281   0.5142251 
1124.8     0.222      -9999      -9999      340.1175   9.930531   1.85       2.29       1.88       1.68       1.63       1.61       1.93       1.7        3.72       2.95       2.51019    1.556824   0.1416111  2.06       0.07615516 0.1477691  0          0.1523103  0.2276284  0.07206698 1.632987   2.232832   1.61       0          0.01675672 394.47     0.514578   0.5310632  0.4980927 
1125       0.224      -9999      -9999      337.4104   9.879255   1.77       2.64       2.05       1.8        1.74       1.71       1.97       1.63       3.52       2.65       2.518039   1.560949   0.1435526  1.95       0.07689971 0.1461602  0          0.1537994  0.2272498  0.07439218 1.717348   2.240461   1.71       0          0.04810511 393.82     0.5012213  0.5202519  0.4821907 
1125.2     0.22       -9999      -9999      334.9067   9.818098   1.73       3.28       2.42       2.07       1.95       1.85       2.03       2.36       4.6        4.4        2.526451   1.564454   0.1469142  1.86       0.07705115 0.1438408  0          0.1541023  0.2276633  0.07487421 1.823685   2.247683   1.85       0          0.08654052 393.62     0.4921709  0.5076444  0.4766973 
1125.4     0.22       -9999      -9999      332.6328   9.750697   1.71       2.58       2.07       1.84       1.8        1.79       1.98       2.05       4.39       3.61       2.537832   1.567797   0.1510057  1.85       0.0767781  0.1414452  0          0.1535562  0.2285414  0.07400732 1.948522   2.253795   1.79       0          0.07255569 393.76     0.4864646  0.4941034  0.4788259 
