~Version
 VERS              .         2.0                           : CWLS LOG ASCII STANDARD - VERSION 2.0
 WRAP              .         NO                            : ONE LINE PER DEPTH STEP
 DLM               .         SPACE                         : DELIMITING CHARACTER(SPACE TAB OR COMMA)
~Well Information
#_______________________________________________________________________________
#
#PARAMETER_NAME    .UNIT     VALUE                         : DESCRIPTION
#_______________________________________________________________________________
STRT               .м        0                             : First reference value
STOP               .м        1215.4                        : Last reference value
STEP               .м        0.2                           : Step increment
NULL               .         -9999                         : Missing value
COMP               .                                       : Company
WELL               .         6943                          : Well name
FLD                .         Узень                         : Field
LOC                .                                       : Location
CNTY               .                                       : County
STAT               .                                       : State
CTRY               .                                       : Country
SRVC               .                                       : Service Company
DATE               .         18.3.2016                     : Date
UWI                .                                       : Unique Well ID
Block              .         7                             : 
Cartographic_reference_system .         GCS_WGS_1984                  : ESRI,PE_10_3_1- <?xml version="1.0" encoding="utf-16"?><ILateBoundCoordinateReferenceSystem name="GCS_WGS_1984"><AuthorityCode>EPSG,4326</AuthorityCode></ILateBoundCoordinateReferenceSystem>
Category           .         Нефтяная                      : 
Condition          .         В работе                      : 
Date               .         15.04.2016                    : 
EREF               .m        82.9                          : 100.8
GRP                .                                       : Group name
Gorizont           .         14                            : 14
HZCS               .GCS_WGS_1984 WGS_1984_EASE-Grid_2.0_Global : ESRI,PE_10_3_1- <?xml version="1.0" encoding="utf-16"?><ILateBoundCoordinateReferenceSystem name="WGS_1984_EASE-Grid_2.0_Global"><AuthorityCode>EPSG,6933</AuthorityCode></ILateBoundCoordinateReferenceSystem>
ISS                .                                       : Well surveys
Interpretator      .         Кушербаева А.С                : 
Kupol              .         основной                      : osnovnoi
LATI               .dega     0.6562396588                  : GCS_WGS_1984
LONG               .dega     0.4442180783                  : GCS_WGS_1984
Mud                .         полимерный                    : 
Mud_density        .         1.34                          : 
Mud_resistivity    .         0.60                          : 
NGDU               .         НГДУ-2                        : 
ORIGINALWELLNAME   .         6943                          : 
Spud_date          .         2016                          : 1961
TIME               .                                       : LOG TIME
Viscosity          .         40                            : 
X                  .m        42860.95                      : 46154
Y                  .m        83716.87                      : 85761.93
YEAR               .         2019г                         : 
~Parameter Information Block
#_______________________________________________________________________________
#
#PARAMETER_NAME    .UNIT     VALUE                         : DESCRIPTION
#_______________________________________________________________________________
SET                .         LQC_KAZNIPI_Petrel            : 
TLFamily_CALI      .         Caliper                       : 
TLFamily_COLL      .         Net Reservoir Flag            : 
TLFamily_CSAT      .         Fluid Code                    : 
TLFamily_DEPT      .         Measured Depth                : 
TLFamily_DT        .         Compressional Slowness        : 
TLFamily_GR        .         Russian Gamma Ray             : 
TLFamily_GZ3       .         Gradient 225                  : 
TLFamily_IK1       .         Resistivity 05                : 
TLFamily_IK2       .         Resistivity 07                : 
TLFamily_IK3       .         Resistivity 10                : 
TLFamily_IK4       .         Resistivity 14                : 
TLFamily_IK5       .         Resistivity 20                : 
TLFamily_LLS       .         Lateral Log Resistivity       : 
TLFamily_MBK       .         Micro Lateral Log Resistivity : 
TLFamily_MINV      .         Micro Gradient Resistivity    : 
TLFamily_MNOR      .         Micro Resistivity             : 
TLFamily_NNKTB_1   .         Neutron Far                   : 
TLFamily_NNKTM_1   .         Neutron Near                  : 
TLFamily_NPHI      .         Neutron Porosity              : 
TLFamily_OGZ       .         Gradient Inverted 225         : 
TLFamily_PHIE      .         Effective Porosity            : 
TLFamily_PHIED     .         Effective Porosity            : 
TLFamily_PHIEN     .         Effective Porosity            : 
TLFamily_PHIES     .         Effective Porosity            : 
TLFamily_PHIT      .         Porosity                      : 
TLFamily_PRMB      .         Permeability                  : 
TLFamily_PRMB_DGR  .         Permeability                  : 
TLFamily_RHOB      .         Bulk Density                  : 
TLFamily_RT        .         Formation Resistivity         : 
TLFamily_SOIL_ARCHIE .         Oil Saturation                : 
TLFamily_SOIL_DW   .         Oil Saturation                : 
TLFamily_SP        .         Spontaneous Potential         : 
TLFamily_VSH_FIN   .         Shale Volume                  : 
TLFamily_VSH_GR    .         Shale Volume                  : 
TLFamily_VSH_SP    .         Shale Volume                  : 
~Curve Information
#_______________________________________________________________________________
#
#LOGNAME           .UNIT     LOG_ID                        : DESCRIPTION
#_______________________________________________________________________________
DEPT               .м                                      : Колонка глубины 
CALI               .м                                      : Каверномер 
COLL               .unitless                               : Описание 
CSAT               .unitless                               : Описание 
DT                 .мкс/м                                  : Интервальное время пробега продольной волны 
GR                 .uR/h                                   : Гамма каротаж 
GZ3                .Ohmm                                   : Градиент-зонд  длиной 2.25м 
IK1                .Ohmm                                   : И0.10И0.40 
IK2                .Ohmm                                   : И0.14И0.56 
IK3                .Ohmm                                   : И0.20И0.8 
IK4                .Ohmm                                   : И0.28И1.12 
IK5                .Ohmm                                   : И0.40И1.60 
LLS                .Ohmm                                   : Боковой каротаж 
MBK                .Ohmm                                   : Микробоковой каротаж 
MINV               .Ohmm                                   : Микро-градиент зонд 
MNOR               .Ohmm                                   : Микро-потенциал зонд 
NNKTB_1            .у.е.                                   : Показания большого зонда 2ННКт аппаратуры СРК 
NNKTM_1            .у.е.                                   : Показания малого зонда 2ННКт аппаратуры СРК 
NPHI               .v/v                                    : Total porosity 
OGZ                .Ohmm                                   : Обращенный градиент-зонд 
PHIE               .v/v                                    : Описание 
PHIED              .v/v                                    :  
PHIEN              .v/v                                    :  
PHIES              .v/v                                    :  
PHIT               .v/v                                    : Описание 
PRMB               .mD                                     :  
PRMB_DGR           .mD                                     :  
RHOB               .г/см3                                  : Плотность по ГГКп 
RT                 .ohmm                                   : Удельное электрическое сопротивление 
SOIL_ARCHIE        .v/v                                    :  
SOIL_DW            .v/v                                    :  
SP                 .мВ                                     : Потенциал самополяризации 
VSH_FIN            .v/v                                    : Описание 
VSH_GR             .v/v                                    : Shale volume 
VSH_SP             .v/v                                    : Shale Volume 
~Ascii
# ...
886.2000000000001 0.224      1          3          -9999      3.401447   3.04       2666.030000000001 2665.620099999999 2666.030000000001 2665.620099999999 2666.030000000001 2.18       -9999      -9999      -9999      3.109891   1.744366   -9999      1.4        -9999      -9999      -9999      -9999      -9999      -9999      -9999      -9999      -9999      -9999      -9999      358.39     0.09964656 0.07382058 0.1254725 
886.4      0.223      1          3          -9999      3.444604   2.69       2666.030000000001 2665.620099999999 2666.030000000001 2665.620099999999 2666.030000000001 2.34       -9999      -9999      -9999      3.115065   1.743336   -9999      1.4        -9999      -9999      -9999      -9999      -9999      -9999      -9999      -9999      -9999      -9999      -9999      358.56     0.1007368  0.07604608 0.1254276 
886.6      0.221      1          3          -9999      3.481982   2.53       2666.030000000001 2665.620099999999 2666.030000000001 2665.620099999999 2666.030000000001 2.42       -9999      -9999      -9999      3.140472   1.744022   -9999      1.36       -9999      -9999      -9999      -9999      -9999      -9999      -9999      -9999      -9999      -9999      -9999      359.12     0.1020292  0.0780277  0.1260308 
886.8      0.22       1          3          -9999      3.509043   2.31       7.27       2665.620099999999 2666.030000000001 2665.620099999999 2666.030000000001 2.21       -9999      -9999      -9999      3.177862   1.745382   -9999      1.26       -9999      -9999      -9999      -9999      -9999      -9999      -9999      -9999      -9999      -9999      -9999      359.41     0.1028416  0.07949456 0.1261886 
887        0.22       1          3          -9999      3.522856   2.18       5.680000000000001 2.92       2666.030000000001 2665.620099999999 2666.030000000001 2.05       -9999      -9999      -9999      3.218546   1.746599   -9999      1.2        -9999      -9999      -9999      -9999      -9999      -9999      -9999      -9999      -9999      -9999      -9999      359.61     0.1032234  0.08025388 0.1261929 
887.2000000000001 0.222      1          3          -9999      3.522136   2.03       5.02       2.64       1.8        2665.620099999999 2666.030000000001 1.96       -9999      -9999      -9999      3.254856   1.747124   -9999      1.19       -9999      -9999      -9999      -9999      -9999      -9999      -9999      -9999      -9999      -9999      -9999      359.74     0.1031458  0.08021408 0.1260775 
887.4      0.221      1          3          -9999      3.507046   1.97       4.73       2.52       1.75       1.54       2666.030000000001 1.92       -9999      -9999      -9999      3.281188   1.74655    -9999      1.16       -9999      -9999      -9999      -9999      -9999      -9999      -9999      -9999      -9999      -9999      -9999      359.81     0.1026236  0.07938538 0.1258619 
887.6      0.221      1          3          -9999      3.479163   1.92       5.109999999999999 2.54       1.72       1.5        2666.030000000001 1.88       -9999      -9999      -9999      3.294628   1.744529   -9999      1.21       -9999      -9999      -9999      -9999      -9999      -9999      -9999      -9999      -9999      -9999      -9999      359.83     0.1017216  0.07787646 0.1255667 
887.8      0.221      1          3          -9999      3.441134   1.87       4.909999999999999 2.41       1.61       1.41       1.36       1.86       -9999      -9999      -9999      3.294704   1.740693   -9999      1.21       -9999      -9999      -9999      -9999      -9999      -9999      -9999      -9999      -9999      -9999      -9999      359.97     0.1006685  0.0758647  0.1254724 
888        0.219      1          3          -9999      3.396242   1.89       4.39       2.23       1.48       1.33       1.31       1.84       -9999      -9999      -9999      3.282885   1.734745   -9999      1.22       -9999      -9999      -9999      -9999      -9999      -9999      -9999      -9999      -9999      -9999      -9999      360.26     0.09959053 0.07355659 0.1256245 
888.2000000000001 0.221      1          3          -9999      3.348062   1.86       4.13       2.15       1.47       1.34       1.32       1.84       -9999      -9999      -9999      3.261616   1.726594   -9999      1.25       -9999      -9999      -9999      -9999      -9999      -9999      -9999      -9999      1.32       -9999      -9999      360.71     0.09860258 0.07115753 0.1260476 
888.4      0.22       1          3          -9999      3.299885   1.82       4.59       2.33       1.59       1.41       1.37       1.84       -9999      -9999      -9999      3.233213   1.716449   -9999      1.25       -9999      -9999      -9999      -9999      -9999      -9999      -9999      -9999      1.37       -9999      -9999      360.91     0.09744436 0.06883684 0.1260519 
888.6      0.22       1          3          -9999      3.255008   1.83       4.75       2.34       1.58       1.39       1.37       1.82       -9999      -9999      -9999      3.199411   1.704867   -9999      1.27       -9999      -9999      -9999      -9999      -9999      -9999      -9999      -9999      1.37       -9999      -9999      361        0.09630672 0.06674326 0.1258702 
888.8      0.22       1          3          -9999      3.216571   1.76       4.35       2.23       1.51       1.36       1.34       1.8        -9999      -9999      -9999      3.161138   1.692755   -9999      1.25       -9999      -9999      -9999      -9999      -9999      -9999      -9999      -9999      1.34       -9999      -9999      361.12     0.09537067 0.06500081 0.1257405 
889        0.222      1          3          -9999      3.187341   1.72       4.11       2.18       1.5        1.37       1.32       1.79       -9999      -9999      -9999      3.118738   1.681132   -9999      1.25       -9999      -9999      -9999      -9999      -9999      -9999      -9999      -9999      1.32       -9999      -9999      361.11     0.09455257 0.06370625 0.1253989 
889.2000000000001 0.223      1          3          -9999      3.169315   1.68       4.29       2.23       1.54       1.36       1.31       1.8        -9999      -9999      -9999      3.072824   1.670997   -9999      1.25       -9999      -9999      -9999      -9999      -9999      -9999      -9999      -9999      1.31       -9999      -9999      360.97     0.09389029 0.0629208  0.1248598 
889.4      0.223      1          3          -9999      3.162875   1.57       4.560000000000001 2.29       1.53       1.36       1.3        1.81       -9999      -9999      -9999      3.024823   1.663137   -9999      1.23       -9999      -9999      -9999      -9999      -9999      -9999      -9999      -9999      1.3        -9999      -9999      360.67     0.09337173 0.06264254 0.1241009 
889.6      0.222      1          3          -9999      3.166543   1.58       4.77       2.29       1.5        1.33       1.29       1.81       -9999      -9999      -9999      2.97737    1.658043   -9999      1.28       -9999      -9999      -9999      -9999      -9999      -9999      -9999      -9999      1.29       -9999      -9999      360.48     0.09316939 0.06280084 0.1235379 
889.8      0.222      1          3          -9999      3.176564   1.54       4.38       2.15       1.43       1.29       1.27       1.8        -9999      -9999      -9999      2.933951   1.65588    -9999      1.29       -9999      -9999      -9999      -9999      -9999      -9999      -9999      -9999      1.27       -9999      -9999      360.41     0.09319922 0.06323548 0.1231629 
890        0.223      1          3          -9999      3.18745    1.5        4.05       2.03       1.39       1.29       1.29       1.8        -9999      -9999      -9999      2.898246   1.656475   -9999      1.28       -9999      -9999      -9999      -9999      -9999      -9999      -9999      -9999      1.29       -9999      -9999      360.91     0.09364941 0.06371105 0.1235878 
890.2000000000001 0.223      1          3          -9999      3.193361   1.55       3.92       2.12       1.52       1.39       1.36       1.81       -9999      -9999      -9999      2.873518   1.659463   -9999      1.31       -9999      -9999      -9999      -9999      -9999      -9999      -9999      -9999      1.36       -9999      -9999      361.37     0.09396935 0.06397075 0.1239679 
