~Version
 VERS              .         2.0                           : CWLS LOG ASCII STANDARD - VERSION 2.0
 WRAP              .         NO                            : ONE LINE PER DEPTH STEP
 DLM               .         SPACE                         : DELIMITING CHARACTER(SPACE TAB OR COMMA)
~Well Information
#_______________________________________________________________________________
#
#PARAMETER_NAME    .UNIT     VALUE                         : DESCRIPTION
#_______________________________________________________________________________
STRT               .м        0                             : First reference value
STOP               .м        1215.4                        : Last reference value
STEP               .м        0.2                           : Step increment
NULL               .         -9999                         : Missing value
COMP               .                                       : Company
WELL               .         6943                          : Well name
FLD                .         Узень                         : Field
LOC                .                                       : Location
CNTY               .                                       : County
STAT               .                                       : State
CTRY               .                                       : Country
SRVC               .                                       : Service Company
DATE               .         18.3.2016                     : Date
UWI                .                                       : Unique Well ID
Block              .         7                             : 
Cartographic_reference_system .         GCS_WGS_1984                  : ESRI,PE_10_3_1- <?xml version="1.0" encoding="utf-16"?><ILateBoundCoordinateReferenceSystem name="GCS_WGS_1984"><AuthorityCode>EPSG,4326</AuthorityCode></ILateBoundCoordinateReferenceSystem>
Category           .         Нефтяная                      : 
Condition          .         В работе                      : 
Date               .         15.04.2016                    : 
EREF               .m        82.9                          : 100.8
GRP                .                                       : Group name
Gorizont           .         14                            : 14
HZCS               .GCS_WGS_1984 WGS_1984_EASE-Grid_2.0_Global : ESRI,PE_10_3_1- <?xml version="1.0" encoding="utf-16"?><ILateBoundCoordinateReferenceSystem name="WGS_1984_EASE-Grid_2.0_Global"><AuthorityCode>EPSG,6933</AuthorityCode></ILateBoundCoordinateReferenceSystem>
ISS                .                                       : Well surveys
Interpretator      .         Кушербаева А.С                : 
Kupol              .         основной                      : osnovnoi
LATI               .dega     0.6562396588                  : GCS_WGS_1984
LONG               .dega     0.4442180783                  : GCS_WGS_1984
Mud                .         полимерный                    : 
Mud_density        .         1.34                          : 
Mud_resistivity    .         0.60                          : 
NGDU               .         НГДУ-2                        : 
ORIGINALWELLNAME   .         6943                          : 
Spud_date          .         2016                          : 1961
TIME               .                                       : LOG TIME
Viscosity          .         40                            : 
X                  .m        42860.95                      : 46154
Y                  .m        83716.87                      : 85761.93
YEAR               .         2019г                         : 
~Parameter Information Block
#_______________________________________________________________________________
#
#PARAMETER_NAME    .UNIT     VALUE                         : DESCRIPTION
#_______________________________________________________________________________
SET                .         LQC_KAZNIPI_Petrel            : 
TLFamily_CALI      .         Caliper                       : 
TLFamily_COLL      .         Net Reservoir Flag            : 
TLFamily_CSAT      .         Fluid Code                    : 
TLFamily_DEPT      .         Measured Depth                : 
TLFamily_DT        .         Compressional Slowness        : 
TLFamily_GR        .         Russian Gamma Ray             : 
TLFamily_GZ3       .         Gradient 225                  : 
TLFamily_IK1       .         Resistivity 05                : 
TLFamily_IK2       .         Resistivity 07                : 
TLFamily_IK3       .         Resistivity 10                : 
TLFamily_IK4       .         Resistivity 14                : 
TLFamily_IK5       .         Resistivity 20                : 
TLFamily_LLS       .         Lateral Log Resistivity       : 
TLFamily_MBK       .         Micro Lateral Log Resistivity : 
TLFamily_MINV      .         Micro Gradient Resistivity    : 
TLFamily_MNOR      .         Micro Resistivity             : 
TLFamily_NNKTB_1   .         Neutron Far                   : 
TLFamily_NNKTM_1   .         Neutron Near                  : 
TLFamily_NPHI      .         Neutron Porosity              : 
TLFamily_OGZ       .         Gradient Inverted 225         : 
TLFamily_PHIE      .         Effective Porosity            : 
TLFamily_PHIED     .         Effective Porosity            : 
TLFamily_PHIEN     .         Effective Porosity            : 
TLFamily_PHIES     .         Effective Porosity            : 
TLFamily_PHIT      .         Porosity                      : 
TLFamily_PRMB      .         Permeability                  : 
TLFamily_PRMB_DGR  .         Permeability                  : 
TLFamily_RHOB      .         Bulk Density                  : 
TLFamily_RT        .         Formation Resistivity         : 
TLFamily_SOIL_ARCHIE .         Oil Saturation                : 
TLFamily_SOIL_DW   .         Oil Saturation                : 
TLFamily_SP        .         Spontaneous Potential         : 
TLFamily_VSH_FIN   .         Shale Volume                  : 
TLFamily_VSH_GR    .         Shale Volume                  : 
TLFamily_VSH_SP    .         Shale Volume                  : 
~Curve Information
#_______________________________________________________________________________
#
#LOGNAME           .UNIT     LOG_ID                        : DESCRIPTION
#_______________________________________________________________________________
DEPT               .м                                      : Колонка глубины 
CALI               .м                                      : Каверномер 
COLL               .unitless                               : Описание 
CSAT               .unitless                               : Описание 
DT                 .мкс/м                                  : Интервальное время пробега продольной волны 
GR                 .uR/h                                   : Гамма каротаж 
GZ3                .Ohmm                                   : Градиент-зонд  длиной 2.25м 
IK1                .Ohmm                                   : И0.10И0.40 
IK2                .Ohmm                                   : И0.14И0.56 
IK3                .Ohmm                                   : И0.20И0.8 
IK4                .Ohmm                                   : И0.28И1.12 
IK5                .Ohmm                                   : И0.40И1.60 
LLS                .Ohmm                                   : Боковой каротаж 
MBK                .Ohmm                                   : Микробоковой каротаж 
MINV               .Ohmm                                   : Микро-градиент зонд 
MNOR               .Ohmm                                   : Микро-потенциал зонд 
NNKTB_1            .у.е.                                   : Показания большого зонда 2ННКт аппаратуры СРК 
NNKTM_1            .у.е.                                   : Показания малого зонда 2ННКт аппаратуры СРК 
NPHI               .v/v                                    : Total porosity 
OGZ                .Ohmm                                   : Обращенный градиент-зонд 
PHIE               .v/v                                    : Описание 
PHIED              .v/v                                    :  
PHIEN              .v/v                                    :  
PHIES              .v/v                                    :  
PHIT               .v/v                                    : Описание 
PRMB               .mD                                     :  
PRMB_DGR           .mD                                     :  
RHOB               .г/см3                                  : Плотность по ГГКп 
RT                 .ohmm                                   : Удельное электрическое сопротивление 
SOIL_ARCHIE        .v/v                                    :  
SOIL_DW            .v/v                                    :  
SP                 .мВ                                     : Потенциал самополяризации 
VSH_FIN            .v/v                                    : Описание 
VSH_GR             .v/v                                    : Shale volume 
VSH_SP             .v/v                                    : Shale Volume 
~Ascii
# ...
1079.4     0.22       -9999      -9999      317.489    10.41775   3.72       4.279999999999999 2.88       2.47       2.3        2.23       3.21       2.74       3.07       4.17       2.654873   1.580064   0.09685524 4.13       0.07942447 0.1282788  0          0.1588489  0.1932639  0.08284989 1.011859   2.301388   2.23       0          0.08540227 362.82     0.417261   0.6456892  0.1888328 
1079.6     0.218      -9999      -9999      311.6591   10.25681   3.92       3.95       2.69       2.19       2.08       2.26       3.56       2.37       3.21       3.97       2.633977   1.58023    0.1103067  4.77       0.161356   0.1436184  0          0.1613559  0.1966195  0.08739962 1.185168   2.286684   2.26       0          0.1064897  360        0.3877669  0.6053232  0.1702106 
1079.8     0.213      8          2          305.499    10.07639   4.19       4.19       2.84       2.3        2.25       2.53       4.02       2.91       3.4        3.7        2.608532   1.579111   0.1268781  5.46       0.162413   0.2395819  0.007818146 0.162413   0.2012044  0.1056101  1.414989   2.269898   2.53       0          0.1839482  357.85     0.3607879  0.5630625  0.1585132 
1080       0.211      8          2          299.7188   9.895769   4.64       4.82       3.35       2.98       3.03       3.35       4.91       3.59       3.65       4.89       2.58006    1.576483   0.1436867  6.13       0.162614   0.2493638  0.03243967 0.1626143  0.2059978  0.1793058  1.689713   2.253562   3.35       0.10716    0.3358952  356.12     0.3371122  0.5237095  0.1505148 
1080.2     0.213      8          2          294.8589   9.733684   5.14       8.34       5.200000000000001 4.77       4.659999999999999 4.69       5.94       4.25       3.43       5.37       2.551642   1.572537   0.1578343  6.24       0.162632   0.2571558  0.05322737 0.1626319  0.2099261  0.2794326  1.981361   2.24055    4.69       0.317258   0.4663612  354.26     0.3169906  0.4907428  0.1432385 
1080.4     0.214      8          2          291.0792   9.606363   5.64       12.06      7.959999999999999 6.739999999999999 6.49       5.97       6.74       3.99       3.33       5.4        2.527151   1.567791   0.1666815  5.84       0.162095   0.2614416  0.06681182 0.1620947  0.2118307  0.3690713  2.245342   2.233392   5.97       0.431342   0.5402348  353        0.3026355  0.466309   0.138962  
1080.6     0.214      8          2          288.3286   9.52597    5.81       16.84      12.17      9          7.99       6.619999999999999 6.74       4.24       3.52       5.74       2.510124   1.562946   0.1686805  5.34       0.16058    0.2613518  0.07116286 0.1605801  0.2109555  0.3920838  2.429857   2.233542   6.62       0.468068   0.5643955  353.22     0.295508   0.4515114  0.1395047 
1080.8     0.215      8          2          286.2945   9.498256   5.62       18.37000000000001 14.79      10.55      8.35       6.410000000000001 5.98       4.21       3.55       5.46       2.502811   1.558726   0.1630725  4.64       0.15776    0.2569475  0.06555431 0.1577605  0.206742   0.3275849  2.496919   2.240898   6.41       0.438853   0.5452999  354.75     0.2955098  0.4465196  0.1444999 
1081       0.217      8          2          284.6413   9.521611   5.08       10.6       9.470000000000001 7.84       6.24       5.170000000000001 4.58       3.74       3.01       4.88       2.505547   1.555745   0.150613   3.92       0.153194   0.2492099  0.05073109 0.153194   0.1993518  0.2166463  2.440284   2.253819   5.17       0.314385   0.4637022  357.29     0.3026725  0.4507225  0.1546226 
1081.2     0.217      8          2          283.1273   9.587481   4.33       5.25       4.83       4.570000000000001 4.1        3.71       3.46       2.47       3.13       4.23       2.516789   1.554362   0.13309    3.33       0.147032   0.2397877  0.02898431 0.1470318  0.1895158  0.1194761  2.287379   2.269555   3.71       0          0.3090233  360        0.3154718  0.4627905  0.1681532 
1081.4     0.218      8          2          281.6558   9.682497   3.57       4.700000000000001 3.7        3.35       3.05       2.73       2.68       2.47       4.44       4.27       2.533714   1.554648   0.112929   3.1        0.138201   0.2304701  0.001750318 0.1382008  0.1783797  0.05537013 2.083538   2.285115   2.73       0          0.08913411 363.84     0.336905   0.4807694  0.1930406 
1081.6     0.222      -9999      -9999      280.2621   9.792084   2.98       2.59       2.11       2.05       2.1        2.08       2.35       1.42       2.73       2.61       2.553064   1.556321   0.09265756 3.28       0.06393784 0.222719   0          0.1278757  0.1672341  0.04279981 1.870891   2.298059   2.08       0          0          367.56     0.3633948  0.5023746  0.224415  
1081.8     0.227      -9999      -9999      279.0543   9.90321    2.8        2          1.65       1.65       1.82       1.89       2.24       1.41       2.85       2.45       2.571898   1.558854   0.07438483 3.86       0.0597194  0.1321526  0          0.1194388  0.1572144  0.03575248 1.677408   2.306978   1.89       0          0          369.53     0.3846693  0.525275   0.2440636 
1082       0.226      -9999      -9999      278.1838   10.00664   2.85       2.25       2.01       1.96       2.21       2.22       2.47       2.32       3.45       4.5        2.588361   1.561567   0.05960763 4.68       0.05674086 0.1260819  0          0.1134817  0.1491843  0.03148738 1.515347   2.311599   2.22       0          0          370.26     0.3995776  0.5475263  0.251629  
1082.2     0.221      -9999      -9999      277.6693   10.09751   3.26       3.74       2.87       2.57       2.78       2.77       2.91       3.02       4.73       5.01       2.601611   1.563813   0.04889952 5.4        0.05566134 0.1245106  0          0.1113227  0.1434493  0.03007053 1.385934   2.312575   2.77       0          0          369.26     0.4040335  0.567853   0.2402141 
1082.4     0.22       -9999      -9999      277.5594   10.17421   3.82       4.12       2.99       2.63       2.69       2.85       3.22       2.72       3.84       3.95       2.611526   1.565096   0.04227596 5.82       0.05587043 0.1258735  0          0.1117409  0.140056   0.03033989 1.285352   2.310985   2.85       0          0          367.14     0.4021796  0.5855943  0.2187649 
1082.6     0.221      -9999      -9999      277.8438   10.23724   4.2        4.93       3.17       2.53       2.37       2.53       3.08       3.05       5.4        4.81       2.617945   1.565184   0.03944566 6.15       0.05604272 0.1276588  0          0.1120854  0.1388518  0.03056364 1.208175   2.307912   2.53       0          0          365.53     0.4024262  0.6005895  0.2042629 
1082.8     0.222      -9999      -9999      278.4743   10.28742   4.17       2.62       2.15       1.92       1.93       2.18       2.9        1.64       4.15       2.59       2.620464   1.564133   0.04016722 6.64       0.05563901 0.1287289  0          0.111278   0.1396787  0.0300419  1.15007    2.304072   2.18       0          0          365.44     0.4079748  0.6127994  0.2031501 
1083       0.227      -9999      -9999      279.4014   10.32497   4.04       2.8        2.36       2.2        2.14       2.21       3          2.34       3.94       3.84       2.618416   1.562213   0.04449981 7.37       0.05556239 0.1302983  0          0.1111248  0.1425265  0.02994389 1.108415   2.299662   2.21       0          0          365.53     0.4128112  0.6221007  0.2035217 
1083.2     0.221      -9999      -9999      280.5764   10.34918   4.03       4.740000000000001 3.63       3.16       2.81       2.52       3.41       3.72       4.59       5.14       2.611365   1.55986    0.05273882 7.97       0.0570683  0.1343206  0          0.1141366  0.1475034  0.03193018 1.082369   2.294475   2.52       0          0          363.72     0.4086742  0.6281705  0.1891779 
1083.4     0.217      -9999      -9999      281.9385   10.35817   3.94       4.8        3.13       2.73       2.64       2.51       3.83       2.58       4.17       4.1        2.599279   1.557502   0.06519017 8.18       0.0593629  0.1400362  0          0.1187258  0.154714   0.03521299 1.072844   2.288021   2.51       0          0          360.85     0.4003197  0.6304419  0.1701975 
