~Version
 VERS              .         2.0                           : CWLS LOG ASCII STANDARD - VERSION 2.0
 WRAP              .         NO                            : ONE LINE PER DEPTH STEP
 DLM               .         SPACE                         : DELIMITING CHARACTER(SPACE TAB OR COMMA)
~Well Information
#_______________________________________________________________________________
#
#PARAMETER_NAME    .UNIT     VALUE                         : DESCRIPTION
#_______________________________________________________________________________
STRT               .м        0                             : First reference value
STOP               .м        1215.4                        : Last reference value
STEP               .м        0.2                           : Step increment
NULL               .         -9999                         : Missing value
COMP               .                                       : Company
WELL               .         6943                          : Well name
FLD                .         Узень                         : Field
LOC                .                                       : Location
CNTY               .                                       : County
STAT               .                                       : State
CTRY               .                                       : Country
SRVC               .                                       : Service Company
DATE               .         18.3.2016                     : Date
UWI                .                                       : Unique Well ID
Block              .         7                             : 
Cartographic_reference_system .         GCS_WGS_1984                  : ESRI,PE_10_3_1- <?xml version="1.0" encoding="utf-16"?><ILateBoundCoordinateReferenceSystem name="GCS_WGS_1984"><AuthorityCode>EPSG,4326</AuthorityCode></ILateBoundCoordinateReferenceSystem>
Category           .         Нефтяная                      : 
Condition          .         В работе                      : 
Date               .         15.04.2016                    : 
EREF               .m        82.9                          : 100.8
GRP                .                                       : Group name
Gorizont           .         14                            : 14
HZCS               .GCS_WGS_1984 WGS_1984_EASE-Grid_2.0_Global : ESRI,PE_10_3_1- <?xml version="1.0" encoding="utf-16"?><ILateBoundCoordinateReferenceSystem name="WGS_1984_EASE-Grid_2.0_Global"><AuthorityCode>EPSG,6933</AuthorityCode></ILateBoundCoordinateReferenceSystem>
ISS                .                                       : Well surveys
Interpretator      .         Кушербаева А.С                : 
Kupol              .         основной                      : osnovnoi
LATI               .dega     0.6562396588                  : GCS_WGS_1984
LONG               .dega     0.4442180783                  : GCS_WGS_1984
Mud                .         полимерный                    : 
Mud_density        .         1.34                          : 
Mud_resistivity    .         0.60                          : 
NGDU               .         НГДУ-2                        : 
ORIGINALWELLNAME   .         6943                          : 
Spud_date          .         2016                          : 1961
TIME               .                                       : LOG TIME
Viscosity          .         40                            : 
X                  .m        42860.95                      : 46154
Y                  .m        83716.87                      : 85761.93
YEAR               .         2019г                         : 
~Parameter Information Block
#_______________________________________________________________________________
#
#PARAMETER_NAME    .UNIT     VALUE                         : DESCRIPTION
#_______________________________________________________________________________
SET                .         LQC_KAZNIPI_Petrel            : 
TLFamily_CALI      .         Caliper                       : 
TLFamily_COLL      .         Net Reservoir Flag            : 
TLFamily_CSAT      .         Fluid Code                    : 
TLFamily_DEPT      .         Measured Depth                : 
TLFamily_DT        .         Compressional Slowness        : 
TLFamily_GR        .         Russian Gamma Ray             : 
TLFamily_GZ3       .         Gradient 225                  : 
TLFamily_IK1       .         Resistivity 05                : 
TLFamily_IK2       .         Resistivity 07                : 
TLFamily_IK3       .         Resistivity 10                : 
TLFamily_IK4       .         Resistivity 14                : 
TLFamily_IK5       .         Resistivity 20                : 
TLFamily_LLS       .         Lateral Log Resistivity       : 
TLFamily_MBK       .         Micro Lateral Log Resistivity : 
TLFamily_MINV      .         Micro Gradient Resistivity    : 
TLFamily_MNOR      .         Micro Resistivity             : 
TLFamily_NNKTB_1   .         Neutron Far                   : 
TLFamily_NNKTM_1   .         Neutron Near                  : 
TLFamily_NPHI      .         Neutron Porosity              : 
TLFamily_OGZ       .         Gradient Inverted 225         : 
TLFamily_PHIE      .         Effective Porosity            : 
TLFamily_PHIED     .         Effective Porosity            : 
TLFamily_PHIEN     .         Effective Porosity            : 
TLFamily_PHIES     .         Effective Porosity            : 
TLFamily_PHIT      .         Porosity                      : 
TLFamily_PRMB      .         Permeability                  : 
TLFamily_PRMB_DGR  .         Permeability                  : 
TLFamily_RHOB      .         Bulk Density                  : 
TLFamily_RT        .         Formation Resistivity         : 
TLFamily_SOIL_ARCHIE .         Oil Saturation                : 
TLFamily_SOIL_DW   .         Oil Saturation                : 
TLFamily_SP        .         Spontaneous Potential         : 
TLFamily_VSH_FIN   .         Shale Volume                  : 
TLFamily_VSH_GR    .         Shale Volume                  : 
TLFamily_VSH_SP    .         Shale Volume                  : 
~Curve Information
#_______________________________________________________________________________
#
#LOGNAME           .UNIT     LOG_ID                        : DESCRIPTION
#_______________________________________________________________________________
DEPT               .м                                      : Колонка глубины 
CALI               .м                                      : Каверномер 
COLL               .unitless                               : Описание 
CSAT               .unitless                               : Описание 
DT                 .мкс/м                                  : Интервальное время пробега продольной волны 
GR                 .uR/h                                   : Гамма каротаж 
GZ3                .Ohmm                                   : Градиент-зонд  длиной 2.25м 
IK1                .Ohmm                                   : И0.10И0.40 
IK2                .Ohmm                                   : И0.14И0.56 
IK3                .Ohmm                                   : И0.20И0.8 
IK4                .Ohmm                                   : И0.28И1.12 
IK5                .Ohmm                                   : И0.40И1.60 
LLS                .Ohmm                                   : Боковой каротаж 
MBK                .Ohmm                                   : Микробоковой каротаж 
MINV               .Ohmm                                   : Микро-градиент зонд 
MNOR               .Ohmm                                   : Микро-потенциал зонд 
NNKTB_1            .у.е.                                   : Показания большого зонда 2ННКт аппаратуры СРК 
NNKTM_1            .у.е.                                   : Показания малого зонда 2ННКт аппаратуры СРК 
NPHI               .v/v                                    : Total porosity 
OGZ                .Ohmm                                   : Обращенный градиент-зонд 
PHIE               .v/v                                    : Описание 
PHIED              .v/v                                    :  
PHIEN              .v/v                                    :  
PHIES              .v/v                                    :  
PHIT               .v/v                                    : Описание 
PRMB               .mD                                     :  
PRMB_DGR           .mD                                     :  
RHOB               .г/см3                                  : Плотность по ГГКп 
RT                 .ohmm                                   : Удельное электрическое сопротивление 
SOIL_ARCHIE        .v/v                                    :  
SOIL_DW            .v/v                                    :  
SP                 .мВ                                     : Потенциал самополяризации 
VSH_FIN            .v/v                                    : Описание 
VSH_GR             .v/v                                    : Shale volume 
VSH_SP             .v/v                                    : Shale Volume 
~Ascii
# ...
1100.4     0.221      1          2          345.5344   8.840384   8.74       14.22      11.85      10.92      9.789999999999999 8.119999999999999 6.47       4.35       4.15       4.78       2.422849   1.554397   0.2341662  8.44       0.1977467  0.2612453  0.1533537  0.2421396  0.2765424  12.87971   4.765117   2.23372    8.12       0.6566409  0.7302286  359.77     0.2448863  0.3429526  0.14682   
1100.6     0.219      8          2          347.0279   8.927219   9.07       13.03      8.69       7.620000000000001 7.27       6.88       5.7        4.26       4.25       4.62       2.442605   1.558952   0.2297402  7.97       0.193809   0.2613264  0.1464283  0.2411897  0.2750419  10.88856   4.37549    2.233585   6.88       0.6223163  0.7035362  360.57     0.2524605  0.3551089  0.1498121 
1100.8     0.22       8          2          348.2789   9.000093   8.94       5.200000000000001 4.700000000000001 4.62       5.070000000000001 5.54       4.66       2.47       4.31       3.97       2.462425   1.563044   0.2256696  7.78       0.1898976  0.262458   0.1398263  0.2399689  0.2735986  9.215583   4.073209   2.231695   5.54       0.5744137  0.6658056  361.73     0.260131   0.3656425  0.1546195 
1101       0.224      8          2          349.1388   9.051352   8.57       6          5.040000000000001 4.75       5.180000000000001 5.29       4.53       2.8        3.51       3.62       2.479531   1.566203   0.2226323  7.95       0.1868365  0.2644955  0.1347922  0.2388807  0.2724845  8.087651   3.873182   2.228292   5.29       0.5588915  0.6548817  362.73     0.2661821  0.3732384  0.1591257 
1101.2     0.222      8          2          349.5153   9.074556   8.45       8.580000000000002 6.43       5.66       6.079999999999999 6.079999999999999 5.2        3.89       4.14       4.34       2.491957   1.56819    0.2212335  8.48       0.1857004  0.2670853  0.1327645  0.2386362  0.2719615  7.705126   3.785892   2.223968   6.08       0.584581   0.6769111  362.84     0.2680877  0.3767288  0.1594465 
1101.4     0.221      8          2          349.382    9.06604    8.74       10.68      6.040000000000001 5.38       6.01       6.65       5.92       4.19       4.33       4.45       2.499288   1.569011   0.2218079  8.82       0.187013   0.269786   0.1344547  0.2395714  0.2721863  8.148789   3.817697   2.219457   6.65       0.6041239  0.6921088  361.72     0.2647067  0.3754441  0.1539693 
1101.6     0.223      8          2          348.7758   9.026307   9.04       9.07       5.63       4.909999999999999 5.719999999999999 6.7        6.18       3.92       5.03       4.95       2.5029     1.568986   0.2242891  8.88       0.1898102  0.2721459  0.1388241  0.2407962  0.2731424  9.18128    3.969655   2.215516   6.7        0.610581   0.6957534  360.46     0.2589848  0.3695077  0.148462  
1101.8     0.221      8          2          347.7934   8.960435   9.3        8.379999999999999 6.23       5.23       6.050000000000001 6.91       6.21       3.85       4.39       5.18       2.505569   1.568549   0.2282053  8.75       0.1933159  0.2738473  0.1448026  0.2418291  0.2746372  10.66196   4.235023   2.212675   6.91       0.6222494  0.7036133  359.76     0.2527354  0.359872   0.1455988 
1102       0.223      1          2          346.5475   8.876902   9.59       9.199999999999999 7.569999999999999 6.569999999999999 6.56       7.55       6.35       4.15       5.52       5.76       2.510429   1.568126   0.2328071  8.58       0.1971764  0.2747293  0.1516103  0.2427424  0.2763468  12.57021   4.597205   2.211202   7.55       0.6438164  0.7197801  359.39     0.2460508  0.3480133  0.1440883 
1102.2     0.222      1          2          345.1649   8.785237   9.79       11.2       9.099999999999998 8.060000000000002 7.03       7.89       6.43       3.87       4.75       5.09       2.519656   1.567958   0.237363   8.42       0.2010093  0.2747722  0.1584391  0.2435795  0.2779636  14.80261   5.030378   2.21113    7.89       0.6569049  0.7289864  359.09     0.2391633  0.3354495  0.1428771 
1102.4     0.223      1          2          343.7324   8.693405   9.86       12.51      9.330000000000002 8.279999999999999 7.049999999999999 7.469999999999999 6.37       4.31       4.36       4.79       2.533669   1.568036   0.241316   8.03       0.2045049  0.2740366  0.1646584  0.2443515  0.2792495  17.18247   5.505276   2.212359   7.47       0.6532302  0.7242008  358.66     0.2322956  0.3233176  0.1412737 
1102.6     0.221      1          2          342.3018   8.606018   9.72       11.08      8.050000000000001 7.36       6.539999999999999 6.6        6.22       3.95       3.51       4.4        2.551206   1.568149   0.2444612  7.48       0.2075403  0.2726306  0.1700171  0.2450634  0.2801266  19.55722   5.998755   2.214707   6.6        0.6371695  0.7089095  357.99     0.2255883  0.3121805  0.138996  
1102.8     0.222      1          2          340.8699   8.524516   9.37       9.23       7.010000000000001 6.6        6.21       6.079999999999999 6          3.85       4.02       4.73       2.56989    1.568018   0.2468672  6.87       0.2097376  0.2707298  0.1741628  0.2453124  0.2806277  21.47869   6.498788   2.217881   6.08       0.6263674  0.6983575  357.87     0.2203164  0.3021395  0.1384933 
1103       0.22       1          2          339.4318   8.448863   9.05       7.460000000000001 6.280000000000001 6.360000000000001 6.32       6.040000000000001 6.07       3.59       4.05       4.82       2.587375   1.567399   0.2487323  6.27       0.2113657  0.2685498  0.1774704  0.245261   0.2808493  23.02305   7.000167   2.221522   6.04       0.6277238  0.6984722  358.01     0.2159454  0.2931083  0.1387824 
1103.2     0.219      1          2          338.0013   8.379933   8.95       7.26       6.34       6.71       6.81       6.27       6.33       3.95       4.35       5.23       2.602079   1.566194   0.2502112  5.74       0.2124799  0.2663665  0.1800651  0.2448947  0.2808755  24.14352   7.49059    2.225168   6.27       0.6358669  0.7047183  358.45     0.2125641  0.285115   0.1400131 
1103.4     0.22       1          2          336.612    8.321469   9.03       6.84       6.52       7.06       7.179999999999999 6.55       6.47       3.86       4.77       5.43       2.613703   1.564454   0.2512372  5.14       0.2130607  0.2644954  0.181877   0.2442444  0.28069    24.74912   7.933385   2.228293   6.55       0.6441034  0.7113163  359.06     0.2101824  0.2785064  0.1418585 
1103.6     0.221      1          2          335.3127   8.280519   9.31       6.96       6.93       7.28       7.179999999999999 6.52       6.42       4.08       4.01       5.03       2.623048   1.562396   0.2514942  4.62       0.2131763  0.2631507  0.182796   0.2435566  0.2801601  24.87143   8.25903    2.230538   6.52       0.6435043  0.7103997  359.26     0.2081761  0.273969   0.1423832 
1103.8     0.222      1          2          334.154    8.265985   9.52       7.010000000000001 6.81       6.93       6.55       6.06       6.18       4.37       4.35       5.35       2.631468   1.560371   0.2504799  4.26       0.2123911  0.2624093  0.1821032  0.2426789  0.2790614  24.05227   8.377795   2.231776   6.06       0.6298643  0.6984568  359.2      0.2072021  0.2723764  0.1420278 
1104       0.222      1          2          333.1649   8.286342   9.65       6.6        5.74       5.61       5.269999999999999 5.41       5.74       4.39       3.99       5          2.640437   1.558812   0.2475931  4.04       0.2101261  0.2620788  0.178895   0.2413572  0.2771098  21.83749   8.211926   2.232328   5.41       0.6059607  0.6781108  359.16     0.2081762  0.2746096  0.1417427 
1104.2     0.223      1          2          332.3575   8.347109   9.78       7.59       5.000000000000001 4.71       4.72       5.03       5.39       4.05       3.9        4.74       2.65087    1.5582     0.2423325  3.97       0.2060606  0.2617933  0.1725903  0.239531   0.2740624  18.36121   7.736061   2.232805   5.03       0.5852638  0.661266   359.07     0.2113401  0.2813856  0.1412946 
1104.4     0.222      1          2          331.7296   8.449592   9.97       5.51       4.22       4.37       4.93       5.419999999999999 5.38       4.04       4.14       4.96       2.66304    1.558974   0.2342935  3.97       0.1997272  0.2611146  0.1625122  0.2369421  0.2697171  14.0149    6.995157   2.233939   5.42       0.5885081  0.6663144  359.28     0.2175191  0.293194   0.1418441 
