~Version
 VERS              .         2.0                           : CWLS LOG ASCII STANDARD - VERSION 2.0
 WRAP              .         NO                            : ONE LINE PER DEPTH STEP
 DLM               .         SPACE                         : DELIMITING CHARACTER(SPACE TAB OR COMMA)
~Well Information
#_______________________________________________________________________________
#
#PARAMETER_NAME    .UNIT     VALUE                         : DESCRIPTION
#_______________________________________________________________________________
STRT               .м        0                             : First reference value
STOP               .м        1215.4                        : Last reference value
STEP               .м        0.2                           : Step increment
NULL               .         -9999                         : Missing value
COMP               .                                       : Company
WELL               .         6943                          : Well name
FLD                .         Узень                         : Field
LOC                .                                       : Location
CNTY               .                                       : County
STAT               .                                       : State
CTRY               .                                       : Country
SRVC               .                                       : Service Company
DATE               .         18.3.2016                     : Date
UWI                .                                       : Unique Well ID
Block              .         7                             : 
Cartographic_reference_system .         GCS_WGS_1984                  : ESRI,PE_10_3_1- <?xml version="1.0" encoding="utf-16"?><ILateBoundCoordinateReferenceSystem name="GCS_WGS_1984"><AuthorityCode>EPSG,4326</AuthorityCode></ILateBoundCoordinateReferenceSystem>
Category           .         Нефтяная                      : 
Condition          .         В работе                      : 
Date               .         15.04.2016                    : 
EREF               .m        82.9                          : 100.8
GRP                .                                       : Group name
Gorizont           .         14                            : 14
HZCS               .GCS_WGS_1984 WGS_1984_EASE-Grid_2.0_Global : ESRI,PE_10_3_1- <?xml version="1.0" encoding="utf-16"?><ILateBoundCoordinateReferenceSystem name="WGS_1984_EASE-Grid_2.0_Global"><AuthorityCode>EPSG,6933</AuthorityCode></ILateBoundCoordinateReferenceSystem>
ISS                .                                       : Well surveys
Interpretator      .         Кушербаева А.С                : 
Kupol              .         основной                      : osnovnoi
LATI               .dega     0.6562396588                  : GCS_WGS_1984
LONG               .dega     0.4442180783                  : GCS_WGS_1984
Mud                .         полимерный                    : 
Mud_density        .         1.34                          : 
Mud_resistivity    .         0.60                          : 
NGDU               .         НГДУ-2                        : 
ORIGINALWELLNAME   .         6943                          : 
Spud_date          .         2016                          : 1961
TIME               .                                       : LOG TIME
Viscosity          .         40                            : 
X                  .m        42860.95                      : 46154
Y                  .m        83716.87                      : 85761.93
YEAR               .         2019г                         : 
~Parameter Information Block
#_______________________________________________________________________________
#
#PARAMETER_NAME    .UNIT     VALUE                         : DESCRIPTION
#_______________________________________________________________________________
SET                .         LQC_KAZNIPI_Petrel            : 
TLFamily_CALI      .         Caliper                       : 
TLFamily_COLL      .         Net Reservoir Flag            : 
TLFamily_CSAT      .         Fluid Code                    : 
TLFamily_DEPT      .         Measured Depth                : 
TLFamily_DT        .         Compressional Slowness        : 
TLFamily_GR        .         Russian Gamma Ray             : 
TLFamily_GZ3       .         Gradient 225                  : 
TLFamily_IK1       .         Resistivity 05                : 
TLFamily_IK2       .         Resistivity 07                : 
TLFamily_IK3       .         Resistivity 10                : 
TLFamily_IK4       .         Resistivity 14                : 
TLFamily_IK5       .         Resistivity 20                : 
TLFamily_LLS       .         Lateral Log Resistivity       : 
TLFamily_MBK       .         Micro Lateral Log Resistivity : 
TLFamily_MINV      .         Micro Gradient Resistivity    : 
TLFamily_MNOR      .         Micro Resistivity             : 
TLFamily_NNKTB_1   .         Neutron Far                   : 
TLFamily_NNKTM_1   .         Neutron Near                  : 
TLFamily_NPHI      .         Neutron Porosity              : 
TLFamily_OGZ       .         Gradient Inverted 225         : 
TLFamily_PHIE      .         Effective Porosity            : 
TLFamily_PHIED     .         Effective Porosity            : 
TLFamily_PHIEN     .         Effective Porosity            : 
TLFamily_PHIES     .         Effective Porosity            : 
TLFamily_PHIT      .         Porosity                      : 
TLFamily_PRMB      .         Permeability                  : 
TLFamily_PRMB_DGR  .         Permeability                  : 
TLFamily_RHOB      .         Bulk Density                  : 
TLFamily_RT        .         Formation Resistivity         : 
TLFamily_SOIL_ARCHIE .         Oil Saturation                : 
TLFamily_SOIL_DW   .         Oil Saturation                : 
TLFamily_SP        .         Spontaneous Potential         : 
TLFamily_VSH_FIN   .         Shale Volume                  : 
TLFamily_VSH_GR    .         Shale Volume                  : 
TLFamily_VSH_SP    .         Shale Volume                  : 
~Curve Information
#_______________________________________________________________________________
#
#LOGNAME           .UNIT     LOG_ID                        : DESCRIPTION
#_______________________________________________________________________________
DEPT               .м                                      : Колонка глубины 
CALI               .м                                      : Каверномер 
COLL               .unitless                               : Описание 
CSAT               .unitless                               : Описание 
DT                 .мкс/м                                  : Интервальное время пробега продольной волны 
GR                 .uR/h                                   : Гамма каротаж 
GZ3                .Ohmm                                   : Градиент-зонд  длиной 2.25м 
IK1                .Ohmm                                   : И0.10И0.40 
IK2                .Ohmm                                   : И0.14И0.56 
IK3                .Ohmm                                   : И0.20И0.8 
IK4                .Ohmm                                   : И0.28И1.12 
IK5                .Ohmm                                   : И0.40И1.60 
LLS                .Ohmm                                   : Боковой каротаж 
MBK                .Ohmm                                   : Микробоковой каротаж 
MINV               .Ohmm                                   : Микро-градиент зонд 
MNOR               .Ohmm                                   : Микро-потенциал зонд 
NNKTB_1            .у.е.                                   : Показания большого зонда 2ННКт аппаратуры СРК 
NNKTM_1            .у.е.                                   : Показания малого зонда 2ННКт аппаратуры СРК 
NPHI               .v/v                                    : Total porosity 
OGZ                .Ohmm                                   : Обращенный градиент-зонд 
PHIE               .v/v                                    : Описание 
PHIED              .v/v                                    :  
PHIEN              .v/v                                    :  
PHIES              .v/v                                    :  
PHIT               .v/v                                    : Описание 
PRMB               .mD                                     :  
PRMB_DGR           .mD                                     :  
RHOB               .г/см3                                  : Плотность по ГГКп 
RT                 .ohmm                                   : Удельное электрическое сопротивление 
SOIL_ARCHIE        .v/v                                    :  
SOIL_DW            .v/v                                    :  
SP                 .мВ                                     : Потенциал самополяризации 
VSH_FIN            .v/v                                    : Описание 
VSH_GR             .v/v                                    : Shale volume 
VSH_SP             .v/v                                    : Shale Volume 
~Ascii
# ...
1184.4     0.216      1          5          298.1867   8.419084   2.24       5.48       2.47       1.94       2.14       2.19       2.82       3.29       4.67       4.57       3.011998   1.692017   0.1843861  1.9        0.1873953  0.2313182  0.1012861  0.1873953  0.2663478  8.282745   6.494916   2.283699   2.19       0.3437566  0.4646732  364.12     0.2518182  0.3022131  0.2014234 
1184.6     0.222      1          5          301.347    8.467016   2.34       4.83       2.35       1.8        2.02       2.12       2.84       3.18       4.77       4.69       2.94993    1.687113   0.1876758  1.74       0.1888507  0.2335474  0.1018728  0.1888507  0.2703712  8.813168   6.191921   2.279976   2.12       0.3381508  0.4623907  365.69     0.260009   0.3081665  0.2118516 
1184.8     0.221      1          5          304.7191   8.547219   2.37       4.98       2.47       1.78       1.95       2.08       2.85       2.88       4.69       4.68       2.878624   1.681297   0.1893281  1.72       0.1891927  0.2362165  0.0994633  0.1891927  0.2745723  8.942647   5.716222   2.275518   2.08       0.3332596  0.4625351  367.58     0.2723175  0.3183914  0.2262436 
1185       0.225      1          5          308.0139   8.65698    2.45       5.21       2.54       1.78       1.93       2.09       2.9        3.64       4.35       4.52       2.80399    1.674784   0.1889721  1.71       0.1889882  0.2390556  0.09466514 0.1889882  0.2785882  8.864984   5.123876   2.270777   2.09       0.3341316  0.4681411  369.14     0.2857787  0.3329365  0.2386209 
1185.2     0.223      1          5          311.0067   8.794387   2.58       5.53       2.59       1.79       1.9        2.08       2.92       3.71       4.79       4.74       2.731012   1.667434   0.1862329  1.67       0.1865722  0.2417508  0.08562119 0.1865722  0.2821622  7.997002   4.468081   2.266276   2.08       0.3251106  0.4680489  371.2      0.304884   0.3520855  0.2576824 
1185.4     0.225      1          5          313.5676   8.956784   2.68       5.790000000000001 2.59       1.78       1.86       2.05       2.81       3.59       4.79       4.84       2.663325   1.658985   0.1809754  1.68       0.1810889  0.2439394  0.07143042 0.1810889  0.2851664  6.329417   3.800372   2.262621   2.05       0.3026085  0.4609911  373.95     0.3319544  0.376142   0.2877669 
1185.6     0.225      1          5          315.6156   9.139477   2.76       4.500000000000001 2.27       1.67       1.78       1.98       2.47       3.25       4.8        4.7        2.602905   1.649216   0.1732718  1.63       0.1708169  0.2453561  0.05042347 0.1708169  0.2875338  4.084145   3.167717   2.260255   1.98       0.2541604  0.4412021  377.81     0.3722677  0.405175   0.3393604 
1185.8     0.229      -9999      -9999      317.1809   9.334397   2.75       3.520000000000001 2.17       1.67       1.77       1.94       2.29       3.36       5.32       4.54       2.550537   1.638136   0.163635   1.62       0.158746   0.1536153  0.02619899 0.158746   0.2893226  2.440732   2.608397   2.259367   1.94       0.1973517  0.4209045  381.32     0.4164729  0.4386265  0.3943193 
1186       0.229      -9999      -9999      318.3508   9.530362   2.74       3.53       2.31       1.82       1.83       1.96       2.15       3.11       5.11       4.56       2.506563   1.62605    0.1529006  1.58       0.1429469  0.1410945  0          0.1429469  0.290648   1.244172   2.145602   2.260068   1.96       0.1248389  0.4014521  385.25     0.4710918  0.4750416  0.467142  
1186.2     0.229      -9999      -9999      319.2429   9.714897   2.69       2.43       1.84       1.67       1.8        1.9        1.94       2.38       5.91       3.67       2.471408   1.613511   0.1420707  1.54       0.1299406  0.1298884  0          0.1299406  0.2916522  0.7144509  1.785138   2.262249   1.9        0.03504355 0.3708864  387.86     0.5157781  0.5120922  0.519464  
1186.4     0.23       -9999      -9999      319.98     9.876878   2.57       2.45       1.92       1.77       1.73       1.81       1.71       1.35       3.29       2.17       2.446023   1.601226   0.1320505  1.5        0.1167842  0.1178925  0          0.1167842  0.2924777  0.4076483  1.518999   2.265781   1.81       0          0.330527   390.35     0.5603731  0.5469885  0.5737577 
1186.6     0.229      -9999      -9999      320.6618   10.0092    2.46       2.48       2.01       1.8        1.73       1.75       1.64       1.74       3.88       2.34       2.431412   1.589869   0.123456   1.46       0.1058842  0.1069233  0          0.1058842  0.2932378  0.2560886  1.331311   2.27034    1.75       0          0.2957631  392.31     0.5975631  0.5772536  0.6178725 
1186.8     0.234      -9999      -9999      321.3463   10.11107   2.31       2.52       1.94       1.66       1.58       1.58       1.63       1.5        2.23       2.7        2.428165   1.579958   0.1164182  1.44       0.09804145 0.09777712 0          0.09804145 0.2939978  0.1832836  1.202779   2.275462   1.58       0          0.2397477  393.71     0.6250014  0.6016883  0.6483145 
1187       0.229      -9999      -9999      322.0284   10.18813   2.14       2.35       1.75       1.55       1.47       1.46       1.64       1.79       3.31       2.98       2.435833   1.571777   0.1106227  1.4        0.09762748 0.0938457  0          0.09762748 0.2947519  0.180076   1.113853   2.280649   1.46       0          0.2092785  393.64     0.628727   0.6208587  0.6365953 
1187.2     0.231      -9999      -9999      322.7097   10.25029   2.01       2          1.56       1.43       1.41       1.4        1.65       1.44       4.56       2.56       2.452705   1.565341   0.1055006  1.39       0.09813615 0.09085982 0          0.09813615 0.2955019  0.1840253  1.046945   2.28535    1.4        0          0.1953048  393.47     0.6294967  0.6367641  0.6222293 
1187.4     0.234      -9999      -9999      323.3575   10.30742   1.95       2.38       1.71       1.5        1.44       1.38       1.63       1.63       2.25       2.82       2.475813   1.560499   0.1004723  1.42       0.09713677 0.08739708 0          0.09713677 0.296212   0.1763465  0.9889992  2.289116   1.38       0          0.1878836  393.66     0.6349492  0.6517421  0.6181564 
1187.6     0.237      -9999      -9999      323.9563   10.36541   1.86       2.22       1.66       1.43       1.39       1.36       1.63       1.82       2.34       3.22       2.50154    1.557029   0.09527326 1.46       0.09364673 0.08291556 0          0.09364673 0.296866   0.1519577  0.9334521  2.291709   1.36       0          0.1727581  394.38     0.6481665  0.6673083  0.6290246 
1187.8     0.244      -9999      -9999      324.5233   10.42405   1.86       2.17       1.6        1.41       1.36       1.35       1.6        1.47       1.91       2.65       2.526165   1.554692   0.09013583 1.49       0.09018915 0.07921055 0          0.09018915 0.2974829  0.1311233  0.8804622  2.293088   1.35       0          0.1601591  395.06     0.661162   0.6834245  0.6388996 
1188       0.247      -9999      -9999      325.0919   10.47742   1.82       2.22       1.65       1.45       1.38       1.36       1.57       1.72       2.29       2.62       2.546619   1.553264   0.08565865 1.54       0.08766005 0.07674975 0          0.08766005 0.2980995  0.1177158  0.8348501  2.293486   1.36       0          0.1563711  395.57     0.6711953  0.6984317  0.6439589 
1188.2     0.244      -9999      -9999      325.6927   10.51685   1.79       1.93       1.58       1.43       1.38       1.37       1.55       1.53       2.08       2.41       2.560662   1.55255    0.08258434 1.61       0.08541926 0.07479325 0          0.08541926 0.2987486  0.1069867  0.8026801  2.293343   1.37       0          0.1534048  396.15     0.6804127  0.7097291  0.6510962 
1188.4     0.249      -9999      -9999      326.3415   10.53532   1.82       2          1.64       1.47       1.41       1.38       1.54       1.31       1.77       2.45       2.567055   1.552336   0.08149207 1.67       0.08335889 0.0729476  0          0.08335889 0.299447   0.09798666 0.788035   2.293169   1.38       0          0.1509836  396.9      0.6892115  0.7150856  0.6633374 
