~Version
 VERS              .         2.0                           : CWLS LOG ASCII STANDARD - VERSION 2.0
 WRAP              .         NO                            : ONE LINE PER DEPTH STEP
 DLM               .         SPACE                         : DELIMITING CHARACTER(SPACE TAB OR COMMA)
~Well Information
#_______________________________________________________________________________
#
#PARAMETER_NAME    .UNIT     VALUE                         : DESCRIPTION
#_______________________________________________________________________________
STRT               .м        0                             : First reference value
STOP               .м        1215.4                        : Last reference value
STEP               .м        0.2                           : Step increment
NULL               .         -9999                         : Missing value
COMP               .                                       : Company
WELL               .         6943                          : Well name
FLD                .         Узень                         : Field
LOC                .                                       : Location
CNTY               .                                       : County
STAT               .                                       : State
CTRY               .                                       : Country
SRVC               .                                       : Service Company
DATE               .         18.3.2016                     : Date
UWI                .                                       : Unique Well ID
Block              .         7                             : 
Cartographic_reference_system .         GCS_WGS_1984                  : ESRI,PE_10_3_1- <?xml version="1.0" encoding="utf-16"?><ILateBoundCoordinateReferenceSystem name="GCS_WGS_1984"><AuthorityCode>EPSG,4326</AuthorityCode></ILateBoundCoordinateReferenceSystem>
Category           .         Нефтяная                      : 
Condition          .         В работе                      : 
Date               .         15.04.2016                    : 
EREF               .m        82.9                          : 100.8
GRP                .                                       : Group name
Gorizont           .         14                            : 14
HZCS               .GCS_WGS_1984 WGS_1984_EASE-Grid_2.0_Global : ESRI,PE_10_3_1- <?xml version="1.0" encoding="utf-16"?><ILateBoundCoordinateReferenceSystem name="WGS_1984_EASE-Grid_2.0_Global"><AuthorityCode>EPSG,6933</AuthorityCode></ILateBoundCoordinateReferenceSystem>
ISS                .                                       : Well surveys
Interpretator      .         Кушербаева А.С                : 
Kupol              .         основной                      : osnovnoi
LATI               .dega     0.6562396588                  : GCS_WGS_1984
LONG               .dega     0.4442180783                  : GCS_WGS_1984
Mud                .         полимерный                    : 
Mud_density        .         1.34                          : 
Mud_resistivity    .         0.60                          : 
NGDU               .         НГДУ-2                        : 
ORIGINALWELLNAME   .         6943                          : 
Spud_date          .         2016                          : 1961
TIME               .                                       : LOG TIME
Viscosity          .         40                            : 
X                  .m        42860.95                      : 46154
Y                  .m        83716.87                      : 85761.93
YEAR               .         2019г                         : 
~Parameter Information Block
#_______________________________________________________________________________
#
#PARAMETER_NAME    .UNIT     VALUE                         : DESCRIPTION
#_______________________________________________________________________________
SET                .         LQC_KAZNIPI_Petrel            : 
TLFamily_CALI      .         Caliper                       : 
TLFamily_COLL      .         Net Reservoir Flag            : 
TLFamily_CSAT      .         Fluid Code                    : 
TLFamily_DEPT      .         Measured Depth                : 
TLFamily_DT        .         Compressional Slowness        : 
TLFamily_GR        .         Russian Gamma Ray             : 
TLFamily_GZ3       .         Gradient 225                  : 
TLFamily_IK1       .         Resistivity 05                : 
TLFamily_IK2       .         Resistivity 07                : 
TLFamily_IK3       .         Resistivity 10                : 
TLFamily_IK4       .         Resistivity 14                : 
TLFamily_IK5       .         Resistivity 20                : 
TLFamily_LLS       .         Lateral Log Resistivity       : 
TLFamily_MBK       .         Micro Lateral Log Resistivity : 
TLFamily_MINV      .         Micro Gradient Resistivity    : 
TLFamily_MNOR      .         Micro Resistivity             : 
TLFamily_NNKTB_1   .         Neutron Far                   : 
TLFamily_NNKTM_1   .         Neutron Near                  : 
TLFamily_NPHI      .         Neutron Porosity              : 
TLFamily_OGZ       .         Gradient Inverted 225         : 
TLFamily_PHIE      .         Effective Porosity            : 
TLFamily_PHIED     .         Effective Porosity            : 
TLFamily_PHIEN     .         Effective Porosity            : 
TLFamily_PHIES     .         Effective Porosity            : 
TLFamily_PHIT      .         Porosity                      : 
TLFamily_PRMB      .         Permeability                  : 
TLFamily_PRMB_DGR  .         Permeability                  : 
TLFamily_RHOB      .         Bulk Density                  : 
TLFamily_RT        .         Formation Resistivity         : 
TLFamily_SOIL_ARCHIE .         Oil Saturation                : 
TLFamily_SOIL_DW   .         Oil Saturation                : 
TLFamily_SP        .         Spontaneous Potential         : 
TLFamily_VSH_FIN   .         Shale Volume                  : 
TLFamily_VSH_GR    .         Shale Volume                  : 
TLFamily_VSH_SP    .         Shale Volume                  : 
~Curve Information
#_______________________________________________________________________________
#
#LOGNAME           .UNIT     LOG_ID                        : DESCRIPTION
#_______________________________________________________________________________
DEPT               .м                                      : Колонка глубины 
CALI               .м                                      : Каверномер 
COLL               .unitless                               : Описание 
CSAT               .unitless                               : Описание 
DT                 .мкс/м                                  : Интервальное время пробега продольной волны 
GR                 .uR/h                                   : Гамма каротаж 
GZ3                .Ohmm                                   : Градиент-зонд  длиной 2.25м 
IK1                .Ohmm                                   : И0.10И0.40 
IK2                .Ohmm                                   : И0.14И0.56 
IK3                .Ohmm                                   : И0.20И0.8 
IK4                .Ohmm                                   : И0.28И1.12 
IK5                .Ohmm                                   : И0.40И1.60 
LLS                .Ohmm                                   : Боковой каротаж 
MBK                .Ohmm                                   : Микробоковой каротаж 
MINV               .Ohmm                                   : Микро-градиент зонд 
MNOR               .Ohmm                                   : Микро-потенциал зонд 
NNKTB_1            .у.е.                                   : Показания большого зонда 2ННКт аппаратуры СРК 
NNKTM_1            .у.е.                                   : Показания малого зонда 2ННКт аппаратуры СРК 
NPHI               .v/v                                    : Total porosity 
OGZ                .Ohmm                                   : Обращенный градиент-зонд 
PHIE               .v/v                                    : Описание 
PHIED              .v/v                                    :  
PHIEN              .v/v                                    :  
PHIES              .v/v                                    :  
PHIT               .v/v                                    : Описание 
PRMB               .mD                                     :  
PRMB_DGR           .mD                                     :  
RHOB               .г/см3                                  : Плотность по ГГКп 
RT                 .ohmm                                   : Удельное электрическое сопротивление 
SOIL_ARCHIE        .v/v                                    :  
SOIL_DW            .v/v                                    :  
SP                 .мВ                                     : Потенциал самополяризации 
VSH_FIN            .v/v                                    : Описание 
VSH_GR             .v/v                                    : Shale volume 
VSH_SP             .v/v                                    : Shale Volume 
~Ascii
# ...
928.2000000000001 0.227      -9999      -9999      325.1269   5.907121   3.32       4.249999999999999 3.31       3.05       2.96       2.91       2.94       2.83       5.28       3.89       3.295242   1.783086   -9999      2.92       0.07182246 0.0007049129 -9999      0.14294    0.1494211  0.05990793 3.003008   2.485672   2.91       0          0.02330371 402.72     0.4950009  0.4141063  0.5758954 
928.4      0.234      -9999      -9999      324.023    5.873675   3.23       3.11       2.73       2.53       2.69       2.71       2.73       1.68       3.15       2.51       3.320978   1.783853   -9999      2.77       0.07065823 -0.00211726 -9999      0.1434337  0.1474107  0.05700591 3.177155   2.492383   2.71       0          0          402.55     0.4896029  0.4046831  0.5745226 
928.6      0.229      -9999      -9999      323.3651   5.840875   3.07       4.62       3.89       3.299999999999999 3.25       2.95       2.79       2.68       6.33       4.64       3.335062   1.782441   -9999      2.69       0.07062183 -0.003143595 -9999      0.1443872  0.1465384  0.05691747 3.35775    2.49607    2.95       0          0.01185268 402.37     0.4842706  0.3956499  0.5728914 
928.8      0.227      -9999      -9999      323.5693   5.826865   3.08       4.19       3.61       3.359999999999999 3.25       3.17       2.92       2.2        4.46       3.17       3.331331   1.77779    -9999      2.7        0.07160424 -0.002375566 -9999      0.1455841  0.147034   0.05935296 3.43798    2.495936   3.17       0          0.05374762 402.16     0.4811656  0.3918534  0.5704778 
929        0.227      -9999      -9999      324.8922   5.847987   3.2        4.909999999999999 3.8        3.46       3.14       3.07       2.77       2.13       4.14       3.16       3.306263   1.769276   -9999      2.72       0.07349156 -0.0000480 -9999      0.1470311  0.1489176  0.06432799 3.317738   2.492058   3.07       0          0.05543582 401.82     0.481142   0.3975914  0.5646926 
929.2000000000001 0.228      -9999      -9999      327.3443   5.913301   3.29       3.01       2.8        2.75       2.75       2.79       2.62       2.2        6.7        2.36       3.26024    1.757007   -9999      2.71       0.07535045 0.002757343 -9999      0.1479436  0.1516391  0.06963557 2.971892   2.485337   2.79       0          0.0295138  401.42     0.4866445  0.4158714  0.5574176 
929.4      0.237      -9999      -9999      330.6556   6.021055   3.39       3.08       2.74       2.5        2.52       2.56       2.42       1.73       3.69       2.33       3.197686   1.741997   -9999      2.74       0.07683859 0.00537213 -9999      0.148305   0.1546964  0.07419851 2.478327   2.477267   2.56       0          0.006724295 400.83     0.496654   0.4478846  0.5454234 
929.6      0.234      -9999      -9999      334.338    6.157815   3.42       3.290000000000001 3.05       2.8        2.64       2.5        2.35       2.61       4.85       3.45       3.12653    1.726018   -9999      2.76       0.07551999 0.005491525 -9999      0.1455485  0.1566614  0.07014094 1.968121   2.469317   2.5        0          0          400.62     0.5175999  0.4920882  0.5431115 
929.8      0.229      -9999      -9999      337.7925   6.301939   3.3        2.52       2.35       2.32       2.36       2.41       2.27       1.52       2.63       2.24       3.056694   1.711265   -9999      2.72       0.07261651 0.003985715 -9999      0.1412473  0.1576581  0.0619715  1.543671   2.462626   2.41       0          0          400.44     0.5424795  0.5434017  0.5415572 
930        0.235      -9999      -9999      340.4421   6.42872    3.21       3.23       2.66       2.55       2.4        2.25       2.14       2          3.1        2.94       2.998414   1.699948   -9999      2.74       0.06891965 0.001480028 -9999      0.1363593  0.1577232  0.05293186 1.246671   2.457932   2.25       0          0          400.26     0.5664766  0.5929465  0.5400067 
930.2000000000001 0.225      -9999      -9999      341.774    6.516208   3.04       2.14       2.06       1.92       1.91       1.93       2.07       1.52       2.34       2.26       2.960345   1.69394    -9999      2.81       0.06577355 -0.0008292719 -9999      0.1323764  0.1572233  0.04628536 1.075751   2.455543   1.93       0          0          400.02     0.583357   0.6297457  0.5369682 
930.4      0.225      -9999      -9999      341.4406   6.550367   2.89       1.72       1.63       1.55       1.57       1.64       1.99       1.26       1.75       1.82       2.948295   1.694371   -9999      2.92       0.06457555 -0.001679869 -9999      0.130831   0.1566346  0.04397987 1.015565   2.455525   1.64       0          0          399.61     0.5872432  0.6447259  0.5297605 
930.6      0.23       -9999      -9999      339.4392   6.528157   2.8        1.6        1.59       1.56       1.63       1.71       2.06       1.37       1.93       1.71       2.964093   1.701277   -9999      3.07       0.06485682 -0.001372574 -9999      0.1310862  0.1558005  0.04451063 1.054302   2.457645   1.71       0          0          399.31     0.5801284  0.6349459  0.5253109 
930.8      0.227      -9999      -9999      336.182    6.458122   2.73       2.63       2.2        2.1        2.08       2.09       2.32       2.44       4          2.71       3.005057   1.713556   -9999      3.25       0.06555327 -0.0008318192 -9999      0.1319384  0.1544382  0.04585257 1.186397   2.461601   2.09       0          0          399.34     0.5669956  0.605067   0.5289242 
931        0.231      -9999      -9999      332.3226   6.357049   2.77       3.390000000000001 2.8        2.58       2.53       2.45       2.6        2.45       3.32       2.88       3.064698   1.729375   -9999      3.4        0.0667216  -0.0001152411 -9999      0.1335585  0.1528205  0.04819522 1.406742   2.46698    2.45       0          0          399.43     0.5492235  0.5644081  0.534039  
931.2000000000001 0.229      -9999      -9999      328.5205   6.244402   2.81       3.16       2.65       2.46       2.47       2.5        2.68       1.75       4.14       3.42       3.134737   1.746691   -9999      3.45       0.0675515  -0.0000285 -9999      0.1351315  0.1508718  0.04993163 1.700868   2.473393   2.5        0          0          399.58     0.531499   0.5223042  0.5406938 
931.4      0.232      -9999      -9999      325.2842   6.137134   2.83       3.74       2.96       2.59       2.53       2.51       2.71       2.33       3.83       3.08       3.207222   1.763738   -9999      3.46       0.06887744 0.0000963  -9999      0.1376585  0.149202   0.05283665 2.037934   2.480255   2.51       0          0          399.42     0.5123891  0.4851338  0.5396444 
931.6      0.226      -9999      -9999      322.8683   6.046108   2.86       3.27       3.1        2.86       2.74       2.67       2.79       1.67       3.76       2.7        3.276243   1.77924    -9999      3.45       0.06977643 -0.0004126635 -9999      0.1399655  0.1476317  0.05490183 2.375855   2.486933   2.67       0          0          399.22     0.4966376  0.4556741  0.5376011 
931.8      0.229      -9999      -9999      321.2174   5.975243   2.88       5.680000000000001 4.22       3.520000000000001 3.02       2.74       2.86       2.86       6.98       4.4        3.338318   1.792534   -9999      3.41       0.06981759 -0.001722621 -9999      0.1413578  0.1460661  0.05499829 2.67727    2.492913   2.74       0          0          399.15     0.4863886  0.4339835  0.5387936 
932        0.228      -9999      -9999      320.0656   5.922555   2.87       2.83       2.48       2.37       2.4        2.47       2.86       1.75       2.9        2.24       3.392278   1.803426   -9999      3.28       0.06989032 -0.002804448 -9999      0.1425851  0.1448844  0.05516915 2.925897   2.49768    2.47       0          0          399.01     0.4783865  0.4185284  0.5382445 
932.2000000000001 0.235      -9999      -9999      319.1229   5.883239   2.86       2.36       2.34       2.33       2.41       2.39       2.75       1.62       2.73       2.23       3.438146   1.811938   -9999      3.2        0.06975845 -0.003654868 -9999      0.1431718  0.1439313  0.05485975 3.126353   2.501039   2.39       0          0          398.92     0.4731476  0.4073556  0.5389395 
