~Version
 VERS              .         2.0                           : CWLS LOG ASCII STANDARD - VERSION 2.0
 WRAP              .         NO                            : ONE LINE PER DEPTH STEP
 DLM               .         SPACE                         : DELIMITING CHARACTER(SPACE TAB OR COMMA)
~Well Information
#_______________________________________________________________________________
#
#PARAMETER_NAME    .UNIT     VALUE                         : DESCRIPTION
#_______________________________________________________________________________
STRT               .м        0                             : First reference value
STOP               .м        1215.4                        : Last reference value
STEP               .м        0.2                           : Step increment
NULL               .         -9999                         : Missing value
COMP               .                                       : Company
WELL               .         6943                          : Well name
FLD                .         Узень                         : Field
LOC                .                                       : Location
CNTY               .                                       : County
STAT               .                                       : State
CTRY               .                                       : Country
SRVC               .                                       : Service Company
DATE               .         18.3.2016                     : Date
UWI                .                                       : Unique Well ID
Block              .         7                             : 
Cartographic_reference_system .         GCS_WGS_1984                  : ESRI,PE_10_3_1- <?xml version="1.0" encoding="utf-16"?><ILateBoundCoordinateReferenceSystem name="GCS_WGS_1984"><AuthorityCode>EPSG,4326</AuthorityCode></ILateBoundCoordinateReferenceSystem>
Category           .         Нефтяная                      : 
Condition          .         В работе                      : 
Date               .         15.04.2016                    : 
EREF               .m        82.9                          : 100.8
GRP                .                                       : Group name
Gorizont           .         14                            : 14
HZCS               .GCS_WGS_1984 WGS_1984_EASE-Grid_2.0_Global : ESRI,PE_10_3_1- <?xml version="1.0" encoding="utf-16"?><ILateBoundCoordinateReferenceSystem name="WGS_1984_EASE-Grid_2.0_Global"><AuthorityCode>EPSG,6933</AuthorityCode></ILateBoundCoordinateReferenceSystem>
ISS                .                                       : Well surveys
Interpretator      .         Кушербаева А.С                : 
Kupol              .         основной                      : osnovnoi
LATI               .dega     0.6562396588                  : GCS_WGS_1984
LONG               .dega     0.4442180783                  : GCS_WGS_1984
Mud                .         полимерный                    : 
Mud_density        .         1.34                          : 
Mud_resistivity    .         0.60                          : 
NGDU               .         НГДУ-2                        : 
ORIGINALWELLNAME   .         6943                          : 
Spud_date          .         2016                          : 1961
TIME               .                                       : LOG TIME
Viscosity          .         40                            : 
X                  .m        42860.95                      : 46154
Y                  .m        83716.87                      : 85761.93
YEAR               .         2019г                         : 
~Parameter Information Block
#_______________________________________________________________________________
#
#PARAMETER_NAME    .UNIT     VALUE                         : DESCRIPTION
#_______________________________________________________________________________
SET                .         LQC_KAZNIPI_Petrel            : 
TLFamily_CALI      .         Caliper                       : 
TLFamily_COLL      .         Net Reservoir Flag            : 
TLFamily_CSAT      .         Fluid Code                    : 
TLFamily_DEPT      .         Measured Depth                : 
TLFamily_DT        .         Compressional Slowness        : 
TLFamily_GR        .         Russian Gamma Ray             : 
TLFamily_GZ3       .         Gradient 225                  : 
TLFamily_IK1       .         Resistivity 05                : 
TLFamily_IK2       .         Resistivity 07                : 
TLFamily_IK3       .         Resistivity 10                : 
TLFamily_IK4       .         Resistivity 14                : 
TLFamily_IK5       .         Resistivity 20                : 
TLFamily_LLS       .         Lateral Log Resistivity       : 
TLFamily_MBK       .         Micro Lateral Log Resistivity : 
TLFamily_MINV      .         Micro Gradient Resistivity    : 
TLFamily_MNOR      .         Micro Resistivity             : 
TLFamily_NNKTB_1   .         Neutron Far                   : 
TLFamily_NNKTM_1   .         Neutron Near                  : 
TLFamily_NPHI      .         Neutron Porosity              : 
TLFamily_OGZ       .         Gradient Inverted 225         : 
TLFamily_PHIE      .         Effective Porosity            : 
TLFamily_PHIED     .         Effective Porosity            : 
TLFamily_PHIEN     .         Effective Porosity            : 
TLFamily_PHIES     .         Effective Porosity            : 
TLFamily_PHIT      .         Porosity                      : 
TLFamily_PRMB      .         Permeability                  : 
TLFamily_PRMB_DGR  .         Permeability                  : 
TLFamily_RHOB      .         Bulk Density                  : 
TLFamily_RT        .         Formation Resistivity         : 
TLFamily_SOIL_ARCHIE .         Oil Saturation                : 
TLFamily_SOIL_DW   .         Oil Saturation                : 
TLFamily_SP        .         Spontaneous Potential         : 
TLFamily_VSH_FIN   .         Shale Volume                  : 
TLFamily_VSH_GR    .         Shale Volume                  : 
TLFamily_VSH_SP    .         Shale Volume                  : 
~Curve Information
#_______________________________________________________________________________
#
#LOGNAME           .UNIT     LOG_ID                        : DESCRIPTION
#_______________________________________________________________________________
DEPT               .м                                      : Колонка глубины 
CALI               .м                                      : Каверномер 
COLL               .unitless                               : Описание 
CSAT               .unitless                               : Описание 
DT                 .мкс/м                                  : Интервальное время пробега продольной волны 
GR                 .uR/h                                   : Гамма каротаж 
GZ3                .Ohmm                                   : Градиент-зонд  длиной 2.25м 
IK1                .Ohmm                                   : И0.10И0.40 
IK2                .Ohmm                                   : И0.14И0.56 
IK3                .Ohmm                                   : И0.20И0.8 
IK4                .Ohmm                                   : И0.28И1.12 
IK5                .Ohmm                                   : И0.40И1.60 
LLS                .Ohmm                                   : Боковой каротаж 
MBK                .Ohmm                                   : Микробоковой каротаж 
MINV               .Ohmm                                   : Микро-градиент зонд 
MNOR               .Ohmm                                   : Микро-потенциал зонд 
NNKTB_1            .у.е.                                   : Показания большого зонда 2ННКт аппаратуры СРК 
NNKTM_1            .у.е.                                   : Показания малого зонда 2ННКт аппаратуры СРК 
NPHI               .v/v                                    : Total porosity 
OGZ                .Ohmm                                   : Обращенный градиент-зонд 
PHIE               .v/v                                    : Описание 
PHIED              .v/v                                    :  
PHIEN              .v/v                                    :  
PHIES              .v/v                                    :  
PHIT               .v/v                                    : Описание 
PRMB               .mD                                     :  
PRMB_DGR           .mD                                     :  
RHOB               .г/см3                                  : Плотность по ГГКп 
RT                 .ohmm                                   : Удельное электрическое сопротивление 
SOIL_ARCHIE        .v/v                                    :  
SOIL_DW            .v/v                                    :  
SP                 .мВ                                     : Потенциал самополяризации 
VSH_FIN            .v/v                                    : Описание 
VSH_GR             .v/v                                    : Shale volume 
VSH_SP             .v/v                                    : Shale Volume 
~Ascii
# ...
1205.4     0.221      -9999      -9999      327.3815   10.3967    1.6        1.9        1.64       1.52       1.48       1.45       1.57       1.44       3.22       1.93       2.402311   1.568332   0.09756572 1.61       0.1259468  0.1012955  0          0.1259468  0.3005606  0.6025571  0.9047896  2.294773   1.45       0          0.284984   390.45     0.5569295  0.6758607  0.4379983 
1205.6     0.228      -9999      -9999      327.5312   10.38147   1.61       1.94       1.66       1.52       1.47       1.44       1.56       1.5        3.21       1.74       2.405015   1.569796   0.09818656 1.61       0.1271162  0.1041302  0          0.1271162  0.3007202  0.6333707  0.9186288  2.29123    1.44       0          0.2852042  390.34     0.5537091  0.6716844  0.4357338 
1205.8     0.228      -9999      -9999      327.7811   10.36978   1.65       1.92       1.65       1.5        1.45       1.42       1.55       1.48       3.09       1.87       2.419955   1.570761   0.09749211 1.6        0.1280432  0.1069896  0          0.1280432  0.3009866  0.6589141  0.929399   2.287235   1.42       0          0.2825317  390.29     0.5516018  0.6684951  0.4347085 
1206       0.225      -9999      -9999      328.1761   10.36442   1.65       1.88       1.57       1.44       1.42       1.41       1.53       1.49       3.26       1.98       2.444578   1.571345   0.09549393 1.58       0.128788   0.1095021  0          0.128788   0.3014067  0.6801809  0.9343799  2.283422   1.41       0          0.2821755  390.26     0.550566   0.6670377  0.4340943 
1206.2     0.225      -9999      -9999      328.7357   10.36531   1.68       1.87       1.57       1.45       1.43       1.4        1.51       1.46       3.13       2.06       2.474723   1.571741   0.09259806 1.59       0.1299501  0.1118251  0          0.1299501  0.3020001  0.7147406  0.9335428  2.280214   1.4        0          0.282913   390.07     0.5487525  0.6672819  0.4302232 
1206.4     0.223      -9999      -9999      329.4497   10.36954   1.68       1.83       1.54       1.43       1.41       1.39       1.48       1.35       2.48       1.66       2.505208   1.572169   0.08960237 1.6        0.1320345  0.1142679  0          0.1320345  0.3027543  0.781191   0.9296199  2.277704   1.39       0          0.285728   389.59     0.5445095  0.6684302  0.4205889 
1206.6     0.223      -9999      -9999      330.2733   10.37197   1.68       1.78       1.51       1.4        1.38       1.38       1.47       1.27       2.59       1.99       2.53122    1.572826   0.08751737 1.6        0.1349413  0.1169573  0          0.1349413  0.3036202  0.8842965  0.9273722  2.275621   1.38       0          0.2902548  388.89     0.5380002  0.6690913  0.406909  
1206.8     0.222      -9999      -9999      331.1391   10.36634   1.68       1.8        1.53       1.42       1.39       1.37       1.48       1.26       2.44       1.97       2.549379   1.573808   0.08734153 1.62       0.1386583  0.1201664  0          0.1386583  0.3045258  1.036206   0.9325929  2.27358    1.37       0          0.2962513  388.02     0.5290334  0.6675593  0.3905074 
1207       0.223      -9999      -9999      331.9633   10.34713   1.64       1.75       1.54       1.44       1.41       1.38       1.49       1.39       2.38       2          2.558739   1.575157   0.08972504 1.63       0.1409932  0.1226487  0          0.1409932  0.3053836  1.144708   0.9506142  2.271178   1.38       0          0.3044518  387.79     0.524322   0.6623625  0.3862816 
1207.2     0.223      -9999      -9999      332.6622   10.31054   1.64       1.76       1.52       1.42       1.38       1.38       1.5        1.35       2.42       1.98       2.560872   1.576891   0.09478574 -9999      0.1432807  0.1254958  0          0.1432807  0.3061076  1.262012   0.9859209  2.268268   1.38       0          0.309715   387.78     0.5193355  0.6525723  0.3860987 
1207.4     0.222      -9999      -9999      333.1577   10.25613   1.62       1.69       1.51       1.41       1.36       1.37       1.51       1.33       2.39       1.97       2.559204   1.579067   0.1020417  -9999      0.1466029  0.1294692  0          0.1466029  0.3066191  1.45412    1.04087    2.264949   1.37       0          0.3139553  387.58     0.5103706  0.638279   0.3824622 
1207.6     0.222      -9999      -9999      333.3881   10.18709   1.61       1.76       1.55       1.43       1.4        1.38       1.52       1.38       2.36       2.05       2.557615   1.581805   0.1105401  -9999      0.1513179  0.1346373  0          0.1513179  0.3068563  1.778001   1.115009   2.261603   1.38       0.01810096 0.3250423  386.97     0.4960889  0.6205958  0.371582  
1207.8     0.222      -9999      -9999      333.3212   10.10988   1.61       1.79       1.56       1.46       1.41       1.38       1.55       1.38       2.33       2.06       2.559139   1.585249   0.1191258  -9999      0.1547253  0.1388769  0          0.1547253  0.3067875  2.056107   1.204204   2.258625   1.38       0.03696121 0.3307441  386.8      0.4850015  0.6013975  0.3686055 
1208       0.222      -9999      -9999      332.9576   10.03234   1.59       1.82       1.6        1.47       1.44       1.41       1.57       1.41       2.54       2.11       2.565275   1.589488   0.1267474  -9999      0.1571973  0.1422052  0          0.1571973  0.3064127  2.284721   1.300967   2.256426   1.41       0.05970216 0.3414787  386.83     0.4759215  0.582714   0.3691289 
1208.2     0.222      -9999      -9999      332.3323   9.96178    1.59       1.87       1.63       1.49       1.47       1.42       1.58       1.45       2.42       2.17       2.575961   1.594453   0.1326905  -9999      0.1592187  0.1448261  0          0.1592187  0.3057663  2.490437   1.395748   2.255198   1.42       0.07318702 0.346224   386.8      0.4674124  0.5662192  0.3686055 
1208.4     0.223      -9999      -9999      331.5087   9.903592   1.57       1.94       1.65       1.51       1.48       1.44       1.59       1.47       2.57       2.19       2.590117   1.59996    0.1366088  -9999      0.1620839  0.1476189  0          0.1620839  0.304911   2.814134   1.479087   2.254924   1.44       0.0934419  0.354201   386.19     0.4555463  0.552968   0.3581246 
1208.6     0.224      -9999      -9999      330.5596   9.860138   1.56       2.03       1.7        1.55       1.49       1.46       1.6        1.48       2.44       2.33       2.606272   1.605708   0.1385622  -9999      0.1648221  0.1499957  0          0.1648221  0.3039202  3.16274    1.544555   2.255356   1.46       0.1123376  0.3615942  385.34     0.4436525  0.5432746  0.3440303 
1208.8     0.222      -9999      -9999      329.5523   9.831143   1.57       1.96       1.65       1.51       1.49       1.46       1.6        1.47       2.47       2.38       2.623132   1.611342   0.1388385  -9999      0.1694903  0.1536388  0          0.1694903  0.3028624  3.859488   1.589842   2.256029   1.46       0.1336693  0.3672771  383.39     0.4253895  0.5369015  0.3138774 
1209       0.222      -9999      -9999      328.5439   9.814275   1.55       1.99       1.65       1.54       1.51       1.48       1.62       1.53       2.67       2.29       2.639976   1.616558   0.1378459  -9999      0.1747977  0.1579409  0.004175063 0.1747977  0.3017969  4.839887   1.616797   2.256365   1.48       0.161992   0.3779194  380.69     0.4050632  0.5332282  0.2768981 
1209.2     0.222      -9999      -9999      327.5622   9.793729   1.54       2.13       1.74       1.6        1.55       1.51       1.65       1.62       2.61       2.52       2.656427   1.621128   0.136183   -9999      0.180195   0.1628264  0.009291366 0.180195   0.3007534  6.09266    1.650247   2.255807   1.51       0.1915454  0.3903318  377.54     0.3845201  0.5287881  0.2402521 
1209.4     0.222      -9999      -9999      326.6042   -9999      1.57       2.03       1.71       1.58       1.55       1.53       1.69       1.72       2.66       2.69       2.672452   1.624964   0.1342611  -9999      -9999      0.2491244  -9999      1          0.2997289  -9999      -9999      2.253962   1.53       -9999      0.5100152  377.85     -9999      -9999      0.2435653 
