~Version
 VERS              .         2.0                           : CWLS LOG ASCII STANDARD - VERSION 2.0
 WRAP              .         NO                            : ONE LINE PER DEPTH STEP
 DLM               .         SPACE                         : DELIMITING CHARACTER(SPACE TAB OR COMMA)
~Well Information
#_______________________________________________________________________________
#
#PARAMETER_NAME    .UNIT     VALUE                         : DESCRIPTION
#_______________________________________________________________________________
STRT               .м        0                             : First reference value
STOP               .м        1215.4                        : Last reference value
STEP               .м        0.2                           : Step increment
NULL               .         -9999                         : Missing value
COMP               .                                       : Company
WELL               .         6943                          : Well name
FLD                .         Узень                         : Field
LOC                .                                       : Location
CNTY               .                                       : County
STAT               .                                       : State
CTRY               .                                       : Country
SRVC               .                                       : Service Company
DATE               .         18.3.2016                     : Date
UWI                .                                       : Unique Well ID
Block              .         7                             : 
Cartographic_reference_system .         GCS_WGS_1984                  : ESRI,PE_10_3_1- <?xml version="1.0" encoding="utf-16"?><ILateBoundCoordinateReferenceSystem name="GCS_WGS_1984"><AuthorityCode>EPSG,4326</AuthorityCode></ILateBoundCoordinateReferenceSystem>
Category           .         Нефтяная                      : 
Condition          .         В работе                      : 
Date               .         15.04.2016                    : 
EREF               .m        82.9                          : 100.8
GRP                .                                       : Group name
Gorizont           .         14                            : 14
HZCS               .GCS_WGS_1984 WGS_1984_EASE-Grid_2.0_Global : ESRI,PE_10_3_1- <?xml version="1.0" encoding="utf-16"?><ILateBoundCoordinateReferenceSystem name="WGS_1984_EASE-Grid_2.0_Global"><AuthorityCode>EPSG,6933</AuthorityCode></ILateBoundCoordinateReferenceSystem>
ISS                .                                       : Well surveys
Interpretator      .         Кушербаева А.С                : 
Kupol              .         основной                      : osnovnoi
LATI               .dega     0.6562396588                  : GCS_WGS_1984
LONG               .dega     0.4442180783                  : GCS_WGS_1984
Mud                .         полимерный                    : 
Mud_density        .         1.34                          : 
Mud_resistivity    .         0.60                          : 
NGDU               .         НГДУ-2                        : 
ORIGINALWELLNAME   .         6943                          : 
Spud_date          .         2016                          : 1961
TIME               .                                       : LOG TIME
Viscosity          .         40                            : 
X                  .m        42860.95                      : 46154
Y                  .m        83716.87                      : 85761.93
YEAR               .         2019г                         : 
~Parameter Information Block
#_______________________________________________________________________________
#
#PARAMETER_NAME    .UNIT     VALUE                         : DESCRIPTION
#_______________________________________________________________________________
SET                .         LQC_KAZNIPI_Petrel            : 
TLFamily_CALI      .         Caliper                       : 
TLFamily_COLL      .         Net Reservoir Flag            : 
TLFamily_CSAT      .         Fluid Code                    : 
TLFamily_DEPT      .         Measured Depth                : 
TLFamily_DT        .         Compressional Slowness        : 
TLFamily_GR        .         Russian Gamma Ray             : 
TLFamily_GZ3       .         Gradient 225                  : 
TLFamily_IK1       .         Resistivity 05                : 
TLFamily_IK2       .         Resistivity 07                : 
TLFamily_IK3       .         Resistivity 10                : 
TLFamily_IK4       .         Resistivity 14                : 
TLFamily_IK5       .         Resistivity 20                : 
TLFamily_LLS       .         Lateral Log Resistivity       : 
TLFamily_MBK       .         Micro Lateral Log Resistivity : 
TLFamily_MINV      .         Micro Gradient Resistivity    : 
TLFamily_MNOR      .         Micro Resistivity             : 
TLFamily_NNKTB_1   .         Neutron Far                   : 
TLFamily_NNKTM_1   .         Neutron Near                  : 
TLFamily_NPHI      .         Neutron Porosity              : 
TLFamily_OGZ       .         Gradient Inverted 225         : 
TLFamily_PHIE      .         Effective Porosity            : 
TLFamily_PHIED     .         Effective Porosity            : 
TLFamily_PHIEN     .         Effective Porosity            : 
TLFamily_PHIES     .         Effective Porosity            : 
TLFamily_PHIT      .         Porosity                      : 
TLFamily_PRMB      .         Permeability                  : 
TLFamily_PRMB_DGR  .         Permeability                  : 
TLFamily_RHOB      .         Bulk Density                  : 
TLFamily_RT        .         Formation Resistivity         : 
TLFamily_SOIL_ARCHIE .         Oil Saturation                : 
TLFamily_SOIL_DW   .         Oil Saturation                : 
TLFamily_SP        .         Spontaneous Potential         : 
TLFamily_VSH_FIN   .         Shale Volume                  : 
TLFamily_VSH_GR    .         Shale Volume                  : 
TLFamily_VSH_SP    .         Shale Volume                  : 
~Curve Information
#_______________________________________________________________________________
#
#LOGNAME           .UNIT     LOG_ID                        : DESCRIPTION
#_______________________________________________________________________________
DEPT               .м                                      : Колонка глубины 
CALI               .м                                      : Каверномер 
COLL               .unitless                               : Описание 
CSAT               .unitless                               : Описание 
DT                 .мкс/м                                  : Интервальное время пробега продольной волны 
GR                 .uR/h                                   : Гамма каротаж 
GZ3                .Ohmm                                   : Градиент-зонд  длиной 2.25м 
IK1                .Ohmm                                   : И0.10И0.40 
IK2                .Ohmm                                   : И0.14И0.56 
IK3                .Ohmm                                   : И0.20И0.8 
IK4                .Ohmm                                   : И0.28И1.12 
IK5                .Ohmm                                   : И0.40И1.60 
LLS                .Ohmm                                   : Боковой каротаж 
MBK                .Ohmm                                   : Микробоковой каротаж 
MINV               .Ohmm                                   : Микро-градиент зонд 
MNOR               .Ohmm                                   : Микро-потенциал зонд 
NNKTB_1            .у.е.                                   : Показания большого зонда 2ННКт аппаратуры СРК 
NNKTM_1            .у.е.                                   : Показания малого зонда 2ННКт аппаратуры СРК 
NPHI               .v/v                                    : Total porosity 
OGZ                .Ohmm                                   : Обращенный градиент-зонд 
PHIE               .v/v                                    : Описание 
PHIED              .v/v                                    :  
PHIEN              .v/v                                    :  
PHIES              .v/v                                    :  
PHIT               .v/v                                    : Описание 
PRMB               .mD                                     :  
PRMB_DGR           .mD                                     :  
RHOB               .г/см3                                  : Плотность по ГГКп 
RT                 .ohmm                                   : Удельное электрическое сопротивление 
SOIL_ARCHIE        .v/v                                    :  
SOIL_DW            .v/v                                    :  
SP                 .мВ                                     : Потенциал самополяризации 
VSH_FIN            .v/v                                    : Описание 
VSH_GR             .v/v                                    : Shale volume 
VSH_SP             .v/v                                    : Shale Volume 
~Ascii
# ...
1033.2     0.224      -9999      -9999      339.3815   8.912114   2.23       2.12       1.95       1.83       1.79       1.78       2.03       1.38       2.52       2.34       2.586575   1.587066   -9999      3.34       0.08005314 0.002756056 -9999      0.1573502  0.1578361  0.08510135 3.543416   2.481812   1.78       0          0          384.48     0.4961767  0.3870498  0.6053037 
1033.4     0.224      -9999      -9999      334.3978   8.686681   2.18       2.7        2.38       2.21       2.04       1.93       2.14       1.66       4.3        2.84       2.62096    1.598524   -9999      3.36       0.07954475 0.001491445 -9999      0.157598   0.1546919  0.08327597 4.450894   2.490145   1.93       0          0          384.52     0.479363   0.3526399  0.6060861 
1033.6     0.225      -9999      -9999      328.6901   8.44877    2.14       2.85       2.45       2.27       2.13       2.02       2.24       1.81       4.54       2.58       2.667258   1.611679   -9999      3.4        0.07834391 -0.0004086948 -9999      0.1570965  0.1507715  0.07911836 5.661791   2.499737   2.02       0          0          384.47     0.4620149  0.3196377  0.604392  
1033.8     0.225      -9999      -9999      322.427    8.202729   2.13       2.66       2.25       2.04       2          1.98       2.28       1.72       3.19       2.35       2.726792   1.626445   -9999      3.45       0.07652135 -0.002743311 -9999      0.155786   0.1462239  0.07320136 7.26158    2.510068   1.98       0          0          384.34     0.4446314  0.2887529  0.6005099 
1034       0.223      -9999      -9999      315.8302   7.95711    2.17       2.55       2.33       2.13       2.11       2.03       2.39       1.52       3.27       2.62       2.798448   1.642477   -9999      3.53       0.07488173 -0.004685958 -9999      0.1544494  0.141547   0.06825735 9.309434   2.52048    2.03       0          0          383.95     0.4252572  0.2608978  0.5896165 
1034.2     0.225      -9999      -9999      309.2218   7.725356   2.21       3.299999999999999 2.82       2.57       2.45       2.27       2.61       1.88       4.36       2.78       2.878282   1.65907    -9999      3.54       0.07302981 -0.006395069 -9999      0.1524547  0.136822   0.06307355 11.76862   2.530116   2.27       0          0          383.48     0.4069295  0.2370835  0.5767756 
1034.4     0.223      -9999      -9999      303.0607   7.523901   2.32       3.299999999999999 2.9        2.77       2.61       2.56       2.83       1.83       4.13       2.98       2.95951    1.675129   -9999      3.43       0.07148751 -0.007427853 -9999      0.1504029  0.132545   0.05905819 14.42839   2.538295   2.56       0          0          382.88     0.3894851  0.2181558  0.5608144 
1034.6     0.226      -9999      -9999      297.8543   7.366743   2.45       4.53       3.93       3.430000000000001 3.04       2.86       3.03       2.65       5.91       3.52       3.034106   1.689398   -9999      3.35       0.1112103  0.0751355  -9999      0.1472851  0.1705275  0.3213975  16.91423   2.544524   2.86       0.07504442 0.2344992  382.56     0.3783839  0.2044456  0.5523221 
1034.8     0.224      -9999      -9999      294.0188   7.260303   2.59       5.060000000000001 4.24       3.59       3.359999999999999 3.09       3.17       3.04       12.47      5.95       3.094569   1.700803   -9999      3.28       0.1085516  0.07253074 -9999      0.1445725  0.16672    0.2869442  18.83683   2.548874   3.09       0.08901814 0.2462257  382.34     0.3710552  0.1956527  0.5464577 
1035       0.225      -9999      -9999      291.7413   7.199941   2.79       4.32       3.88       3.5        3.21       3.06       3.11       2.03       4.88       3.4        3.136178   1.708754   -9999      3.22       0.1066871  0.07084082 -9999      0.1425333  0.1643563  0.2650095  20.0227    2.551696   3.06       0.07092337 0.2306952  382.29     0.3678714  0.1908355  0.5449073 
1035.2     0.226      -9999      -9999      290.927    7.171503   2.99       5.799999999999999 4.600000000000001 3.8        3.37       3.04       2.98       2.27       8.99       5.11       3.157992   1.713251   -9999      3.19       0.1058181  0.06968756 -9999      0.1419487  0.1632309  0.2553681  20.607     2.553622   3.04       0.06139841 0.2224347  382.26     0.3662351  0.1886071  0.5438631 
1035.4     0.225      -9999      -9999      291.2268   7.156085   3.1        3.95       3.48       3.09       3.02       2.89       2.9        2.11       5.33       2.89       3.162868   1.714868   -9999      3.13       0.1058472  0.06879342 -9999      0.142901   0.1629862  0.2556848  20.93087   2.555115   2.89       0.03907431 0.201889   382.18     0.3644891  0.18741    0.5415683 
1035.6     0.226      -9999      -9999      292.1444   7.137243   3.2        3.540000000000001 3          2.8        2.69       2.64       2.7        1.92       4.66       2.86       3.155891   1.714531   -9999      3.03       0.1063055  0.0680075  -9999      0.1446036  0.1632102  0.2607321  21.33357   2.556427   2.64       0.001163021 0.1670977  382.13     0.362994   0.1859573  0.5400308 
1035.8     0.225      -9999      -9999      293.2113   7.107172   3.21       3.23       2.91       2.69       2.69       2.67       2.77       1.94       4.72       3.03       3.142708   1.71313    -9999      2.94       0.1066009  0.06743515 -9999      0.1457667  0.1636364  0.2640378  21.9924    2.557383   2.67       0.008843658 0.1740034  382.3      0.3638284  0.183662   0.5439948 
1036       0.226      -9999      -9999      294.1646   7.069518   3.3        4.039999999999999 3.71       3.03       3.06       2.95       2.96       2.09       4.88       3.36       3.127618   1.71128    -9999      2.84       0.1074243  0.06732765 -9999      0.1475209  0.1642148  0.2734742  22.84616   2.557563   2.95       0.06047617 0.2182726  382.3      0.3622662  0.1808279  0.5437045 
1036.2     0.226      -9999      -9999      294.9797   7.036577   3.47       6.119999999999999 4.58       4.08       3.69       3.410000000000001 3.14       3.03       6.07       5.37       3.11287    1.709204   -9999      2.7        0.1086836  0.06795067 -9999      0.1494165  0.1650637  0.2885635  23.62017   2.556522   3.41       0.1311042  0.2785569  382.2      0.359648   0.1783844  0.5409115 
1036.4     0.226      -9999      -9999      295.792    7.023609   3.55       4.12       3.38       3.22       3.17       3.37       3.07       2.21       5.58       3          3.098786   1.706794   -9999      2.57       0.1106419  0.06955622 -9999      0.1517275  0.1663989  0.3136996  23.93202   2.553841   3.37       0.139764   0.2829801  381.93     0.3556737  0.1774316  0.5339158 
1036.6     0.229      -9999      -9999      296.7763   7.04202    3.65       3.8        3.33       2.94       2.9        3.01       2.79       1.85       4.51       2.65       3.084682   1.703859   -9999      2.54       0.1123688  0.07224378 -9999      0.1524938  0.1683841  0.3376767  23.49048   2.549353   3.01       0.1050825  0.2513659  382.02     0.357321   0.1787859  0.5358561 
1036.8     0.228      -9999      -9999      298.0481   7.095654   3.65       3.84       3.48       3.22       3.05       2.94       2.76       2.11       11.5       3.8        3.069767   1.700234   -9999      2.57       0.1141616  0.07597853 -9999      0.1523446  0.1710739  0.3645082  22.25011   2.543116   2.94       0.1075345  0.2544101  382.33     0.363043   0.1827904  0.5432956 
1037       0.232      -9999      -9999      299.6215   7.180765   3.69       3.87       3.34       3.13       3.02       2.96       2.74       1.86       4          3.26       3.053556   1.695848   -9999      2.59       0.1171383  0.08062126 -9999      0.1536552  0.1744031  0.4138497  20.41485   2.535362   2.96       0.1300915  0.2730393  382.26     0.3652916  0.18933    0.5412532 
1037.2     0.227      -9999      -9999      301.4704   7.289433   3.71       3.94       3.390000000000001 3.23       3.07       2.86       2.64       2.12       5.73       3.48       3.035551   1.690636   -9999      2.62       0.1205707  0.08587576 -9999      0.1552656  0.1782012  0.4790929  18.28993   2.526587   2.86       0.1379087  0.2783696  382.11     0.367624   0.1980208  0.5372271 
