~Version
 VERS              .         2.0                           : CWLS LOG ASCII STANDARD - VERSION 2.0
 WRAP              .         NO                            : ONE LINE PER DEPTH STEP
 DLM               .         SPACE                         : DELIMITING CHARACTER(SPACE TAB OR COMMA)
~Well Information
#_______________________________________________________________________________
#
#PARAMETER_NAME    .UNIT     VALUE                         : DESCRIPTION
#_______________________________________________________________________________
STRT               .м        0                             : First reference value
STOP               .м        1215.4                        : Last reference value
STEP               .м        0.2                           : Step increment
NULL               .         -9999                         : Missing value
COMP               .                                       : Company
WELL               .         6943                          : Well name
FLD                .         Узень                         : Field
LOC                .                                       : Location
CNTY               .                                       : County
STAT               .                                       : State
CTRY               .                                       : Country
SRVC               .                                       : Service Company
DATE               .         18.3.2016                     : Date
UWI                .                                       : Unique Well ID
Block              .         7                             : 
Cartographic_reference_system .         GCS_WGS_1984                  : ESRI,PE_10_3_1- <?xml version="1.0" encoding="utf-16"?><ILateBoundCoordinateReferenceSystem name="GCS_WGS_1984"><AuthorityCode>EPSG,4326</AuthorityCode></ILateBoundCoordinateReferenceSystem>
Category           .         Нефтяная                      : 
Condition          .         В работе                      : 
Date               .         15.04.2016                    : 
EREF               .m        82.9                          : 100.8
GRP                .                                       : Group name
Gorizont           .         14                            : 14
HZCS               .GCS_WGS_1984 WGS_1984_EASE-Grid_2.0_Global : ESRI,PE_10_3_1- <?xml version="1.0" encoding="utf-16"?><ILateBoundCoordinateReferenceSystem name="WGS_1984_EASE-Grid_2.0_Global"><AuthorityCode>EPSG,6933</AuthorityCode></ILateBoundCoordinateReferenceSystem>
ISS                .                                       : Well surveys
Interpretator      .         Кушербаева А.С                : 
Kupol              .         основной                      : osnovnoi
LATI               .dega     0.6562396588                  : GCS_WGS_1984
LONG               .dega     0.4442180783                  : GCS_WGS_1984
Mud                .         полимерный                    : 
Mud_density        .         1.34                          : 
Mud_resistivity    .         0.60                          : 
NGDU               .         НГДУ-2                        : 
ORIGINALWELLNAME   .         6943                          : 
Spud_date          .         2016                          : 1961
TIME               .                                       : LOG TIME
Viscosity          .         40                            : 
X                  .m        42860.95                      : 46154
Y                  .m        83716.87                      : 85761.93
YEAR               .         2019г                         : 
~Parameter Information Block
#_______________________________________________________________________________
#
#PARAMETER_NAME    .UNIT     VALUE                         : DESCRIPTION
#_______________________________________________________________________________
SET                .         LQC_KAZNIPI_Petrel            : 
TLFamily_CALI      .         Caliper                       : 
TLFamily_COLL      .         Net Reservoir Flag            : 
TLFamily_CSAT      .         Fluid Code                    : 
TLFamily_DEPT      .         Measured Depth                : 
TLFamily_DT        .         Compressional Slowness        : 
TLFamily_GR        .         Russian Gamma Ray             : 
TLFamily_GZ3       .         Gradient 225                  : 
TLFamily_IK1       .         Resistivity 05                : 
TLFamily_IK2       .         Resistivity 07                : 
TLFamily_IK3       .         Resistivity 10                : 
TLFamily_IK4       .         Resistivity 14                : 
TLFamily_IK5       .         Resistivity 20                : 
TLFamily_LLS       .         Lateral Log Resistivity       : 
TLFamily_MBK       .         Micro Lateral Log Resistivity : 
TLFamily_MINV      .         Micro Gradient Resistivity    : 
TLFamily_MNOR      .         Micro Resistivity             : 
TLFamily_NNKTB_1   .         Neutron Far                   : 
TLFamily_NNKTM_1   .         Neutron Near                  : 
TLFamily_NPHI      .         Neutron Porosity              : 
TLFamily_OGZ       .         Gradient Inverted 225         : 
TLFamily_PHIE      .         Effective Porosity            : 
TLFamily_PHIED     .         Effective Porosity            : 
TLFamily_PHIEN     .         Effective Porosity            : 
TLFamily_PHIES     .         Effective Porosity            : 
TLFamily_PHIT      .         Porosity                      : 
TLFamily_PRMB      .         Permeability                  : 
TLFamily_PRMB_DGR  .         Permeability                  : 
TLFamily_RHOB      .         Bulk Density                  : 
TLFamily_RT        .         Formation Resistivity         : 
TLFamily_SOIL_ARCHIE .         Oil Saturation                : 
TLFamily_SOIL_DW   .         Oil Saturation                : 
TLFamily_SP        .         Spontaneous Potential         : 
TLFamily_VSH_FIN   .         Shale Volume                  : 
TLFamily_VSH_GR    .         Shale Volume                  : 
TLFamily_VSH_SP    .         Shale Volume                  : 
~Curve Information
#_______________________________________________________________________________
#
#LOGNAME           .UNIT     LOG_ID                        : DESCRIPTION
#_______________________________________________________________________________
DEPT               .м                                      : Колонка глубины 
CALI               .м                                      : Каверномер 
COLL               .unitless                               : Описание 
CSAT               .unitless                               : Описание 
DT                 .мкс/м                                  : Интервальное время пробега продольной волны 
GR                 .uR/h                                   : Гамма каротаж 
GZ3                .Ohmm                                   : Градиент-зонд  длиной 2.25м 
IK1                .Ohmm                                   : И0.10И0.40 
IK2                .Ohmm                                   : И0.14И0.56 
IK3                .Ohmm                                   : И0.20И0.8 
IK4                .Ohmm                                   : И0.28И1.12 
IK5                .Ohmm                                   : И0.40И1.60 
LLS                .Ohmm                                   : Боковой каротаж 
MBK                .Ohmm                                   : Микробоковой каротаж 
MINV               .Ohmm                                   : Микро-градиент зонд 
MNOR               .Ohmm                                   : Микро-потенциал зонд 
NNKTB_1            .у.е.                                   : Показания большого зонда 2ННКт аппаратуры СРК 
NNKTM_1            .у.е.                                   : Показания малого зонда 2ННКт аппаратуры СРК 
NPHI               .v/v                                    : Total porosity 
OGZ                .Ohmm                                   : Обращенный градиент-зонд 
PHIE               .v/v                                    : Описание 
PHIED              .v/v                                    :  
PHIEN              .v/v                                    :  
PHIES              .v/v                                    :  
PHIT               .v/v                                    : Описание 
PRMB               .mD                                     :  
PRMB_DGR           .mD                                     :  
RHOB               .г/см3                                  : Плотность по ГГКп 
RT                 .ohmm                                   : Удельное электрическое сопротивление 
SOIL_ARCHIE        .v/v                                    :  
SOIL_DW            .v/v                                    :  
SP                 .мВ                                     : Потенциал самополяризации 
VSH_FIN            .v/v                                    : Описание 
VSH_GR             .v/v                                    : Shale volume 
VSH_SP             .v/v                                    : Shale Volume 
~Ascii
# ...
970.2000000000001 0.228      -9999      -9999      268.7536   3.699837   4.71       5.200000000000001 4.520000000000001 4.140000000000001 4          4.03       3.77       2.16       7.31       4.05       4.683897   2.044228   -9999      2.1        0.08289    0.04303722 -9999      0.1227428  0.1336843  0.0960466  251.6116   2.598128   4.03       0          0.1604302  385.86     0.324016   0.06789155 0.5801405 
970.4      0.229      -9999      -9999      268.4642   3.720537   4.98       5.76       4.93       4.53       4.35       4.26       3.84       3.72       6.12       5.1        4.642119   2.022487   -9999      1.98       0.08300983 0.04203943 -9999      0.1239802  0.1329559  0.09653872 244.3863   2.599794   4.26       0.0102117  0.1812162  385.3      0.3186053  0.06870411 0.5685066 
970.6      0.231      -9999      -9999      269.3648   3.787793   5.26       6.71       5.52       4.95       4.71       4.560000000000001 3.92       2.64       6.39       5.02       4.573498   1.993478   -9999      1.9        0.08508727 0.04316114 -9999      0.1270134  0.1342291  0.1054826  222.3121   2.597921   4.56       0.06173954 0.2209039  384.68     0.3134752  0.07141194 0.5555385 
970.8      0.228      -9999      -9999      272.2587   3.911639   5.64       8.960000000000001 6.25       5.180000000000001 4.92       4.67       3.97       3.48       9.63       4.59       4.472558   1.95637    -9999      1.84       0.08962309 0.04734089 -9999      0.1319053  0.1385762  0.1279956  186.748    2.590941   4.67       0.1132096  0.2603174  384.26     0.3122711  0.07668044 0.5478616 
971        0.226      -9999      -9999      277.9107   4.098683   5.91       5.309999999999999 4.969999999999999 4.55       4.61       4.59       3.9        3.02       6.89       4.49       4.335148   1.91078    -9999      1.74       0.09788372 0.05549181 -9999      0.1402756  0.1469244  0.1820548  143.5213   2.577329   4.59       0.1720709  0.3047343  383.84     0.3128297  0.08538338 0.540276  
971.2000000000001 0.226      -9999      -9999      286.8439   4.350367   6.08       6.93       5.83       5.129999999999999 4.78       4.49       3.6        4.79       11.61      6.98       4.159317   1.85713    -9999      1.61       0.1103631  0.06830759 -9999      0.1524186  0.1597422  0.3099917  100.7076   2.555926   4.49       0.2464813  0.3629887  383.36     0.3149889  0.09867273 0.5313051 
971.4      0.227      -9999      -9999      299.1649   4.661303   6.01       6.889999999999999 5.33       4.68       4.469999999999999 4.22       3.26       3.48       5.27       4.44       3.946623   1.796933   -9999      1.48       0.125861   0.08597398 -9999      0.165748   0.1767881  0.6003553  65.01102   2.526423   4.22       0.3081208  0.4135717  383.26     0.3248636  0.1179807  0.5317466 
971.6      0.229      -9999      -9999      314.4249   5.018436   5.78       3.87       3.38       3.25       3.430000000000001 3.38       2.84       2.57       3.47       3.54       3.703171   1.732898   -9999      1.29       0.1441012  0.1080246  -9999      0.1801779  0.1970928  1.30696    39.32521   2.489599   3.38       0.3175457  0.4186833  383.12     0.3380329  0.1448628  0.531203  
971.8      0.23       -9999      -9999      331.6087   5.402106   5.19       3.55       2.88       2.56       2.59       2.5        2.17       1.65       2.77       3.06       3.440003   1.668679   -9999      1.05       0.163534   0.1332083  -9999      0.1938598  0.2191117  2.99368    22.91575   2.447542   2.5        0.295817   0.3971763  382.89     0.354529   0.1806035  0.5284546 
972        0.231      -9999      -9999      349.2734   5.788232   4.37       1.59       1.49       1.47       1.69       1.73       1.7        1.04       1.29       1.79       3.172429   1.608336   -9999      0.98       0.182391   0.159623   -9999      0.2051589  0.241043   6.690847   13.30746   2.40343    1.73       0.2389048  0.3450278  382.54     0.3741405  0.2254803  0.5228007 
972.2000000000001 0.242      -9999      -9999      365.8579   6.152842   3.66       1.12       1.13       1.18       1.24       1.3        1.38       0.86       1.26       1.25       2.917707   1.555622   -9999      0.99       0.1552355  0.0973394  -9999      0.2131315  0.2173249  2.101335   7.965436   2.360898   1.3        0          0.1416842  382.06     0.3960674  0.2780483  0.5140866 
972.4      0.241      -9999      -9999      380.054    6.475345   3.19       0.96       1.05       1.09       1.14       1.15       1.28       0.82       1.16       1.21       2.692208   1.513201   -9999      1.02       0.1660805  0.1146597  -9999      0.2175013  0.2318249  3.337125   5.058981   2.323347   1.15       0          0.1455405  381.52     0.4193828  0.3346738  0.5040919 
972.6      0.239      -9999      -9999      391.0693   6.742061   2.74       0.92       0.97       1.02       1.07       1.09       1.26       0.8        1.05       1.23       2.508197   1.482179   -9999      1.05       0.1718107  0.1264731  -9999      0.2171482  0.2419709  4.260971   3.475521   2.293196   1.09       0.004167341 0.1560382  381.44     0.4475512  0.3901195  0.5049829 
972.8      0.232      -9999      -9999      398.7527   6.947704   2.59       0.87       0.9300000000000001 0.99       1.03       1.08       1.27       0.81       1.12       1.22       2.371574   1.461959   -9999      1.13       0.1744125  0.1339638  -9999      0.2148612  0.2485346  4.761032   2.602017   2.271336   1.08       0.0128582  0.1705297  381.39     0.4728238  0.4390654  0.5065822 
973        0.231      -9999      -9999      403.5363   7.095463   2.4        0.95       1.04       1.07       1.1        1.15       1.3        0.85       1.23       1.29       2.281121   1.45057    -9999      1.14       0.17473    0.1377358  -9999      0.2117243  0.252121   4.82594    2.113415   2.257321   1.15       0.04304196 0.2035182  381.39     0.4936761  0.4779824  0.5093699 
973.2000000000001 0.231      -9999      -9999      406.1945   7.195336   2.29       1.28       1.27       1.24       1.24       1.26       1.35       0.95       1.46       1.48       2.229439   1.445224   -9999      1.17       0.1740124  0.1390875  -9999      0.2089372  0.2537245  4.680473   1.836253   2.249585   1.26       0.07990507 0.2406364  381.33     0.5084829  0.5062227  0.510743  
973.4      0.232      -9999      -9999      407.5523   7.260823   2.16       1.33       1.22       1.26       1.23       1.27       1.38       0.98       1.51       1.59       2.205369   1.443104   -9999      1.16       0.1728734  0.1389447  -9999      0.2068021  0.2541223  4.458538   1.674559   2.246197   1.27       0.07805378 0.2422947  381.22     0.5182856  0.5256397  0.5109315 
973.6      0.232      -9999      -9999      408.266    7.305674   2.04       1.1        1.06       1.07       1.09       1.14       1.35       0.84       1.43       1.37       2.196855   1.441927   -9999      1.16       0.1721557  0.138421   -9999      0.2058904  0.2541057  4.324137   1.572112   2.245416   1.14       0.02660963 0.1988647  380.9      0.5227582  0.5393658  0.5061507 
973.8      0.232      -9999      -9999      408.7168   7.341082   1.91       1.04       1.05       1.06       1.06       1.08       1.31       0.84       1.21       1.28       2.193589   1.440334   -9999      1.2        0.1713967  0.1374428  -9999      0.2053506  0.2537712  4.186396   1.49568    2.246048   1.08       0          0.1747804  380.54     0.5254658  0.5504549  0.5004768 
974        0.233      -9999      -9999      409.0269   7.374161   1.75       0.98       1.03       1.07       1.07       1.08       1.31       0.85       1.5        1.46       2.188812   1.43792    -9999      1.22       0.1712329  0.1366714  -9999      0.2057944  0.2534916  4.157255   1.427634   2.24761    1.08       0          0.1739197  379.9      0.5247273  0.5610207  0.4884339 
974.2000000000001 0.229      -9999      -9999      409.1727   7.407578   1.67       1.03       1.04       1.09       1.08       1.07       1.32       0.82       1.31       1.37       2.179639   1.434995   -9999      1.24       0.1700808  0.1347584  -9999      0.2054031  0.2525849  3.957913   1.362037   2.250225   1.07       0          0.1660099  379.44     0.526293   0.5719002  0.4806857 
