~Version
 VERS              .         2.0                           : CWLS LOG ASCII STANDARD - VERSION 2.0
 WRAP              .         NO                            : ONE LINE PER DEPTH STEP
 DLM               .         SPACE                         : DELIMITING CHARACTER(SPACE TAB OR COMMA)
~Well Information
#_______________________________________________________________________________
#
#PARAMETER_NAME    .UNIT     VALUE                         : DESCRIPTION
#_______________________________________________________________________________
STRT               .м        0                             : First reference value
STOP               .м        1215.4                        : Last reference value
STEP               .м        0.2                           : Step increment
NULL               .         -9999                         : Missing value
COMP               .                                       : Company
WELL               .         6943                          : Well name
FLD                .         Узень                         : Field
LOC                .                                       : Location
CNTY               .                                       : County
STAT               .                                       : State
CTRY               .                                       : Country
SRVC               .                                       : Service Company
DATE               .         18.3.2016                     : Date
UWI                .                                       : Unique Well ID
Block              .         7                             : 
Cartographic_reference_system .         GCS_WGS_1984                  : ESRI,PE_10_3_1- <?xml version="1.0" encoding="utf-16"?><ILateBoundCoordinateReferenceSystem name="GCS_WGS_1984"><AuthorityCode>EPSG,4326</AuthorityCode></ILateBoundCoordinateReferenceSystem>
Category           .         Нефтяная                      : 
Condition          .         В работе                      : 
Date               .         15.04.2016                    : 
EREF               .m        82.9                          : 100.8
GRP                .                                       : Group name
Gorizont           .         14                            : 14
HZCS               .GCS_WGS_1984 WGS_1984_EASE-Grid_2.0_Global : ESRI,PE_10_3_1- <?xml version="1.0" encoding="utf-16"?><ILateBoundCoordinateReferenceSystem name="WGS_1984_EASE-Grid_2.0_Global"><AuthorityCode>EPSG,6933</AuthorityCode></ILateBoundCoordinateReferenceSystem>
ISS                .                                       : Well surveys
Interpretator      .         Кушербаева А.С                : 
Kupol              .         основной                      : osnovnoi
LATI               .dega     0.6562396588                  : GCS_WGS_1984
LONG               .dega     0.4442180783                  : GCS_WGS_1984
Mud                .         полимерный                    : 
Mud_density        .         1.34                          : 
Mud_resistivity    .         0.60                          : 
NGDU               .         НГДУ-2                        : 
ORIGINALWELLNAME   .         6943                          : 
Spud_date          .         2016                          : 1961
TIME               .                                       : LOG TIME
Viscosity          .         40                            : 
X                  .m        42860.95                      : 46154
Y                  .m        83716.87                      : 85761.93
YEAR               .         2019г                         : 
~Parameter Information Block
#_______________________________________________________________________________
#
#PARAMETER_NAME    .UNIT     VALUE                         : DESCRIPTION
#_______________________________________________________________________________
SET                .         LQC_KAZNIPI_Petrel            : 
TLFamily_CALI      .         Caliper                       : 
TLFamily_COLL      .         Net Reservoir Flag            : 
TLFamily_CSAT      .         Fluid Code                    : 
TLFamily_DEPT      .         Measured Depth                : 
TLFamily_DT        .         Compressional Slowness        : 
TLFamily_GR        .         Russian Gamma Ray             : 
TLFamily_GZ3       .         Gradient 225                  : 
TLFamily_IK1       .         Resistivity 05                : 
TLFamily_IK2       .         Resistivity 07                : 
TLFamily_IK3       .         Resistivity 10                : 
TLFamily_IK4       .         Resistivity 14                : 
TLFamily_IK5       .         Resistivity 20                : 
TLFamily_LLS       .         Lateral Log Resistivity       : 
TLFamily_MBK       .         Micro Lateral Log Resistivity : 
TLFamily_MINV      .         Micro Gradient Resistivity    : 
TLFamily_MNOR      .         Micro Resistivity             : 
TLFamily_NNKTB_1   .         Neutron Far                   : 
TLFamily_NNKTM_1   .         Neutron Near                  : 
TLFamily_NPHI      .         Neutron Porosity              : 
TLFamily_OGZ       .         Gradient Inverted 225         : 
TLFamily_PHIE      .         Effective Porosity            : 
TLFamily_PHIED     .         Effective Porosity            : 
TLFamily_PHIEN     .         Effective Porosity            : 
TLFamily_PHIES     .         Effective Porosity            : 
TLFamily_PHIT      .         Porosity                      : 
TLFamily_PRMB      .         Permeability                  : 
TLFamily_PRMB_DGR  .         Permeability                  : 
TLFamily_RHOB      .         Bulk Density                  : 
TLFamily_RT        .         Formation Resistivity         : 
TLFamily_SOIL_ARCHIE .         Oil Saturation                : 
TLFamily_SOIL_DW   .         Oil Saturation                : 
TLFamily_SP        .         Spontaneous Potential         : 
TLFamily_VSH_FIN   .         Shale Volume                  : 
TLFamily_VSH_GR    .         Shale Volume                  : 
TLFamily_VSH_SP    .         Shale Volume                  : 
~Curve Information
#_______________________________________________________________________________
#
#LOGNAME           .UNIT     LOG_ID                        : DESCRIPTION
#_______________________________________________________________________________
DEPT               .м                                      : Колонка глубины 
CALI               .м                                      : Каверномер 
COLL               .unitless                               : Описание 
CSAT               .unitless                               : Описание 
DT                 .мкс/м                                  : Интервальное время пробега продольной волны 
GR                 .uR/h                                   : Гамма каротаж 
GZ3                .Ohmm                                   : Градиент-зонд  длиной 2.25м 
IK1                .Ohmm                                   : И0.10И0.40 
IK2                .Ohmm                                   : И0.14И0.56 
IK3                .Ohmm                                   : И0.20И0.8 
IK4                .Ohmm                                   : И0.28И1.12 
IK5                .Ohmm                                   : И0.40И1.60 
LLS                .Ohmm                                   : Боковой каротаж 
MBK                .Ohmm                                   : Микробоковой каротаж 
MINV               .Ohmm                                   : Микро-градиент зонд 
MNOR               .Ohmm                                   : Микро-потенциал зонд 
NNKTB_1            .у.е.                                   : Показания большого зонда 2ННКт аппаратуры СРК 
NNKTM_1            .у.е.                                   : Показания малого зонда 2ННКт аппаратуры СРК 
NPHI               .v/v                                    : Total porosity 
OGZ                .Ohmm                                   : Обращенный градиент-зонд 
PHIE               .v/v                                    : Описание 
PHIED              .v/v                                    :  
PHIEN              .v/v                                    :  
PHIES              .v/v                                    :  
PHIT               .v/v                                    : Описание 
PRMB               .mD                                     :  
PRMB_DGR           .mD                                     :  
RHOB               .г/см3                                  : Плотность по ГГКп 
RT                 .ohmm                                   : Удельное электрическое сопротивление 
SOIL_ARCHIE        .v/v                                    :  
SOIL_DW            .v/v                                    :  
SP                 .мВ                                     : Потенциал самополяризации 
VSH_FIN            .v/v                                    : Описание 
VSH_GR             .v/v                                    : Shale volume 
VSH_SP             .v/v                                    : Shale Volume 
~Ascii
# ...
907.2000000000001 0.227      -9999      -9999      278.3835   5.675039   4.78       4.879999999999999 4.12       3.98       4.22       4.1        4.69       2.28       3.49       3.44       3.726208   1.837884   -9999      8.21       0.03714088 -0.003156198 -9999      0.07743796 0.1179499  0.01364889 3.661494   2.484543   4.1        0          0          419.2      0.5154798  0.3819035  0.6490561 
907.4      0.227      -9999      -9999      271.1864   5.492056   5.01       6.1        6.079999999999999 5.95       5.83       5.21       5.31       2.64       4.52       3.45       3.886367   1.862592   -9999      8.4        0.03657895 -0.002025146 -9999      0.07518304 0.1130624  0.01332567 5.023306   2.492864   5.21       0          0          419.09     0.4878868  0.3356423  0.6401312 
907.6      0.227      -9999      -9999      264.8881   5.328812   5.4        13.9       11.37      9.77       7.98       6.56       6.16       4.29       4.32       4.68       4.041673   1.884508   -9999      8.55       0.03419786 -0.00323722 -9999      0.07163294 0.1074411  0.01203886 6.660496   2.502536   6.56       0          0          419.12     0.4672178  0.2991224  0.6353131 
907.8      0.228      -9999      -9999      259.8777   5.193078   5.7        30.57      15.83      11.35      8.370000000000001 6.79       6.78       4.25       8.9        6.53       4.174908   1.901316   -9999      8.41       0.03165219 -0.005392253 -9999      0.06869664 0.1022004  0.01080024 8.421254   2.512496   6.79       0          0          419.07     0.4500258  0.2718016  0.62825   
908        0.225      -9999      -9999      256.2943   5.086038   6.06       18.93      10.68      7.87       6.619999999999999 5.85       6.74       4.96       14.31      6.47       4.272573   1.911747   -9999      8.05       0.02901797 -0.008260756 -9999      0.0662967  0.0976887  0.009652532 10.13238   2.521717   5.85       0          0          419.12     0.4380497  0.2520279  0.6240715 
908.2000000000001 0.226      -9999      -9999      254.0847   5.00351    6.09       9.109999999999999 6.539999999999999 5.56       5.239999999999999 5.01       6.06       4.78       5.55       4.7        4.327717   1.915771   -9999      7.24       0.0272765  -0.0108364 -9999      0.0653894  0.09446    0.008961589 11.68557   2.529529   5.01       0          0          419.15     0.4285626  0.23777    0.6193552 
908.4      0.228      -9999      -9999      253.1138   4.938908   6.08       7.469999999999999 5.95       5.45       5.26       5.01       5.32       3.07       6.99       5.19       4.340951   1.914317   -9999      6.98       0.02659809 -0.0128181 -9999      0.06601428 0.09260564 0.008706012 13.06575   2.535614   5.01       0          0          419.19     0.4210613  0.2271744  0.6149482 
908.6      0.226      -9999      -9999      253.2324   4.887227   6.24       7.690000000000001 6.739999999999999 6.25       6.16       5.65       5.43       4.99       6.17       4.99       4.319055   1.908787   -9999      6.91       0.02748468 -0.01365251 -9999      0.06862187 0.09229426 0.009041511 14.28636   2.539834   5.65       0          0          419.13     0.4134194  0.2190388  0.6078001 
908.8      0.226      -9999      -9999      254.2996   4.847683   6.45       16.1       9.630000000000003 7.76       7.21       6.4        5.91       5.57       14.74      8.32       4.271876   1.900523   -9999      6.82       0.02905081 -0.01395496 -9999      0.07205658 0.093091   0.009666061 15.29675   2.542156   6.4        0          0          419.19     0.4085115  0.2130113  0.6040118 
909        0.227      -9999      -9999      256.1514   4.823781   6.91       7.07       6.93       6.35       6.539999999999999 6.34       6.31       4.3        17.41      8.18       4.209734   1.890575   -9999      6.5        0.03077598 -0.01395938 -9999      0.07551133 0.09471485 0.01040408 15.94184   2.542402   6.34       0          0          419.47     0.4078652  0.2094487  0.6062818 
909.2000000000001 0.226      -9999      -9999      258.5713   4.821666   7.36       10.73      7.569999999999999 6.360000000000001 6.260000000000001 6.050000000000001 5.8        2.4        6.65       5.1        4.141461   1.879635   -9999      6.11       0.03254317 -0.01355727 -9999      0.07864361 0.09700575 0.01121855 16.00021   2.540494   6.05       0          0          419.92     0.4112059  0.2091363  0.6132755 
909.4      0.225      -9999      -9999      261.2915   4.846099   7.52       11.15      8.01       6.55       6.25       5.96       5.14       4.17       11.16      7.25       4.073785   1.868189   -9999      5.8        0.03552084 -0.01158335 -9999      0.08262504 0.1002957  0.01273768 15.3387    2.536461   5.96       0          0          420.13     0.4131982  0.2127733  0.613623  
909.6      0.225      -9999      -9999      264.0605   4.898148   7.56       6.6        5.58       5.070000000000001 5.01       5.26       5.03       2.97       4.98       4.29       4.01166    1.856657   -9999      5.4        0.0394321  -0.008222672 -9999      0.08708686 0.1042717  0.01504999 14.01926   2.530696   5.26       0          0          420.07     0.4136107  0.2207334  0.6064879 
909.8      0.226      -9999      -9999      266.7766   4.973794   7.47       6.3        5.140000000000001 4.740000000000001 4.659999999999999 4.85       4.41       2.26       4.28       3.32       3.958098   1.845413   -9999      5.06       0.04284219 -0.004809137 -9999      0.09049352 0.1081838  0.01740601 12.30132   2.52381    4.85       0          0          420.06     0.4168132  0.2328363  0.60079   
910        0.226      -9999      -9999      269.5375   5.064762   7.39       5.97       5.38       5.140000000000001 5.109999999999999 5.09       4.14       2.2        6.78       5.14       3.914303   1.834792   -9999      4.89       0.04666765 -0.0009066532 -9999      0.09424195 0.1123313  0.02049067 10.51186   2.516533   5.09       0          0          419.84     0.4188675  0.2482723  0.5894626 
910.2000000000001 0.226      -9999      -9999      272.6282   5.160155   7.42       9.049999999999999 7.010000000000001 6.25       5.799999999999999 5.4        4.31       4.31       4.43       4.23       3.879224   1.824987   -9999      4.84       0.0502395  0.002554648 -9999      0.09792436 0.1164678  0.02386248 8.914261   2.50942    5.4        0          0.04196446 419.66     0.4224691  0.26556    0.5793783 
910.4      0.226      -9999      -9999      276.3545   5.248375   7.43       9.949999999999999 6.19       5.49       5.460000000000001 5.219999999999999 4.47       2.77       5.78       4.29       3.850041   1.816159   -9999      4.74       0.05380864 0.005501602 -9999      0.1021157  0.1207703  0.02778591 7.653767   2.502768   5.22       0          0.07155129 419.25     0.4271474  0.2826171  0.5716777 
910.6      0.227      -9999      -9999      280.804    5.318618   7.38       4.969999999999999 4.21       4.16       4.37       4.520000000000001 4.35       1.96       3.7        3.27       3.823527   1.80854    -9999      4.67       0.0575117  0.008058218 -9999      0.1069652  0.1253283  0.03253975 6.778868   2.49648    4.52       0          0.0491174  419        0.4326015  0.2969784  0.5682245 
910.8      0.229      -9999      -9999      285.7263   5.361939   7.21       5.109999999999999 4.71       4.26       4.249999999999999 4.19       4.08       2.04       3.6        3.44       3.797673   1.802591   -9999      4.78       0.06157975 0.01065359 -9999      0.1125059  0.1301352  0.03870477 6.289906   2.490402   4.19       0          0.05983766 418.89     0.4373143  0.3061971  0.5684314 
911        0.226      -9999      -9999      290.5005   5.371973   7.13       6.46       5.33       4.83       4.450000000000001 4.2        3.9        2.56       7.33       4.98       3.773371   1.798979   -9999      5.07       0.06657185 0.01418604 -9999      0.1189577  0.1351914  0.04788838 6.18178    2.484352   4.2        0          0.109699   418.72     0.4377235  0.3083729  0.5670741 
911.2000000000001 0.226      -9999      -9999      294.307    5.346528   7.24       4.99       4.019999999999999 3.89       3.78       3.859999999999999 3.89       2.17       4.33       3.4        3.754416   1.798413   -9999      5.44       0.07154868 0.01830013 -9999      0.1247972  0.1397952  0.05921246 6.459669   2.478362   3.86       0          0.1151412  418.63     0.4353437  0.3028854  0.5678021 
