~Version
 VERS              .         2.0                           : CWLS LOG ASCII STANDARD - VERSION 2.0
 WRAP              .         NO                            : ONE LINE PER DEPTH STEP
 DLM               .         SPACE                         : DELIMITING CHARACTER(SPACE TAB OR COMMA)
~Well Information
#_______________________________________________________________________________
#
#PARAMETER_NAME    .UNIT     VALUE                         : DESCRIPTION
#_______________________________________________________________________________
STRT               .м        0                             : First reference value
STOP               .м        1215.4                        : Last reference value
STEP               .м        0.2                           : Step increment
NULL               .         -9999                         : Missing value
COMP               .                                       : Company
WELL               .         6943                          : Well name
FLD                .         Узень                         : Field
LOC                .                                       : Location
CNTY               .                                       : County
STAT               .                                       : State
CTRY               .                                       : Country
SRVC               .                                       : Service Company
DATE               .         18.3.2016                     : Date
UWI                .                                       : Unique Well ID
Block              .         7                             : 
Cartographic_reference_system .         GCS_WGS_1984                  : ESRI,PE_10_3_1- <?xml version="1.0" encoding="utf-16"?><ILateBoundCoordinateReferenceSystem name="GCS_WGS_1984"><AuthorityCode>EPSG,4326</AuthorityCode></ILateBoundCoordinateReferenceSystem>
Category           .         Нефтяная                      : 
Condition          .         В работе                      : 
Date               .         15.04.2016                    : 
EREF               .m        82.9                          : 100.8
GRP                .                                       : Group name
Gorizont           .         14                            : 14
HZCS               .GCS_WGS_1984 WGS_1984_EASE-Grid_2.0_Global : ESRI,PE_10_3_1- <?xml version="1.0" encoding="utf-16"?><ILateBoundCoordinateReferenceSystem name="WGS_1984_EASE-Grid_2.0_Global"><AuthorityCode>EPSG,6933</AuthorityCode></ILateBoundCoordinateReferenceSystem>
ISS                .                                       : Well surveys
Interpretator      .         Кушербаева А.С                : 
Kupol              .         основной                      : osnovnoi
LATI               .dega     0.6562396588                  : GCS_WGS_1984
LONG               .dega     0.4442180783                  : GCS_WGS_1984
Mud                .         полимерный                    : 
Mud_density        .         1.34                          : 
Mud_resistivity    .         0.60                          : 
NGDU               .         НГДУ-2                        : 
ORIGINALWELLNAME   .         6943                          : 
Spud_date          .         2016                          : 1961
TIME               .                                       : LOG TIME
Viscosity          .         40                            : 
X                  .m        42860.95                      : 46154
Y                  .m        83716.87                      : 85761.93
YEAR               .         2019г                         : 
~Parameter Information Block
#_______________________________________________________________________________
#
#PARAMETER_NAME    .UNIT     VALUE                         : DESCRIPTION
#_______________________________________________________________________________
SET                .         LQC_KAZNIPI_Petrel            : 
TLFamily_CALI      .         Caliper                       : 
TLFamily_COLL      .         Net Reservoir Flag            : 
TLFamily_CSAT      .         Fluid Code                    : 
TLFamily_DEPT      .         Measured Depth                : 
TLFamily_DT        .         Compressional Slowness        : 
TLFamily_GR        .         Russian Gamma Ray             : 
TLFamily_GZ3       .         Gradient 225                  : 
TLFamily_IK1       .         Resistivity 05                : 
TLFamily_IK2       .         Resistivity 07                : 
TLFamily_IK3       .         Resistivity 10                : 
TLFamily_IK4       .         Resistivity 14                : 
TLFamily_IK5       .         Resistivity 20                : 
TLFamily_LLS       .         Lateral Log Resistivity       : 
TLFamily_MBK       .         Micro Lateral Log Resistivity : 
TLFamily_MINV      .         Micro Gradient Resistivity    : 
TLFamily_MNOR      .         Micro Resistivity             : 
TLFamily_NNKTB_1   .         Neutron Far                   : 
TLFamily_NNKTM_1   .         Neutron Near                  : 
TLFamily_NPHI      .         Neutron Porosity              : 
TLFamily_OGZ       .         Gradient Inverted 225         : 
TLFamily_PHIE      .         Effective Porosity            : 
TLFamily_PHIED     .         Effective Porosity            : 
TLFamily_PHIEN     .         Effective Porosity            : 
TLFamily_PHIES     .         Effective Porosity            : 
TLFamily_PHIT      .         Porosity                      : 
TLFamily_PRMB      .         Permeability                  : 
TLFamily_PRMB_DGR  .         Permeability                  : 
TLFamily_RHOB      .         Bulk Density                  : 
TLFamily_RT        .         Formation Resistivity         : 
TLFamily_SOIL_ARCHIE .         Oil Saturation                : 
TLFamily_SOIL_DW   .         Oil Saturation                : 
TLFamily_SP        .         Spontaneous Potential         : 
TLFamily_VSH_FIN   .         Shale Volume                  : 
TLFamily_VSH_GR    .         Shale Volume                  : 
TLFamily_VSH_SP    .         Shale Volume                  : 
~Curve Information
#_______________________________________________________________________________
#
#LOGNAME           .UNIT     LOG_ID                        : DESCRIPTION
#_______________________________________________________________________________
DEPT               .м                                      : Колонка глубины 
CALI               .м                                      : Каверномер 
COLL               .unitless                               : Описание 
CSAT               .unitless                               : Описание 
DT                 .мкс/м                                  : Интервальное время пробега продольной волны 
GR                 .uR/h                                   : Гамма каротаж 
GZ3                .Ohmm                                   : Градиент-зонд  длиной 2.25м 
IK1                .Ohmm                                   : И0.10И0.40 
IK2                .Ohmm                                   : И0.14И0.56 
IK3                .Ohmm                                   : И0.20И0.8 
IK4                .Ohmm                                   : И0.28И1.12 
IK5                .Ohmm                                   : И0.40И1.60 
LLS                .Ohmm                                   : Боковой каротаж 
MBK                .Ohmm                                   : Микробоковой каротаж 
MINV               .Ohmm                                   : Микро-градиент зонд 
MNOR               .Ohmm                                   : Микро-потенциал зонд 
NNKTB_1            .у.е.                                   : Показания большого зонда 2ННКт аппаратуры СРК 
NNKTM_1            .у.е.                                   : Показания малого зонда 2ННКт аппаратуры СРК 
NPHI               .v/v                                    : Total porosity 
OGZ                .Ohmm                                   : Обращенный градиент-зонд 
PHIE               .v/v                                    : Описание 
PHIED              .v/v                                    :  
PHIEN              .v/v                                    :  
PHIES              .v/v                                    :  
PHIT               .v/v                                    : Описание 
PRMB               .mD                                     :  
PRMB_DGR           .mD                                     :  
RHOB               .г/см3                                  : Плотность по ГГКп 
RT                 .ohmm                                   : Удельное электрическое сопротивление 
SOIL_ARCHIE        .v/v                                    :  
SOIL_DW            .v/v                                    :  
SP                 .мВ                                     : Потенциал самополяризации 
VSH_FIN            .v/v                                    : Описание 
VSH_GR             .v/v                                    : Shale volume 
VSH_SP             .v/v                                    : Shale Volume 
~Ascii
# ...
991.2000000000001 0.227      -9999      -9999      287.6567   5.497231   3.42       5.09       4.12       3.63       3.640000000000001 3.53       3.25       2.4        5.41       3.54       3.540196   1.805965   -9999      3.67       0.1004156  0.06289235 -9999      0.1379389  0.157598   0.2028144  20.044     2.56497    3.53       0.08410133 0.2473736  379.51     0.3647658  0.1907526  0.5387789 
991.4      0.229      -9999      -9999      286.7957   5.465382   3.49       6.52       4.73       3.88       3.46       3.390000000000001 3.13       2.74       9.69       4.63       3.583904   1.808451   -9999      3.62       0.1009987  0.06497744 -9999      0.13702    0.1580436  0.2079216  20.963     2.561488   3.39       0.07123775 0.2350739  379.59     0.3638883  0.1872926  0.540484  
991.6      0.228      -9999      -9999      286.3049   5.448655   3.58       4.34       3.61       3.200000000000001 2.98       3.11       3          2.19       5.3        3.67       3.630044   1.808513   -9999      3.54       0.1008943  0.06674331 -9999      0.1350453  0.1585847  0.2069975  21.46243   2.558539   3.11       0.03202345 0.2026719  380        0.3680061  0.1855006  0.5505117 
991.8      0.23       -9999      -9999      286.2919   5.448944   3.72       3.72       3.09       2.92       2.81       2.92       2.91       1.95       4.01       3.32       3.670809   1.805493   -9999      3.58       0.1003734  0.06792969 -9999      0.132817   0.1591688  0.2024492  21.4537    2.556557   2.92       0          0.1772221  380.56     0.3750553  0.1855314  0.5645791 
992        0.231      -9999      -9999      286.8509   5.46833    3.81       3.98       3.44       3.33       3.299999999999999 3.16       3.03       2.11       4.92       3.61       3.698479   1.798993   -9999      3.69       0.05821085 -0.01558647 -9999      0.1320082  0.1178     0.03352465 20.87619   2.555386   3.16       0          0          380.88     0.3801184  0.1876102  0.5726266 
992.2000000000001 0.23       -9999      -9999      288.1266   5.509185   3.93       5.76       4.8        4.39       4.16       3.65       3.31       2.32       5.82       4.04       3.706638   1.78882    -9999      3.73       0.05870596 -0.01554633 -9999      0.1329583  0.118703   0.03424009 19.70954   2.554356   3.65       0          0          380.92     0.3827203  0.1920678  0.5733728 
992.4      0.228      -9999      -9999      290.272    5.573027   3.95       8.379999999999999 5.45       4.54       4.15       3.67       3.39       3.25       13.08      6.26       3.691179   1.775095   -9999      3.68       0.06012449 -0.01497713 -9999      0.1352261  0.1204549  0.03637555 18.01567   2.552619   3.67       0          0          380.82     0.3848467  0.1992463  0.5704472 
992.6      0.228      -9999      -9999      293.3204   5.657458   3.84       4.72       3.67       3.200000000000001 3.18       3.16       3.07       2.34       5.93       3.45       3.651915   1.758563   -9999      3.6        0.06214961 -0.01388538 -9999      0.1381846  0.1230487  0.03965697 15.99695   2.549453   3.16       0          0          380.73     0.3884745  0.2091537  0.5677952 
992.8      0.23       -9999      -9999      297.0392   5.75373    3.72       3.83       3.32       2.98       2.91       2.87       2.67       1.96       4.59       3.13       3.593264   1.740798   -9999      3.52       0.06323511 -0.01338155 -9999      0.1398518  0.1257421  0.0415361  13.96967   2.544817   2.87       0          0          381.07     0.398731   0.221053   0.5764089 
993        0.236      -9999      -9999      300.9099   5.84505    3.55       4.31       3.67       3.259999999999999 2.94       2.78       2.57       1.99       3.52       3.72       3.524745   1.724154   -9999      3.6        0.06421005 -0.01268824 -9999      0.1411083  0.1285657  0.0432996  12.28463   2.539295   2.78       0          0          381.52     0.4105241  0.2329653  0.588083  
993.2000000000001 0.232      -9999      -9999      304.2288   5.909892   3.52       3.5        2.87       2.72       2.55       2.55       2.49       2.03       4.42       3.25       3.459123   1.711259   -9999      3.78       0.06493829 -0.01195919 -9999      0.1418358  0.131004   0.04466556 11.21307   2.534042   2.55       0          0          382.01     0.4214323  0.2418113  0.6010534 
993.4      0.239      -9999      -9999      306.2778   5.926892   3.48       2.88       2.38       2.24       2.2        2.25       2.38       1.41       1.75       2.45       3.409946   1.704369   -9999      3.97       0.06620666 -0.01062525 -9999      0.1430386  0.1329288  0.04714829 10.94794   2.530265   2.25       0          0          382.24     0.4256198  0.2441857  0.6070539 
993.6      0.246      -9999      -9999      306.5414   5.881535   3.38       2.33       2.12       2.02       2.1        2.11       2.4        1.53       1.86       2.42       3.3884     1.70475    -9999      4.24       0.06796786 -0.008804347 -9999      0.1447401  0.1339998  0.05082621 11.66969   2.528853   2.11       0          0          382.16     0.4212171  0.2379021  0.6045321 
993.8      0.258      -9999      -9999      304.8654   5.770419   3.36       3.04       2.53       2.35       2.28       2.29       2.61       1.32       1.72       2.39       3.400834   1.712305   -9999      4.46       0.07026182 -0.006486362 -9999      0.14701    0.1341331  0.05605023 13.64535   2.530082   2.29       0          0          381.7      0.4074337  0.2231835  0.5916839 
994        0.228      -9999      -9999      301.4728   5.60304    3.36       3.4        2.97       2.86       2.75       2.71       2.92       1.89       4.01       3.15       3.447209   1.725657   -9999      4.7        0.07208232 -0.004472015 -9999      0.1486367  0.1330288  0.06057556 17.27043   2.533621   2.71       0          0          381.08     0.3887768  0.2027132  0.5748405 
994.2000000000001 0.228      -9999      -9999      296.8284   5.399125   3.44       5.799999999999999 4.19       3.65       3.35       3.21       3.21       2.5        6.76       4.87       3.521777   1.742606   -9999      4.74       0.1131821  0.07862769 -9999      0.1477365  0.1716099  0.3495949  23.0121    2.538692   3.21       0.1371313  0.2852707  380.72     0.3727103  0.1802943  0.5651262 
994.4      0.228      -9999      -9999      291.5276   5.183574   3.5        5.56       4.22       3.58       3.410000000000001 3.32       3.3        2.14       4.28       3.82       3.615085   1.760812   -9999      4.38       0.1110929  0.07519075 -9999      0.146995   0.1663875  0.319792   31.16899   2.544431   3.32       0.1367724  0.2787694  379.99     0.3527238  0.1592859  0.5461617 
994.6      0.23       -9999      -9999      286.1133   4.98068    3.49       5.140000000000001 3.83       3.23       3.12       3.08       3.2        2.46       6.35       4.39       3.716311   1.778308   -9999      3.86       0.1090296  0.07182705 -9999      0.1462322  0.1609927  0.2928538  41.47166   2.550049   3.08       0.09111601 0.2305857  378.99     0.3314718  0.141753   0.5211906 
994.8      0.23       -9999      -9999      280.9868   4.80934    3.49       3.6        3.359999999999999 3.14       2.95       2.98       3.18       1.91       4.01       3.55       3.815972   1.793829   -9999      3.42       0.1064239  0.06887452 -9999      0.1439734  0.155869   0.2620521  52.78267   2.55498    2.98       0.0572761  0.1947623  378.21     0.3154092  0.1284587  0.5023596 
995        0.23       -9999      -9999      276.4143   4.68081    3.49       6.35       4.81       4.279999999999999 3.63       3.31       3.34       2.82       9.09       6.31       3.907429   1.806911   -9999      3.13       0.1046561  0.06655115 -9999      0.1427611  0.1513398  0.243021   63.25019   2.55886    3.31       0.08942346 0.2171914  377.08     0.2977945  0.119311   0.4762779 
995.2000000000001 0.228      -9999      -9999      272.5195   4.598618   3.52       5.700000000000001 4.62       4.32       4.05       3.65       3.62       2.33       6.23       4.69       3.987371   1.817655   -9999      2.96       0.1035904  0.06491505 -9999      0.1422658  0.1475643  0.2322225  71.00784   2.561592   3.65       0.1224726  0.2401792  375.75     0.2805085  0.1138057  0.4472112 
