~Version
 VERS              .         2.0                           : CWLS LOG ASCII STANDARD - VERSION 2.0
 WRAP              .         NO                            : ONE LINE PER DEPTH STEP
 DLM               .         SPACE                         : DELIMITING CHARACTER(SPACE TAB OR COMMA)
~Well Information
#_______________________________________________________________________________
#
#PARAMETER_NAME    .UNIT     VALUE                         : DESCRIPTION
#_______________________________________________________________________________
STRT               .м        0                             : First reference value
STOP               .м        1215.4                        : Last reference value
STEP               .м        0.2                           : Step increment
NULL               .         -9999                         : Missing value
COMP               .                                       : Company
WELL               .         6943                          : Well name
FLD                .         Узень                         : Field
LOC                .                                       : Location
CNTY               .                                       : County
STAT               .                                       : State
CTRY               .                                       : Country
SRVC               .                                       : Service Company
DATE               .         18.3.2016                     : Date
UWI                .                                       : Unique Well ID
Block              .         7                             : 
Cartographic_reference_system .         GCS_WGS_1984                  : ESRI,PE_10_3_1- <?xml version="1.0" encoding="utf-16"?><ILateBoundCoordinateReferenceSystem name="GCS_WGS_1984"><AuthorityCode>EPSG,4326</AuthorityCode></ILateBoundCoordinateReferenceSystem>
Category           .         Нефтяная                      : 
Condition          .         В работе                      : 
Date               .         15.04.2016                    : 
EREF               .m        82.9                          : 100.8
GRP                .                                       : Group name
Gorizont           .         14                            : 14
HZCS               .GCS_WGS_1984 WGS_1984_EASE-Grid_2.0_Global : ESRI,PE_10_3_1- <?xml version="1.0" encoding="utf-16"?><ILateBoundCoordinateReferenceSystem name="WGS_1984_EASE-Grid_2.0_Global"><AuthorityCode>EPSG,6933</AuthorityCode></ILateBoundCoordinateReferenceSystem>
ISS                .                                       : Well surveys
Interpretator      .         Кушербаева А.С                : 
Kupol              .         основной                      : osnovnoi
LATI               .dega     0.6562396588                  : GCS_WGS_1984
LONG               .dega     0.4442180783                  : GCS_WGS_1984
Mud                .         полимерный                    : 
Mud_density        .         1.34                          : 
Mud_resistivity    .         0.60                          : 
NGDU               .         НГДУ-2                        : 
ORIGINALWELLNAME   .         6943                          : 
Spud_date          .         2016                          : 1961
TIME               .                                       : LOG TIME
Viscosity          .         40                            : 
X                  .m        42860.95                      : 46154
Y                  .m        83716.87                      : 85761.93
YEAR               .         2019г                         : 
~Parameter Information Block
#_______________________________________________________________________________
#
#PARAMETER_NAME    .UNIT     VALUE                         : DESCRIPTION
#_______________________________________________________________________________
SET                .         LQC_KAZNIPI_Petrel            : 
TLFamily_CALI      .         Caliper                       : 
TLFamily_COLL      .         Net Reservoir Flag            : 
TLFamily_CSAT      .         Fluid Code                    : 
TLFamily_DEPT      .         Measured Depth                : 
TLFamily_DT        .         Compressional Slowness        : 
TLFamily_GR        .         Russian Gamma Ray             : 
TLFamily_GZ3       .         Gradient 225                  : 
TLFamily_IK1       .         Resistivity 05                : 
TLFamily_IK2       .         Resistivity 07                : 
TLFamily_IK3       .         Resistivity 10                : 
TLFamily_IK4       .         Resistivity 14                : 
TLFamily_IK5       .         Resistivity 20                : 
TLFamily_LLS       .         Lateral Log Resistivity       : 
TLFamily_MBK       .         Micro Lateral Log Resistivity : 
TLFamily_MINV      .         Micro Gradient Resistivity    : 
TLFamily_MNOR      .         Micro Resistivity             : 
TLFamily_NNKTB_1   .         Neutron Far                   : 
TLFamily_NNKTM_1   .         Neutron Near                  : 
TLFamily_NPHI      .         Neutron Porosity              : 
TLFamily_OGZ       .         Gradient Inverted 225         : 
TLFamily_PHIE      .         Effective Porosity            : 
TLFamily_PHIED     .         Effective Porosity            : 
TLFamily_PHIEN     .         Effective Porosity            : 
TLFamily_PHIES     .         Effective Porosity            : 
TLFamily_PHIT      .         Porosity                      : 
TLFamily_PRMB      .         Permeability                  : 
TLFamily_PRMB_DGR  .         Permeability                  : 
TLFamily_RHOB      .         Bulk Density                  : 
TLFamily_RT        .         Formation Resistivity         : 
TLFamily_SOIL_ARCHIE .         Oil Saturation                : 
TLFamily_SOIL_DW   .         Oil Saturation                : 
TLFamily_SP        .         Spontaneous Potential         : 
TLFamily_VSH_FIN   .         Shale Volume                  : 
TLFamily_VSH_GR    .         Shale Volume                  : 
TLFamily_VSH_SP    .         Shale Volume                  : 
~Curve Information
#_______________________________________________________________________________
#
#LOGNAME           .UNIT     LOG_ID                        : DESCRIPTION
#_______________________________________________________________________________
DEPT               .м                                      : Колонка глубины 
CALI               .м                                      : Каверномер 
COLL               .unitless                               : Описание 
CSAT               .unitless                               : Описание 
DT                 .мкс/м                                  : Интервальное время пробега продольной волны 
GR                 .uR/h                                   : Гамма каротаж 
GZ3                .Ohmm                                   : Градиент-зонд  длиной 2.25м 
IK1                .Ohmm                                   : И0.10И0.40 
IK2                .Ohmm                                   : И0.14И0.56 
IK3                .Ohmm                                   : И0.20И0.8 
IK4                .Ohmm                                   : И0.28И1.12 
IK5                .Ohmm                                   : И0.40И1.60 
LLS                .Ohmm                                   : Боковой каротаж 
MBK                .Ohmm                                   : Микробоковой каротаж 
MINV               .Ohmm                                   : Микро-градиент зонд 
MNOR               .Ohmm                                   : Микро-потенциал зонд 
NNKTB_1            .у.е.                                   : Показания большого зонда 2ННКт аппаратуры СРК 
NNKTM_1            .у.е.                                   : Показания малого зонда 2ННКт аппаратуры СРК 
NPHI               .v/v                                    : Total porosity 
OGZ                .Ohmm                                   : Обращенный градиент-зонд 
PHIE               .v/v                                    : Описание 
PHIED              .v/v                                    :  
PHIEN              .v/v                                    :  
PHIES              .v/v                                    :  
PHIT               .v/v                                    : Описание 
PRMB               .mD                                     :  
PRMB_DGR           .mD                                     :  
RHOB               .г/см3                                  : Плотность по ГГКп 
RT                 .ohmm                                   : Удельное электрическое сопротивление 
SOIL_ARCHIE        .v/v                                    :  
SOIL_DW            .v/v                                    :  
SP                 .мВ                                     : Потенциал самополяризации 
VSH_FIN            .v/v                                    : Описание 
VSH_GR             .v/v                                    : Shale volume 
VSH_SP             .v/v                                    : Shale Volume 
~Ascii
# ...
1012.2     0.23       -9999      -9999      355.6081   9.797729   1.95       2.44       2.04       1.91       1.84       1.79       1.8        1.55       3.53       2.5        2.561191   1.566007   -9999      1.95       0.07725079 0.0005653222 -9999      0.1539363  0.1644314  0.07551444 1.446774   2.46329    1.79       0          0          381.34     0.5561242  0.5579782  0.5542701 
1012.4     0.229      -9999      -9999      355.7444   9.898231   1.98       2.09       1.85       1.72       1.72       1.72       1.78       1.37       2.81       1.99       2.558218   1.563579   -9999      1.94       0.07339039 -0.003537931 -9999      0.1503187  0.1624415  0.06405104 1.306935   2.465728   1.72       0          0          381.36     0.5680555  0.5816259  0.5544851 
1012.6     0.231      -9999      -9999      355.777    9.973239   1.98       2.17       1.88       1.75       1.71       1.68       1.75       1.45       3.07       2.05       2.558489   1.56165    -9999      1.95       0.07015489 -0.007135705 -9999      0.1474455  0.1606573  0.0557952  1.211449   2.468311   1.68       0          0          381.38     0.5773136  0.5999262  0.5547009 
1012.8     0.23       -9999      -9999      355.7988   10.022     1.99       2.16       1.86       1.75       1.69       1.68       1.77       1.48       2.99       2.15       2.561083   1.560351   -9999      1.93       0.06748927 -0.01033914 -9999      0.1453177  0.1590654  0.04979927 1.153149   2.471126   1.68       0          0          381.45     0.584163   0.6121308  0.5561951 
1013       0.231      -9999      -9999      355.8994   10.04661   2.05       2.03       1.81       1.76       1.73       1.74       1.8        1.41       2.78       2.02       2.565483   1.559779   -9999      1.9        0.06580602 -0.01290304 -9999      0.1445151  0.1578289  0.04634951 1.124803   2.474353   1.74       0          0          381.44     0.5870129  0.6183834  0.5556423 
1013.2     0.23       -9999      -9999      356.1277   10.05039   2.03       2.54       2.14       1.95       1.89       1.81       1.83       1.65       3.87       2.59       2.572036   1.560042   -9999      1.9        0.06435905 -0.01553658 -9999      0.1442547  0.1566152  0.04357563 1.120511   2.478201   1.81       0          0          381.53     0.5885005  0.6193497  0.5576513 
1013.4     0.229      -9999      -9999      356.4542   10.03664   2.05       2.36       2.03       1.89       1.87       1.82       1.82       1.44       2.95       2.05       2.58198    1.561218   -9999      1.88       0.06278094 -0.01857309 -9999      0.144135   0.1552441  0.04073928 1.136195   2.482783   1.82       0          0          381.78     0.5898209  0.6158441  0.5637977 
1013.6     0.229      -9999      -9999      356.7542   10.00833   2.04       2.43       2.06       1.87       1.8        1.72       1.77       1.55       3.44       2.31       2.596677   1.563282   -9999      1.88       0.06156277 -0.02151095 -9999      0.1446365  0.15391    0.03867674 1.169204   2.487963   1.72       0          0          382.01     0.5890819  0.6086845  0.5694793 
1013.8     0.23       -9999      -9999      356.883    9.969417   1.97       2.07       1.8        1.66       1.6        1.58       1.74       1.42       2.62       2.29       2.616786   1.565982   -9999      1.92       0.06288289 -0.02234083 -9999      0.1481066  0.153553   0.0409168  1.216142   2.493307   1.58       0          0          381.57     0.5783833  0.5989799  0.5577868 
1014       0.23       -9999      -9999      356.8033   9.925879   2.02       1.77       1.58       1.5        1.49       1.53       1.73       1.26       2.18       2.07       2.641319   1.568775   -9999      1.94       0.06276745 -0.02405909 -9999      0.149594   0.1526581  0.04071584 1.270892   2.498017   1.53       0          0          381.61     0.573411   0.5883058  0.5585163 
1014.2     0.23       -9999      -9999      356.6374   9.886379   2          1.9        1.75       1.68       1.67       1.66       1.81       1.29       2.45       2.15       2.667495   1.570853   -9999      2          0.06172232 -0.02595698 -9999      0.1494016  0.1516345  0.03894082 1.322695   2.501135   1.66       0          0          382        0.5735488  0.578786   0.5683116 
1014.4     0.23       -9999      -9999      356.6848   9.860061   2.02       2.44       2.09       2.02       2          1.92       1.9        1.62       2.63       2.82       2.690965   1.571333   -9999      2.04       0.06092915 -0.02684193 -9999      0.1487002  0.1512134  0.03764556 1.358378   2.501735   1.92       0          0          382.43     0.5759218  0.5725288  0.5793146 
1014.6     0.231      -9999      -9999      357.308    9.853665   2.06       2.83       2.45       2.26       2.21       2.1        1.97       1.64       3.15       2.77       2.706896   1.569488   -9999      2.04       0.06112007 -0.02600859 -9999      0.1482487  0.1519097  0.03795334 1.367193   2.49915    2.1        0          0          382.74     0.5791461  0.5710186  0.5872737 
1014.8     0.232      -9999      -9999      358.7491   9.867131   2.05       2.9        2.42       2.17       2.08       1.99       1.92       1.86       4.84       3.72       2.711616   1.565032   -9999      2          0.06285664 -0.02307637 -9999      0.1487897  0.1540189  0.04087103 1.348698   2.493374   1.99       0          0          382.81     0.5815228  0.5742032  0.5888423 
1015       0.237      -9999      -9999      360.9402   9.891728   2.05       2.17       1.91       1.78       1.73       1.73       1.76       1.37       2.96       2.21       2.703757   1.558311   -9999      1.93       0.06604701 -0.01826541 -9999      0.1503594  0.1573923  0.04682836 1.315559   2.484908   1.73       0          0          382.69     0.5826902  0.5800661  0.5853142 
1015.2     0.234      -9999      -9999      363.464    9.912139   1.98       1.9        1.72       1.64       1.59       1.57       1.64       1.36       2.73       1.97       2.684484   1.550286   -9999      1.91       0.07039341 -0.01209492 -9999      0.1528817  0.1615779  0.05636569 1.288678   2.474983   1.57       0          0          382.44     0.5816649  0.5849766  0.5783533 
1015.4     0.239      -9999      -9999      365.6661   9.911109   1.89       1.81       1.64       1.59       1.54       1.51       1.61       1.3        2.59       2.04       2.657053   1.542321   -9999      1.92       0.0751104  -0.005469943 -9999      0.1556907  0.1658382  0.06892628 1.290021   2.464997   1.51       0          0          382.24     0.5787513  0.5847278  0.5727748 
1015.6     0.239      -9999      -9999      366.8943   9.87641    1.9        1.8        1.58       1.53       1.51       1.47       1.61       1.29       2.53       1.94       2.625746   1.535848   -9999      1.95       0.07948915 0.0007649888 -9999      0.1582133  0.1694793  0.08307875 1.336099   2.456326   1.47       0          0          382.21     0.5740458  0.576408   0.5716836 
1015.8     0.241      -9999      -9999      366.7324   9.80547    1.83       1.72       1.54       1.48       1.48       1.46       1.64       1.17       2.21       1.75       2.594995   1.531983   -9999      2.01       0.08361493 0.006456653 -9999      0.1607732  0.1722563  0.09906253 1.435491   2.450004   1.46       0          0          382.2      0.565442   0.5597649  0.5711191 
1016       0.237      -9999      -9999      365.1333   9.70637    1.83       1.97       1.73       1.54       1.55       1.52       1.7        1.31       2.58       2.05       2.568076   1.531333   -9999      2.05       0.08717129 0.01116387 -9999      0.1631787  0.1739268  0.1152874  1.586834   2.446594   1.52       0          0          382.15     0.5534124  0.5373167  0.5695081 
1016.2     0.229      -9999      -9999      362.3973   9.595508   1.87       2.38       2.03       1.88       1.73       1.66       1.79       1.57       3.26       2.5        2.546688   1.533895   -9999      2.09       0.08824401 0.01321732 -9999      0.1632707  0.1737709  0.1206844  1.775129   2.446064   1.66       0          0          382.48     0.5455746  0.5132692  0.57788   
