~Version
 VERS              .         2.0                           : CWLS LOG ASCII STANDARD - VERSION 2.0
 WRAP              .         NO                            : ONE LINE PER DEPTH STEP
 DLM               .         SPACE                         : DELIMITING CHARACTER(SPACE TAB OR COMMA)
~Well Information
#_______________________________________________________________________________
#
#PARAMETER_NAME    .UNIT     VALUE                         : DESCRIPTION
#_______________________________________________________________________________
STRT               .м        0                             : First reference value
STOP               .м        1215.4                        : Last reference value
STEP               .м        0.2                           : Step increment
NULL               .         -9999                         : Missing value
COMP               .                                       : Company
WELL               .         6943                          : Well name
FLD                .         Узень                         : Field
LOC                .                                       : Location
CNTY               .                                       : County
STAT               .                                       : State
CTRY               .                                       : Country
SRVC               .                                       : Service Company
DATE               .         18.3.2016                     : Date
UWI                .                                       : Unique Well ID
Block              .         7                             : 
Cartographic_reference_system .         GCS_WGS_1984                  : ESRI,PE_10_3_1- <?xml version="1.0" encoding="utf-16"?><ILateBoundCoordinateReferenceSystem name="GCS_WGS_1984"><AuthorityCode>EPSG,4326</AuthorityCode></ILateBoundCoordinateReferenceSystem>
Category           .         Нефтяная                      : 
Condition          .         В работе                      : 
Date               .         15.04.2016                    : 
EREF               .m        82.9                          : 100.8
GRP                .                                       : Group name
Gorizont           .         14                            : 14
HZCS               .GCS_WGS_1984 WGS_1984_EASE-Grid_2.0_Global : ESRI,PE_10_3_1- <?xml version="1.0" encoding="utf-16"?><ILateBoundCoordinateReferenceSystem name="WGS_1984_EASE-Grid_2.0_Global"><AuthorityCode>EPSG,6933</AuthorityCode></ILateBoundCoordinateReferenceSystem>
ISS                .                                       : Well surveys
Interpretator      .         Кушербаева А.С                : 
Kupol              .         основной                      : osnovnoi
LATI               .dega     0.6562396588                  : GCS_WGS_1984
LONG               .dega     0.4442180783                  : GCS_WGS_1984
Mud                .         полимерный                    : 
Mud_density        .         1.34                          : 
Mud_resistivity    .         0.60                          : 
NGDU               .         НГДУ-2                        : 
ORIGINALWELLNAME   .         6943                          : 
Spud_date          .         2016                          : 1961
TIME               .                                       : LOG TIME
Viscosity          .         40                            : 
X                  .m        42860.95                      : 46154
Y                  .m        83716.87                      : 85761.93
YEAR               .         2019г                         : 
~Parameter Information Block
#_______________________________________________________________________________
#
#PARAMETER_NAME    .UNIT     VALUE                         : DESCRIPTION
#_______________________________________________________________________________
SET                .         LQC_KAZNIPI_Petrel            : 
TLFamily_CALI      .         Caliper                       : 
TLFamily_COLL      .         Net Reservoir Flag            : 
TLFamily_CSAT      .         Fluid Code                    : 
TLFamily_DEPT      .         Measured Depth                : 
TLFamily_DT        .         Compressional Slowness        : 
TLFamily_GR        .         Russian Gamma Ray             : 
TLFamily_GZ3       .         Gradient 225                  : 
TLFamily_IK1       .         Resistivity 05                : 
TLFamily_IK2       .         Resistivity 07                : 
TLFamily_IK3       .         Resistivity 10                : 
TLFamily_IK4       .         Resistivity 14                : 
TLFamily_IK5       .         Resistivity 20                : 
TLFamily_LLS       .         Lateral Log Resistivity       : 
TLFamily_MBK       .         Micro Lateral Log Resistivity : 
TLFamily_MINV      .         Micro Gradient Resistivity    : 
TLFamily_MNOR      .         Micro Resistivity             : 
TLFamily_NNKTB_1   .         Neutron Far                   : 
TLFamily_NNKTM_1   .         Neutron Near                  : 
TLFamily_NPHI      .         Neutron Porosity              : 
TLFamily_OGZ       .         Gradient Inverted 225         : 
TLFamily_PHIE      .         Effective Porosity            : 
TLFamily_PHIED     .         Effective Porosity            : 
TLFamily_PHIEN     .         Effective Porosity            : 
TLFamily_PHIES     .         Effective Porosity            : 
TLFamily_PHIT      .         Porosity                      : 
TLFamily_PRMB      .         Permeability                  : 
TLFamily_PRMB_DGR  .         Permeability                  : 
TLFamily_RHOB      .         Bulk Density                  : 
TLFamily_RT        .         Formation Resistivity         : 
TLFamily_SOIL_ARCHIE .         Oil Saturation                : 
TLFamily_SOIL_DW   .         Oil Saturation                : 
TLFamily_SP        .         Spontaneous Potential         : 
TLFamily_VSH_FIN   .         Shale Volume                  : 
TLFamily_VSH_GR    .         Shale Volume                  : 
TLFamily_VSH_SP    .         Shale Volume                  : 
~Curve Information
#_______________________________________________________________________________
#
#LOGNAME           .UNIT     LOG_ID                        : DESCRIPTION
#_______________________________________________________________________________
DEPT               .м                                      : Колонка глубины 
CALI               .м                                      : Каверномер 
COLL               .unitless                               : Описание 
CSAT               .unitless                               : Описание 
DT                 .мкс/м                                  : Интервальное время пробега продольной волны 
GR                 .uR/h                                   : Гамма каротаж 
GZ3                .Ohmm                                   : Градиент-зонд  длиной 2.25м 
IK1                .Ohmm                                   : И0.10И0.40 
IK2                .Ohmm                                   : И0.14И0.56 
IK3                .Ohmm                                   : И0.20И0.8 
IK4                .Ohmm                                   : И0.28И1.12 
IK5                .Ohmm                                   : И0.40И1.60 
LLS                .Ohmm                                   : Боковой каротаж 
MBK                .Ohmm                                   : Микробоковой каротаж 
MINV               .Ohmm                                   : Микро-градиент зонд 
MNOR               .Ohmm                                   : Микро-потенциал зонд 
NNKTB_1            .у.е.                                   : Показания большого зонда 2ННКт аппаратуры СРК 
NNKTM_1            .у.е.                                   : Показания малого зонда 2ННКт аппаратуры СРК 
NPHI               .v/v                                    : Total porosity 
OGZ                .Ohmm                                   : Обращенный градиент-зонд 
PHIE               .v/v                                    : Описание 
PHIED              .v/v                                    :  
PHIEN              .v/v                                    :  
PHIES              .v/v                                    :  
PHIT               .v/v                                    : Описание 
PRMB               .mD                                     :  
PRMB_DGR           .mD                                     :  
RHOB               .г/см3                                  : Плотность по ГГКп 
RT                 .ohmm                                   : Удельное электрическое сопротивление 
SOIL_ARCHIE        .v/v                                    :  
SOIL_DW            .v/v                                    :  
SP                 .мВ                                     : Потенциал самополяризации 
VSH_FIN            .v/v                                    : Описание 
VSH_GR             .v/v                                    : Shale volume 
VSH_SP             .v/v                                    : Shale Volume 
~Ascii
# ...
1142.4     0.229      -9999      -9999      311.7386   9.570848   1.89       2.36       1.92       1.73       1.71       1.7        1.89       2.16       5.56       3.57       2.652143   1.576214   0.1330153  1.57       0.1464489  0.0902241  0          0.1464489  0.2830259  1.4446     2.060745   2.35815    1.7        0.08391301 0.3528812  384.88     0.4356114  0.4829338  0.388289  
1142.6     0.228      -9999      -9999      313.6093   9.629649   1.8        2.06       1.73       1.65       1.68       1.66       1.87       1.55       3.9        2.6        2.64312    1.574917   0.1292924  1.68       0.1483382  0.08691337 0          0.1483382  0.2852148  1.565821   1.943443   2.363325   1.66       0.0839044  0.3514535  384.24     0.436567   0.4946302  0.3785039 
1142.8     0.229      -9999      -9999      315.4709   9.669656   1.93       2.34       1.9        1.77       1.75       1.71       1.83       1.34       3.6        2.46       2.632871   1.574785   0.1278561  1.81       0.1491602  0.08403126 0          0.1491602  0.2873675  1.621687   1.867476   2.366568   1.71       0.1009108  0.3652981  384.16     0.4408113  0.5027496  0.378873  
1143       0.229      -9999      -9999      317.3457   9.683349   2.1        2.37       1.98       1.8        1.77       1.75       1.81       1.45       3.4        2.41       2.625001   1.576204   0.1291076  1.97       0.1464332  0.08042826 0          0.1464332  0.2895099  1.443629   1.842162   2.366838   1.75       0.09620521 0.3709275  385.58     0.4563421  0.5055591  0.4071251 
1143.2     0.23       -9999      -9999      319.0398   9.665304   2.39       2.33       1.99       1.78       1.73       1.75       1.85       1.42       3.49       2.38       2.622804   1.579651   0.1329358  2.13       0.1479837  0.08207276 0          0.1479837  0.291424   1.542322   1.875592   2.363663   1.75       0.1044584  0.3760161  385.79     0.4575021  0.50186    0.4131441 
1143.4     0.229      -9999      -9999      320.3231   9.614292   2.68       2.25       1.98       1.82       1.78       1.78       1.9        1.63       3.42       2.77       2.628392   1.585423   0.1388857  2.22       0.1541716  0.08932215 0          0.1541716  0.2928606  2.008125   1.973419   2.357163   1.78       0.1427117  0.3929322  384.64     0.4423475  0.4915483  0.3931468 
1143.6     0.232      -9999      -9999      321.0165   9.534122   2.77       2.69       2.22       2.02       1.91       1.84       2          1.65       4.01       2.63       2.641986   1.593368   0.1462178  2.17       0.1629257  0.1003768  0.008645142 0.1629257  0.293632   2.917003   2.137575   2.348123   1.84       0.195584   0.4166951  382.56     0.416887   0.4757691  0.3580048 
1143.8     0.23       -9999      -9999      321.0931   9.434077   2.73       3.07       2.35       2.08       1.95       1.87       2.16       2.91       4.21       3.43       2.662001   1.602696   0.1540264  1.99       0.1729882  0.1137344  0.02695535 0.1729882  0.293717   4.480418   2.36171    2.33759    1.87       0.2422664  0.4351498  379.63     0.3850639  0.4567865  0.3133413 
1144       0.229      8          5          320.8004   9.32755    2.56       4.039999999999999 2.65       2.2        2          1.86       2.36       3.27       5.04       4.75       2.685131   1.611988   0.1616991  1.72       0.1818421  0.205742   0.04428929 0.1818421  0.2933919  6.536053   2.62626    2.326411   1.86       0.2726748  0.4445462  376.65     0.3557874  0.4374059  0.274169  
1144.2     0.224      8          5          320.438    9.230208   2.39       4.08       2.58       2.08       1.92       1.81       2.53       2.99       4.3        4.22       2.707162   1.619452   0.1684551  1.4        0.1902936  0.2123705  0.06036508 0.1902936  0.2929887  9.37253    2.893827   2.315341   1.81       0.2918936  0.4467853  373.08     0.3275454  0.4204162  0.2346746 
1144.4     0.225      8          5          320.2887   9.156639   2.29       3.84       2.2        1.81       1.77       1.77       2.5        2.68       3.1        4.06       2.723838   1.623336   0.1737706  1.2        0.1951043  0.2187931  0.07091918 0.1951043  0.2928222  11.507     3.113993   2.304615   1.77       0.2998204  0.4460737  370.97     0.3116709  0.408015   0.2153267 
1144.6     0.215      8          5          320.548    9.117128   2.25       4.69       2.78       2.13       2.05       1.95       2.56       3.36       3.26       4.59       2.731498   1.622319   0.1773733  1.12       0.197542   0.2250828  0.07678364 0.197542   0.2931112  12.76779   3.239068   2.294112   1.95       0.3381268  0.475249   370.05     0.3048172  0.4015065  0.2081278 
1144.8     0.203      8          5          321.3303   9.114962   2.27       5.119999999999999 3.04       2.4        2.28       2.17       2.64       2.97       3.28       4.19       2.72749    1.615822   0.1793882  1.14       0.1990467  0.2315091  0.07946774 0.1990467  0.29398    13.61398   3.246071   2.28338    2.17       0.3746559  0.5049736  369.51     0.3027893  0.4011526  0.2044259 
1145       0.212      8          5          322.7109   9.145285   2.18       5.170000000000001 3.01       2.31       2.16       2.12       2.5        2.86       3.7        4.41       2.710068   1.604123   0.180446   1.16       0.1992071  0.2384668  0.0790912  0.1992071  0.2955031  13.70745   3.149433   2.27176    2.12       0.3682211  0.5008565  369.85     0.3071357  0.4061339  0.2081375 
1145.2     0.216      8          5          324.7861   9.19679    2.09       5.309999999999999 2.84       2.03       1.92       1.86       2.23       3.11       3.54       4.18       2.678663   1.588369   0.1815952  1.27       0.1970749  0.246412   0.07561223 0.1970749  0.2977682  12.51594   2.991838   2.258492   1.86       0.3218897  0.4671543  371.87     0.3211605  0.414737   0.2275841 
1145.4     0.221      8          5          327.5277   9.254954   2.16       2.65       1.77       1.48       1.52       1.54       1.89       1.68       3.16       2.83       2.633962   1.57038    0.1837943  1.55       0.1941498  0.2556657  0.07162925 0.1941498  0.3007166  11.048     2.823328   2.243038   1.54       0.2493585  0.4142326  374.36     0.3398941  0.4246717  0.2551164 
1145.6     0.226      -9999      -9999      330.8256   9.306758   2.36       1.96       1.42       1.26       1.26       1.29       1.53       1.51       2.92       2.47       2.578341   1.552375   0.1876115  1.98       0.1892502  0.2660964  0.06662475 0.1892502  0.3041984  8.964618   2.681252   2.225619   1.29       0.1659319  0.3576982  377.76     0.3666266  0.4337201  0.299533  
1145.8     0.228      -9999      -9999      334.4207   9.344839   2.75       1.48       1.15       1.07       1.13       1.19       1.51       1.3        2.27       2.06       2.51603    1.536646   0.1928347  2.68       0.1840855  0.1894646  0.0624992  0.1840855  0.3079159  7.19232    2.581391   2.20746    1.19       0.1126156  0.3286222  380.94     0.3949562  0.4404944  0.3494179 
1146       0.228      -9999      -9999      337.9135   9.369057   3.35       1.68       1.43       1.26       1.3        1.29       1.6        1.46       2.18       2.06       2.453065   1.525195   0.1984498  3.34       0.1837661  0.1967966  0.06405642 0.1837661  0.3114518  7.095003   2.519829   2.190666   1.29       0.1442943  0.3591127  382.03     0.4072526  0.4448575  0.3696478 
1146.2     0.229      -9999      -9999      340.7982   9.385092   3.99       1.98       1.66       1.65       1.53       1.57       1.73       1.79       2.28       2.45       2.396383   1.519392   0.2029938  4.23       0.1848145  0.2031789  0.0666876  0.1848145  0.3143175  7.419427   2.479878   2.177863   1.57       0.2235028  0.4235609  382.42     0.413049   0.4477701  0.3783279 
1146.4     0.229      -9999      -9999      342.7535   9.400279   4.15       2.45       2.08       1.95       1.93       1.83       1.82       1.61       3.24       3.07       2.352689   1.519712   0.2051883  4.51       0.1855586  0.2062376  0.06764985 0.1855586  0.3162324  7.658679   2.442623   2.171373   1.83       0.279905   0.4688739  382.58     0.4167833  0.4505463  0.3830204 
