~Version
 VERS              .         2.0                           : CWLS LOG ASCII STANDARD - VERSION 2.0
 WRAP              .         NO                            : ONE LINE PER DEPTH STEP
 DLM               .         SPACE                         : DELIMITING CHARACTER(SPACE TAB OR COMMA)
~Well Information
#_______________________________________________________________________________
#
#PARAMETER_NAME    .UNIT     VALUE                         : DESCRIPTION
#_______________________________________________________________________________
STRT               .м        0                             : First reference value
STOP               .м        1215.4                        : Last reference value
STEP               .м        0.2                           : Step increment
NULL               .         -9999                         : Missing value
COMP               .                                       : Company
WELL               .         6943                          : Well name
FLD                .         Узень                         : Field
LOC                .                                       : Location
CNTY               .                                       : County
STAT               .                                       : State
CTRY               .                                       : Country
SRVC               .                                       : Service Company
DATE               .         18.3.2016                     : Date
UWI                .                                       : Unique Well ID
Block              .         7                             : 
Cartographic_reference_system .         GCS_WGS_1984                  : ESRI,PE_10_3_1- <?xml version="1.0" encoding="utf-16"?><ILateBoundCoordinateReferenceSystem name="GCS_WGS_1984"><AuthorityCode>EPSG,4326</AuthorityCode></ILateBoundCoordinateReferenceSystem>
Category           .         Нефтяная                      : 
Condition          .         В работе                      : 
Date               .         15.04.2016                    : 
EREF               .m        82.9                          : 100.8
GRP                .                                       : Group name
Gorizont           .         14                            : 14
HZCS               .GCS_WGS_1984 WGS_1984_EASE-Grid_2.0_Global : ESRI,PE_10_3_1- <?xml version="1.0" encoding="utf-16"?><ILateBoundCoordinateReferenceSystem name="WGS_1984_EASE-Grid_2.0_Global"><AuthorityCode>EPSG,6933</AuthorityCode></ILateBoundCoordinateReferenceSystem>
ISS                .                                       : Well surveys
Interpretator      .         Кушербаева А.С                : 
Kupol              .         основной                      : osnovnoi
LATI               .dega     0.6562396588                  : GCS_WGS_1984
LONG               .dega     0.4442180783                  : GCS_WGS_1984
Mud                .         полимерный                    : 
Mud_density        .         1.34                          : 
Mud_resistivity    .         0.60                          : 
NGDU               .         НГДУ-2                        : 
ORIGINALWELLNAME   .         6943                          : 
Spud_date          .         2016                          : 1961
TIME               .                                       : LOG TIME
Viscosity          .         40                            : 
X                  .m        42860.95                      : 46154
Y                  .m        83716.87                      : 85761.93
YEAR               .         2019г                         : 
~Parameter Information Block
#_______________________________________________________________________________
#
#PARAMETER_NAME    .UNIT     VALUE                         : DESCRIPTION
#_______________________________________________________________________________
SET                .         LQC_KAZNIPI_Petrel            : 
TLFamily_CALI      .         Caliper                       : 
TLFamily_COLL      .         Net Reservoir Flag            : 
TLFamily_CSAT      .         Fluid Code                    : 
TLFamily_DEPT      .         Measured Depth                : 
TLFamily_DT        .         Compressional Slowness        : 
TLFamily_GR        .         Russian Gamma Ray             : 
TLFamily_GZ3       .         Gradient 225                  : 
TLFamily_IK1       .         Resistivity 05                : 
TLFamily_IK2       .         Resistivity 07                : 
TLFamily_IK3       .         Resistivity 10                : 
TLFamily_IK4       .         Resistivity 14                : 
TLFamily_IK5       .         Resistivity 20                : 
TLFamily_LLS       .         Lateral Log Resistivity       : 
TLFamily_MBK       .         Micro Lateral Log Resistivity : 
TLFamily_MINV      .         Micro Gradient Resistivity    : 
TLFamily_MNOR      .         Micro Resistivity             : 
TLFamily_NNKTB_1   .         Neutron Far                   : 
TLFamily_NNKTM_1   .         Neutron Near                  : 
TLFamily_NPHI      .         Neutron Porosity              : 
TLFamily_OGZ       .         Gradient Inverted 225         : 
TLFamily_PHIE      .         Effective Porosity            : 
TLFamily_PHIED     .         Effective Porosity            : 
TLFamily_PHIEN     .         Effective Porosity            : 
TLFamily_PHIES     .         Effective Porosity            : 
TLFamily_PHIT      .         Porosity                      : 
TLFamily_PRMB      .         Permeability                  : 
TLFamily_PRMB_DGR  .         Permeability                  : 
TLFamily_RHOB      .         Bulk Density                  : 
TLFamily_RT        .         Formation Resistivity         : 
TLFamily_SOIL_ARCHIE .         Oil Saturation                : 
TLFamily_SOIL_DW   .         Oil Saturation                : 
TLFamily_SP        .         Spontaneous Potential         : 
TLFamily_VSH_FIN   .         Shale Volume                  : 
TLFamily_VSH_GR    .         Shale Volume                  : 
TLFamily_VSH_SP    .         Shale Volume                  : 
~Curve Information
#_______________________________________________________________________________
#
#LOGNAME           .UNIT     LOG_ID                        : DESCRIPTION
#_______________________________________________________________________________
DEPT               .м                                      : Колонка глубины 
CALI               .м                                      : Каверномер 
COLL               .unitless                               : Описание 
CSAT               .unitless                               : Описание 
DT                 .мкс/м                                  : Интервальное время пробега продольной волны 
GR                 .uR/h                                   : Гамма каротаж 
GZ3                .Ohmm                                   : Градиент-зонд  длиной 2.25м 
IK1                .Ohmm                                   : И0.10И0.40 
IK2                .Ohmm                                   : И0.14И0.56 
IK3                .Ohmm                                   : И0.20И0.8 
IK4                .Ohmm                                   : И0.28И1.12 
IK5                .Ohmm                                   : И0.40И1.60 
LLS                .Ohmm                                   : Боковой каротаж 
MBK                .Ohmm                                   : Микробоковой каротаж 
MINV               .Ohmm                                   : Микро-градиент зонд 
MNOR               .Ohmm                                   : Микро-потенциал зонд 
NNKTB_1            .у.е.                                   : Показания большого зонда 2ННКт аппаратуры СРК 
NNKTM_1            .у.е.                                   : Показания малого зонда 2ННКт аппаратуры СРК 
NPHI               .v/v                                    : Total porosity 
OGZ                .Ohmm                                   : Обращенный градиент-зонд 
PHIE               .v/v                                    : Описание 
PHIED              .v/v                                    :  
PHIEN              .v/v                                    :  
PHIES              .v/v                                    :  
PHIT               .v/v                                    : Описание 
PRMB               .mD                                     :  
PRMB_DGR           .mD                                     :  
RHOB               .г/см3                                  : Плотность по ГГКп 
RT                 .ohmm                                   : Удельное электрическое сопротивление 
SOIL_ARCHIE        .v/v                                    :  
SOIL_DW            .v/v                                    :  
SP                 .мВ                                     : Потенциал самополяризации 
VSH_FIN            .v/v                                    : Описание 
VSH_GR             .v/v                                    : Shale volume 
VSH_SP             .v/v                                    : Shale Volume 
~Ascii
# ...
1163.4     0.221      -9999      -9999      307.5203   9.604034   2.15       4.67       2.68       2.08       1.9        1.77       2.84       3.02       4.59       4.93       2.759427   1.640856   0.1350953  3.57       0.1640682  0.2657386  0.01518674 0.1640682  0.277992   3.062662   1.993699   2.226217   1.77       0.1857796  0.3870835  368.67     0.3633592  0.4895006  0.2372179 
1163.6     0.22       8          2          307.5791   9.51855    2.22       4.889999999999999 2.74       2.08       1.89       1.79       3.07       3.52       4.99       5.21       2.78854    1.650861   0.1391152  3.84       0.1721732  0.2631517  0.02766243 0.1721732  0.2780632  4.327359   2.171011   2.230537   1.79       0.2233713  0.4023397  364.96     0.3377355  0.4727634  0.2027077 
1163.8     0.222      8          2          307.8576   9.416446   2.28       5.040000000000001 2.71       2.06       1.9        1.85       3.24       3.17       4.03       4.78       2.814888   1.661042   0.1445271  4.24       0.1792569  0.2600806  0.04017609 0.1792569  0.2783997  5.853715   2.403579   2.235665   1.85       0.2616822  0.4220814  361.72     0.3162151  0.4535205  0.1789096 
1164       0.221      8          2          308.2609   9.297637   2.36       5.91       3.32       2.35       2.11       2.02       3.46       3.43       4.22       4.85       2.839771   1.670797   0.1511756  4.57       0.1850987  0.2570523  0.0524616  0.1850987  0.2788858  7.509918   2.705737   2.240723   2.02       0.3110353  0.4547041  359.6      0.2991334  0.4321131  0.1661536 
1164.2     0.219      8          2          308.6893   9.164579   2.44       6.59       3.470000000000001 2.51       2.25       2.17       3.72       3.61       4.66       5.11       2.865121   1.679762   0.158674   4.91       0.1905601  0.2545383  0.06516625 0.1905601  0.2794009  9.479693   3.089445   2.244921   2.17       0.3504689  0.4807054  357.9      0.2833569  0.4093356  0.1573781 
1164.4     0.22       8          2          309.0676   9.023562   2.48       6.260000000000001 3.520000000000001 2.55       2.38       2.37       3.97       3.24       5.21       5.23       2.892554   1.687846   0.1664256  5.23       0.1957298  0.2527973  0.07788166 0.1957298  0.2798544  11.81815   3.555664   2.247828   2.37       0.3911536  0.5090308  356.28     0.2683148  0.3865047  0.1501249 
1164.6     0.219      8          2          309.3518   8.884034   2.57       8.19       4.26       3.06       2.79       2.65       4.32       3.89       4.77       5.52       2.922385   1.695155   0.173721   5.5        0.2000645  0.2518211  0.08938154 0.2000645  0.2801945  14.218     4.086171   2.249459   2.65       0.4331552  0.5402181  355.24     0.2555741  0.3651685  0.1459798 
1164.8     0.217      8          2          309.509    8.756897   2.64       9.419999999999998 4.58       3.38       3.1        2.87       4.67       4.16       5.11       5.61       2.953466   1.70186    0.1798951  5.67       0.2036853  0.2513739  0.09916896 0.2036853  0.2803824  16.5922    4.638193   2.250206   2.87       0.4624407  0.5616478  354.28     0.2446247  0.3467542  0.1424953 
1165       0.22       1          2          309.5169   8.651701   2.69       11.15      5.170000000000001 3.69       3.259999999999999 2.97       4.87       3.88       4.56       5.44       2.983679   1.708126   0.1844939  5.79       0.2063768  0.2511589  0.1065908  0.2063768  0.2803917  18.61045   5.150905   2.250565   2.97       0.4770251  0.5714518  353.51     0.2360702  0.332222   0.1399183 
1165.2     0.22       1          2          309.3592   8.57428    2.77       14.05      6.050000000000001 3.88       3.34       2.95       5.1        4.69       4.99       5.82       3.011112   1.714024   0.1873091  5.87       0.2081455  0.2509248  0.1114659  0.2081455  0.2802033  20.06859   5.564111   2.250956   2.95       0.4792491  0.5713644  352.81     0.229828   0.3219172  0.1377387 
1165.4     0.22       1          2          309.0175   8.52526    2.82       13.49      5.719999999999999 3.520000000000001 3.07       2.81       5.27       4.63       5.32       5.87       3.034878   1.719542   0.1883822  5.96       0.2088713  0.2506159  0.1137333  0.2088713  0.2797944  20.69961   5.842709   2.251472   2.81       0.468844   0.561083   352.52     0.2262086  0.3155586  0.1368587 
1165.6     0.221      1          2          308.483    8.500792   2.92       12.19      5.28       3.35       2.84       2.66       5.2        4.33       4.86       5.62       3.055572   1.724668   0.1879266  6.11       0.2087837  0.2502755  0.1138607  0.2087837  0.279153   20.62238   5.986952   2.25204    2.66       0.4547937  0.5481954  352.39     0.2244423  0.3124318  0.1364528 
1165.8     0.221      1          2          307.7611   8.493351   3.05       12.96      5.460000000000001 3.4        2.79       2.62       5.2        4.51       4.99       5.67       3.074805   1.729499   0.1862633  6.33       0.2080323  0.249911   0.112322   0.2080323  0.2782831  19.97194   6.031515   2.252649   2.62       0.4491763  0.5432439  352.47     0.2240646  0.3114871  0.1366422 
1166       0.22       1          2          306.8535   8.493679   3.18       12.61      5.239999999999999 3.24       2.7        2.6        5.21       4.48       4.95       5.6        3.094298   1.734303   0.1837973  6.56       0.2068694  0.2494677  0.1097893  0.2068694  0.2771836  19.00558   6.029541   2.253389   2.6        0.4444865  0.5393543  352.61     0.2242667  0.3115287  0.1370047 
1166.2     0.217      1          2          305.7379   8.491549   3.35       11.3       4.86       3.09       2.62       2.54       5.1        4.64       4.68       5.59       3.115548   1.739564   0.1809967  6.83       0.2054663  0.2487316  0.1069437  0.2054663  0.2758233  17.90164   6.042354   2.254618   2.54       0.435028   0.5312772  352.81     0.2244031  0.3112588  0.1375473 
1166.4     0.215      1          2          304.3692   8.477253   3.5        10.74      4.81       3.09       2.65       2.55       5.06       4.65       5.12       5.56       3.139596   1.745927   0.1782916  7.09       0.2040313  0.2473063  0.1044992  0.2040313  0.2741407  16.83887   6.12907    2.256999   2.55       0.4326159  0.5291507  352.9      0.2236134  0.309453   0.1377738 
1166.6     0.215      1          2          302.6566   8.442684   3.69       10.06      4.67       3.09       2.64       2.54       5.02       4.64       4.9        5.39       3.168031   1.754214   0.176022   7.33       0.2023852  0.2448461  0.1027354  0.2023852  0.2720139  15.69722   6.343921   2.261107   2.54       0.4275441  0.524474   353.33     0.2220804  0.3051299  0.1390309 
1166.8     0.214      1          2          300.3925   8.382068   3.86       10.68      4.8        3.15       2.65       2.49       5.02       4.75       4.38       5.16       3.203876   1.765291   0.1741342  7.55       0.2004964  0.2410354  0.1018582  0.2004964  0.2691649  14.48229   6.73901    2.267471   2.49       0.4174402  0.5148738  353.76     0.219018   0.2976944  0.1403415 
1167       0.203      1          2          297.2813   8.29319    4.06       9.640000000000002 4.68       3.07       2.59       2.43       5.16       4.62       3.58       5.12       3.252252   1.779901   0.172141   7.74       0.1979754  0.2356987  0.1014068  0.1979754  0.2651793  13.00599   7.363216   2.276383   2.43       0.4042041  0.5020123  354.15     0.2143462  0.2871188  0.1415735 
1167.2     0.196      1          2          292.9737   8.17751    4.35       9.859999999999999 4.469999999999999 2.98       2.55       2.42       5.32       4.57       3.56       5.14       3.319754   1.798424   0.1691186  8          0.194149   0.2286518  0.1003122  0.194149   0.2595212  11.04763   8.263044   2.288152   2.42       0.3928162  0.4905425  354.61     0.2085043  0.2739146  0.1430939 
1167.4     0.209      1          2          287.1644   8.041359   4.75       9.419999999999998 4.58       3.05       2.65       2.5        5.53       4.48       3.18       4.32       3.412155   1.82054    0.1640003  8.46       0.1881133  0.2199838  0.09715535 0.1881133  0.251622   8.540299   9.463991   2.302627   2.5        0.385336   0.4828793  355.42     0.2025604  0.2591496  0.1459713 
