~Version
 VERS              .         2.0                           : CWLS LOG ASCII STANDARD - VERSION 2.0
 WRAP              .         NO                            : ONE LINE PER DEPTH STEP
 DLM               .         SPACE                         : DELIMITING CHARACTER(SPACE TAB OR COMMA)
~Well Information
#_______________________________________________________________________________
#
#PARAMETER_NAME    .UNIT     VALUE                         : DESCRIPTION
#_______________________________________________________________________________
STRT               .м        0                             : First reference value
STOP               .м        1215.4                        : Last reference value
STEP               .м        0.2                           : Step increment
NULL               .         -9999                         : Missing value
COMP               .                                       : Company
WELL               .         6943                          : Well name
FLD                .         Узень                         : Field
LOC                .                                       : Location
CNTY               .                                       : County
STAT               .                                       : State
CTRY               .                                       : Country
SRVC               .                                       : Service Company
DATE               .         18.3.2016                     : Date
UWI                .                                       : Unique Well ID
Block              .         7                             : 
Cartographic_reference_system .         GCS_WGS_1984                  : ESRI,PE_10_3_1- <?xml version="1.0" encoding="utf-16"?><ILateBoundCoordinateReferenceSystem name="GCS_WGS_1984"><AuthorityCode>EPSG,4326</AuthorityCode></ILateBoundCoordinateReferenceSystem>
Category           .         Нефтяная                      : 
Condition          .         В работе                      : 
Date               .         15.04.2016                    : 
EREF               .m        82.9                          : 100.8
GRP                .                                       : Group name
Gorizont           .         14                            : 14
HZCS               .GCS_WGS_1984 WGS_1984_EASE-Grid_2.0_Global : ESRI,PE_10_3_1- <?xml version="1.0" encoding="utf-16"?><ILateBoundCoordinateReferenceSystem name="WGS_1984_EASE-Grid_2.0_Global"><AuthorityCode>EPSG,6933</AuthorityCode></ILateBoundCoordinateReferenceSystem>
ISS                .                                       : Well surveys
Interpretator      .         Кушербаева А.С                : 
Kupol              .         основной                      : osnovnoi
LATI               .dega     0.6562396588                  : GCS_WGS_1984
LONG               .dega     0.4442180783                  : GCS_WGS_1984
Mud                .         полимерный                    : 
Mud_density        .         1.34                          : 
Mud_resistivity    .         0.60                          : 
NGDU               .         НГДУ-2                        : 
ORIGINALWELLNAME   .         6943                          : 
Spud_date          .         2016                          : 1961
TIME               .                                       : LOG TIME
Viscosity          .         40                            : 
X                  .m        42860.95                      : 46154
Y                  .m        83716.87                      : 85761.93
YEAR               .         2019г                         : 
~Parameter Information Block
#_______________________________________________________________________________
#
#PARAMETER_NAME    .UNIT     VALUE                         : DESCRIPTION
#_______________________________________________________________________________
SET                .         LQC_KAZNIPI_Petrel            : 
TLFamily_CALI      .         Caliper                       : 
TLFamily_COLL      .         Net Reservoir Flag            : 
TLFamily_CSAT      .         Fluid Code                    : 
TLFamily_DEPT      .         Measured Depth                : 
TLFamily_DT        .         Compressional Slowness        : 
TLFamily_GR        .         Russian Gamma Ray             : 
TLFamily_GZ3       .         Gradient 225                  : 
TLFamily_IK1       .         Resistivity 05                : 
TLFamily_IK2       .         Resistivity 07                : 
TLFamily_IK3       .         Resistivity 10                : 
TLFamily_IK4       .         Resistivity 14                : 
TLFamily_IK5       .         Resistivity 20                : 
TLFamily_LLS       .         Lateral Log Resistivity       : 
TLFamily_MBK       .         Micro Lateral Log Resistivity : 
TLFamily_MINV      .         Micro Gradient Resistivity    : 
TLFamily_MNOR      .         Micro Resistivity             : 
TLFamily_NNKTB_1   .         Neutron Far                   : 
TLFamily_NNKTM_1   .         Neutron Near                  : 
TLFamily_NPHI      .         Neutron Porosity              : 
TLFamily_OGZ       .         Gradient Inverted 225         : 
TLFamily_PHIE      .         Effective Porosity            : 
TLFamily_PHIED     .         Effective Porosity            : 
TLFamily_PHIEN     .         Effective Porosity            : 
TLFamily_PHIES     .         Effective Porosity            : 
TLFamily_PHIT      .         Porosity                      : 
TLFamily_PRMB      .         Permeability                  : 
TLFamily_PRMB_DGR  .         Permeability                  : 
TLFamily_RHOB      .         Bulk Density                  : 
TLFamily_RT        .         Formation Resistivity         : 
TLFamily_SOIL_ARCHIE .         Oil Saturation                : 
TLFamily_SOIL_DW   .         Oil Saturation                : 
TLFamily_SP        .         Spontaneous Potential         : 
TLFamily_VSH_FIN   .         Shale Volume                  : 
TLFamily_VSH_GR    .         Shale Volume                  : 
TLFamily_VSH_SP    .         Shale Volume                  : 
~Curve Information
#_______________________________________________________________________________
#
#LOGNAME           .UNIT     LOG_ID                        : DESCRIPTION
#_______________________________________________________________________________
DEPT               .м                                      : Колонка глубины 
CALI               .м                                      : Каверномер 
COLL               .unitless                               : Описание 
CSAT               .unitless                               : Описание 
DT                 .мкс/м                                  : Интервальное время пробега продольной волны 
GR                 .uR/h                                   : Гамма каротаж 
GZ3                .Ohmm                                   : Градиент-зонд  длиной 2.25м 
IK1                .Ohmm                                   : И0.10И0.40 
IK2                .Ohmm                                   : И0.14И0.56 
IK3                .Ohmm                                   : И0.20И0.8 
IK4                .Ohmm                                   : И0.28И1.12 
IK5                .Ohmm                                   : И0.40И1.60 
LLS                .Ohmm                                   : Боковой каротаж 
MBK                .Ohmm                                   : Микробоковой каротаж 
MINV               .Ohmm                                   : Микро-градиент зонд 
MNOR               .Ohmm                                   : Микро-потенциал зонд 
NNKTB_1            .у.е.                                   : Показания большого зонда 2ННКт аппаратуры СРК 
NNKTM_1            .у.е.                                   : Показания малого зонда 2ННКт аппаратуры СРК 
NPHI               .v/v                                    : Total porosity 
OGZ                .Ohmm                                   : Обращенный градиент-зонд 
PHIE               .v/v                                    : Описание 
PHIED              .v/v                                    :  
PHIEN              .v/v                                    :  
PHIES              .v/v                                    :  
PHIT               .v/v                                    : Описание 
PRMB               .mD                                     :  
PRMB_DGR           .mD                                     :  
RHOB               .г/см3                                  : Плотность по ГГКп 
RT                 .ohmm                                   : Удельное электрическое сопротивление 
SOIL_ARCHIE        .v/v                                    :  
SOIL_DW            .v/v                                    :  
SP                 .мВ                                     : Потенциал самополяризации 
VSH_FIN            .v/v                                    : Описание 
VSH_GR             .v/v                                    : Shale volume 
VSH_SP             .v/v                                    : Shale Volume 
~Ascii
# ...
949.2000000000001 0.232      -9999      -9999      328.9154   5.806753   3.51       3.9        3.23       2.99       2.87       2.74       2.53       2.11       4.13       3.34       3.124346   1.721295   -9999      2.6        0.1617968  0.1186366  -9999      0.204957   0.2104134  2.779887   12.96503   2.471877   2.74       0.3191622  0.4077931  389.87     0.3101246  0.2278933  0.392356  
949.4      0.234      -9999      -9999      330.4396   5.871493   3.46       3.22       2.84       2.61       2.53       2.46       2.4        1.94       3.71       2.94       3.096473   1.712459   -9999      2.48       0.1621004  0.1187845  -9999      0.2054163  0.2112895  2.816121   11.83581   2.47163    2.46       0.2850046  0.3769963  389.68     0.3137767  0.236533   0.3910204 
949.6      0.245      -9999      -9999      331.0736   5.925453   3.34       2.56       2.38       2.22       2.21       2.2        2.29       1.67       2.85       2.4        3.080467   1.706775   -9999      2.42       0.1623274  0.1188737  -9999      0.205781   0.2116656  2.843511   10.97014   2.471481   2.2        0.2474435  0.3422765  389.26     0.314728   0.2439838  0.3854722 
949.8      0.253      -9999      -9999      330.755    5.969215   3.3        2.63       2.31       2.18       2.15       2.17       2.31       1.64       2.86       2.32       3.076327   1.70412    -9999      2.41       0.1622321  0.1188796  -9999      0.2055846  0.2115021  2.83198    10.31478   2.471471   2.17       0.2421916  0.3372851  388.75     0.3142928  0.2501984  0.3783871 
950        0.253      -9999      -9999      329.6854   6.00791    3.23       2.54       2.34       2.3        2.33       2.39       2.45       1.68       2.92       2.48       3.082197   1.703357   -9999      2.38       0.1618888  0.1189146  -9999      0.2048631  0.2109585  2.790818   9.768005   2.471413   2.39       0.2744279  0.3670161  388.17     0.3130151  0.2558252  0.370205  
950.2000000000001 0.235      -9999      -9999      328.3518   6.05111    3.25       4.23       3.4        2.94       2.9        2.82       2.68       2.11       3.98       3.26       3.093863   1.702517   -9999      2.33       0.1615486  0.1192899  -9999      0.2038074  0.2104415  2.750622   9.191738   2.470786   2.82       0.3273965  0.4159244  387.55     0.3118871  0.2622568  0.3615175 
950.4      0.231      -9999      -9999      327.4577   6.110917   3.33       4.67       3.76       3.38       3.35       3.22       2.9        2.51       5.55       3.88       3.104877   1.699326   -9999      2.24       0.1618576  0.1204473  -9999      0.2032679  0.2105446  2.787105   8.44964    2.468853   3.22       0.3690373  0.453997   386.73     0.3105738  0.2714283  0.3497193 
950.6      0.232      -9999      -9999      327.73     6.198139   3.39       5.219999999999999 4.12       3.520000000000001 3.44       3.27       2.92       2.43       4.71       3.79       3.107989   1.691895   -9999      2.13       0.1625158  0.1227827  -9999      0.202249   0.2118574  2.86646    7.473415   2.464953   3.27       0.3757935  0.461059   386.27     0.3147493  0.2853824  0.3441161 
950.8      0.231      -9999      -9999      329.6654   6.31826    3.43       5.05       3.99       3.42       3.25       3.06       2.73       2.48       4.85       3.98       3.097239   1.67938    -9999      2.11       0.1637316  0.1264338  -9999      0.2010294  0.2147076  3.019006   6.310868   2.458856   3.06       0.3602116  0.4489092  386.18     0.3251757  0.3057814  0.3445699 
951        0.231      -9999      -9999      333.3707   6.468401   3.42       3.57       2.99       2.72       2.69       2.64       2.45       2.07       4          3.26       3.069958   1.66218    -9999      2.07       0.1654678  0.1311089  -9999      0.1998267  0.2189737  3.251046   5.108672   2.451048   2.64       0.3205861  0.4160289  386.35     0.3413134  0.3333407  0.3492861 
951.2000000000001 0.245      -9999      -9999      338.5469   6.636974   3.36       2.65       2.36       2.27       2.3        2.29       2.19       1.73       2.86       2.38       3.027546   1.641771   -9999      2.01       0.1677171  0.1361654  -9999      0.1992687  0.2241253  3.578366   4.029575   2.442604   2.29       0.2821841  0.3849064  386.42     0.3598276  0.3672541  0.3524011 
951.4      0.265      -9999      -9999      344.6301   6.806582   3.32       2.66       2.43       2.33       2.3        2.22       2.07       1.66       2.66       2.5        2.974637   1.620201   -9999      2.02       0.1277547  0.0566376  -9999      0.1988719  0.1873437  0.6508575  3.173787   2.434772   2.22       0.07681937 0.2233985  386.48     0.3801174  0.4048584  0.3553763 
951.6      0.25       -9999      -9999      351.005    6.959082   3.2        2.88       2.51       2.42       2.39       2.26       2.06       1.79       3.07       2.74       2.917132   1.599499   -9999      2          0.1272713  0.05597951 -9999      0.1985632  0.1900291  0.6375761  2.560679   2.428392   2.26       0.08149548 0.235565   386.56     0.4003311  0.4419459  0.3587163 
951.8      0.243      -9999      -9999      357.1739   7.080711   3.14       2.46       2.09       2.13       2.18       2.16       2.02       1.76       3.21       2.46       2.860298   1.581331   -9999      1.96       0.1268528  0.05495144 -9999      0.1987542  0.1923296  0.6262967  2.157759   2.423691   2.16       0.05908502 0.2225799  386.6      0.4176758  0.4739469  0.3614048 
952        0.244      -9999      -9999      362.8126   7.16499    2.99       2.01       1.94       1.88       2.01       2.07       1.93       1.39       1.99       1.94       2.807758   1.56697    -9999      1.95       0.1271109  0.05427905 -9999      0.1999428  0.1944824  0.6332287  1.916387   2.420342   2.07       0.04180214 0.2117375  386.52     0.4297616  0.49747    0.3620531 
952.2000000000001 0.24       -9999      -9999      367.6677   7.212689   2.83       2.87       2.53       2.24       2.19       2.11       1.85       1.65       2.3        2.37       2.761713   1.557377   -9999      1.88       0.1281943  0.05431002 -9999      0.2020786  0.1965797  0.6631741  1.791946   2.417897   2.11       0.05736317 0.2268718  386.35     0.4362299  0.5112969  0.3611629 
952.4      0.234      -9999      -9999      371.4504   7.230267   2.74       2.16       1.91       1.96       1.92       1.91       1.76       1.62       2.67       2.29       2.723911   1.553253   -9999      1.87       0.1298198  0.05493381 -9999      0.2047059  0.198476   0.7107821  1.748154   2.416217   1.91       0.0230475  0.1961458  386.13     0.4379565  0.5164886  0.3594245 
952.6      0.238      -9999      -9999      373.8187   7.227147   2.51       1.48       1.4        1.42       1.47       1.51       1.63       1.06       1.64       1.67       2.696366   1.554887   -9999      1.91       0.1313979  0.05564293 -9999      0.2071528  0.1998061  0.7602653  1.755848   2.415617   1.51       0          0.1039126  385.88     0.4363753  0.5155632  0.3571873 
952.8      0.246      -9999      -9999      374.4754   7.213972   2.37       1.23       1.25       1.25       1.28       1.29       1.55       0.97       1.49       1.52       2.681134   1.561887   -9999      1.96       0.132104   0.05563935 -9999      0.2085687  0.2000727  0.7835115  1.788714   2.416661   1.29       0          0.03338594 385.66     0.433571   0.5116739  0.3554681 
953        0.256      -9999      -9999      373.3411   7.20136    2.29       1.15       1.2        1.21       1.23       1.26       1.62       0.92       1.5        1.55       2.679173   1.573029   -9999      2.1        0.1311911  0.05415681 -9999      0.2082253  0.1988673  0.7535899  1.82075    2.419827   1.26       0          0.0156607  385.54     0.4317058  0.5079783  0.3554332 
953.2000000000001 0.228      -9999      -9999      370.6906   7.199205   2.28       1.28       1.34       1.41       1.4        1.43       1.78       1.06       1.69       1.63       2.689153   1.586347   -9999      2.19       0.1265443  0.04939992 -9999      0.2036887  0.1953934  0.6181095  1.826281   2.425003   1.43       0          0.05251893 386.33     0.4391874  0.5073496  0.3710252 
