~Version
 VERS              .         2.0                           : CWLS LOG ASCII STANDARD - VERSION 2.0
 WRAP              .         NO                            : ONE LINE PER DEPTH STEP
 DLM               .         SPACE                         : DELIMITING CHARACTER(SPACE TAB OR COMMA)
~Well Information
#_______________________________________________________________________________
#
#PARAMETER_NAME    .UNIT     VALUE                         : DESCRIPTION
#_______________________________________________________________________________
STRT               .M        870                           : First reference value
STOP               .M        1172.2                        : Last reference value
STEP               .M        0.2                           : Step increment
NULL               .         -9999                         : Missing value
COMP               .                                       : Company
WELL               .         7146                          : Well name
FLD                .         УЗЕНЬ                         : Field
LOC                .                                       : Location
CNTY               .                                       : County
STAT               .                                       : State
CTRY               .                                       : Country
SRVC               .                                       : Service Company
DATE               .                                       : Date
UWI                .                                       : Unique Well ID
API                .                                       : 
Block              .         7                             : 
Category           .         Нефтяная                      : 
Condition          .         В работе                      : 
Date               .         02.04.1983                    : 
EREF               .m        86.7                          : 100.8
Gorizont           .         15                            : 14
Interpretator      .         Ким С.В.                      : 
Kupol              .         основной                      : osnovnoi
Mud                .         0                             : 
Mud_density        .         0                             : 
Mud_resistivity    .         0                             : 
NGDU               .         НГДУ-2                        : 
ORIGINALWELLNAME   .         7146                          : 
Spud_date          .         1983                          : 1961
Viscosity          .         0                             : 
X                  .m        42705                         : 46154
Y                  .m        84284.43                      : 85761.93
YEAR               .         2018                          : 
~Parameter Information Block
#_______________________________________________________________________________
#
#PARAMETER_NAME    .UNIT     VALUE                         : DESCRIPTION
#_______________________________________________________________________________
SET                .         LQC_KAZNIPI_Petrel            : 
GSDD               .         CSAT                          : CSATкрив,0,DEPT,BOTTOM,,,,0
TLFamily_CALI      .         Caliper                       : 
TLFamily_CILD      .         Conductivity                  : 
TLFamily_COLL      .         Net Reservoir Flag            : 
TLFamily_CSAT      .         Fluid Code                    : 
TLFamily_DEPT      .         Measured Depth                : 
TLFamily_GR        .         Russian Gamma Ray             : 
TLFamily_GZ1       .         Gradient 045                  : 
TLFamily_GZ2       .         Gradient 105                  : 
TLFamily_GZ3       .         Gradient 225                  : 
TLFamily_GZ4       .         Gradient 425                  : 
TLFamily_GZ5       .         Gradient 850                  : 
TLFamily_LLS       .         Lateral Log Resistivity       : 
TLFamily_MINV      .         Micro Gradient Resistivity    : 
TLFamily_MNOR      .         Micro Resistivity             : 
TLFamily_NGLD      .         Neutron Gamma                 : 
TLFamily_OGZ       .         Gradient Inverted 225         : 
TLFamily_PHIE      .         Effective Porosity            : 
TLFamily_PHIEN     .         Effective Porosity            : 
TLFamily_PHIT      .         Porosity                      : 
TLFamily_PRMB      .         Permeability                  : 
TLFamily_PRMB_DGR  .         Permeability                  : 
TLFamily_RT        .         Formation Resistivity         : 
TLFamily_SOIL_ARCHIE .         Oil Saturation                : 
TLFamily_SOIL_DW   .         Oil Saturation                : 
TLFamily_SP        .         Spontaneous Potential         : 
TLFamily_VSH_FIN   .         Shale Volume                  : 
TLFamily_VSH_GR    .         Shale Volume                  : 
TLFamily_VSH_SP    .         Shale Volume                  : 
~Curve Information
#_______________________________________________________________________________
#
#LOGNAME           .UNIT     LOG_ID                        : DESCRIPTION
#_______________________________________________________________________________
DEPT               .M                                      : Колонка глубины 
CALI               .м                                      : Каверномер 
CILD               .мСм/м                                  : Индукционный каротаж зондом 6Ф1 
COLL               .unitless                               : Описание 
CSAT               .unitless                               : Описание 
GR                 .uR/h                                   : Гамма каротаж 
GZ1                .Ohmm                                   :  
GZ2                .Ohmm                                   :  
GZ3                .Ohmm                                   :  
GZ4                .Ohmm                                   :  
GZ5                .Ohmm                                   :  
LLS                .Ohmm                                   : Боковой каротаж 
MINV               .Ohmm                                   : Микро-градиент зонд 
MNOR               .Ohmm                                   : Микро-потенциал зонд 
NGLD               .у.е.                                   : Показания зонда НГК-60 аппаратуры ДРСТ-3-90 
OGZ                .Ohmm                                   :  
PHIE               .v/v                                    : Описание 
PHIEN              .v/v                                    :  
PHIT               .v/v                                    : Описание 
PRMB               .mD                                     :  
PRMB_DGR           .mD                                     :  
RT                 .ohmm                                   : Удельное электрическое сопротивление 
SOIL_ARCHIE        .v/v                                    :  
SOIL_DW            .v/v                                    :  
SP                 .мВ                                     : Потенциал самополяризации 
VSH_FIN            .v/v                                    : Описание 
VSH_GR             .v/v                                    : Shale volume 
VSH_SP             .v/v                                    : Shale Volume 
~Ascii
# ...
1062.4     0.237      242.329    -9999      -9999      5.08       3.48       4.953      3.963      1.82       1.693      3.349      1.04       1.198      1.148      4.14       0.1663136  0.1663136  0.2735712  3.370467   12.43702   3.519      0.4089359  0.5574635  58.562     0.3250229  0.2317955  0.4182504 
1062.6     0.237      248.374    -9999      -9999      5.154      3.632      5.588      3.963      1.82       1.668      3.153      0.841      1.187      1.116      4.14       0.1742994  0.1742994  0.2833504  4.738109   11.03526   3.381      0.4218399  0.5661592  58.577     0.3304576  0.2433947  0.4175205 
1062.8     0.239      256.451    -9999      -9999      5.237      3.962      6.172      4.116      1.795      1.643      2.977      0.658      1.151      1.085      3.785      0.1816226  0.1816226  0.292824   6.475152   9.650126   3.228      0.4299431  0.5717875  58.593     0.3369738  0.2570967  0.4168509 
1063       0.242      266.256    -9999      -9999      5.326      3.404      5.842      4.217      1.795      1.643      2.837      0.549      1.093      1.057      3.023      0.1877822  0.1877822  0.3013808  8.420546   8.357422   3.071      0.4331551  0.5742232  58.603     0.3442381  0.2726474  0.4158289 
1063.2     0.245      277.787    -9999      -9999      5.41       2.769      5.334      4.268      1.795      1.617      2.724      0.507      0.999      1.033      2.819      0.1924197  0.1924197  0.3087152  10.26213   7.296608   2.915      0.431329   0.5734218  58.644     0.3524106  0.2881861  0.4166351 
1063.4     0.249      290.64     -9999      -9999      5.48       2.438      4.928      4.04       1.795      1.643      2.623      0.461      0.887      1.011      2.616      0.1968787  0.1968787  0.3154384  12.41166   6.516202   2.766      0.428668   0.5716522  58.673     0.3592717  0.3018095  0.4167338 
1063.6     0.253      304.406    -9999      -9999      5.553      2.489      4.928      4.04       1.77       1.643      2.53       0.408      0.765      0.988      2.616      0.2015117  0.2015117  0.3224672  15.12321   5.791127   2.63       0.4267212  0.5705032  58.694     0.3665318  0.3167033  0.4163603 
1063.8     0.257      318.58     -9999      -9999      5.619      2.438      4.623      3.862      1.795      1.668      2.444      0.365      0.676      0.965      2.438      0.205886   0.205886   0.329496   18.22492   5.205279   2.509      0.4247697  0.5696337  58.755     0.3745759  0.3308005  0.4183512 
1064       0.259      332.499    -9999      -9999      5.671      2.642      4.242      4.014      1.82       1.719      2.362      0.34       0.623      0.944      2.286      0.2102938  0.2102938  0.3359136  21.99428   4.785752   2.405      0.4239544  0.5691538  58.793     0.380666   0.342348   0.418984  
1064.2     0.261      345.808    -9999      -9999      5.705      2.362      3.886      4.217      1.846      1.77       2.292      0.32       0.599      0.927      2.21       0.2141518  0.2141518  0.3411088  25.92805   4.529902   2.319      0.4232315  0.5684133  58.826     0.3847181  0.3501154  0.4193208 
1064.4     0.261      358.051    -9999      -9999      5.741      2.134      3.632      4.421      1.897      1.82       2.241      0.317      0.598      0.916      2.184      0.2155869  0.2155869  0.3444704  27.56456   4.273893   2.248      0.4181482  0.5653806  58.908     0.3905559  0.3585319  0.42258   
1064.6     0.262      369.024    -9999      -9999      5.77       1.93       3.378      4.421      1.973      1.871      2.207      0.315      0.598      0.911      2.184      0.2157974  0.2157974  0.3459984  27.81306   4.078228   2.191      0.4115935  0.5610979  58.953     0.3945486  0.3654587  0.4236385 
1064.8     0.262      378.524    -9999      -9999      5.805      1.727      3.124      4.421      2.074      1.922      2.19       0.319      0.614      0.912      2.159      0.2138979  0.2138979  0.3456928  25.64876   3.853972   2.149      0.401635   0.5550149  58.999     0.3993784  0.373997   0.4247599 
1065       0.262      386.55     -9999      -9999      5.861      1.6        2.946      4.167      2.227      2.049      2.183      0.329      0.635      0.916      2.159      0.209608   0.209608   0.3444704  21.36026   3.520524   2.121      0.3872233  0.5474703  59.101     0.408674   0.3880754  0.4292725 
1065.2     0.262      392.646    -9999      -9999      5.941      1.575      2.743      3.938      2.354      2.278      2.185      0.339      0.656      0.921      2.184      0.2043715  0.2043715  0.3429424  17.08493   3.093591   2.103      0.3710605  0.5396885  59.152     0.419912   0.4091115  0.4307124 
1065.4     0.261      396.913    -9999      -9999      6.027      1.6        2.642      3.659      2.506      2.481      2.19       0.351      0.678      0.925      2.159      0.1988785  0.1988785  0.34172    13.51671   2.692204   2.092      0.354371   0.5324413  59.212     0.432853   0.4329988  0.432707  
1065.6     0.26       399.656    -9999      -9999      6.1        1.499      2.489      3.659      2.709      2.735      2.197      0.356      0.69       0.929      2.159      0.1931173  0.1931173  0.3404976  10.57205   2.392634   2.085      0.336585   0.5251436  59.339     0.4466069  0.4543665  0.4388472 
1065.8     0.259      401.384    -9999      -9999      6.143      1.422      2.438      3.354      2.887      2.836      2.203      0.359      0.694      0.934      2.134      0.1891377  0.1891377  0.3389696  8.921706   2.232023   2.079      0.3235298  0.5192291  59.395     0.4540359  0.4674433  0.4406286 
1066       0.257      402.501    -9999      -9999      6.149      1.422      2.438      3.074      3.065      2.862      2.209      0.358      0.698      0.939      2.134      0.1867919  0.1867919  0.3374416  8.072292   2.210485   2.073      0.3152084  0.5148359  59.472     0.4565143  0.4692976  0.4437309 
1066.2     0.256      403.466    -9999      -9999      6.126      1.524      2.438      2.897      3.014      2.913      2.213      0.358      0.697      0.945      2.184      0.1851501  0.1851501  0.335608   7.526412   2.294189   2.067      0.3089837  0.5108285  59.593     0.4559329  0.462229   0.4496368 
1066.4     0.255      404.432    -9999      -9999      6.068      1.524      2.413      2.795      2.963      2.938      2.216      0.365      0.696      0.951      2.261      0.1860266  0.1860266  0.3337744  7.813061   2.519614   2.063      0.3111941  0.5096359  59.635     0.4477208  0.444873   0.4505685 
1066.6     0.254      405.295    -9999      -9999      6          1.524      2.413      2.795      2.709      2.76       2.219      0.375      0.703      0.958      2.261      0.1866594  0.1866594  0.3316352  8.026793   2.812267   2.062      0.3130721  0.5082611  59.705     0.4393207  0.4253529  0.4532886 
1066.8     0.252      405.956    -9999      -9999      5.929      1.6        2.413      2.693      2.455      2.557      2.224      0.391      0.709      0.963      2.362      0.1875522  0.1875522  0.3301072  8.338344   3.154168   2.064      0.3162322  0.5080521  59.807     0.4319848  0.4058849  0.4580848 
1067       0.25       406.159    -9999      -9999      5.858      1.651      2.438      2.592      2.227      2.405      2.231      0.411      0.708      0.967      2.438      0.1893985  0.1893985  0.3288848  9.021479   3.537635   2.071      0.3231176  0.5096874  59.834     0.4226858  0.3873079  0.4580636 
1067.2     0.249      405.803    -9999      -9999      5.776      1.651      2.413      2.516      2.176      2.278      2.242      0.424      0.713      0.971      2.54       0.1912575  0.1912575  0.3276624  9.765855   4.038876   2.084      0.3308191  0.5120162  59.888     0.4133483  0.3669084  0.4597881 
1067.4     0.249      404.686    -9999      -9999      5.703      1.626      2.388      2.414      2.151      2.176      2.256      0.421      0.72       0.976      2.616      0.1923767  0.1923767  0.3261344  10.24335   4.544564   2.103      0.3370409  0.5139865  59.934     0.4053262  0.3496537  0.4609988 
