~Version
 VERS              .         2.0                           : CWLS LOG ASCII STANDARD - VERSION 2.0
 WRAP              .         NO                            : ONE LINE PER DEPTH STEP
 DLM               .         SPACE                         : DELIMITING CHARACTER(SPACE TAB OR COMMA)
~Well Information
#_______________________________________________________________________________
#
#PARAMETER_NAME    .UNIT     VALUE                         : DESCRIPTION
#_______________________________________________________________________________
STRT               .M        870                           : First reference value
STOP               .M        1172.2                        : Last reference value
STEP               .M        0.2                           : Step increment
NULL               .         -9999                         : Missing value
COMP               .                                       : Company
WELL               .         7146                          : Well name
FLD                .         УЗЕНЬ                         : Field
LOC                .                                       : Location
CNTY               .                                       : County
STAT               .                                       : State
CTRY               .                                       : Country
SRVC               .                                       : Service Company
DATE               .                                       : Date
UWI                .                                       : Unique Well ID
API                .                                       : 
Block              .         7                             : 
Category           .         Нефтяная                      : 
Condition          .         В работе                      : 
Date               .         02.04.1983                    : 
EREF               .m        86.7                          : 100.8
Gorizont           .         15                            : 14
Interpretator      .         Ким С.В.                      : 
Kupol              .         основной                      : osnovnoi
Mud                .         0                             : 
Mud_density        .         0                             : 
Mud_resistivity    .         0                             : 
NGDU               .         НГДУ-2                        : 
ORIGINALWELLNAME   .         7146                          : 
Spud_date          .         1983                          : 1961
Viscosity          .         0                             : 
X                  .m        42705                         : 46154
Y                  .m        84284.43                      : 85761.93
YEAR               .         2018                          : 
~Parameter Information Block
#_______________________________________________________________________________
#
#PARAMETER_NAME    .UNIT     VALUE                         : DESCRIPTION
#_______________________________________________________________________________
SET                .         LQC_KAZNIPI_Petrel            : 
GSDD               .         CSAT                          : CSATкрив,0,DEPT,BOTTOM,,,,0
TLFamily_CALI      .         Caliper                       : 
TLFamily_CILD      .         Conductivity                  : 
TLFamily_COLL      .         Net Reservoir Flag            : 
TLFamily_CSAT      .         Fluid Code                    : 
TLFamily_DEPT      .         Measured Depth                : 
TLFamily_GR        .         Russian Gamma Ray             : 
TLFamily_GZ1       .         Gradient 045                  : 
TLFamily_GZ2       .         Gradient 105                  : 
TLFamily_GZ3       .         Gradient 225                  : 
TLFamily_GZ4       .         Gradient 425                  : 
TLFamily_GZ5       .         Gradient 850                  : 
TLFamily_LLS       .         Lateral Log Resistivity       : 
TLFamily_MINV      .         Micro Gradient Resistivity    : 
TLFamily_MNOR      .         Micro Resistivity             : 
TLFamily_NGLD      .         Neutron Gamma                 : 
TLFamily_OGZ       .         Gradient Inverted 225         : 
TLFamily_PHIE      .         Effective Porosity            : 
TLFamily_PHIEN     .         Effective Porosity            : 
TLFamily_PHIT      .         Porosity                      : 
TLFamily_PRMB      .         Permeability                  : 
TLFamily_PRMB_DGR  .         Permeability                  : 
TLFamily_RT        .         Formation Resistivity         : 
TLFamily_SOIL_ARCHIE .         Oil Saturation                : 
TLFamily_SOIL_DW   .         Oil Saturation                : 
TLFamily_SP        .         Spontaneous Potential         : 
TLFamily_VSH_FIN   .         Shale Volume                  : 
TLFamily_VSH_GR    .         Shale Volume                  : 
TLFamily_VSH_SP    .         Shale Volume                  : 
~Curve Information
#_______________________________________________________________________________
#
#LOGNAME           .UNIT     LOG_ID                        : DESCRIPTION
#_______________________________________________________________________________
DEPT               .M                                      : Колонка глубины 
CALI               .м                                      : Каверномер 
CILD               .мСм/м                                  : Индукционный каротаж зондом 6Ф1 
COLL               .unitless                               : Описание 
CSAT               .unitless                               : Описание 
GR                 .uR/h                                   : Гамма каротаж 
GZ1                .Ohmm                                   :  
GZ2                .Ohmm                                   :  
GZ3                .Ohmm                                   :  
GZ4                .Ohmm                                   :  
GZ5                .Ohmm                                   :  
LLS                .Ohmm                                   : Боковой каротаж 
MINV               .Ohmm                                   : Микро-градиент зонд 
MNOR               .Ohmm                                   : Микро-потенциал зонд 
NGLD               .у.е.                                   : Показания зонда НГК-60 аппаратуры ДРСТ-3-90 
OGZ                .Ohmm                                   :  
PHIE               .v/v                                    : Описание 
PHIEN              .v/v                                    :  
PHIT               .v/v                                    : Описание 
PRMB               .mD                                     :  
PRMB_DGR           .mD                                     :  
RT                 .ohmm                                   : Удельное электрическое сопротивление 
SOIL_ARCHIE        .v/v                                    :  
SOIL_DW            .v/v                                    :  
SP                 .мВ                                     : Потенциал самополяризации 
VSH_FIN            .v/v                                    : Описание 
VSH_GR             .v/v                                    : Shale volume 
VSH_SP             .v/v                                    : Shale Volume 
~Ascii
# ...
1083.2     0.216      182.537    8          2          6.722      2.718      5.105      6.326      0.398      0.119      4.649      1.859      1.967      1.13       8.382      0.1589745  0.1589745  0.279072   2.464627   2.36154    5.682      0.5090238  0.6496439  57.035     0.3639319  0.4568     0.2710637 
1083.4     0.214      175.222    8          2          6.672      2.642      4.928      5.945      0.449      0.093      4.853      1.864      2.011      1.137      8.890000000000001 0.167347   0.167347   0.2769328  3.522327   2.638478   6.036      0.5436171  0.665399   55.661     0.3320784  0.4365776  0.2275791 
1083.6     0.213      166.637    8          2          6.588      2.769      4.877      5.945      0.525      0.119      5.06       1.854      2.041      1.144      8.890000000000001 0.1729809  0.1729809  0.2747936  4.479028   3.178769   6.4        0.5686091  0.6778592  55.055     0.3085233  0.4045992  0.2124473 
1083.8     0.212      157.594    8          2          6.531      2.972      4.902      6.097      0.728      0.144      5.268      1.843      2.065      1.15       9.651999999999999 0.1755659  0.1755659  0.27296    5.001084   3.607104   6.756      0.5848279  0.6870913  54.742     0.2951337  0.3842445  0.2060229 
1084       0.212      148.958    8          2          6.51       3.175      5.131      6.249      1.033      0.169      5.464      1.821      2.085      1.154      10.16      0.1782776  0.1782776  0.2717376  5.614238   3.779071   7.092      0.5995586  0.6956778  53.97      0.2832122  0.3770063  0.1894182 
1084.2     0.212      141.186    8          2          6.533      3.251      5.639      6.478      1.668      0.195      5.635      1.799      2.095      1.157      11.049     0.178744   0.178744   0.2708208  5.727035   3.591141   7.403      0.6084348  0.7018583  53.086     0.2790208  0.384941   0.1731006 
1084.4     0.212      134.531    8          2          6.581      3.429      6.121      6.732      2.582      0.246      5.775      1.787      2.097      1.157      11.938     0.1784184  0.1784184  0.2708208  5.648061   3.228501   7.696      0.6148914  0.7073717  52.09      0.2800074  0.4020426  0.1579722 
1084.6     0.212      128.943    8          2          6.626      3.632      6.553      6.732      3.776      0.296      5.879      1.786      2.099      1.159      11.938     0.1771     0.1771     0.2702096  5.339237   2.921856   7.974      0.6187966  0.7112624  51.049     0.2821504  0.4187648  0.1455359 
1084.8     0.212      124.168    8          2          6.64       3.81       7.214      7.037      5.224      0.347      5.953      1.781      2.096      1.163      12.827     0.1764939  0.1764939  0.2689872  5.202993   2.832531   8.227      0.6232201  0.7145734  50.053     0.2802828  0.4241077  0.1364578 
1085       0.212      119.952    8          2          6.621      4.039      7.645      7.265      5.884      0.398      6.007      1.791      2.102      1.166      12.954     0.1778112  0.1778112  0.2680704  5.50367    2.954436   8.431      0.6299306  0.7183304  49.139     0.2735128  0.4168729  0.1301527 
1085.2     0.212      116.345    8          2          6.562      4.318      7.645      7.189      6.291      0.449      6.051      1.807      2.114      1.17       12.7       0.1808699  0.1808699  0.266848   6.270577   3.367449   8.564      0.6380554  0.7217146  48.331     0.2605397  0.3951842  0.1258952 
1085.4     0.212      113.551    1          2          6.476      4.115      7.899      7.138      6.697      0.474      6.086      1.831      2.134      1.173      12.446     0.1853165  0.1853165  0.2659312  7.579987   4.075048   8.623      0.6467711  0.7248595  47.63      0.2442871  0.3655751  0.1229992 
1085.6     0.213      111.722    1          2          6.378      4.039      8.242000000000001 7.138      7.053      0.474      6.109      1.856      2.148      1.175      12.446     0.190169   0.190169   0.26532    9.32286    5.064335   8.608      0.654352   0.7271699  47.015     0.2277304  0.3345293  0.1209315 
1085.8     0.213      110.909    1          2          6.295      4.013      8.635999999999999 7.189      6.519      0.474      6.113      1.87       2.172      1.175      12.7       0.1944338  0.1944338  0.26532    11.18262   6.087856   8.536      0.6596256  0.7285262  46.446     0.2148068  0.3103067  0.1193068 
1086       0.213      111.062    1          2          6.229      4.064      9.144      8.487      5.554      0.449      6.093      1.886      2.193      1.172      13.081     0.198554   0.198554   0.2662368  13.33093   7.047467   8.436      0.6639324  0.7298359  45.888     0.2050993  0.2923035  0.1178951 
1086.2     0.213      111.976    1          2          6.202      4.216      9.651999999999999 9.784000000000001 4.767      0.373      6.051      1.898      2.204      1.17       13.335     0.2005571  0.2005571  0.266848   14.51983   7.482355   8.334      0.6649504  0.7296832  45.303     0.2008817  0.2852431  0.1165202 
1086.4     0.213      113.246    1          2          6.177      4.445      9.906000000000001 10.292     4.233      0.373      5.994      1.891      2.207      1.165      13.462     0.2033695  0.2033695  0.268376   16.37019   7.908923   8.248      0.6673743  0.7307485  44.694     0.1969896  0.2788579  0.1151212 
1086.6     0.213      114.567    1          2          6.129      4.623      10.16      10.292     3.954      0.373      5.94       1.875      2.217      1.16       13.462     0.2071057  0.2071057  0.269904   19.19809   8.797291   8.202      0.6717464  0.7329239  44.059     0.1902979  0.2669961  0.1135996 
1086.8     0.212      115.684    1          2          6.078      4.547      9.906000000000001 10.546     3.675      0.525      5.907      1.873      2.218      1.156      13.208     0.210602   0.210602   0.2711264  22.28526   9.850769   8.216      0.6767565  0.7357098  43.409     0.1834073  0.2549454  0.1118692 
1087       0.212      116.294    1          2          6.026      4.369      9.906000000000001 10.292     3.497      0.6770000000000001 5.918      1.854      2.206      1.151      12.827     0.214382   0.214382   0.2726544  26.18385   11.0549    8.309      0.6834029  0.739996   42.784     0.1765829  0.2432182  0.1099476 
1087.2     0.211      116.142    1          2          5.977      4.216      9.525      9.784000000000001 3.395      0.906      5.986      1.819      2.202      1.145      12.7       0.2182898  0.2182898  0.274488   30.93243   12.32393   8.498      0.6916169  0.7458369  42.22      0.1702977  0.2326617  0.1079337 
1087.4     0.211      115.024    1          2          5.939      4.089      9.271000000000001 9.529999999999999 3.446      1.338      6.12       1.788      2.191      1.139      13.081     0.2217619  0.2217619  0.2763216  35.86964   13.40755   8.782      0.7004827  0.752591   41.717     0.1653323  0.2247915  0.1058731 
1087.6     0.211      112.789    1          2          5.921      3.988      9.017      9.529999999999999 3.573      1.922      6.322      1.741      2.171      1.135      13.081     0.2239098  0.2239098  0.277544   39.31075   13.9536    9.136      0.7084439  0.7590309  41.285     0.1625278  0.2211569  0.1038987 
1087.8     0.211      109.538    1          2          5.934      3.937      8.890000000000001 9.657      3.725      2.557      6.59       1.68       2.165      1.131      13.97      0.2249769  0.2249769  0.2787664  41.14109   13.55705   9.53       0.7153448  0.7651348  40.94      0.1629985  0.2237759  0.102221  
1088       0.211      105.626    1          2          5.962      3.835      8.255000000000001 10.165     3.802      3.167      6.902      1.66       2.18       1.129      14.986     0.2248473  0.2248473  0.2793776  40.91442   12.74081   9.733      0.7180051  0.767835   40.681     0.1652432  0.2295226  0.1009639 
1088.2     0.211      101.46     1          2          6.005      3.734      8.255000000000001 10.8       4.005      3.776      7.235      1.66       2.192      1.129      16.129     0.2234423  0.2234423  0.2793776  38.53466   11.58193   9.935      0.7191813  0.7696001  40.528     0.1695009  0.2386366  0.1003653 
