~Version
 VERS              .         2.0                           : CWLS LOG ASCII STANDARD - VERSION 2.0
 WRAP              .         NO                            : ONE LINE PER DEPTH STEP
 DLM               .         SPACE                         : DELIMITING CHARACTER(SPACE TAB OR COMMA)
~Well Information
#_______________________________________________________________________________
#
#PARAMETER_NAME    .UNIT     VALUE                         : DESCRIPTION
#_______________________________________________________________________________
STRT               .M        870                           : First reference value
STOP               .M        1172.2                        : Last reference value
STEP               .M        0.2                           : Step increment
NULL               .         -9999                         : Missing value
COMP               .                                       : Company
WELL               .         7146                          : Well name
FLD                .         УЗЕНЬ                         : Field
LOC                .                                       : Location
CNTY               .                                       : County
STAT               .                                       : State
CTRY               .                                       : Country
SRVC               .                                       : Service Company
DATE               .                                       : Date
UWI                .                                       : Unique Well ID
API                .                                       : 
Block              .         7                             : 
Category           .         Нефтяная                      : 
Condition          .         В работе                      : 
Date               .         02.04.1983                    : 
EREF               .m        86.7                          : 100.8
Gorizont           .         15                            : 14
Interpretator      .         Ким С.В.                      : 
Kupol              .         основной                      : osnovnoi
Mud                .         0                             : 
Mud_density        .         0                             : 
Mud_resistivity    .         0                             : 
NGDU               .         НГДУ-2                        : 
ORIGINALWELLNAME   .         7146                          : 
Spud_date          .         1983                          : 1961
Viscosity          .         0                             : 
X                  .m        42705                         : 46154
Y                  .m        84284.43                      : 85761.93
YEAR               .         2018                          : 
~Parameter Information Block
#_______________________________________________________________________________
#
#PARAMETER_NAME    .UNIT     VALUE                         : DESCRIPTION
#_______________________________________________________________________________
SET                .         LQC_KAZNIPI_Petrel            : 
GSDD               .         CSAT                          : CSATкрив,0,DEPT,BOTTOM,,,,0
TLFamily_CALI      .         Caliper                       : 
TLFamily_CILD      .         Conductivity                  : 
TLFamily_COLL      .         Net Reservoir Flag            : 
TLFamily_CSAT      .         Fluid Code                    : 
TLFamily_DEPT      .         Measured Depth                : 
TLFamily_GR        .         Russian Gamma Ray             : 
TLFamily_GZ1       .         Gradient 045                  : 
TLFamily_GZ2       .         Gradient 105                  : 
TLFamily_GZ3       .         Gradient 225                  : 
TLFamily_GZ4       .         Gradient 425                  : 
TLFamily_GZ5       .         Gradient 850                  : 
TLFamily_LLS       .         Lateral Log Resistivity       : 
TLFamily_MINV      .         Micro Gradient Resistivity    : 
TLFamily_MNOR      .         Micro Resistivity             : 
TLFamily_NGLD      .         Neutron Gamma                 : 
TLFamily_OGZ       .         Gradient Inverted 225         : 
TLFamily_PHIE      .         Effective Porosity            : 
TLFamily_PHIEN     .         Effective Porosity            : 
TLFamily_PHIT      .         Porosity                      : 
TLFamily_PRMB      .         Permeability                  : 
TLFamily_PRMB_DGR  .         Permeability                  : 
TLFamily_RT        .         Formation Resistivity         : 
TLFamily_SOIL_ARCHIE .         Oil Saturation                : 
TLFamily_SOIL_DW   .         Oil Saturation                : 
TLFamily_SP        .         Spontaneous Potential         : 
TLFamily_VSH_FIN   .         Shale Volume                  : 
TLFamily_VSH_GR    .         Shale Volume                  : 
TLFamily_VSH_SP    .         Shale Volume                  : 
~Curve Information
#_______________________________________________________________________________
#
#LOGNAME           .UNIT     LOG_ID                        : DESCRIPTION
#_______________________________________________________________________________
DEPT               .M                                      : Колонка глубины 
CALI               .м                                      : Каверномер 
CILD               .мСм/м                                  : Индукционный каротаж зондом 6Ф1 
COLL               .unitless                               : Описание 
CSAT               .unitless                               : Описание 
GR                 .uR/h                                   : Гамма каротаж 
GZ1                .Ohmm                                   :  
GZ2                .Ohmm                                   :  
GZ3                .Ohmm                                   :  
GZ4                .Ohmm                                   :  
GZ5                .Ohmm                                   :  
LLS                .Ohmm                                   : Боковой каротаж 
MINV               .Ohmm                                   : Микро-градиент зонд 
MNOR               .Ohmm                                   : Микро-потенциал зонд 
NGLD               .у.е.                                   : Показания зонда НГК-60 аппаратуры ДРСТ-3-90 
OGZ                .Ohmm                                   :  
PHIE               .v/v                                    : Описание 
PHIEN              .v/v                                    :  
PHIT               .v/v                                    : Описание 
PRMB               .mD                                     :  
PRMB_DGR           .mD                                     :  
RT                 .ohmm                                   : Удельное электрическое сопротивление 
SOIL_ARCHIE        .v/v                                    :  
SOIL_DW            .v/v                                    :  
SP                 .мВ                                     : Потенциал самополяризации 
VSH_FIN            .v/v                                    : Описание 
VSH_GR             .v/v                                    : Shale volume 
VSH_SP             .v/v                                    : Shale Volume 
~Ascii
# ...
1026       0.235      428.612    -9999      -9999      6.099      1.245      1.93       2.008      1.287      1.389      2.152      -0.673     0.353      0.934      2.108      0.1726637  0.1726637  0.3389696  4.418848   2.396503   2.017      0.2571714  0.4942391  58.928     0.5039572  0.4540668  0.5538476 
1026.2     0.233      424.294    -9999      -9999      6.087      1.245      1.93       1.931      1.414      1.389      2.174      -1.223     0.299      0.936      2.159      0.1723918  0.1723918  0.3383584  4.367906   2.443429   2.048      0.2614563  0.4972193  58.933     0.502929   0.4504856  0.5553724 
1026.4     0.232      419.214    -9999      -9999      6.095      1.321      1.981      1.906      1.414      1.389      2.189      -1.478     0.313      0.937      2.235      0.1713771  0.1713771  0.3380528  4.182909   2.412045   2.081      0.2631968  0.4998069  58.943     0.5050778  0.4528699  0.5572857 
1026.6     0.231      413.931    -9999      -9999      6.114      1.397      2.032      1.906      1.414      1.389      2.197      -1.437     0.407      0.938      2.235      0.1697486  0.1697486  0.3377472  3.902246   2.339112   2.114      0.2625093  0.5016207  58.958     0.5090865  0.4585834  0.5595897 
1026.8     0.231      408.699    -9999      -9999      6.135      1.6        2.057      1.906      1.414      1.414      2.203      -1.082     0.577      0.94       2.286      0.1675593  0.1675593  0.337136   3.554364   2.261064   2.146      0.2593635  0.5023217  58.984     0.5138689  0.4649822  0.5627556 
1027       0.231      403.314    -9999      -9999      6.163      1.753      2.108      1.881      1.389      1.414      2.206      -0.414     0.76       0.944      2.311      0.1642654  0.1642654  0.3359136  3.088535   2.161038   2.171      0.2505302  0.5002993  59.019     0.520146   0.473653   0.5666389 
1027.2     0.23       397.98     -9999      -9999      6.197      1.626      2.134      1.881      1.389      1.414      2.207      0.334      0.901      0.948      2.261      0.1606124  0.1606124  0.3346912  2.64295    2.045508   2.188      0.2384975  0.4968219  59.055     0.5275116  0.4843994  0.5706237 
1027.4     0.23       393.103    -9999      -9999      6.219      1.575      0.025      1.931      1.389      1.439      2.208      0.922      0.995      0.952      2.235      0.1575598  0.1575598  0.3334688  2.320318   1.974066   2.195      0.2268237  0.4927992  59.091     0.5330576  0.4914826  0.5746327 
1027.6     0.229      389.192    -9999      -9999      6.236      1.626      0.025      1.931      1.389      1.439      2.205      1.337      1.03       0.955      2.235      0.1550102  0.1550102  0.332552   2.081246   1.920573   2.194      0.2155918  0.4886664  59.131     0.5380054  0.4970269  0.5789839 
1027.8     0.229      386.55     -9999      -9999      6.245      1.626      0.025      1.982      1.338      1.465      2.201      1.564      1.019      0.958      2.286      0.1529351  0.1529351  0.3316352  1.904969   1.892843   2.187      0.2051391  0.484351   59.167     0.5415153  0.4999873  0.5830433 
1028       0.228      385.382    -9999      -9999      6.241      1.727      0.051      2.033      1.439      1.465      2.198      1.626      0.999      0.96       2.337      0.1519473  0.1519473  0.331024   1.826378   1.905118   2.184      0.2001252  0.4821406  59.197     0.5426567  0.4986694  0.5866438 
1028.2     0.226      385.636    -9999      -9999      6.231      1.905      0          2.109      1.414      1.49       2.201      1.616      0.992      0.962      2.413      0.1512666  0.1512666  0.3304128  1.774115   1.936154   2.19       0.1980242  0.4813782  59.228     0.5428674  0.4953897  0.5903451 
1028.4     0.224      386.601    -9999      -9999      6.235      1.753      0          2.109      1.389      1.49       2.211      1.62       1          0.966      2.515      0.1491605  0.1491605  0.3291904  1.621707   1.923679   2.203      0.1904225  0.4789747  59.263     0.5455451  0.4966991  0.5943912 
1028.6     0.222      387.007    -9999      -9999      6.234      1.626      0.025      2.109      1.389      1.49       2.23       1.635      1.025      0.97       2.515      0.1473072  0.1473072  0.327968   1.498457   1.92679    2.229      0.1860524  0.4783768  59.299     0.547457   0.4963714  0.5985427 
1028.8     0.22       386.245    -9999      -9999      6.22       1.245      0.127      2.084      1.236      1.516      2.257      1.675      1.055      0.975      2.515      0.1457074  0.1457074  0.32644    1.399629   1.970879   2.266      0.1845983  0.4790142  59.345     0.5476745  0.491807   0.603542  
1029       0.219      384.264    -9999      -9999      6.194      0.025      2.337      2.058      1.185      1.439      2.291      1.733      1.095      0.98       2.413      0.1446057  0.1446057  0.324912   1.335387   2.055449   2.307      0.1860685  0.4806739  59.4       0.5463826  0.4834414  0.6093239 
1029.2     0.218      380.657    -9999      -9999      6.146      0          2.362      2.033      1.211      1.363      2.325      1.778      1.129      0.986      2.362      0.1441453  0.1441453  0.3230784  1.309417   2.221229   2.347      0.1903618  0.4826741  59.466     0.5422216  0.4683694  0.6160738 
1029.4     0.218      375.526    -9999      -9999      6.074      0.025      2.286      2.033      1.185      1.262      2.355      1.803      1.151      0.99       2.388      0.1453006  0.1453006  0.321856   1.375557   2.495302   2.382      0.2015375  0.4868062  59.538     0.5350162  0.4466378  0.6233947 
1029.6     0.219      369.837    -9999      -9999      5.999      0.025      2.286      2.033      1.211      1.211      2.379      1.832      1.161      0.993      2.388      0.1467362  0.1467362  0.3209392  1.462411   2.816814   2.41       0.212675   0.4907707  59.609     0.5278878  0.4250723  0.6307032 
1029.8     0.22       364.401    -9999      -9999      5.93       0          2.337      2.084      1.236      1.185      2.394      1.862      1.181      0.994      2.489      0.1484058  0.1484058  0.3206336  1.570342   3.149075   2.431      0.2235627  0.4948319  59.675     0.5219023  0.4061528  0.6376519 
1030       0.221      359.677    -9999      -9999      5.868      0.025      2.388      2.16       1.236      1.16       2.401      1.879      1.191      0.991      2.565      0.1509236  0.1509236  0.3215504  1.748354   3.480925   2.447      0.2372081  0.5005656  59.736     0.5170509  0.3898721  0.6442296 
1030.2     0.221      355.968    -9999      -9999      5.834      0.711      2.565      2.211      1.262      1.211      2.404      1.919      1.201      0.987      2.438      0.1524062  0.1524062  0.3227728  1.862473   3.677529   2.46       0.245553   0.5048968  59.802     0.5162625  0.3812227  0.6513023 
1030.4     0.221      353.276    -9999      -9999      5.817      1.981      2.819      2.16       1.262      1.236      2.401      1.984      1.216      0.985      2.362      0.1526874  0.1526874  0.323384   1.884946   3.779956   2.472      0.2484814  0.5070243  59.858     0.5172625  0.3769702  0.6575547 
1030.6     0.221      351.346    -9999      -9999      5.822      2.108      2.819      2.16       1.287      1.287      2.393      2.044      1.249      0.985      2.362      0.1515303  0.1515303  0.323384   1.794185   3.749537   2.48       0.2446321  0.5063998  59.908     0.5207687  0.378216   0.6633214 
1030.8     0.221      349.771    -9999      -9999      5.859      1.829      2.692      2.185      1.287      1.312      2.377      2.079      1.272      0.986      2.311      0.1490053  0.1490053  0.3230784  1.611008   3.531919   2.478      0.2332054  0.5027637  59.939     0.5274943  0.3875637  0.6674248 
1031       0.221      348.247    -9999      -9999      5.929      1.676      2.794      2.262      1.312      1.363      2.348      2.104      1.291      0.989      2.261      0.1446966  0.1446966  0.3221616  1.340573   3.154168   2.461      0.2108114  0.4946215  59.949     0.5377727  0.4058849  0.6696604 
