~Version
 VERS              .         2.0                           : CWLS LOG ASCII STANDARD - VERSION 2.0
 WRAP              .         NO                            : ONE LINE PER DEPTH STEP
 DLM               .         SPACE                         : DELIMITING CHARACTER(SPACE TAB OR COMMA)
~Well Information
#_______________________________________________________________________________
#
#PARAMETER_NAME    .UNIT     VALUE                         : DESCRIPTION
#_______________________________________________________________________________
STRT               .M        870                           : First reference value
STOP               .M        1172.2                        : Last reference value
STEP               .M        0.2                           : Step increment
NULL               .         -9999                         : Missing value
COMP               .                                       : Company
WELL               .         7146                          : Well name
FLD                .         УЗЕНЬ                         : Field
LOC                .                                       : Location
CNTY               .                                       : County
STAT               .                                       : State
CTRY               .                                       : Country
SRVC               .                                       : Service Company
DATE               .                                       : Date
UWI                .                                       : Unique Well ID
API                .                                       : 
Block              .         7                             : 
Category           .         Нефтяная                      : 
Condition          .         В работе                      : 
Date               .         02.04.1983                    : 
EREF               .m        86.7                          : 100.8
Gorizont           .         15                            : 14
Interpretator      .         Ким С.В.                      : 
Kupol              .         основной                      : osnovnoi
Mud                .         0                             : 
Mud_density        .         0                             : 
Mud_resistivity    .         0                             : 
NGDU               .         НГДУ-2                        : 
ORIGINALWELLNAME   .         7146                          : 
Spud_date          .         1983                          : 1961
Viscosity          .         0                             : 
X                  .m        42705                         : 46154
Y                  .m        84284.43                      : 85761.93
YEAR               .         2018                          : 
~Parameter Information Block
#_______________________________________________________________________________
#
#PARAMETER_NAME    .UNIT     VALUE                         : DESCRIPTION
#_______________________________________________________________________________
SET                .         LQC_KAZNIPI_Petrel            : 
GSDD               .         CSAT                          : CSATкрив,0,DEPT,BOTTOM,,,,0
TLFamily_CALI      .         Caliper                       : 
TLFamily_CILD      .         Conductivity                  : 
TLFamily_COLL      .         Net Reservoir Flag            : 
TLFamily_CSAT      .         Fluid Code                    : 
TLFamily_DEPT      .         Measured Depth                : 
TLFamily_GR        .         Russian Gamma Ray             : 
TLFamily_GZ1       .         Gradient 045                  : 
TLFamily_GZ2       .         Gradient 105                  : 
TLFamily_GZ3       .         Gradient 225                  : 
TLFamily_GZ4       .         Gradient 425                  : 
TLFamily_GZ5       .         Gradient 850                  : 
TLFamily_LLS       .         Lateral Log Resistivity       : 
TLFamily_MINV      .         Micro Gradient Resistivity    : 
TLFamily_MNOR      .         Micro Resistivity             : 
TLFamily_NGLD      .         Neutron Gamma                 : 
TLFamily_OGZ       .         Gradient Inverted 225         : 
TLFamily_PHIE      .         Effective Porosity            : 
TLFamily_PHIEN     .         Effective Porosity            : 
TLFamily_PHIT      .         Porosity                      : 
TLFamily_PRMB      .         Permeability                  : 
TLFamily_PRMB_DGR  .         Permeability                  : 
TLFamily_RT        .         Formation Resistivity         : 
TLFamily_SOIL_ARCHIE .         Oil Saturation                : 
TLFamily_SOIL_DW   .         Oil Saturation                : 
TLFamily_SP        .         Spontaneous Potential         : 
TLFamily_VSH_FIN   .         Shale Volume                  : 
TLFamily_VSH_GR    .         Shale Volume                  : 
TLFamily_VSH_SP    .         Shale Volume                  : 
~Curve Information
#_______________________________________________________________________________
#
#LOGNAME           .UNIT     LOG_ID                        : DESCRIPTION
#_______________________________________________________________________________
DEPT               .M                                      : Колонка глубины 
CALI               .м                                      : Каверномер 
CILD               .мСм/м                                  : Индукционный каротаж зондом 6Ф1 
COLL               .unitless                               : Описание 
CSAT               .unitless                               : Описание 
GR                 .uR/h                                   : Гамма каротаж 
GZ1                .Ohmm                                   :  
GZ2                .Ohmm                                   :  
GZ3                .Ohmm                                   :  
GZ4                .Ohmm                                   :  
GZ5                .Ohmm                                   :  
LLS                .Ohmm                                   : Боковой каротаж 
MINV               .Ohmm                                   : Микро-градиент зонд 
MNOR               .Ohmm                                   : Микро-потенциал зонд 
NGLD               .у.е.                                   : Показания зонда НГК-60 аппаратуры ДРСТ-3-90 
OGZ                .Ohmm                                   :  
PHIE               .v/v                                    : Описание 
PHIEN              .v/v                                    :  
PHIT               .v/v                                    : Описание 
PRMB               .mD                                     :  
PRMB_DGR           .mD                                     :  
RT                 .ohmm                                   : Удельное электрическое сопротивление 
SOIL_ARCHIE        .v/v                                    :  
SOIL_DW            .v/v                                    :  
SP                 .мВ                                     : Потенциал самополяризации 
VSH_FIN            .v/v                                    : Описание 
VSH_GR             .v/v                                    : Shale volume 
VSH_SP             .v/v                                    : Shale Volume 
~Ascii
# ...
1104       0.212      231.153    -9999      -9999      6.977      3.277      5.232      6.757      13.547     8.975      2.763      1.445      1.806      1.134      4.089      0.150407   0.150407   0.2778496  1.710254   1.341496   2.819      0.2840847  0.4902768  47.843     0.3861898  0.57546    0.1969195 
1104.2     0.212      233.693    -9999      -9999      7.021      2.921      4.928      5.995      14.309     7.197      2.72       1.443      1.795      1.131      3.861      0.1473108  0.1473108  0.2787664  1.498688   1.216776   2.776      0.2657195  0.483197   47.818     0.3983503  0.5988524  0.1978482 
1104.4     0.212      236.03     -9999      -9999      6.93       2.921      4.674      5.03       11.896     6.054      2.706      1.438      1.79       1.131      3.912      0.155368   0.155368   0.2787664  2.113251   1.488875   2.735      0.294086   0.4900795  47.691     0.3739344  0.5514808  0.196388  
1104.6     0.212      238.417    -9999      -9999      6.895      3.277      4.521      5.03       9.609999999999999 5.546      2.703      1.431      1.777      1.132      3.912      0.1584246  0.1584246  0.2784608  2.407495   1.609047   2.691      0.3006604  0.4895253  47.488     0.3637462  0.5342755  0.1932168 
1104.8     0.212      240.957    -9999      -9999      6.938      3.505      4.674      4.319      7.451      5.165      2.693      1.408      1.746      1.134      4.089      0.1549148  0.1549148  0.2778496  2.072793   1.462691   2.647      0.2813425  0.4800386  47.259     0.3725298  0.5554907  0.1895688 
1105       0.212      243.497    -9999      -9999      6.787      3.15       4.826      4.167      5.546      5.038      2.668      1.371      1.706      1.138      4.039      0.1659319  0.1659319  0.2766272  3.316039   2.044512   2.611      0.3187193  0.4891877  47.046     0.3354403  0.4844958  0.1863848 
1105.2     0.212      245.631    8          2          6.622      3.226      4.521      4.395      4.911      5.165      2.635      1.328      1.664      1.142      4.013      0.1762121  0.1762121  0.2754048  5.140842   2.94789    2.595      0.3516018  0.4985318  46.863     0.3005839  0.4172507  0.183917  
1105.4     0.212      246.545    8          2          6.564      3.327      4.191      4.725      3.548      5.165      2.599      1.287      1.613      1.145      4.216      0.1791119  0.1791119  0.274488   5.817615   3.352543   2.608      0.3622514  0.5020977  46.711     0.2890185  0.3959007  0.1821364 
1105.6     0.212      245.885    8          2          6.532      3.099      3.937      4.725      3.014      5.292      2.569      1.274      1.587      1.148      4.216      0.1802344  0.1802344  0.2735712  6.102895   3.599114   2.642      0.3695556  0.5055866  46.594     0.2828389  0.3845926  0.1810852 
1105.8     0.212      243.904    8          2          6.522      2.845      3.785      5.106      2.76       5.055      2.555      1.284      1.583      1.15       4.216      0.1803015  0.1803015  0.27296    6.120393   3.679827   2.688      0.3748444  0.5092593  46.497     0.2807834  0.3811254  0.1804413 
1106       0.212      241.262    8          2          6.534      2.667      4.013      5.132      2.684      4.818      2.556      1.31       1.584      1.15       4.064      0.179619   0.179619   0.27296    5.944802   3.583186   2.737      0.3780707  0.5129206  46.431     0.2828516  0.3852897  0.1804135 
1106.2     0.212      238.417    8          2          6.553      2.489      4.47       4.319      2.709      4.995      2.56       1.349      1.59       1.149      3.962      0.1786683  0.1786683  0.2732656  5.708582   3.435338   2.774      0.3791141  0.5154561  46.413     0.2866585  0.3919764  0.1813405 
1106.4     0.211      236.284    8          2          6.571      2.438      4.648      4.065      2.938      5.275      2.557      1.386      1.601      1.146      4.089      0.1780577  0.1780577  0.2741824  5.561849   3.3009     2.787      0.378625   0.5168767  46.487     0.2912869  0.3984183  0.1841554 
1106.6     0.211      235.522    8          2          6.569      2.642      4.267      4.065      3.217      5.58       2.538      1.41       1.609      1.14       4.089      0.1793267  0.1793267  0.276016   5.871167   3.315577   2.776      0.3813094  0.5192214  46.619     0.2929978  0.3976972  0.1882984 
1106.8     0.211      236.08     8          2          6.568      3.099      3.988      4.192      3.471      5.91       2.5        1.432      1.619      1.132      4.343      0.1809651  0.1809651  0.2784608  6.296086   3.322938   2.75       0.3834743  0.5212487  46.792     0.2954416  0.3973373  0.1935459 
1107       0.211      237.554    8          2          6.577      2.921      3.962      4.471      3.725      6.062      2.448      1.454      1.631      1.124      4.191      0.1818645  0.1818645  0.2809056  6.542286   3.257266   2.71       0.3818952  0.521191   46.99      0.3001246  0.400589   0.1996603 
1107.2     0.211      239.89     8          2          6.594      2.718      4.089      4.827      3.522      5.376      2.391      1.466      1.64       1.116      3.81       0.1821102  0.1821102  0.2833504  6.611205   3.136749   2.653      0.3764322  0.5188251  47.214     0.3067885  0.4068036  0.2067733 
1107.4     0.211      243.294    8          2          6.636      2.54       4.115      4.903      3.167      4.741      2.34       1.486      1.655      1.11       3.556      0.1800357  0.1800357  0.285184   6.051393   2.857767   2.584      0.3623419  0.5120564  47.452     0.3186313  0.4225744  0.2146882 
1107.6     0.211      247.612    -9999      -9999      6.717      2.515      3.962      4.903      2.862      4.36       2.3        1.506      1.663      1.109      3.556      0.1730623  0.1730623  0.2854896  4.494597   2.387872   2.503      0.3300833  0.4966068  47.813     0.340689   0.4547363  0.2266417 
1107.8     0.211      252.794    -9999      -9999      6.793      2.515      3.81       4.522      2.735      4.03       2.267      1.513      1.663      1.11       3.454      0.1653569  0.1653569  0.285184   3.235706   2.017488   2.415      0.2911696  0.4777877  48.158     0.3631124  0.4871355  0.2390894 
1108       0.211      258.585    -9999      -9999      6.856      2.438      3.581      4.243      2.811      3.675      2.238      1.51       1.662      1.115      3.505      0.157677   0.157677   0.283656   2.331948   1.754414   2.323      0.247604   0.4556783  48.362     0.3817545  0.5157354  0.2477736 
1108.2     0.211      264.782    -9999      -9999      6.905      2.438      3.429      4.04       2.989      3.471      2.211      1.511      1.669      1.121      3.429      0.1508324  0.1508324  0.2818224  1.741566   1.573754   2.241      0.2046525  0.4338579  48.504     0.3969393  0.5391359  0.2547428 
1108.4     0.211      270.574    -9999      -9999      6.914      2.413      3.302      3.913      3.065      3.37       2.186      1.487      1.66       1.125      3.327      0.1482838  0.1482838  0.2806     1.562187   1.542654   2.171      0.1806485  0.4194321  48.544     0.4009583  0.5435479  0.2583687 
1108.6     0.211      275.603    -9999      -9999      6.924      2.286      3.302      3.913      3.065      3.294      2.164      1.45       1.638      1.128      3.327      0.1466744  0.1466744  0.2796832  1.458561   1.50882    2.123      0.1641     0.4092286  48.458     0.4030568  0.5484924  0.2576213 
1108.8     0.211      279.159    -9999      -9999      6.92       2.235      3.124      3.963      3.141      3.243      2.153      1.429      1.629      1.127      3.302      0.147953   0.147953   0.2799888  1.540307   1.522262   2.098      0.1657707  0.4081167  48.28      0.4001084  0.5465093  0.2537076 
1109       0.211      281.038    -9999      -9999      6.913      2.184      2.946      3.862      3.09       3.141      2.158      1.418      1.627      1.124      3.277      0.1505715  0.1505715  0.2809056  1.722293   1.546079   2.1        0.1787874  0.4136014  48.011     0.3949519  0.5430559  0.2468479 
