~Version
 VERS              .         2.0                           : CWLS LOG ASCII STANDARD - VERSION 2.0
 WRAP              .         NO                            : ONE LINE PER DEPTH STEP
 DLM               .         SPACE                         : DELIMITING CHARACTER(SPACE TAB OR COMMA)
~Well Information
#_______________________________________________________________________________
#
#PARAMETER_NAME    .UNIT     VALUE                         : DESCRIPTION
#_______________________________________________________________________________
STRT               .M        870                           : First reference value
STOP               .M        1172.2                        : Last reference value
STEP               .M        0.2                           : Step increment
NULL               .         -9999                         : Missing value
COMP               .                                       : Company
WELL               .         7146                          : Well name
FLD                .         УЗЕНЬ                         : Field
LOC                .                                       : Location
CNTY               .                                       : County
STAT               .                                       : State
CTRY               .                                       : Country
SRVC               .                                       : Service Company
DATE               .                                       : Date
UWI                .                                       : Unique Well ID
API                .                                       : 
Block              .         7                             : 
Category           .         Нефтяная                      : 
Condition          .         В работе                      : 
Date               .         02.04.1983                    : 
EREF               .m        86.7                          : 100.8
Gorizont           .         15                            : 14
Interpretator      .         Ким С.В.                      : 
Kupol              .         основной                      : osnovnoi
Mud                .         0                             : 
Mud_density        .         0                             : 
Mud_resistivity    .         0                             : 
NGDU               .         НГДУ-2                        : 
ORIGINALWELLNAME   .         7146                          : 
Spud_date          .         1983                          : 1961
Viscosity          .         0                             : 
X                  .m        42705                         : 46154
Y                  .m        84284.43                      : 85761.93
YEAR               .         2018                          : 
~Parameter Information Block
#_______________________________________________________________________________
#
#PARAMETER_NAME    .UNIT     VALUE                         : DESCRIPTION
#_______________________________________________________________________________
SET                .         LQC_KAZNIPI_Petrel            : 
GSDD               .         CSAT                          : CSATкрив,0,DEPT,BOTTOM,,,,0
TLFamily_CALI      .         Caliper                       : 
TLFamily_CILD      .         Conductivity                  : 
TLFamily_COLL      .         Net Reservoir Flag            : 
TLFamily_CSAT      .         Fluid Code                    : 
TLFamily_DEPT      .         Measured Depth                : 
TLFamily_GR        .         Russian Gamma Ray             : 
TLFamily_GZ1       .         Gradient 045                  : 
TLFamily_GZ2       .         Gradient 105                  : 
TLFamily_GZ3       .         Gradient 225                  : 
TLFamily_GZ4       .         Gradient 425                  : 
TLFamily_GZ5       .         Gradient 850                  : 
TLFamily_LLS       .         Lateral Log Resistivity       : 
TLFamily_MINV      .         Micro Gradient Resistivity    : 
TLFamily_MNOR      .         Micro Resistivity             : 
TLFamily_NGLD      .         Neutron Gamma                 : 
TLFamily_OGZ       .         Gradient Inverted 225         : 
TLFamily_PHIE      .         Effective Porosity            : 
TLFamily_PHIEN     .         Effective Porosity            : 
TLFamily_PHIT      .         Porosity                      : 
TLFamily_PRMB      .         Permeability                  : 
TLFamily_PRMB_DGR  .         Permeability                  : 
TLFamily_RT        .         Formation Resistivity         : 
TLFamily_SOIL_ARCHIE .         Oil Saturation                : 
TLFamily_SOIL_DW   .         Oil Saturation                : 
TLFamily_SP        .         Spontaneous Potential         : 
TLFamily_VSH_FIN   .         Shale Volume                  : 
TLFamily_VSH_GR    .         Shale Volume                  : 
TLFamily_VSH_SP    .         Shale Volume                  : 
~Curve Information
#_______________________________________________________________________________
#
#LOGNAME           .UNIT     LOG_ID                        : DESCRIPTION
#_______________________________________________________________________________
DEPT               .M                                      : Колонка глубины 
CALI               .м                                      : Каверномер 
CILD               .мСм/м                                  : Индукционный каротаж зондом 6Ф1 
COLL               .unitless                               : Описание 
CSAT               .unitless                               : Описание 
GR                 .uR/h                                   : Гамма каротаж 
GZ1                .Ohmm                                   :  
GZ2                .Ohmm                                   :  
GZ3                .Ohmm                                   :  
GZ4                .Ohmm                                   :  
GZ5                .Ohmm                                   :  
LLS                .Ohmm                                   : Боковой каротаж 
MINV               .Ohmm                                   : Микро-градиент зонд 
MNOR               .Ohmm                                   : Микро-потенциал зонд 
NGLD               .у.е.                                   : Показания зонда НГК-60 аппаратуры ДРСТ-3-90 
OGZ                .Ohmm                                   :  
PHIE               .v/v                                    : Описание 
PHIEN              .v/v                                    :  
PHIT               .v/v                                    : Описание 
PRMB               .mD                                     :  
PRMB_DGR           .mD                                     :  
RT                 .ohmm                                   : Удельное электрическое сопротивление 
SOIL_ARCHIE        .v/v                                    :  
SOIL_DW            .v/v                                    :  
SP                 .мВ                                     : Потенциал самополяризации 
VSH_FIN            .v/v                                    : Описание 
VSH_GR             .v/v                                    : Shale volume 
VSH_SP             .v/v                                    : Shale Volume 
~Ascii
# ...
1005.2     0.215      72.454     -9999      -9999      3.235      2.413      5.055      4.903      2.354      2.43       3.741      3.068      2.325      1.351      3.251      0.1459943  0.1459943  0.2115344  1.41686    73.59777   9.859      0.59171    0.6752292  55.758     0.1986064  0.112153   0.2850597 
1005.4     0.215      96.025     -9999      -9999      3.476      2.819      6.007      5.538      2.328      2.303      3.414      2.909      2.29       1.29       3.175      0.1574614  0.1574614  0.230176   2.310607   43.78942   7.237      0.558045   0.6503685  56.159     0.2203472  0.1386399  0.3020544 
1005.6     0.216      129.197    -9999      -9999      3.802      3.759      7.239      5.538      2.303      2.176      3.06       2.757      2.257      1.212      3.175      0.1704352  0.1704352  0.2540128  4.018203   21.69413   5.198      0.5181921  0.6231945  56.596     0.2532654  0.184689   0.3218417 
1005.8     0.218      172.479    -9999      -9999      4.384      4.496      8.382      6.173      2.252      2.151      2.752      2.386      2.056      1.123      3.505      0.1734682  0.1734682  0.2812112  4.573099   6.191352   3.766      0.4480775  0.5862714  57.069     0.3264938  0.3081781  0.3448095 
1006       0.22       212.966    -9999      -9999      4.941      5.359      8.128      6.732      2.227      2.151      2.524      2.016      1.742      1.053      3.581      0.1591653  0.1591653  0.3026032  2.484766   1.864746   2.971      0.3351088  0.5389629  57.48      0.4346603  0.5030499  0.3662708 
1006.2     0.222      248.577    -9999      -9999      5.232      4.369      6.604      7.342      2.201      2.151      2.385      1.761      1.464      1.004      3.2        0.2121889  0.2121889  0.3175776  23.84581   9.728416   2.805      0.468249   0.5890186  57.77      0.3193596  0.2562498  0.3824693 
1006.4     0.225      277.838    -9999      -9999      5.438      2.565      5.842      7.697      2.201      2.252      2.323      1.585      1.238      0.974      2.743      0.2135042  0.2135042  0.3267456  25.2217    6.973813   2.678      0.4594778  0.5874617  57.942     0.3431557  0.2935601  0.3927512 
1006.6     0.227      299.987    -9999      -9999      5.573      2.032      5.207      7.697      2.252      2.379      2.298      1.536      1.113      0.959      2.743      0.2126316  0.2126316  0.3313296  24.3003    5.606953   2.571      0.4470669  0.5817417  58.029     0.3596908  0.3209105  0.3984711 
1006.8     0.23       314.211    -9999      -9999      5.658      1.727      4.699      6.884      2.278      2.481      2.274      1.565      1.061      0.954      2.362      0.2109657  0.2109657  0.3328576  22.63367   4.88735    2.478      0.4335569  0.5737768  58.029     0.3693693  0.3394239  0.3993148 
1007       0.233      326.657    -9999      -9999      5.71       1.854      4.191      5.335      2.303      2.506      2.236      1.638      1.079      0.946      2.032      0.2116524  0.2116524  0.3353024  23.30632   4.493447   2.394      0.4259425  0.5688174  57.993     0.3746971  0.3512724  0.3981217 
1007.2     0.236      337.985    -9999      -9999      5.737      1.829      3.81       4.598      2.354      2.43       2.187      1.682      1.1        0.934      1.905      0.2144647  0.2144647  0.3389696  26.27632   4.30161    2.315      0.4234975  0.5666723  57.958     0.3772876  0.3575868  0.3969884 
1007.4     0.239      348.704    -9999      -9999      5.756      1.905      3.302      4.09       2.455      2.43       2.131      1.696      1.112      0.921      1.905      0.2177961  0.2177961  0.3429424  30.28802   4.171543   2.239      0.4222053  0.5651453  57.932     0.3792311  0.3620982  0.3963641 
1007.6     0.243      359.067    -9999      -9999      5.766      1.981      3.162      4.09       2.582      2.557      2.075      1.658      1.094      0.907      1.905      0.2216799  0.2216799  0.3472208  35.74429   4.104676   2.162      0.4216108  0.5638539  57.917     0.3804271  0.3644953  0.3963589 
1007.8     0.246      369.481    -9999      -9999      5.775      1.803      2.946      3.709      2.709      2.659      2.024      1.585      1.077      0.897      1.981      0.2242857  0.2242857  0.3502768  39.94599   4.04541    2.085      0.4176414  0.5602688  57.912     0.3817912  0.3666664  0.396916  
1008       0.248      380.251    -9999      -9999      5.797      1.575      2.87       3.582      2.811      2.786      1.983      1.499      1.053      0.889      2.057      0.2257072  0.2257072  0.3527216  42.44265   3.904118   2.011      0.410932   0.55524    57.912     0.3848922  0.372028   0.3977564 
1008.2     0.251      391.833    -9999      -9999      5.845      1.651      2.769      3.506      2.938      2.887      1.953      1.376      1.004      0.886      2.032      0.2245097  0.2245097  0.3536384  40.32941   3.612736   1.943      0.3985659  0.5472499  57.912     0.3912992  0.3839998  0.3985986 
1008.4     0.252      404.076    -9999      -9999      5.918      1.549      2.718      3.151      3.065      2.989      1.936      1.254      0.938      0.885      1.956      0.2215493  0.2215493  0.353944   35.54585   3.210734   1.885      0.3828583  0.5381058  57.912     0.401196   0.4029496  0.3994425 
1008.6     0.253      416.42     -9999      -9999      6.003      1.473      2.591      3.151      3.37       3.294      1.931      1.134      0.889      0.887      1.956      0.216963   0.216963   0.3533328  29.23065   2.798668   1.842      0.3646688  0.5283092  57.912     0.4132419  0.4261957  0.4002882 
1008.8     0.253      428.257    -9999      -9999      6.082      1.194      2.388      2.922      3.929      3.598      1.936      1.039      0.842      0.89       1.88       0.2121433  0.2121433  0.352416   23.79948   2.463251   1.814      0.3474421  0.5196364  57.912     0.4250686  0.4490018  0.4011356 
1009       0.252      438.62     -9999      -9999      6.146      1.016      2.134      2.693      4.31       3.903      1.946      0.975      0.807      0.893      1.753      0.2078908  0.2078908  0.3514992  19.85184   2.221229   1.799      0.3332385  0.5129604  57.912     0.4351768  0.4683694  0.4019843 
1009.2     0.251      446.545    -9999      -9999      6.178      0.965      1.956      2.49       4.589      4.208      1.959      0.979      0.804      0.896      1.727      0.2051845  0.2051845  0.3505824  17.68774   2.109286   1.793      0.3245273  0.5088226  57.912     0.4405998  0.4783643  0.4028352 
1009.4     0.25       451.828    -9999      -9999      6.179      1.041      1.981      2.236      4.995      4.513      1.97       1.015      0.82       0.9        1.702      0.2037693  0.2037693  0.34936    16.65175   2.10588    1.795      0.3207988  0.5067068  57.912     0.441184   0.4786801  0.4036879 
1009.6     0.249      454.876    -9999      -9999      6.167      1.194      1.981      2.236      5.376      4.843      1.976      1.073      0.822      0.904      1.702      0.2030289  0.2030289  0.3481376  16.13411   2.147116   1.803      0.3200622  0.5060476  57.912     0.4397235  0.4749047  0.4045423 
1009.8     0.249      455.943    -9999      -9999      6.147      1.194      1.981      2.058      5.097      4.919      1.974      1.142      0.834      0.907      1.702      0.2029506  0.2029506  0.3472208  16.08038   2.217643   1.811      0.3212456  0.5062806  57.917     0.4371823  0.4686786  0.4056861 
1010       0.249      455.486    -9999      -9999      6.133      1.321      1.981      1.957      3.497      4.614      1.964      1.204      0.837      0.907      1.651      0.2034249  0.2034249  0.3472208  16.40895   2.268384   1.816      0.3234999  0.5074183  57.927     0.4357451  0.4643689  0.4071214 
1010.2     0.249      454.012    -9999      -9999      6.143      1.194      1.956      2.008      2.963      3.979      1.947      1.233      0.818      0.904      1.6        0.203549   0.203549   0.3481376  16.49599   2.232023   1.816      0.323859   0.5083191  57.942     0.4381474  0.4674433  0.4088516 
