~Version
 VERS              .         2.0                           : CWLS LOG ASCII STANDARD - VERSION 2.0
 WRAP              .         NO                            : ONE LINE PER DEPTH STEP
 DLM               .         SPACE                         : DELIMITING CHARACTER(SPACE TAB OR COMMA)
~Well Information
#_______________________________________________________________________________
#
#PARAMETER_NAME    .UNIT     VALUE                         : DESCRIPTION
#_______________________________________________________________________________
STRT               .M        870                           : First reference value
STOP               .M        1172.2                        : Last reference value
STEP               .M        0.2                           : Step increment
NULL               .         -9999                         : Missing value
COMP               .                                       : Company
WELL               .         7146                          : Well name
FLD                .         УЗЕНЬ                         : Field
LOC                .                                       : Location
CNTY               .                                       : County
STAT               .                                       : State
CTRY               .                                       : Country
SRVC               .                                       : Service Company
DATE               .                                       : Date
UWI                .                                       : Unique Well ID
API                .                                       : 
Block              .         7                             : 
Category           .         Нефтяная                      : 
Condition          .         В работе                      : 
Date               .         02.04.1983                    : 
EREF               .m        86.7                          : 100.8
Gorizont           .         15                            : 14
Interpretator      .         Ким С.В.                      : 
Kupol              .         основной                      : osnovnoi
Mud                .         0                             : 
Mud_density        .         0                             : 
Mud_resistivity    .         0                             : 
NGDU               .         НГДУ-2                        : 
ORIGINALWELLNAME   .         7146                          : 
Spud_date          .         1983                          : 1961
Viscosity          .         0                             : 
X                  .m        42705                         : 46154
Y                  .m        84284.43                      : 85761.93
YEAR               .         2018                          : 
~Parameter Information Block
#_______________________________________________________________________________
#
#PARAMETER_NAME    .UNIT     VALUE                         : DESCRIPTION
#_______________________________________________________________________________
SET                .         LQC_KAZNIPI_Petrel            : 
GSDD               .         CSAT                          : CSATкрив,0,DEPT,BOTTOM,,,,0
TLFamily_CALI      .         Caliper                       : 
TLFamily_CILD      .         Conductivity                  : 
TLFamily_COLL      .         Net Reservoir Flag            : 
TLFamily_CSAT      .         Fluid Code                    : 
TLFamily_DEPT      .         Measured Depth                : 
TLFamily_GR        .         Russian Gamma Ray             : 
TLFamily_GZ1       .         Gradient 045                  : 
TLFamily_GZ2       .         Gradient 105                  : 
TLFamily_GZ3       .         Gradient 225                  : 
TLFamily_GZ4       .         Gradient 425                  : 
TLFamily_GZ5       .         Gradient 850                  : 
TLFamily_LLS       .         Lateral Log Resistivity       : 
TLFamily_MINV      .         Micro Gradient Resistivity    : 
TLFamily_MNOR      .         Micro Resistivity             : 
TLFamily_NGLD      .         Neutron Gamma                 : 
TLFamily_OGZ       .         Gradient Inverted 225         : 
TLFamily_PHIE      .         Effective Porosity            : 
TLFamily_PHIEN     .         Effective Porosity            : 
TLFamily_PHIT      .         Porosity                      : 
TLFamily_PRMB      .         Permeability                  : 
TLFamily_PRMB_DGR  .         Permeability                  : 
TLFamily_RT        .         Formation Resistivity         : 
TLFamily_SOIL_ARCHIE .         Oil Saturation                : 
TLFamily_SOIL_DW   .         Oil Saturation                : 
TLFamily_SP        .         Spontaneous Potential         : 
TLFamily_VSH_FIN   .         Shale Volume                  : 
TLFamily_VSH_GR    .         Shale Volume                  : 
TLFamily_VSH_SP    .         Shale Volume                  : 
~Curve Information
#_______________________________________________________________________________
#
#LOGNAME           .UNIT     LOG_ID                        : DESCRIPTION
#_______________________________________________________________________________
DEPT               .M                                      : Колонка глубины 
CALI               .м                                      : Каверномер 
CILD               .мСм/м                                  : Индукционный каротаж зондом 6Ф1 
COLL               .unitless                               : Описание 
CSAT               .unitless                               : Описание 
GR                 .uR/h                                   : Гамма каротаж 
GZ1                .Ohmm                                   :  
GZ2                .Ohmm                                   :  
GZ3                .Ohmm                                   :  
GZ4                .Ohmm                                   :  
GZ5                .Ohmm                                   :  
LLS                .Ohmm                                   : Боковой каротаж 
MINV               .Ohmm                                   : Микро-градиент зонд 
MNOR               .Ohmm                                   : Микро-потенциал зонд 
NGLD               .у.е.                                   : Показания зонда НГК-60 аппаратуры ДРСТ-3-90 
OGZ                .Ohmm                                   :  
PHIE               .v/v                                    : Описание 
PHIEN              .v/v                                    :  
PHIT               .v/v                                    : Описание 
PRMB               .mD                                     :  
PRMB_DGR           .mD                                     :  
RT                 .ohmm                                   : Удельное электрическое сопротивление 
SOIL_ARCHIE        .v/v                                    :  
SOIL_DW            .v/v                                    :  
SP                 .мВ                                     : Потенциал самополяризации 
VSH_FIN            .v/v                                    : Описание 
VSH_GR             .v/v                                    : Shale volume 
VSH_SP             .v/v                                    : Shale Volume 
~Ascii
870.0      0.211      333.261    -9999      -9999      4.126      1.041      2.21       7.977      0.652      0.22       6.558      3.531      3.632      1.558      8.052      -9999      -9999      -9999      -9999      -9999      2.609      -9999      -9999      51.674     -9999      0.02       0.8       
870.2000000000001 0.211      338.629    -9999      -9999      4.126      1.041      2.21       8.002000000000001 0.652      0.22       6.558      3.531      3.632      1.558      3.124      -9999      -9999      -9999      -9999      -9999      2.562      -9999      -9999      51.674     -9999      0.02       0.8       
870.4      0.211      354.072    -9999      -9999      4.126      1.041      2.21       8.002000000000001 0.652      0.22       6.558      3.531      3.632      1.558      3.048      -9999      -9999      -9999      -9999      -9999      2.431      -9999      -9999      51.674     -9999      0.02       0.8       
870.6      0.211      331.584    -9999      -9999      4.126      1.041      2.21       8.002000000000001 0.652      0.22       6.558      3.531      3.632      1.558      3.048      -9999      -9999      -9999      -9999      -9999      2.699      -9999      -9999      51.415     -9999      0.02       0.8       
870.8      0.211      269.99     -9999      -9999      4.126      1.041      2.21       8.002000000000001 0.652      0.22       6.558      3.531      3.632      1.558      2.896      -9999      -9999      -9999      -9999      -9999      3.536      -9999      -9999      51.074     -9999      0.02       0.8       
871        0.211      226.784    -9999      -9999      4.126      1.041      2.21       5.718      0.652      0.22       6.558      3.531      3.632      1.558      2.921      -9999      -9999      -9999      -9999      -9999      4.268      -9999      -9999      50.714     -9999      0.02       0.8       
871.2000000000001 0.212      202.705    -9999      -9999      4.126      1.041      2.21       3.434      0.652      0.22       6.558      3.546      3.627      1.558      4          -9999      -9999      -9999      -9999      -9999      4.757      -9999      -9999      50.495     -9999      0.02       0.8       
871.4      0.212      184.417    -9999      -9999      4.12       1.041      2.21       2.672      0.652      0.22       6.642      3.575      3.626      1.555      5.08       -9999      -9999      -9999      -9999      -9999      5.182      -9999      -9999      50.465     -9999      0.02       0.8       
871.6      0.214      172.225    -9999      -9999      4.104      1.041      2.21       2.672      0.652      0.22       6.834      3.619      3.625      1.547      5.08       -9999      -9999      -9999      -9999      -9999      5.495      -9999      -9999      50.673     -9999      0.02       0.8       
871.8      0.215      166.637    -9999      -9999      4.078      1.041      2.21       2.291      0.652      0.22       7.096      3.678      3.6        1.531      4.699      -9999      -9999      -9999      -9999      -9999      5.647      -9999      -9999      51.12      -9999      0.02       0.8       
872        0.217      167.45     -9999      -9999      4.048      1.041      2.21       3.053      0.652      0.22       7.382      3.752      3.538      1.504      4.445      -9999      -9999      -9999      -9999      -9999      5.62       -9999      -9999      51.735     -9999      0.02       0.8       
872.2000000000001 0.219      169.103    -9999      -9999      4.019      1.295      2.921      4.069      0.652      0.22       7.665      3.802      3.449      1.463      5.842      -9999      -9999      -9999      -9999      -9999      5.574      -9999      -9999      52.431     -9999      0.02       0.8       
872.4      0.22       170.858    -9999      -9999      4.01       1.778      3.48       5.593      0.652      0.22       7.749      3.808      3.288      1.413      8.509      -9999      -9999      -9999      -9999      -9999      5.524      -9999      -9999      53.147     -9999      0.02       0.8       
872.6      0.22       172.613    -9999      -9999      4.04       2.362      4.343      5.593      0.652      0.22       7.553      3.758      3.083      1.356      8.509      -9999      -9999      -9999      -9999      -9999      5.475      -9999      -9999      53.812     -9999      0.02       0.8       
872.8      0.223      173.85     -9999      -9999      4.122      3.073      5.778      6.101      0.652      0.22       7.138      3.652      2.805      1.297      12.065     -9999      -9999      -9999      -9999      -9999      5.44       -9999      -9999      54.427     -9999      0.02       0.8       
873        0.233      177.926    -9999      -9999      4.252      4.191      7.493      5.72       0.652      0.22       6.578      3.471      2.529      1.24       12.446     -9999      -9999      -9999      -9999      -9999      5.33       -9999      -9999      54.991     -9999      0.02       0.8       
873.2000000000001 0.247      181.073    -9999      -9999      4.427      6.35       9.271000000000001 5.339      0.652      0.22       5.913      3.265      2.365      1.186      10.287     -9999      -9999      -9999      -9999      -9999      5.244      -9999      -9999      55.504     -9999      0.02088609 0.8       
873.4      0.257      185.331    -9999      -9999      4.63       6.325      11.176     4.704      0.652      0.22       5.584      3.134      2.267      1.136      9.144      -9999      -9999      -9999      -9999      -9999      5.129      -9999      -9999      55.966     -9999      0.02392147 0.8       
873.6      0.263      188.063    -9999      -9999      4.848      6.121      13.589     4.704      0.652      0.22       5.269      3.005      2.171      1.089      9.144      -9999      -9999      -9999      -9999      -9999      5.06       -9999      -9999      56.383     -9999      0.02767407 0.8       
873.8      0.266      192.283    -9999      -9999      5.071      5.791      12.954     4.577      0.6770000000000001 0.22       4.718      2.626      1.903      1.047      7.874      -9999      -9999      -9999      -9999      -9999      4.952      -9999      -9999      56.754     -9999      0.03212252 0.8       
874        0.264      196.504    -9999      -9999      5.289      4.851      12.065     4.958      0.652      0.246      4.249      2.362      1.741      1.01       6.007      -9999      -9999      -9999      -9999      -9999      4.845      -9999      -9999      57.084     -9999      0.03716162 0.8       
874.2000000000001 0.259      200.724    -9999      -9999      5.497      4.496      12.446     5.72       0.449      0.169      3.848      2.114      1.588      0.982      4.14       -9999      -9999      -9999      -9999      -9999      4.738      -9999      -9999      57.379     -9999      0.04270482 0.8       
874.4      0.255      217.538    -9999      -9999      5.681      4.699      12.319     6.99       0.347      0.169      3.526      1.604      1.299      0.966      3.759      -9999      -9999      -9999      -9999      -9999      4.339      -9999      -9999      57.638     -9999      0.04829385 0.8       
874.6      0.254      233.134    -9999      -9999      5.837      4.369      9.906000000000001 6.99       0.627      0.271      3.292      1.391      1.171      0.961      3.759      -9999      -9999      -9999      -9999      -9999      3.993      -9999      -9999      57.871     -9999      0.05360167 0.8       
874.8      0.257      245.224    -9999      -9999      5.933      3.556      6.566      7.879      1.135      0.449      3.155      1.199      1.056      0.965      3.378      -9999      -9999      -9999      -9999      -9999      3.737      -9999      -9999      58.08      -9999      0.05715406 0.8       
875        0.26       252.184    -9999      -9999      5.975      2.184      4.572      7.117      1.922      0.627      3.117      0.891      0.891      0.971      3.023      -9999      -9999      -9999      -9999      -9999      3.595      -9999      -9999      58.263     -9999      0.05878135 0.8       
