~Version
 VERS              .         2.0                           : CWLS LOG ASCII STANDARD - VERSION 2.0
 WRAP              .         NO                            : ONE LINE PER DEPTH STEP
 DLM               .         SPACE                         : DELIMITING CHARACTER(SPACE TAB OR COMMA)
~Well Information
#_______________________________________________________________________________
#
#PARAMETER_NAME    .UNIT     VALUE                         : DESCRIPTION
#_______________________________________________________________________________
STRT               .M        870                           : First reference value
STOP               .M        1172.2                        : Last reference value
STEP               .M        0.2                           : Step increment
NULL               .         -9999                         : Missing value
COMP               .                                       : Company
WELL               .         7146                          : Well name
FLD                .         УЗЕНЬ                         : Field
LOC                .                                       : Location
CNTY               .                                       : County
STAT               .                                       : State
CTRY               .                                       : Country
SRVC               .                                       : Service Company
DATE               .                                       : Date
UWI                .                                       : Unique Well ID
API                .                                       : 
Block              .         7                             : 
Category           .         Нефтяная                      : 
Condition          .         В работе                      : 
Date               .         02.04.1983                    : 
EREF               .m        86.7                          : 100.8
Gorizont           .         15                            : 14
Interpretator      .         Ким С.В.                      : 
Kupol              .         основной                      : osnovnoi
Mud                .         0                             : 
Mud_density        .         0                             : 
Mud_resistivity    .         0                             : 
NGDU               .         НГДУ-2                        : 
ORIGINALWELLNAME   .         7146                          : 
Spud_date          .         1983                          : 1961
Viscosity          .         0                             : 
X                  .m        42705                         : 46154
Y                  .m        84284.43                      : 85761.93
YEAR               .         2018                          : 
~Parameter Information Block
#_______________________________________________________________________________
#
#PARAMETER_NAME    .UNIT     VALUE                         : DESCRIPTION
#_______________________________________________________________________________
SET                .         LQC_KAZNIPI_Petrel            : 
GSDD               .         CSAT                          : CSATкрив,0,DEPT,BOTTOM,,,,0
TLFamily_CALI      .         Caliper                       : 
TLFamily_CILD      .         Conductivity                  : 
TLFamily_COLL      .         Net Reservoir Flag            : 
TLFamily_CSAT      .         Fluid Code                    : 
TLFamily_DEPT      .         Measured Depth                : 
TLFamily_GR        .         Russian Gamma Ray             : 
TLFamily_GZ1       .         Gradient 045                  : 
TLFamily_GZ2       .         Gradient 105                  : 
TLFamily_GZ3       .         Gradient 225                  : 
TLFamily_GZ4       .         Gradient 425                  : 
TLFamily_GZ5       .         Gradient 850                  : 
TLFamily_LLS       .         Lateral Log Resistivity       : 
TLFamily_MINV      .         Micro Gradient Resistivity    : 
TLFamily_MNOR      .         Micro Resistivity             : 
TLFamily_NGLD      .         Neutron Gamma                 : 
TLFamily_OGZ       .         Gradient Inverted 225         : 
TLFamily_PHIE      .         Effective Porosity            : 
TLFamily_PHIEN     .         Effective Porosity            : 
TLFamily_PHIT      .         Porosity                      : 
TLFamily_PRMB      .         Permeability                  : 
TLFamily_PRMB_DGR  .         Permeability                  : 
TLFamily_RT        .         Formation Resistivity         : 
TLFamily_SOIL_ARCHIE .         Oil Saturation                : 
TLFamily_SOIL_DW   .         Oil Saturation                : 
TLFamily_SP        .         Spontaneous Potential         : 
TLFamily_VSH_FIN   .         Shale Volume                  : 
TLFamily_VSH_GR    .         Shale Volume                  : 
TLFamily_VSH_SP    .         Shale Volume                  : 
~Curve Information
#_______________________________________________________________________________
#
#LOGNAME           .UNIT     LOG_ID                        : DESCRIPTION
#_______________________________________________________________________________
DEPT               .M                                      : Колонка глубины 
CALI               .м                                      : Каверномер 
CILD               .мСм/м                                  : Индукционный каротаж зондом 6Ф1 
COLL               .unitless                               : Описание 
CSAT               .unitless                               : Описание 
GR                 .uR/h                                   : Гамма каротаж 
GZ1                .Ohmm                                   :  
GZ2                .Ohmm                                   :  
GZ3                .Ohmm                                   :  
GZ4                .Ohmm                                   :  
GZ5                .Ohmm                                   :  
LLS                .Ohmm                                   : Боковой каротаж 
MINV               .Ohmm                                   : Микро-градиент зонд 
MNOR               .Ohmm                                   : Микро-потенциал зонд 
NGLD               .у.е.                                   : Показания зонда НГК-60 аппаратуры ДРСТ-3-90 
OGZ                .Ohmm                                   :  
PHIE               .v/v                                    : Описание 
PHIEN              .v/v                                    :  
PHIT               .v/v                                    : Описание 
PRMB               .mD                                     :  
PRMB_DGR           .mD                                     :  
RT                 .ohmm                                   : Удельное электрическое сопротивление 
SOIL_ARCHIE        .v/v                                    :  
SOIL_DW            .v/v                                    :  
SP                 .мВ                                     : Потенциал самополяризации 
VSH_FIN            .v/v                                    : Описание 
VSH_GR             .v/v                                    : Shale volume 
VSH_SP             .v/v                                    : Shale Volume 
~Ascii
# ...
1161.2     0.207      125.133    1          2          -9999      4.597      7.569      5.056      1.414      1.008      5.602      1.847      2.29       -9999      0          -9999      -9999      -9999      -9999      -9999      7.638      -9999      -9999      14.727     0.114486   -9999      0.1144855 
1161.4     0.207      120.561    1          2          -9999      4.623      7.849      5.411      1.109      0.779      5.658      1.854      2.279      -9999      0          -9999      -9999      -9999      -9999      -9999      7.938      -9999      -9999      14.341     0.113627   -9999      0.1136273 
1161.6     0.207      116.446    1          2          -9999      4.648      8.026      5.411      0.982      0.652      5.716      1.863      2.3        -9999      0          -9999      -9999      -9999      -9999      -9999      8.226      -9999      -9999      14.016     0.112899   -9999      0.1128989 
1161.8     0.207      112.89     1          2          -9999      4.674      0          5.792      0.982      0.576      5.772      1.927      2.369      -9999      0          -9999      -9999      -9999      -9999      -9999      8.49       -9999      -9999      13.741     0.112283   -9999      0.1122827 
1162       0.207      109.893    1          2          -9999      4.724      0          6.224      1.033      0.55       5.83       2.059      2.475      -9999      0          -9999      -9999      -9999      -9999      -9999      8.723      -9999      -9999      13.518     0.111801   -9999      0.1118011 
1162.2     0.207      107.556    1          2          -9999      4.724      0          6.605      1.084      0.627      5.888      2.249      2.615      -9999      0          -9999      -9999      -9999      -9999      -9999      8.913      -9999      -9999      13.345     0.111464   -9999      0.1114644 
1162.4     0.207      106.134    1          2          -9999      4.75       0          7.265      1.033      0.779      5.941      2.485      2.773      -9999      0          -9999      -9999      -9999      -9999      -9999      9.031      -9999      -9999      13.223     0.111289   -9999      0.1112887 
1162.6     0.207      105.575    1          2          -9999      4.801      0          7.265      1.008      0.982      5.979      2.752      2.898      -9999      0          -9999      -9999      -9999      -9999      -9999      9.078      -9999      -9999      13.172     0.111348   -9999      0.1113475 
1162.8     0.207      105.829    1          2          -9999      4.877      0          7.773      1.058      1.211      5.999      2.941      2.952      -9999      0          -9999      -9999      -9999      -9999      -9999      9.056      -9999      -9999      13.203     0.111673   -9999      0.1116729 
1163       0.207      106.947    1          2          -9999      4.902      0          -32768     1.109      1.439      5.989      2.978      2.95       -9999      -32768     -9999      -9999      -9999      -9999      -9999      8.96       -9999      -9999      13.31      0.112226   -9999      0.1122257 
1163.2     0.207      108.776    1          2          -9999      4.978      0          -32768     1.185      1.668      5.945      3.012      2.948      -9999      -32768     -9999      -9999      -9999      -9999      -9999      8.808      -9999      -9999      13.498     0.112992   -9999      0.1129916 
1163.4     0.207      111.163    1          2          -9999      5.08       0          -32768     1.389      1.897      5.861      2.987      2.887      -9999      -32768     -9999      -9999      -9999      -9999      -9999      8.617      -9999      -9999      13.767     0.113939   -9999      0.1139386 
1163.6     0.207      114.262    1          2          -9999      5.207      0          -32768     1.566      2.125      5.74       2.88       2.777      -9999      -32768     -9999      -9999      -9999      -9999      -9999      8.384      -9999      -9999      14.31      0.115545   -9999      0.1155454 
1163.8     0.207      118.428    1          2          -9999      5.309      0          -32768     1.795      2.354      5.582      2.682      2.652      -9999      -32768     -9999      -9999      -9999      -9999      -9999      8.095      -9999      -9999      14.864     0.117153   -9999      0.1171525 
1164       -9999      123.914    1          2          -9999      5.334      0          -32768     1.998      2.582      5.389      2.468      2.532      -9999      -32768     -9999      -9999      -9999      -9999      -9999      7.751      -9999      -9999      15.138     0.118074   -9999      0.1180744 
1164.2     -9999      131.229    1          2          -9999      5.309      0          -32768     2.227      2.811      5.167      2.271      2.402      -9999      -32768     -9999      -9999      -9999      -9999      -9999      7.341      -9999      -9999      15.138     0.118265   -9999      0.1182652 
1164.4     -9999      140.83     1          2          -9999      5.283      0          -32768     2.405      3.09       4.92       2.077      2.249      -9999      -32768     -9999      -9999      -9999      -9999      -9999      6.864      -9999      -9999      15.138     0.118458   -9999      0.1184585 
1164.6     -9999      153.175    1          2          -9999      5.232      0          -32768     2.582      3.268      4.647      1.879      2.07       -9999      -32768     -9999      -9999      -9999      -9999      -9999      6.332      -9999      -9999      -9999      -9999      -9999      -9999     
1164.8     -9999      168.72     1          2          -9999      5.182      0          -32768     2.735      3.395      4.352      1.728      1.91       -9999      -32768     -9999      -9999      -9999      -9999      -9999      5.766      -9999      -9999      -9999      -9999      -9999      -9999     
1165       -9999      188.227    1          2          -9999      5.156      0          -32768     2.887      3.421      4.032      1.614      1.773      -9999      -32768     -9999      -9999      -9999      -9999      -9999      5.181      -9999      -9999      -9999      -9999      -9999      -9999     
1165.2     -9999      211.595    1          2          -9999      5.232      0          -32768     2.963      3.395      3.696      1.614      1.773      -9999      -32768     -9999      -9999      -9999      -9999      -9999      4.603      -9999      -9999      -9999      -9999      -9999      -9999     
1165.4     -9999      238.265    1          2          -9999      5.359      0          -32768     3.014      3.446      3.356      1.614      1.773      -9999      -32768     -9999      -9999      -9999      -9999      -9999      4.056      -9999      -9999      -9999      -9999      -9999      -9999     
1165.6     -9999      267.068    -9999      -9999      -9999      5.537      0          -32768     3.014      3.598      3.033      -9999      -9999      -9999      -32768     -9999      -9999      -9999      -9999      -9999      3.561      -9999      -9999      -9999      -9999      -9999      -9999     
1165.8     -9999      309.411    -9999      -9999      -9999      0          0          -32768     3.065      3.725      2.646      -9999      -9999      -9999      -32768     -9999      -9999      -9999      -9999      -9999      2.969      -9999      -9999      -9999      -9999      -9999      -9999     
1166       -9999      352.565    -9999      -9999      -9999      -32768     -32768     -32768     3.167      3.852      2.414      -9999      -9999      -9999      -32768     -9999      -9999      -9999      -9999      -9999      2.477      -9999      -9999      -9999      -9999      -9999      -9999     
1166.2     -9999      372.258    -9999      -9999      -9999      -32768     -32768     -32768     3.243      3.954      2.37       -9999      -9999      -9999      -32768     -9999      -9999      -9999      -9999      -9999      2.291      -9999      -9999      -9999      -9999      -9999      -9999     
