~Version
 VERS              .         2.0                           : CWLS LOG ASCII STANDARD - VERSION 2.0
 WRAP              .         NO                            : ONE LINE PER DEPTH STEP
 DLM               .         SPACE                         : DELIMITING CHARACTER(SPACE TAB OR COMMA)
~Well Information
#_______________________________________________________________________________
#
#PARAMETER_NAME    .UNIT     VALUE                         : DESCRIPTION
#_______________________________________________________________________________
STRT               .M        870                           : First reference value
STOP               .M        1172.2                        : Last reference value
STEP               .M        0.2                           : Step increment
NULL               .         -9999                         : Missing value
COMP               .                                       : Company
WELL               .         7146                          : Well name
FLD                .         УЗЕНЬ                         : Field
LOC                .                                       : Location
CNTY               .                                       : County
STAT               .                                       : State
CTRY               .                                       : Country
SRVC               .                                       : Service Company
DATE               .                                       : Date
UWI                .                                       : Unique Well ID
API                .                                       : 
Block              .         7                             : 
Category           .         Нефтяная                      : 
Condition          .         В работе                      : 
Date               .         02.04.1983                    : 
EREF               .m        86.7                          : 100.8
Gorizont           .         15                            : 14
Interpretator      .         Ким С.В.                      : 
Kupol              .         основной                      : osnovnoi
Mud                .         0                             : 
Mud_density        .         0                             : 
Mud_resistivity    .         0                             : 
NGDU               .         НГДУ-2                        : 
ORIGINALWELLNAME   .         7146                          : 
Spud_date          .         1983                          : 1961
Viscosity          .         0                             : 
X                  .m        42705                         : 46154
Y                  .m        84284.43                      : 85761.93
YEAR               .         2018                          : 
~Parameter Information Block
#_______________________________________________________________________________
#
#PARAMETER_NAME    .UNIT     VALUE                         : DESCRIPTION
#_______________________________________________________________________________
SET                .         LQC_KAZNIPI_Petrel            : 
GSDD               .         CSAT                          : CSATкрив,0,DEPT,BOTTOM,,,,0
TLFamily_CALI      .         Caliper                       : 
TLFamily_CILD      .         Conductivity                  : 
TLFamily_COLL      .         Net Reservoir Flag            : 
TLFamily_CSAT      .         Fluid Code                    : 
TLFamily_DEPT      .         Measured Depth                : 
TLFamily_GR        .         Russian Gamma Ray             : 
TLFamily_GZ1       .         Gradient 045                  : 
TLFamily_GZ2       .         Gradient 105                  : 
TLFamily_GZ3       .         Gradient 225                  : 
TLFamily_GZ4       .         Gradient 425                  : 
TLFamily_GZ5       .         Gradient 850                  : 
TLFamily_LLS       .         Lateral Log Resistivity       : 
TLFamily_MINV      .         Micro Gradient Resistivity    : 
TLFamily_MNOR      .         Micro Resistivity             : 
TLFamily_NGLD      .         Neutron Gamma                 : 
TLFamily_OGZ       .         Gradient Inverted 225         : 
TLFamily_PHIE      .         Effective Porosity            : 
TLFamily_PHIEN     .         Effective Porosity            : 
TLFamily_PHIT      .         Porosity                      : 
TLFamily_PRMB      .         Permeability                  : 
TLFamily_PRMB_DGR  .         Permeability                  : 
TLFamily_RT        .         Formation Resistivity         : 
TLFamily_SOIL_ARCHIE .         Oil Saturation                : 
TLFamily_SOIL_DW   .         Oil Saturation                : 
TLFamily_SP        .         Spontaneous Potential         : 
TLFamily_VSH_FIN   .         Shale Volume                  : 
TLFamily_VSH_GR    .         Shale Volume                  : 
TLFamily_VSH_SP    .         Shale Volume                  : 
~Curve Information
#_______________________________________________________________________________
#
#LOGNAME           .UNIT     LOG_ID                        : DESCRIPTION
#_______________________________________________________________________________
DEPT               .M                                      : Колонка глубины 
CALI               .м                                      : Каверномер 
CILD               .мСм/м                                  : Индукционный каротаж зондом 6Ф1 
COLL               .unitless                               : Описание 
CSAT               .unitless                               : Описание 
GR                 .uR/h                                   : Гамма каротаж 
GZ1                .Ohmm                                   :  
GZ2                .Ohmm                                   :  
GZ3                .Ohmm                                   :  
GZ4                .Ohmm                                   :  
GZ5                .Ohmm                                   :  
LLS                .Ohmm                                   : Боковой каротаж 
MINV               .Ohmm                                   : Микро-градиент зонд 
MNOR               .Ohmm                                   : Микро-потенциал зонд 
NGLD               .у.е.                                   : Показания зонда НГК-60 аппаратуры ДРСТ-3-90 
OGZ                .Ohmm                                   :  
PHIE               .v/v                                    : Описание 
PHIEN              .v/v                                    :  
PHIT               .v/v                                    : Описание 
PRMB               .mD                                     :  
PRMB_DGR           .mD                                     :  
RT                 .ohmm                                   : Удельное электрическое сопротивление 
SOIL_ARCHIE        .v/v                                    :  
SOIL_DW            .v/v                                    :  
SP                 .мВ                                     : Потенциал самополяризации 
VSH_FIN            .v/v                                    : Описание 
VSH_GR             .v/v                                    : Shale volume 
VSH_SP             .v/v                                    : Shale Volume 
~Ascii
# ...
1046.8     0.223      262.954    -9999      -9999      4.849      3.175      4.597      3.735      1.49       1.439      2.908      2.246      1.38       1.036      3.15       0.166266   0.166266   0.3077984  3.363632   18.06479   3.28       0.38895    0.5730777  59.705     0.4288859  0.1990249  0.658747  
1047       0.225      267.068    -9999      -9999      4.847      3.023      4.597      3.862      1.541      1.465      2.833      2.238      1.348      1.022      2.997      0.1720183  0.1720183  0.3120768  4.298868   18.12327   3.195      0.3994311  0.5767319  59.634     0.4244198  0.1987624  0.6500772 
1047.2     0.227      272.301    -9999      -9999      4.862      2.87       4.724      4.014      1.541      1.516      2.762      2.292      1.35       1.012      2.819      0.1764487  0.1764487  0.3151328  5.192964   17.68926   3.094      0.4036644  0.5766704  59.543     0.420255   0.2007395  0.6397705 
1047.4     0.229      279.006    -9999      -9999      4.897      2.769      4.851      4.167      1.566      1.541      2.694      2.301      1.364      1.003      2.718      0.1804689  0.1804689  0.3178832  6.16425    16.71654   2.976      0.4044834  0.5744249  59.426     0.4164069  0.2054294  0.6273844 
1047.6     0.231      287.439    -9999      -9999      4.944      2.896      4.724      4.167      1.592      1.643      2.625      2.285      1.35       0.997      2.718      0.1834522  0.1834522  0.3197168  7.00063    15.49394   2.844      0.400294   0.5689765  59.294     0.4129232  0.2119002  0.6139461 
1047.8     0.232      298.006    -9999      -9999      5.022      2.87       4.445      4.192      1.643      1.668      2.554      2.265      1.337      0.991      2.794      0.1857514  0.1857514  0.3215504  7.721911   13.65906   2.707      0.3928601  0.561895   59.152     0.4115121  0.223092   0.5999322 
1048       0.233      310.655    -9999      -9999      5.13       2.743      4.242      4.37       1.668      1.693      2.477      2.151      1.281      0.983      2.769      0.1876915  0.1876915  0.3239952  8.388023   11.47165   2.569      0.3833733  0.5541739  59.014     0.4130416  0.2395706  0.5865126 
1048.2     0.235      324.777    -9999      -9999      5.254      2.565      4.166      4.395      1.693      1.693      2.397      1.919      1.174      0.974      2.845      0.1891652  0.1891652  0.3267456  8.932151   9.388631   2.441      0.3726933  0.5463703  58.882     0.4169104  0.259997   0.5738238 
1048.4     0.237      339.865    -9999      -9999      5.383      2.54       4.191      4.319      1.719      1.744      2.32       1.736      1.067      0.964      2.946      0.1902724  0.1902724  0.3298016  9.36407    7.622015   2.331      0.3622219  0.5394576  58.765     0.4228158  0.2830973  0.5625343 
1048.6     0.24       354.749    -9999      -9999      5.526      2.54       3.962      4.319      1.795      1.795      2.258      1.579      0.993      0.956      2.946      0.1895984  0.1895984  0.3322464  9.098727   6.04939    2.247      0.3491341  0.5323588  58.674     0.4322667  0.3111109  0.5534225 
1048.8     0.244      368.16     -9999      -9999      5.655      2.565      3.531      4.192      1.922      1.846      2.214      1.468      0.934      0.951      2.819      0.1877363  0.1877363  0.3337744  8.404079   4.911101   2.189      0.3354092  0.5256712  58.608     0.4425397  0.3387527  0.5463266 
1049       0.248      379.032    -9999      -9999      5.75       2.134      3.099      3.709      2.024      1.922      2.193      1.477      0.924      0.95       2.565      0.1853985  0.1853985  0.33408    7.606572   4.212186   2.16       0.3238983  0.5204009  58.557     0.4505499  0.3606674  0.5404323 
1049.2     0.248      386.804    -9999      -9999      5.811      1.727      2.794      3.405      2.151      2.024      2.196      1.624      0.997      0.953      2.311      0.1828048  0.1828048  0.3331632  6.810001   3.816785   2.155      0.3148063  0.5163735  58.522     0.4556314  0.3754807  0.5357821 
1049.4     0.247      390.919    -9999      -9999      5.828      1.499      2.718      3.125      2.201      2.125      2.219      1.777      1.082      0.961      2.134      0.1803739  0.1803739  0.3307184  6.139326   3.713357   2.172      0.3093219  0.5135614  58.491     0.4555893  0.3797164  0.5314623 
1049.6     0.245      391.579    -9999      -9999      5.78       1.448      2.642      3.125      2.151      2.278      2.256      1.987      1.176      0.97       2.134      0.1803329  0.1803329  0.327968   6.128594   4.012854   2.207      0.3143479  0.5149351  58.456     0.4473791  0.3678782  0.52688   
1049.8     0.241      389.09     -9999      -9999      5.688      1.473      2.489      2.922      2.1        2.43       2.302      2.266      1.301      0.978      2.007      0.1822257  0.1822257  0.3255232  6.643856   4.656067   2.254      0.3272405  0.5198115  58.42      0.4342348  0.34621    0.5222597 
1050       0.238      384.061    -9999      -9999      5.573      1.422      2.337      2.566      2.074      2.328      2.351      2.454      1.395      0.983      1.905      0.1856285  0.1856285  0.3239952  7.68154    5.606953   2.302      0.3445082  0.52696    58.384     0.419293   0.3209105  0.5176756 
1050.2     0.235      377.457    -9999      -9999      5.458      1.422      2.337      2.338      2.151      2.303      2.399      2.528      1.405      0.986      1.93       0.1893197  0.1893197  0.3230784  8.991223   6.752027   2.348      0.3616082  0.5344682  58.349     0.4053293  0.29746    0.5131987 
1050.4     0.234      370.7      -9999      -9999      5.37       1.422      2.565      2.719      2.303      2.379      2.436      2.597      1.403      0.985      2.286      0.1930216  0.1930216  0.323384   10.52899   7.783825   2.388      0.3772412  0.5421934  58.323     0.3950375  0.2806792  0.5093958 
1050.6     0.234      364.35     -9999      -9999      5.355      1.575      2.667      2.719      2.227      2.455      2.459      2.568      1.372      0.982      2.286      0.1948897  0.1948897  0.3243008  11.40219   7.974805   2.416      0.3858124  0.5473725  58.308     0.3921548  0.2779149  0.5063949 
1050.8     0.235      358.915    -9999      -9999      5.34       1.93       2.515      3.049      2.278      2.532      2.465      2.4        1.282      0.978      2.642      0.1969982  0.1969982  0.3255232  12.47505   8.17047    2.429      0.393072   0.5515382  58.298     0.3894698  0.2751777  0.5037618 
1051       0.237      355.257    -9999      -9999      5.365      1.905      2.616      3.201      2.379      2.608      2.455      2.249      1.219      0.973      2.87       0.1981457  0.1981457  0.3270512  13.10079   7.846975   2.429      0.3961345  0.5538345  58.293     0.3906227  0.2797547  0.5014907 
1051.2     0.239      353.53     -9999      -9999      5.438      1.956      2.87       3.125      2.506      2.633      2.433      2.138      1.191      0.966      2.769      0.1983225  0.1983225  0.3291904  13.19995   6.973813   2.414      0.3948469  0.554356   58.293     0.3965693  0.2935601  0.4995785 
1051.4     0.24       353.53     -9999      -9999      5.547      2.21       2.819      2.947      2.506      2.659      2.403      1.998      1.154      0.957      2.667      0.1977752  0.1977752  0.3319408  12.8954    5.847547   2.382      0.389578   0.5531147  58.293     0.4065624  0.3154519  0.4976728 
1051.6     0.24       355.511    -9999      -9999      5.676      2.311      2.692      2.947      2.532      2.684      2.369      1.892      1.125      0.947      2.667      0.1965773  0.1965773  0.3349968  12.25309   4.747238   2.339      0.3810709  0.5504169  58.288     0.4194531  0.3434794  0.4954269 
1051.8     0.24       359.778    -9999      -9999      5.789      1.981      2.845      2.617      2.582      2.709      2.333      1.805      1.11       0.937      2.642      0.1956719  0.1956719  0.3380528  11.789     3.954916   2.29       0.3723729  0.5472823  58.278     0.4314572  0.3700694  0.4928451 
