~Version
 VERS              .         2.0                           : CWLS LOG ASCII STANDARD - VERSION 2.0
 WRAP              .         NO                            : ONE LINE PER DEPTH STEP
 DLM               .         SPACE                         : DELIMITING CHARACTER(SPACE TAB OR COMMA)
~Well Information
#_______________________________________________________________________________
#
#PARAMETER_NAME    .UNIT     VALUE                         : DESCRIPTION
#_______________________________________________________________________________
STRT               .M        870                           : First reference value
STOP               .M        1172.2                        : Last reference value
STEP               .M        0.2                           : Step increment
NULL               .         -9999                         : Missing value
COMP               .                                       : Company
WELL               .         7146                          : Well name
FLD                .         УЗЕНЬ                         : Field
LOC                .                                       : Location
CNTY               .                                       : County
STAT               .                                       : State
CTRY               .                                       : Country
SRVC               .                                       : Service Company
DATE               .                                       : Date
UWI                .                                       : Unique Well ID
API                .                                       : 
Block              .         7                             : 
Category           .         Нефтяная                      : 
Condition          .         В работе                      : 
Date               .         02.04.1983                    : 
EREF               .m        86.7                          : 100.8
Gorizont           .         15                            : 14
Interpretator      .         Ким С.В.                      : 
Kupol              .         основной                      : osnovnoi
Mud                .         0                             : 
Mud_density        .         0                             : 
Mud_resistivity    .         0                             : 
NGDU               .         НГДУ-2                        : 
ORIGINALWELLNAME   .         7146                          : 
Spud_date          .         1983                          : 1961
Viscosity          .         0                             : 
X                  .m        42705                         : 46154
Y                  .m        84284.43                      : 85761.93
YEAR               .         2018                          : 
~Parameter Information Block
#_______________________________________________________________________________
#
#PARAMETER_NAME    .UNIT     VALUE                         : DESCRIPTION
#_______________________________________________________________________________
SET                .         LQC_KAZNIPI_Petrel            : 
GSDD               .         CSAT                          : CSATкрив,0,DEPT,BOTTOM,,,,0
TLFamily_CALI      .         Caliper                       : 
TLFamily_CILD      .         Conductivity                  : 
TLFamily_COLL      .         Net Reservoir Flag            : 
TLFamily_CSAT      .         Fluid Code                    : 
TLFamily_DEPT      .         Measured Depth                : 
TLFamily_GR        .         Russian Gamma Ray             : 
TLFamily_GZ1       .         Gradient 045                  : 
TLFamily_GZ2       .         Gradient 105                  : 
TLFamily_GZ3       .         Gradient 225                  : 
TLFamily_GZ4       .         Gradient 425                  : 
TLFamily_GZ5       .         Gradient 850                  : 
TLFamily_LLS       .         Lateral Log Resistivity       : 
TLFamily_MINV      .         Micro Gradient Resistivity    : 
TLFamily_MNOR      .         Micro Resistivity             : 
TLFamily_NGLD      .         Neutron Gamma                 : 
TLFamily_OGZ       .         Gradient Inverted 225         : 
TLFamily_PHIE      .         Effective Porosity            : 
TLFamily_PHIEN     .         Effective Porosity            : 
TLFamily_PHIT      .         Porosity                      : 
TLFamily_PRMB      .         Permeability                  : 
TLFamily_PRMB_DGR  .         Permeability                  : 
TLFamily_RT        .         Formation Resistivity         : 
TLFamily_SOIL_ARCHIE .         Oil Saturation                : 
TLFamily_SOIL_DW   .         Oil Saturation                : 
TLFamily_SP        .         Spontaneous Potential         : 
TLFamily_VSH_FIN   .         Shale Volume                  : 
TLFamily_VSH_GR    .         Shale Volume                  : 
TLFamily_VSH_SP    .         Shale Volume                  : 
~Curve Information
#_______________________________________________________________________________
#
#LOGNAME           .UNIT     LOG_ID                        : DESCRIPTION
#_______________________________________________________________________________
DEPT               .M                                      : Колонка глубины 
CALI               .м                                      : Каверномер 
CILD               .мСм/м                                  : Индукционный каротаж зондом 6Ф1 
COLL               .unitless                               : Описание 
CSAT               .unitless                               : Описание 
GR                 .uR/h                                   : Гамма каротаж 
GZ1                .Ohmm                                   :  
GZ2                .Ohmm                                   :  
GZ3                .Ohmm                                   :  
GZ4                .Ohmm                                   :  
GZ5                .Ohmm                                   :  
LLS                .Ohmm                                   : Боковой каротаж 
MINV               .Ohmm                                   : Микро-градиент зонд 
MNOR               .Ohmm                                   : Микро-потенциал зонд 
NGLD               .у.е.                                   : Показания зонда НГК-60 аппаратуры ДРСТ-3-90 
OGZ                .Ohmm                                   :  
PHIE               .v/v                                    : Описание 
PHIEN              .v/v                                    :  
PHIT               .v/v                                    : Описание 
PRMB               .mD                                     :  
PRMB_DGR           .mD                                     :  
RT                 .ohmm                                   : Удельное электрическое сопротивление 
SOIL_ARCHIE        .v/v                                    :  
SOIL_DW            .v/v                                    :  
SP                 .мВ                                     : Потенциал самополяризации 
VSH_FIN            .v/v                                    : Описание 
VSH_GR             .v/v                                    : Shale volume 
VSH_SP             .v/v                                    : Shale Volume 
~Ascii
# ...
890.8      0.214      467.576    1          3          1.926      1.702      2.515      1.83       6.545      3.344      2.008      1.103      1.128      1.17       1.321      0.2431374  0.2431374  0.266848   89.25908   3305.157   1.687      0.4004417  0.4461752  45.415     0.07185036 0.02371978 0.1199809 
891        0.214      480.581    1          3          1.921      1.575      2.159      2.008      6.723      3.141      1.989      1.082      1.119      1.175      1.27       0.241607   0.241607   0.26532    83.61932   3323.241   1.638      0.3887388  0.434577   45.436     0.0718575  0.02366699 0.120048  
891.2000000000001 0.214      491.503    1          3          1.921      1.397      1.981      2.008      6.088      2.811      1.977      1.068      1.112      1.178      1.27       0.2406823  0.2406823  0.2644032  80.38555   3323.241   1.6        0.379901   0.4258263  45.451     0.07188157 0.02366699 0.1200962 
891.4      0.214      500.596    1          3          1.918      1.321      1.981      1.83       5.148      2.557      1.972      1.064      1.108      1.179      1.27       0.2403766  0.2403766  0.2640976  79.34425   3334.139   1.57       0.3736757  0.4196673  45.461     0.07188186 0.02363537 0.1201283 
891.6      0.214      508.064    1          3          1.914      1.397      1.93       1.83       4.386      2.328      1.97       1.068      1.106      1.177      1.27       0.2409921  0.2409921  0.2647088  81.4546    3348.725   1.546      0.3705352  0.4165919  45.466     0.07186889 0.02359328 0.1201445 
891.8      0.214      514.058    1          3          1.906      1.397      1.829      1.728      4.132      2.125      1.97       1.082      1.107      1.176      1.27       0.2413115  0.2413115  0.2650144  82.57201   3378.09    1.529      0.3679903  0.4140771  45.466     0.07182691 0.02350932 0.1201445 
892        0.213      518.63     1          3          1.893      1.346      1.676      1.627      4.437      2.074      1.97       1.107      1.112      1.174      1.295      0.2419451  0.2419451  0.2656256  84.83374   3426.357   1.517      0.3670962  0.4131979  45.466     0.07175901 0.02337352 0.1201445 
892.2000000000001 0.213      521.627    1          3          1.877      1.295      1.727      1.576      4.995      2.1        1.968      1.132      1.123      1.174      1.321      0.2419725  0.2419725  0.2656256  84.93295   3486.711   1.512      0.3661774  0.4122571  45.466     0.07167598 0.02320746 0.1201445 
892.4      0.213      523.05     1          3          1.863      1.321      1.727      1.525      4.792      2.024      1.965      1.15       1.132      1.173      1.321      0.242302   0.242302   0.2659312  86.1347    3540.392   1.511      0.3667315  0.4127914  45.466     0.0716038  0.02306313 0.1201445 
892.6      0.213      523.151    1          3          1.852      1.346      1.702      1.525      3.802      1.77       1.964      1.166      1.139      1.173      1.321      0.2423206  0.2423206  0.2659312  86.20304   3583.149   1.515      0.3675589  0.4135864  45.466     0.07154742 0.02295035 0.1201445 
892.8      0.213      522.288    1          3          1.839      1.346      1.651      1.474      2.862      1.465      1.962      1.168      1.145      1.173      1.346      0.2423424  0.2423424  0.2659312  86.2835    3634.346   1.519      0.3683906  0.4143817  45.466     0.07148114 0.02281778 0.1201445 
893        0.213      521.17     1          3          1.823      1.321      1.626      1.423      2.303      1.185      1.961      1.16       1.148      1.172      1.372      0.2426748  0.2426748  0.2662368  87.51515   3698.364   1.522      0.3697278  0.4156862  45.466     0.07140008 0.02265567 0.1201445 
893.2000000000001 0.213      520.357    1          3          1.806      1.346      1.676      1.398      1.897      1.008      1.961      1.151      1.149      1.172      1.397      0.2427003  0.2427003  0.2662368  87.61059   3767.618   1.523      0.3699799  0.4159045  45.471     0.07132266 0.02248469 0.1201606 
893.4      0.213      519.951    1          3          1.784      1.448      1.778      1.373      1.566      0.881      1.962      1.14       1.152      1.173      1.422      0.2424256  0.2424256  0.2659312  86.59003   3859.17    1.523      0.3693581  0.4152373  45.481     0.07122917 0.02226533 0.120193  
893.6      0.213      519.9      1          3          1.756      1.524      1.803      1.373      1.389      0.779      1.963      1.126      1.154      1.175      1.422      0.2418519  0.2418519  0.26532    84.49712   3978.916   1.522      0.3678606  0.4136806  45.496     0.07111549 0.02198924 0.1202418 
893.8      0.214      520.408    1          3          1.729      1.473      1.727      1.347      1.211      0.6770000000000001 1.964      1.113      1.154      1.176      1.473      0.2415784  0.2415784  0.2650144  83.51714   4097.902   1.519      0.3666512  0.4124303  45.517     0.07101829 0.02172625 0.1203103 
894        0.214      521.018    1          3          1.704      1.422      1.727      1.322      1.109      0.627      1.965      1.104      1.152      1.176      1.473      0.2416045  0.2416045  0.2650144  83.61034   4211.245   1.518      0.3665151  0.4122641  45.542     0.07093901 0.02148555 0.1203925 
894.2000000000001 0.214      521.373    1          3          1.682      1.422      1.803      1.322      1.058      0.601      1.964      1.091      1.147      1.176      1.473      0.2416276  0.2416276  0.2650144  83.69285   4313.577   1.517      0.366372   0.4120946  45.563     0.07086892 0.02127594 0.1204619 
894.4      0.214      521.576    1          3          1.668      1.448      1.829      1.296      1.084      0.601      1.962      1.081      1.143      1.175      1.473      0.2419441  0.2419441  0.26532    84.83018   4379.989   1.517      0.367094   0.4128112  45.583     0.07083602 0.02114362 0.1205284 
894.6      0.214      521.526    1          3          1.659      1.499      1.778      1.296      1.16       0.6770000000000001 1.96       1.084      1.15       1.173      1.473      0.2425527  0.2425527  0.2659312  87.06082   4423.22    1.52       0.3690625  0.4147922  45.613     0.07084394 0.02105899 0.1206289 
894.8      0.214      520.764    1          3          1.659      1.473      1.727      1.296      1.16       0.754      1.959      1.099      1.161      1.173      1.473      0.2425354  0.2425354  0.2659312  86.99667   4423.22    1.525      0.3699949  0.4157345  45.644     0.07089631 0.02105899 0.1207336 
895        0.213      519.392    1          3          1.668      1.422      1.702      1.296      1.185      0.855      1.962      1.123      1.182      1.176      1.473      0.2415906  0.2415906  0.2650144  83.56072   4379.989   1.533      0.3693998  0.4151322  45.669     0.0709812  0.02114362 0.1208188 
895.2000000000001 0.213      517.462    1          3          1.681      1.397      1.702      1.296      1.262      1.008      1.969      1.162      1.215      1.18       1.499      0.2403361  0.2403361  0.263792   79.20731   4318.287   1.543      0.3684637  0.4141825  45.69      0.07107861 0.02126646 0.1208908 
895.4      0.213      514.769    1          3          1.694      1.346      1.651      1.322      1.312      1.236      1.979      1.213      1.244      1.185      1.524      0.2387792  0.2387792  0.262264   74.11863   4257.455   1.555      0.3671835  0.4128736  45.705     0.07116625 0.02139002 0.1209425 
895.6      0.213      511.62     1          3          1.709      1.346      1.727      1.322      1.338      1.287      1.993      1.251      1.255      1.19       1.524      0.2372189  0.2372189  0.260736   69.34695   4188.329   1.567      0.3658517  0.4115185  45.72      0.07126394 0.02153348 0.1209944 
895.8      0.213      508.419    1          3          1.72       1.346      1.803      1.322      1.389      1.338      2.007      1.275      1.266      1.194      1.524      0.2359704  0.2359704  0.2595136  65.75111   4138.35    1.579      0.3652071  0.4108516  45.735     0.07134292 0.02163929 0.1210466 
