~Version
 VERS              .         2.0                           : CWLS LOG ASCII STANDARD - VERSION 2.0
 WRAP              .         NO                            : ONE LINE PER DEPTH STEP
 DLM               .         SPACE                         : DELIMITING CHARACTER(SPACE TAB OR COMMA)
~Well Information
#_______________________________________________________________________________
#
#PARAMETER_NAME    .UNIT     VALUE                         : DESCRIPTION
#_______________________________________________________________________________
STRT               .M        870                           : First reference value
STOP               .M        1172.2                        : Last reference value
STEP               .M        0.2                           : Step increment
NULL               .         -9999                         : Missing value
COMP               .                                       : Company
WELL               .         7146                          : Well name
FLD                .         УЗЕНЬ                         : Field
LOC                .                                       : Location
CNTY               .                                       : County
STAT               .                                       : State
CTRY               .                                       : Country
SRVC               .                                       : Service Company
DATE               .                                       : Date
UWI                .                                       : Unique Well ID
API                .                                       : 
Block              .         7                             : 
Category           .         Нефтяная                      : 
Condition          .         В работе                      : 
Date               .         02.04.1983                    : 
EREF               .m        86.7                          : 100.8
Gorizont           .         15                            : 14
Interpretator      .         Ким С.В.                      : 
Kupol              .         основной                      : osnovnoi
Mud                .         0                             : 
Mud_density        .         0                             : 
Mud_resistivity    .         0                             : 
NGDU               .         НГДУ-2                        : 
ORIGINALWELLNAME   .         7146                          : 
Spud_date          .         1983                          : 1961
Viscosity          .         0                             : 
X                  .m        42705                         : 46154
Y                  .m        84284.43                      : 85761.93
YEAR               .         2018                          : 
~Parameter Information Block
#_______________________________________________________________________________
#
#PARAMETER_NAME    .UNIT     VALUE                         : DESCRIPTION
#_______________________________________________________________________________
SET                .         LQC_KAZNIPI_Petrel            : 
GSDD               .         CSAT                          : CSATкрив,0,DEPT,BOTTOM,,,,0
TLFamily_CALI      .         Caliper                       : 
TLFamily_CILD      .         Conductivity                  : 
TLFamily_COLL      .         Net Reservoir Flag            : 
TLFamily_CSAT      .         Fluid Code                    : 
TLFamily_DEPT      .         Measured Depth                : 
TLFamily_GR        .         Russian Gamma Ray             : 
TLFamily_GZ1       .         Gradient 045                  : 
TLFamily_GZ2       .         Gradient 105                  : 
TLFamily_GZ3       .         Gradient 225                  : 
TLFamily_GZ4       .         Gradient 425                  : 
TLFamily_GZ5       .         Gradient 850                  : 
TLFamily_LLS       .         Lateral Log Resistivity       : 
TLFamily_MINV      .         Micro Gradient Resistivity    : 
TLFamily_MNOR      .         Micro Resistivity             : 
TLFamily_NGLD      .         Neutron Gamma                 : 
TLFamily_OGZ       .         Gradient Inverted 225         : 
TLFamily_PHIE      .         Effective Porosity            : 
TLFamily_PHIEN     .         Effective Porosity            : 
TLFamily_PHIT      .         Porosity                      : 
TLFamily_PRMB      .         Permeability                  : 
TLFamily_PRMB_DGR  .         Permeability                  : 
TLFamily_RT        .         Formation Resistivity         : 
TLFamily_SOIL_ARCHIE .         Oil Saturation                : 
TLFamily_SOIL_DW   .         Oil Saturation                : 
TLFamily_SP        .         Spontaneous Potential         : 
TLFamily_VSH_FIN   .         Shale Volume                  : 
TLFamily_VSH_GR    .         Shale Volume                  : 
TLFamily_VSH_SP    .         Shale Volume                  : 
~Curve Information
#_______________________________________________________________________________
#
#LOGNAME           .UNIT     LOG_ID                        : DESCRIPTION
#_______________________________________________________________________________
DEPT               .M                                      : Колонка глубины 
CALI               .м                                      : Каверномер 
CILD               .мСм/м                                  : Индукционный каротаж зондом 6Ф1 
COLL               .unitless                               : Описание 
CSAT               .unitless                               : Описание 
GR                 .uR/h                                   : Гамма каротаж 
GZ1                .Ohmm                                   :  
GZ2                .Ohmm                                   :  
GZ3                .Ohmm                                   :  
GZ4                .Ohmm                                   :  
GZ5                .Ohmm                                   :  
LLS                .Ohmm                                   : Боковой каротаж 
MINV               .Ohmm                                   : Микро-градиент зонд 
MNOR               .Ohmm                                   : Микро-потенциал зонд 
NGLD               .у.е.                                   : Показания зонда НГК-60 аппаратуры ДРСТ-3-90 
OGZ                .Ohmm                                   :  
PHIE               .v/v                                    : Описание 
PHIEN              .v/v                                    :  
PHIT               .v/v                                    : Описание 
PRMB               .mD                                     :  
PRMB_DGR           .mD                                     :  
RT                 .ohmm                                   : Удельное электрическое сопротивление 
SOIL_ARCHIE        .v/v                                    :  
SOIL_DW            .v/v                                    :  
SP                 .мВ                                     : Потенциал самополяризации 
VSH_FIN            .v/v                                    : Описание 
VSH_GR             .v/v                                    : Shale volume 
VSH_SP             .v/v                                    : Shale Volume 
~Ascii
# ...
984.4      0.236      393.764    -9999      -9999      4.293      1.473      2.54       1.906      1.668      1.49       2.225      0.578      0.859      0.972      1.829      0.1707275  0.1707275  0.3273568  4.068606   7.532353   2.06       0.2572287  0.4865004  63.368     0.4746342  0.2844685  0.6648    
984.6      0.235      395.288    -9999      -9999      4.403      1.549      2.388      1.906      1.541      1.312      2.223      0.638      0.83       0.96       1.829      0.172369   0.172369   0.331024   4.363653   5.943028   1.994      0.2520509  0.4835387  63.165     0.4807727  0.3133726  0.6481729 
984.8      0.235      399.402    -9999      -9999      4.553      1.626      2.337      2.135      1.414      1.338      2.202      0.692      0.785      0.946      1.753      0.1721949  0.1721949  0.3353024  4.331368   4.301875   1.911      0.2363066  0.4763719  62.951     0.4942652  0.3575778  0.6309527 
985        0.237      407.632    -9999      -9999      4.718      1.676      2.438      2.363      1.287      1.414      2.156      0.69       0.694      0.93       1.753      0.1706313  0.1706313  0.340192   4.051952   3.014902   1.814      0.211166   0.4654356  62.738     0.5138202  0.4134385  0.6142018 
985.2000000000001 0.241      419.926    -9999      -9999      4.867      1.803      2.718      2.414      1.262      1.541      2.085      0.605      0.589      0.91       1.702      0.1698905  0.1698905  0.346304   3.925926   2.18705    1.71       0.185926   0.4545197  62.525     0.5345864  0.4713445  0.5978282 
985.4      0.245      436.182    -9999      -9999      4.994      2.083      3.073      2.287      1.439      1.643      1.995      0.516      0.494      0.891      1.651      0.169157   0.169157   0.3521104  3.80501    1.663526   1.612      0.1599052  0.4430105  62.311     0.5544043  0.5270604  0.5817482 
985.6      0.249      456.4      -9999      -9999      5.084      1.93       2.845      2.287      1.643      1.744      1.899      0.439      0.424      0.873      1.651      0.1700068  0.1700068  0.3576112  3.945456   1.370312   1.53       0.1428189  0.4348235  62.103     0.568498   0.5704876  0.5665085 
985.8      0.252      479.108    -9999      -9999      5.127      1.499      2.413      2.135      1.795      1.82       1.817      0.371      0.38       0.856      1.575      0.1738416  0.1738416  0.3628064  4.646508   1.249068   1.468      0.1428323  0.4329761  61.91      0.5726205  0.5924815  0.5527595 
986        0.255      501.612    -9999      -9999      5.138      1.219      2.261      1.957      1.947      1.871      1.759      0.331      0.374      0.844      1.549      0.1785935  0.1785935  0.3664736  5.690413   1.219814   1.427      0.1515268  0.4343024  61.732     0.5693335  0.5982429  0.540424  
986.2000000000001 0.257      521.322    -9999      -9999      5.134      1.041      2.032      1.855      2.074      1.947      1.73       0.333      0.391      0.836      1.575      0.183065   0.183065   0.3689184  6.885996   1.230372   1.404      0.1632496  0.4373752  61.58      0.563192   0.5961413  0.5302426 
986.4      0.258      537.07     -9999      -9999      5.12       0.737      1.803      1.728      1.973      2.049      1.73       0.34       0.412      0.832      1.727      0.1868445  0.1868445  0.3701408  8.090417   1.268048   1.398      0.1763567  0.4417192  61.453     0.5554434  0.5888442  0.5220427 
986.6      0.26       548.297    -9999      -9999      5.108      0.8129999999999999 1.6        1.728      1.846      2.049      1.74       0.342      0.43       0.833      1.727      0.1884788  0.1884788  0.3698352  8.674476   1.301259   1.405      0.1844942  0.4446971  61.361     0.5495648  0.5826605  0.516469  
986.8      0.26       554.444    -9999      -9999      5.092      0.889      1.473      1.627      1.744      2.024      1.78       0.339      0.449      0.84       1.88       0.1882881  0.1882881  0.367696   8.604192   1.346897   1.424      0.1889035  0.4462303  61.295     0.5436604  0.5745167  0.5128042 
987        0.259      556.222    -9999      -9999      5.059      0.94       1.499      1.601      1.82       1.922      1.811      0.353      0.481      0.85       2.007      0.1881813  0.1881813  0.36464    8.565084   1.446143   1.457      0.19718    0.4496077  61.26      0.5347234  0.5580776  0.5113693 
987.2000000000001 0.258      554.393    -9999      -9999      4.998      0.914      1.473      1.5        1.897      1.871      1.84       0.379      0.518      0.865      2.032      0.1883507  0.1883507  0.360056   8.627205   1.649251   1.503      0.2094252  0.4540724  61.25      0.520319   0.5289185  0.5117196 
987.4      0.254      548.907    -9999      -9999      4.918      0.94       1.448      1.423      1.998      1.82       1.87       0.406      0.555      0.881      1.956      0.1890392  0.1890392  0.3551664  8.884289   1.959475   1.565      0.2267414  0.4612732  61.265     0.5034158  0.4929737  0.5138579 
987.6      0.25       539.661    -9999      -9999      4.819      0.965      1.422      1.423      1.693      1.744      1.904      0.437      0.6        0.898      1.956      0.1900368  0.1900368  0.3499712  9.270459   2.425331   1.645      0.2480766  0.4708861  61.3       0.4846496  0.4518552  0.517444  
987.8      0.244      527.164    -9999      -9999      4.707      0.889      1.397      1.347      1.541      1.693      1.976      0.486      0.67       0.917      1.905      0.1903193  0.1903193  0.3441648  9.382799   3.087205   1.735      0.2675869  0.4798305  61.361     0.4661986  0.4094569  0.5229404 
988        0.24       511.366    -9999      -9999      4.607      0.787      1.499      1.296      1.617      1.617      2.073      0.533      0.748      0.937      1.854      0.1888601  0.1888601  0.3380528  8.816686   3.82941    1.824      0.2797681  0.4855807  61.432     0.4520991  0.3749746  0.5292236 
988.2000000000001 0.238      492.62     -9999      -9999      4.538      0.991      1.651      1.22       1.592      1.617      2.152      0.568      0.832      0.954      1.88       0.1861876  0.1861876  0.3328576  7.866892   4.443167   1.903      0.285138   0.4887598  61.509     0.4444547  0.3528902  0.5360192 
988.4      0.238      472.453    -9999      -9999      4.505      1.143      1.626      1.246      1.566      1.617      2.236      0.605      0.919      0.968      1.981      0.1823917  0.1823917  0.3285792  6.691055   4.770563   1.964      0.2828942  0.4886692  61.59      0.4429924  0.3427927  0.5431923 
988.6      0.24       453.301    -9999      -9999      4.509      1.016      1.575      1.246      1.541      1.617      2.31       0.636      0.984      0.975      1.981      0.1789185  0.1789185  0.32644    5.769829   4.729631   1.997      0.2764649  0.4870368  61.666     0.4470348  0.344001   0.5500686 
988.8      0.245      436.944    -9999      -9999      4.558      1.041      1.854      1.449      1.49       1.643      2.37       0.627      0.984      0.975      2.108      0.1755246  0.1755246  0.32644    4.992285   4.255782   2.004      0.2655022  0.4840797  61.722     0.4573194  0.3591541  0.5554847 
989        0.25       424.853    -9999      -9999      4.631      1.372      2.286      1.728      1.414      1.643      2.358      0.575      0.923      0.967      2.362      0.1735326  0.1735326  0.3288848  4.585662   3.636436   2          0.2574683  0.4836169  61.747     0.4707644  0.3829759  0.5585528 
989.2000000000001 0.255      418.249    -9999      -9999      4.708      1.803      2.692      2.084      1.338      1.643      2.304      0.51       0.835      0.958      2.667      0.1721728  0.1721728  0.3316352  4.327282   3.080559   1.992      0.2509558  0.4836347  61.707     0.4832195  0.4098174  0.5566216 
989.4      0.258      416.471    -9999      -9999      4.766      2.261      2.692      1.982      1.287      1.643      2.239      0.441      0.738      0.951      2.896      0.1719334  0.1719334  0.3337744  4.283337   2.7187     1.984      0.2486302  0.4843511  61.6       0.4904272  0.4312707  0.5495837 
