~Version
 VERS              .         2.0                           : CWLS LOG ASCII STANDARD - VERSION 2.0
 WRAP              .         NO                            : ONE LINE PER DEPTH STEP
 DLM               .         SPACE                         : DELIMITING CHARACTER(SPACE TAB OR COMMA)
~Well Information
#_______________________________________________________________________________
#
#PARAMETER_NAME    .UNIT     VALUE                         : DESCRIPTION
#_______________________________________________________________________________
STRT               .M        870                           : First reference value
STOP               .M        1172.2                        : Last reference value
STEP               .M        0.2                           : Step increment
NULL               .         -9999                         : Missing value
COMP               .                                       : Company
WELL               .         7146                          : Well name
FLD                .         УЗЕНЬ                         : Field
LOC                .                                       : Location
CNTY               .                                       : County
STAT               .                                       : State
CTRY               .                                       : Country
SRVC               .                                       : Service Company
DATE               .                                       : Date
UWI                .                                       : Unique Well ID
API                .                                       : 
Block              .         7                             : 
Category           .         Нефтяная                      : 
Condition          .         В работе                      : 
Date               .         02.04.1983                    : 
EREF               .m        86.7                          : 100.8
Gorizont           .         15                            : 14
Interpretator      .         Ким С.В.                      : 
Kupol              .         основной                      : osnovnoi
Mud                .         0                             : 
Mud_density        .         0                             : 
Mud_resistivity    .         0                             : 
NGDU               .         НГДУ-2                        : 
ORIGINALWELLNAME   .         7146                          : 
Spud_date          .         1983                          : 1961
Viscosity          .         0                             : 
X                  .m        42705                         : 46154
Y                  .m        84284.43                      : 85761.93
YEAR               .         2018                          : 
~Parameter Information Block
#_______________________________________________________________________________
#
#PARAMETER_NAME    .UNIT     VALUE                         : DESCRIPTION
#_______________________________________________________________________________
SET                .         LQC_KAZNIPI_Petrel            : 
GSDD               .         CSAT                          : CSATкрив,0,DEPT,BOTTOM,,,,0
TLFamily_CALI      .         Caliper                       : 
TLFamily_CILD      .         Conductivity                  : 
TLFamily_COLL      .         Net Reservoir Flag            : 
TLFamily_CSAT      .         Fluid Code                    : 
TLFamily_DEPT      .         Measured Depth                : 
TLFamily_GR        .         Russian Gamma Ray             : 
TLFamily_GZ1       .         Gradient 045                  : 
TLFamily_GZ2       .         Gradient 105                  : 
TLFamily_GZ3       .         Gradient 225                  : 
TLFamily_GZ4       .         Gradient 425                  : 
TLFamily_GZ5       .         Gradient 850                  : 
TLFamily_LLS       .         Lateral Log Resistivity       : 
TLFamily_MINV      .         Micro Gradient Resistivity    : 
TLFamily_MNOR      .         Micro Resistivity             : 
TLFamily_NGLD      .         Neutron Gamma                 : 
TLFamily_OGZ       .         Gradient Inverted 225         : 
TLFamily_PHIE      .         Effective Porosity            : 
TLFamily_PHIEN     .         Effective Porosity            : 
TLFamily_PHIT      .         Porosity                      : 
TLFamily_PRMB      .         Permeability                  : 
TLFamily_PRMB_DGR  .         Permeability                  : 
TLFamily_RT        .         Formation Resistivity         : 
TLFamily_SOIL_ARCHIE .         Oil Saturation                : 
TLFamily_SOIL_DW   .         Oil Saturation                : 
TLFamily_SP        .         Spontaneous Potential         : 
TLFamily_VSH_FIN   .         Shale Volume                  : 
TLFamily_VSH_GR    .         Shale Volume                  : 
TLFamily_VSH_SP    .         Shale Volume                  : 
~Curve Information
#_______________________________________________________________________________
#
#LOGNAME           .UNIT     LOG_ID                        : DESCRIPTION
#_______________________________________________________________________________
DEPT               .M                                      : Колонка глубины 
CALI               .м                                      : Каверномер 
CILD               .мСм/м                                  : Индукционный каротаж зондом 6Ф1 
COLL               .unitless                               : Описание 
CSAT               .unitless                               : Описание 
GR                 .uR/h                                   : Гамма каротаж 
GZ1                .Ohmm                                   :  
GZ2                .Ohmm                                   :  
GZ3                .Ohmm                                   :  
GZ4                .Ohmm                                   :  
GZ5                .Ohmm                                   :  
LLS                .Ohmm                                   : Боковой каротаж 
MINV               .Ohmm                                   : Микро-градиент зонд 
MNOR               .Ohmm                                   : Микро-потенциал зонд 
NGLD               .у.е.                                   : Показания зонда НГК-60 аппаратуры ДРСТ-3-90 
OGZ                .Ohmm                                   :  
PHIE               .v/v                                    : Описание 
PHIEN              .v/v                                    :  
PHIT               .v/v                                    : Описание 
PRMB               .mD                                     :  
PRMB_DGR           .mD                                     :  
RT                 .ohmm                                   : Удельное электрическое сопротивление 
SOIL_ARCHIE        .v/v                                    :  
SOIL_DW            .v/v                                    :  
SP                 .мВ                                     : Потенциал самополяризации 
VSH_FIN            .v/v                                    : Описание 
VSH_GR             .v/v                                    : Shale volume 
VSH_SP             .v/v                                    : Shale Volume 
~Ascii
# ...
1124.8     0.21       212.814    1          2          5.815      3.353      5.258      7.244      2.938      1.998      3.699      1.495      1.767      1.166      3.861      0.2104647  0.2104647  0.2680704  22.15513   20.72421   4.315      0.5624579  0.6328034  39.243     0.1745628  0.1881708  0.1609548 
1125       0.21       212.501    1          2          5.805      3.251      5.105      6.609      2.938      2.074      3.722      1.468      1.758      1.165      3.632      0.20999    0.20999    0.268376   21.71111   21.17688   4.315      0.5615966  0.6326985  39.578     0.1769274  0.1865178  0.1673369 
1125.2     0.21       212.154    1          2          5.779      3.327      5.055      6.355      3.116      2.303      3.739      1.426      1.733      1.163      3.404      0.2100607  0.2100607  0.2689872  21.77673   22.40065   4.314      0.5616776  0.6331927  39.939     0.178565   0.1822878  0.1748422 
1125.4     0.211      212.255    1          2          5.744      3.378      5.156      6.493      3.598      2.735      3.74       1.377      1.703      1.162      3.099      0.2098644  0.2098644  0.2692928  21.59516   24.16042   4.279      0.5596403  0.6317941  40.315     0.180086   0.1767447  0.1834273 
1125.6     0.211      214.084    1          2          5.715      3.353      5.41       6.493      4.462      3.497      3.706      1.329      1.683      1.162      3.099      0.208984   0.208984   0.2692928  20.79926   25.72278   4.191      0.553694   0.6272926  40.706     0.1827541  0.1722798  0.1932285 
1125.8     0.211      218.707    1          2          5.717      3.429      5.639      6.63       8.593999999999999 4.31       3.622      1.289      1.666      1.164      2.794      0.2065211  0.2065211  0.2686816  18.72537   25.61187   4.046      0.5415492  0.6182823  41.102     0.1883651  0.172584   0.2041461 
1126       0.211      226.784    1          2          5.759      3.429      5.944      6.3        9.991      5.199      3.478      1.26       1.641      1.164      2.616      0.2034411  0.2034411  0.2686816  16.42032   23.38992   3.847      0.5243858  0.6060695  41.504     0.1976983  0.1790994  0.2162973 
1126.2     0.211      238.773    1          2          5.867      3.531      6.325      6.249      11.388     6.113      3.273      1.215      1.604      1.16       2.616      0.1993456  0.1993456  0.269904   13.78869   18.52172   3.603      0.5007691  0.5905752  41.94      0.2138132  0.1970052  0.2306212 
1126.4     0.212      254.927    1          2          6.04       3.632      6.731      6.402      12.531     6.951      3.02       1.146      1.533      1.149      2.464      0.1944687  0.1944687  0.2732656  11.1993    12.74494   3.329      0.4705931  0.5727778  42.428     0.2387783  0.2294921  0.2480645 
1126.6     0.213      275.298    1          2          6.261      3.912      6.934      6.402      12.912     7.383      2.877      1.046      1.409      1.131      2.464      0.1883991  0.1883991  0.2787664  8.645032   7.905895   3.041      0.4321622  0.5524297  42.956     0.2738402  0.2789014  0.268779  
1126.8     0.215      299.631    1          2          6.496      4.394      7.112      6.554      11.769     7.129      2.747      0.909      1.245      1.106      2.21       0.1814482  0.1814482  0.2864064  6.427147   4.758031   2.759      0.3858464  0.5304716  43.515     0.3180553  0.3431611  0.2929496 
1127       0.217      326.86     -9999      -9999      6.721      4.496      7.366      6.605      10.626     6.342      2.489      0.756      1.065      1.081      1.956      0.1720114  0.1720114  0.2940464  4.297614   2.926084   2.498      0.3258881  0.5037606  44.105     0.3698029  0.4185176  0.3210882 
1127.2     0.22       355.664    -9999      -9999      6.905      4.343      7.137      6.478      9.228999999999999 4.792      2.269      0.621      0.897      1.059      1.676      0.1615579  0.1615579  0.3007696  2.751702   1.96617    2.267      0.2548863  0.4733195  44.679     0.4218538  0.4922876  0.3514199 
1127.4     0.222      384.569    -9999      -9999      7.023      4.572      6.655      6.529      7.578      3.776      2.105      0.519      0.766      1.042      1.473      0.1526202  0.1526202  0.3059648  1.879553   1.523667   2.074      0.1836382  0.442959   45.222     0.4646805  0.5463036  0.3830575 
1127.6     0.225      411.95     -9999      -9999      7.086      3.48       5.791      6.529      6.308      2.963      2          0.446      0.688      1.03       1.473      0.1459811  0.1459811  0.309632   1.416062   1.329752   1.923      0.1207525  0.4159191  45.71      0.4959118  0.5775299  0.4142938 
1127.8     0.227      435.978    -9999      -9999      7.109      2.388      4.343      6.275      4.614      2.633      1.943      0.412      0.652      1.026      1.219      0.1404917  0.1404917  0.3108544  1.120483   1.265282   1.809      0.06445742 0.3905268  46.121     0.5162506  0.5893695  0.4431316 
1128       0.23       456.197    -9999      -9999      7.116      1.753      3.048      4.903      4.056      2.379      1.915      0.401      0.645      1.025      1.118      0.1359476  0.1359476  0.31116    0.9230777  1.246288   1.726      0.01582612 0.3687232  46.457     0.5309466  0.5930209  0.4688723 
1128.2     0.232      472.351    -9999      -9999      7.128      1.346      2.896      3.684      3.675      2.227      1.905      0.396      0.649      1.025      1.27       0.1311977  0.1311977  0.31116    0.7538025  1.214389   1.669      0          0.3495253  46.726     0.5453404  0.5993327  0.4913481 
1128.4     0.233      484.391    -9999      -9999      7.166      1.321      2.54       3.201      3.37       2.125      1.902      0.394      0.659      1.026      1.499      0.1244889  0.1244889  0.3108544  0.5662324  1.118661   1.633      0          0.3292215  46.924     0.5647439  0.6197676  0.5097201 
1128.6     0.235      492.57     -9999      -9999      7.204      1.397      2.184      3.201      3.192      2.1        1.901      0.404      0.663      1.029      1.499      0.1175094  0.1175094  0.3099376  0.4204519  1.030479   1.61       0          0.3089358  47.076     0.5831159  0.6408992  0.5253326 
1128.8     0.236      497.853    -9999      -9999      7.236      1.397      1.93       2.82       3.116      2.074      1.903      0.414      0.667      1.031      1.6        0.1114716  0.1114716  0.3093264  0.325      0.9616355  1.597      0          0.2920996  47.208     0.5995598  0.6592521  0.5398675 
1129       0.237      500.85     -9999      -9999      7.247      1.346      1.803      2.617      3.09       2.125      1.906      0.42       0.67       1.031      1.549      0.1082071  0.1082071  0.3093264  0.2827585  0.9390483  1.591      0          0.2833238  47.32      0.6094525  0.6656817  0.5532233 
1129.2     0.237      502.374    -9999      -9999      7.231      1.245      1.803      2.363      3.141      2.151      1.908      0.428      0.671      1.033      1.651      0.1072062  0.1072062  0.3087152  0.2709423  0.9720809  1.587      0          0.2791613  47.407     0.6106334  0.6563501  0.5649166 
1129.4     0.237      503.339    -9999      -9999      7.187      1.219      1.778      2.084      3.319      2.201      1.916      0.431      0.668      1.034      1.753      0.1094774  0.1094774  0.3084096  0.2985005  1.069036   1.583      0          0.2830665  47.462     0.6028248  0.6313579  0.5742917 
1129.6     0.236      504.457    -9999      -9999      7.147      1.346      1.651      2.084      3.598      2.354      1.925      0.421      0.667      1.033      1.753      0.1122748  0.1122748  0.3087152  0.3363253  1.165543   1.577      0          0.2885194  47.483     0.595274   0.6094645  0.5810834 
1129.8     0.236      505.171    -9999      -9999      7.115      1.295      1.549      1.804      3.979      2.481      1.932      0.407      0.673      1.03       1.626      0.1152042  0.1152042  0.309632   0.3810822  1.248985   1.574      0          0.29567    47.478     0.5891753  0.5924976  0.585853  
