~Version
 VERS              .         2.0                           : CWLS LOG ASCII STANDARD - VERSION 2.0
 WRAP              .         NO                            : ONE LINE PER DEPTH STEP
 DLM               .         SPACE                         : DELIMITING CHARACTER(SPACE TAB OR COMMA)
~Well Information
#_______________________________________________________________________________
#
#PARAMETER_NAME    .UNIT     VALUE                         : DESCRIPTION
#_______________________________________________________________________________
STRT               .M        870                           : First reference value
STOP               .M        1172.2                        : Last reference value
STEP               .M        0.2                           : Step increment
NULL               .         -9999                         : Missing value
COMP               .                                       : Company
WELL               .         7146                          : Well name
FLD                .         УЗЕНЬ                         : Field
LOC                .                                       : Location
CNTY               .                                       : County
STAT               .                                       : State
CTRY               .                                       : Country
SRVC               .                                       : Service Company
DATE               .                                       : Date
UWI                .                                       : Unique Well ID
API                .                                       : 
Block              .         7                             : 
Category           .         Нефтяная                      : 
Condition          .         В работе                      : 
Date               .         02.04.1983                    : 
EREF               .m        86.7                          : 100.8
Gorizont           .         15                            : 14
Interpretator      .         Ким С.В.                      : 
Kupol              .         основной                      : osnovnoi
Mud                .         0                             : 
Mud_density        .         0                             : 
Mud_resistivity    .         0                             : 
NGDU               .         НГДУ-2                        : 
ORIGINALWELLNAME   .         7146                          : 
Spud_date          .         1983                          : 1961
Viscosity          .         0                             : 
X                  .m        42705                         : 46154
Y                  .m        84284.43                      : 85761.93
YEAR               .         2018                          : 
~Parameter Information Block
#_______________________________________________________________________________
#
#PARAMETER_NAME    .UNIT     VALUE                         : DESCRIPTION
#_______________________________________________________________________________
SET                .         LQC_KAZNIPI_Petrel            : 
GSDD               .         CSAT                          : CSATкрив,0,DEPT,BOTTOM,,,,0
TLFamily_CALI      .         Caliper                       : 
TLFamily_CILD      .         Conductivity                  : 
TLFamily_COLL      .         Net Reservoir Flag            : 
TLFamily_CSAT      .         Fluid Code                    : 
TLFamily_DEPT      .         Measured Depth                : 
TLFamily_GR        .         Russian Gamma Ray             : 
TLFamily_GZ1       .         Gradient 045                  : 
TLFamily_GZ2       .         Gradient 105                  : 
TLFamily_GZ3       .         Gradient 225                  : 
TLFamily_GZ4       .         Gradient 425                  : 
TLFamily_GZ5       .         Gradient 850                  : 
TLFamily_LLS       .         Lateral Log Resistivity       : 
TLFamily_MINV      .         Micro Gradient Resistivity    : 
TLFamily_MNOR      .         Micro Resistivity             : 
TLFamily_NGLD      .         Neutron Gamma                 : 
TLFamily_OGZ       .         Gradient Inverted 225         : 
TLFamily_PHIE      .         Effective Porosity            : 
TLFamily_PHIEN     .         Effective Porosity            : 
TLFamily_PHIT      .         Porosity                      : 
TLFamily_PRMB      .         Permeability                  : 
TLFamily_PRMB_DGR  .         Permeability                  : 
TLFamily_RT        .         Formation Resistivity         : 
TLFamily_SOIL_ARCHIE .         Oil Saturation                : 
TLFamily_SOIL_DW   .         Oil Saturation                : 
TLFamily_SP        .         Spontaneous Potential         : 
TLFamily_VSH_FIN   .         Shale Volume                  : 
TLFamily_VSH_GR    .         Shale Volume                  : 
TLFamily_VSH_SP    .         Shale Volume                  : 
~Curve Information
#_______________________________________________________________________________
#
#LOGNAME           .UNIT     LOG_ID                        : DESCRIPTION
#_______________________________________________________________________________
DEPT               .M                                      : Колонка глубины 
CALI               .м                                      : Каверномер 
CILD               .мСм/м                                  : Индукционный каротаж зондом 6Ф1 
COLL               .unitless                               : Описание 
CSAT               .unitless                               : Описание 
GR                 .uR/h                                   : Гамма каротаж 
GZ1                .Ohmm                                   :  
GZ2                .Ohmm                                   :  
GZ3                .Ohmm                                   :  
GZ4                .Ohmm                                   :  
GZ5                .Ohmm                                   :  
LLS                .Ohmm                                   : Боковой каротаж 
MINV               .Ohmm                                   : Микро-градиент зонд 
MNOR               .Ohmm                                   : Микро-потенциал зонд 
NGLD               .у.е.                                   : Показания зонда НГК-60 аппаратуры ДРСТ-3-90 
OGZ                .Ohmm                                   :  
PHIE               .v/v                                    : Описание 
PHIEN              .v/v                                    :  
PHIT               .v/v                                    : Описание 
PRMB               .mD                                     :  
PRMB_DGR           .mD                                     :  
RT                 .ohmm                                   : Удельное электрическое сопротивление 
SOIL_ARCHIE        .v/v                                    :  
SOIL_DW            .v/v                                    :  
SP                 .мВ                                     : Потенциал самополяризации 
VSH_FIN            .v/v                                    : Описание 
VSH_GR             .v/v                                    : Shale volume 
VSH_SP             .v/v                                    : Shale Volume 
~Ascii
# ...
927.2000000000001 0.212      254.521    -9999      -9999      4.106      2.997      4.14       4.09       3.878      4.106      3.197      2.444      1.7        1.13       3.505      0.1072547  0.1072547  0.279072   0.271503   11.26938   3.505      0.1322919  0.482359   64.27      0.5206586  0.2413172  0.8       
927.4      0.212      255.791    -9999      -9999      4.1        2.591      3.886      3.887      4.31       4.132      3.2        2.548      1.719      1.135      3.378      0.1059363  0.1059363  0.277544   0.2566583  11.41601   3.518      0.1244168  0.4791874  64.333     0.5200233  0.2400467  0.8       
927.6      0.212      256.451    -9999      -9999      4.074      2.261      4.013      3.887      4.589      4.157      3.214      2.65       1.72       1.14       3.378      0.105304   0.105304   0.276016   0.2498289  12.07373   3.543      0.1227592  0.4780678  64.359     0.5173092  0.2346185  0.8       
927.8      0.212      256.299    -9999      -9999      4.044      2.438      4.191      4.065      4.818      3.979      3.234      2.72       1.705      1.144      3.505      0.1050899  0.1050899  0.2747936  0.247558   12.87986   3.561      0.1232901  0.4775234  64.374     0.5142537  0.2285075  0.8       
928        0.212      255.435    -9999      -9999      4.011      2.667      4.496      4.37       4.284      3.649      3.25       2.81       1.661      1.144      3.708      0.1061687  0.1061687  0.2747936  0.2592149  13.82892   3.561      0.1310544  0.4794375  64.384     0.5109845  0.221969   0.8       
928.2000000000001 0.212      253.86     -9999      -9999      3.982      2.997      4.343      4.37       4.005      3.421      3.246      2.854      1.576      1.142      3.683      0.1077025  0.1077025  0.2754048  0.2767385  14.7205    3.543      0.1397989  0.4815455  64.389     0.5081888  0.2163777  0.8       
928.4      0.212      252.692    -9999      -9999      3.98       3.124      4.623      4.217      3.725      3.319      3.217      2.815      1.498      1.134      3.556      0.1102101  0.1102101  0.2778496  0.3079752  14.78407   3.502      0.1522525  0.4857525  64.389     0.5079986  0.2159973  0.8       
928.6      0.212      252.641    -9999      -9999      4.018      3.099      4.801      4.217      3.395      3.446      3.165      2.727      1.45       1.125      3.556      0.1117489  0.1117489  0.2806     0.3288656  13.62193   3.436      0.1549173  0.486674   64.389     0.5116701  0.2233401  0.8       
928.8      0.213      253.81     -9999      -9999      4.083      3.2        4.547      4.065      3.268      3.598      3.1        2.622      1.395      1.116      3.404      0.1123306  0.1123306  0.2833504  0.3371268  11.84187   3.362      0.1500911  0.4852416  64.389     0.5182418  0.2364835  0.8       
929        0.213      256.604    -9999      -9999      4.168      2.819      4.648      3.913      3.573      3.573      3.033      2.448      1.368      1.11       3.277      0.1111346  0.1111346  0.285184   0.320361   9.860266   3.293      0.1337413  0.4800051  64.394     0.5274225  0.2548451  0.8       
929.2000000000001 0.213      261.176    -9999      -9999      4.271      2.972      4.191      3.659      3.852      3.548      2.981      2.303      1.372      1.104      3.175      0.10898    0.10898    0.2870176  0.2922351  7.897971   3.229      0.1106914  0.4733357  64.404     0.5395079  0.2790157  0.8       
929.4      0.213      266.357    -9999      -9999      4.369      2.489      3.81       3.659      3.675      3.497      2.949      2.229      1.387      1.102      3.099      0.105446   0.105446   0.2876288  0.2513472  6.3947     3.178      0.07792502 0.4635891  64.419     0.5520691  0.3041381  0.8       
929.6      0.213      271.285    -9999      -9999      4.451      2.235      3.556      3.659      3.598      3.471      2.937      2.189      1.39       1.099      3.099      0.1026089  0.1026089  0.2885456  0.2227022  5.359145   3.145      0.05112303 0.4566865  64.435     0.5634444  0.3268889  0.8       
929.8      0.213      275.958    -9999      -9999      4.504      2.083      3.937      3.963      3.624      3.421      2.942      2.142      1.408      1.094      3.023      0.1015626  0.1015626  0.2900736  0.212982   4.780851   3.124      0.03959941 0.4547746  64.455     0.5712456  0.3424913  0.8       
930        0.214      279.768    -9999      -9999      4.529      2.286      4.242      3.913      3.598      3.395      2.954      2.126      1.415      1.088      3.175      0.1021395  0.1021395  0.2919072  0.2182878  4.530164   3.11       0.04230961 0.4568604  64.465     0.5750536  0.3501071  0.8       
930.2000000000001 0.214      282.258    -9999      -9999      4.542      2.515      3.886      3.709      3.497      3.446      2.965      2.093      1.422      1.081      3.48       0.1036143  0.1036143  0.2940464  0.2324587  4.405045   3.106      0.05362119 0.4617914  64.465     0.5770671  0.3541341  0.8       
930.4      0.215      283.883    -9999      -9999      4.55       2.565      3.531      3.557      3.344      3.522      2.973      2.041      1.409      1.075      3.531      0.1050351  0.1050351  0.29588    0.2469811  4.329769   3.106      0.06478108 0.466514   64.455     0.5783177  0.3566354  0.8       
930.6      0.215      285.001    -9999      -9999      4.559      2.438      3.632      3.557      3.37       3.573      2.975      1.985      1.397      1.071      3.531      0.1057898  0.1057898  0.2971024  0.25506    4.246623   3.104      0.07031353 0.4691046  64.445     0.5797351  0.3594702  0.8       
930.8      0.215      285.306    -9999      -9999      4.582      2.261      3.886      3.455      3.497      3.548      2.973      1.974      1.414      1.07       3.404      0.1048831  0.1048831  0.297408   0.2453844  4.041324   3.102      0.06303375 0.4676817  64.425     0.5834088  0.3668177  0.8       
931        0.215      285.306    -9999      -9999      4.62       2.54       4.013      3.354      3.598      3.522      2.971      2.022      1.453      1.072      3.327      0.1022143  0.1022143  0.2967968  0.2189855  3.723645   3.103      0.04190769 0.4622357  64.409     0.5896438  0.3792877  0.8       
931.2000000000001 0.215      285.509    -9999      -9999      4.653      2.692      3.785      3.227      3.725      3.471      2.977      2.103      1.507      1.077      3.353      0.09884286 0.09884286 0.2952688  0.1896565  3.468098   3.114      0.01514367 0.4550765  64.399     0.5952301  0.3904602  0.8       
931.4      0.215      285.661    -9999      -9999      4.661      2.388      3.556      3.278      3.725      3.446      2.998      2.204      1.58       1.082      3.48       0.09685984 0.09685984 0.2937408  0.1742759  3.408837   3.143      0.001956496 0.4519381  64.399     0.5966089  0.3932179  0.8       
931.6      0.215      285.56     -9999      -9999      4.644      2.21       3.556      3.278      3.624      3.421      3.035      2.323      1.625      1.085      3.48       0.09690612 0.09690612 0.292824   0.1746202  3.535999   3.188      0.00900469 0.4547915  64.399     0.5936905  0.387381   0.8       
931.8      0.215      284.798    -9999      -9999      4.61       2.261      3.404      3.506      3.471      3.395      3.08       2.396      1.602      1.087      3.658      0.09817846 0.09817846 0.2922128  0.1843577  3.804738   3.239      0.02746965 0.4607885  64.409     0.5879828  0.3759657  0.8       
932        0.215      282.613    -9999      -9999      4.528      2.032      3.708      3.582      3.294      3.344      3.125      2.359      1.562      1.085      3.912      0.1031071  0.1031071  0.292824   0.2274846  4.539935   3.289      0.07476102 0.474659   64.419     0.5748996  0.3497993  0.8       
932.2000000000001 0.215      279.21     -9999      -9999      4.44       2.311      3.937      3.43       3.09       3.294      3.159      2.335      1.509      1.082      3.912      0.1083236  0.1083236  0.2937408  0.2841668  5.487668   3.329      0.1187035  0.4878737  64.43      0.5618704  0.3237408  0.8       
