~Version
 VERS              .         2.0                           : CWLS LOG ASCII STANDARD - VERSION 2.0
 WRAP              .         NO                            : ONE LINE PER DEPTH STEP
 DLM               .         SPACE                         : DELIMITING CHARACTER(SPACE TAB OR COMMA)
~Well Information
#_______________________________________________________________________________
#
#PARAMETER_NAME    .UNIT     VALUE                         : DESCRIPTION
#_______________________________________________________________________________
STRT               .M        870                           : First reference value
STOP               .M        1172.2                        : Last reference value
STEP               .M        0.2                           : Step increment
NULL               .         -9999                         : Missing value
COMP               .                                       : Company
WELL               .         7146                          : Well name
FLD                .         УЗЕНЬ                         : Field
LOC                .                                       : Location
CNTY               .                                       : County
STAT               .                                       : State
CTRY               .                                       : Country
SRVC               .                                       : Service Company
DATE               .                                       : Date
UWI                .                                       : Unique Well ID
API                .                                       : 
Block              .         7                             : 
Category           .         Нефтяная                      : 
Condition          .         В работе                      : 
Date               .         02.04.1983                    : 
EREF               .m        86.7                          : 100.8
Gorizont           .         15                            : 14
Interpretator      .         Ким С.В.                      : 
Kupol              .         основной                      : osnovnoi
Mud                .         0                             : 
Mud_density        .         0                             : 
Mud_resistivity    .         0                             : 
NGDU               .         НГДУ-2                        : 
ORIGINALWELLNAME   .         7146                          : 
Spud_date          .         1983                          : 1961
Viscosity          .         0                             : 
X                  .m        42705                         : 46154
Y                  .m        84284.43                      : 85761.93
YEAR               .         2018                          : 
~Parameter Information Block
#_______________________________________________________________________________
#
#PARAMETER_NAME    .UNIT     VALUE                         : DESCRIPTION
#_______________________________________________________________________________
SET                .         LQC_KAZNIPI_Petrel            : 
GSDD               .         CSAT                          : CSATкрив,0,DEPT,BOTTOM,,,,0
TLFamily_CALI      .         Caliper                       : 
TLFamily_CILD      .         Conductivity                  : 
TLFamily_COLL      .         Net Reservoir Flag            : 
TLFamily_CSAT      .         Fluid Code                    : 
TLFamily_DEPT      .         Measured Depth                : 
TLFamily_GR        .         Russian Gamma Ray             : 
TLFamily_GZ1       .         Gradient 045                  : 
TLFamily_GZ2       .         Gradient 105                  : 
TLFamily_GZ3       .         Gradient 225                  : 
TLFamily_GZ4       .         Gradient 425                  : 
TLFamily_GZ5       .         Gradient 850                  : 
TLFamily_LLS       .         Lateral Log Resistivity       : 
TLFamily_MINV      .         Micro Gradient Resistivity    : 
TLFamily_MNOR      .         Micro Resistivity             : 
TLFamily_NGLD      .         Neutron Gamma                 : 
TLFamily_OGZ       .         Gradient Inverted 225         : 
TLFamily_PHIE      .         Effective Porosity            : 
TLFamily_PHIEN     .         Effective Porosity            : 
TLFamily_PHIT      .         Porosity                      : 
TLFamily_PRMB      .         Permeability                  : 
TLFamily_PRMB_DGR  .         Permeability                  : 
TLFamily_RT        .         Formation Resistivity         : 
TLFamily_SOIL_ARCHIE .         Oil Saturation                : 
TLFamily_SOIL_DW   .         Oil Saturation                : 
TLFamily_SP        .         Spontaneous Potential         : 
TLFamily_VSH_FIN   .         Shale Volume                  : 
TLFamily_VSH_GR    .         Shale Volume                  : 
TLFamily_VSH_SP    .         Shale Volume                  : 
~Curve Information
#_______________________________________________________________________________
#
#LOGNAME           .UNIT     LOG_ID                        : DESCRIPTION
#_______________________________________________________________________________
DEPT               .M                                      : Колонка глубины 
CALI               .м                                      : Каверномер 
CILD               .мСм/м                                  : Индукционный каротаж зондом 6Ф1 
COLL               .unitless                               : Описание 
CSAT               .unitless                               : Описание 
GR                 .uR/h                                   : Гамма каротаж 
GZ1                .Ohmm                                   :  
GZ2                .Ohmm                                   :  
GZ3                .Ohmm                                   :  
GZ4                .Ohmm                                   :  
GZ5                .Ohmm                                   :  
LLS                .Ohmm                                   : Боковой каротаж 
MINV               .Ohmm                                   : Микро-градиент зонд 
MNOR               .Ohmm                                   : Микро-потенциал зонд 
NGLD               .у.е.                                   : Показания зонда НГК-60 аппаратуры ДРСТ-3-90 
OGZ                .Ohmm                                   :  
PHIE               .v/v                                    : Описание 
PHIEN              .v/v                                    :  
PHIT               .v/v                                    : Описание 
PRMB               .mD                                     :  
PRMB_DGR           .mD                                     :  
RT                 .ohmm                                   : Удельное электрическое сопротивление 
SOIL_ARCHIE        .v/v                                    :  
SOIL_DW            .v/v                                    :  
SP                 .мВ                                     : Потенциал самополяризации 
VSH_FIN            .v/v                                    : Описание 
VSH_GR             .v/v                                    : Shale volume 
VSH_SP             .v/v                                    : Shale Volume 
~Ascii
# ...
968.8      0.249      392.849    -9999      -9999      4.84       1.6        2.413      2.262      1.846      2.176      2.228      0.434      0.793      0.93       2.286      0.146389   0.146389   0.340192   1.44091    2.318045   2.218      0.1797054  0.4877636  63.957     0.5872819  0.4602807  0.7142832 
969        0.249      390.411    -9999      -9999      4.853      1.676      2.438      2.236      1.846      2.151      2.246      0.427      0.795      0.929      2.311      0.1455441  0.1455441  0.3404976  1.389916   2.254021   2.234      0.1783361  0.4887957  63.978     0.590768   0.4655749  0.7159612 
969.2000000000001 0.249      387.668    -9999      -9999      4.871      1.727      2.438      2.211      1.846      2.125      2.259      0.418      0.781      0.928      2.337      0.144362   0.144362   0.3408032  1.321575   2.168286   2.249      0.1750735  0.4892551  63.998     0.5952765  0.4730059  0.7175472 
969.4      0.25       384.823    -9999      -9999      4.896      1.702      2.515      2.16       1.82       2.125      2.264      0.404      0.761      0.928      2.362      0.1425214  0.1425214  0.3408032  1.221799   2.054588   2.261      0.1678831  0.488199   64.008     0.600854   0.4835242  0.7181839 
969.6      0.251      382.08     -9999      -9999      4.932      1.702      2.565      2.16       1.77       2.125      2.266      0.389      0.744      0.928      2.362      0.1400063  0.1400063  0.3408032  1.097527   1.901256   2.269      0.1562787  0.4857542  64.008     0.6084754  0.4990828  0.717868  
969.8      0.251      379.641    -9999      -9999      4.976      1.676      2.616      2.135      1.744      2.1        2.264      0.379      0.724      0.927      2.362      0.1371139  0.1371139  0.3411088  0.9701509  1.729305   2.273      0.1415077  0.4825726  64.008     0.6181665  0.51878    0.717553  
970        0.251      377.558    -9999      -9999      5.025      1.727      2.642      2.135      1.744      2.1        2.26       0.37       0.714      0.926      2.388      0.1337008  0.1337008  0.3414144  0.8387283  1.55605    2.275      0.1228139  0.4783499  64.008     0.6294351  0.5416322  0.7172381 
970.2000000000001 0.251      375.298    -9999      -9999      5.076      1.702      2.642      2.109      1.795      2.074      2.256      0.361      0.716      0.926      2.438      0.1295734  0.1295734  0.3414144  0.7033493  1.394134   2.273      0.09815499 0.4722016  64.013     0.6419426  0.5664867  0.7173984 
970.4      0.25       374.104    -9999      -9999      5.114      1.702      2.667      2.109      1.846      2.049      2.252      0.361      0.731      0.926      2.464      0.1262908  0.1262908  0.3414144  0.611464   1.284546   2.273      0.07777333 0.4673478  64.023     0.6518896  0.5857441  0.718035  
970.6      0.25       373.901    -9999      -9999      5.128      1.727      2.616      2.109      1.846      2.024      2.252      0.368      0.752      0.926      2.464      0.1249096  0.1249096  0.3414144  0.5764837  1.24638    2.277      0.06966569 0.4657349  64.038     0.6560751  0.5930029  0.7191474 
970.8      0.249      374.053    -9999      -9999      5.109      1.727      2.54       2.16       1.82       2.024      2.257      0.375      0.779      0.928      2.464      0.1256419  0.1256419  0.3408032  0.5947732  1.298457   2.285      0.07591242 0.46716    64.059     0.6520039  0.5831735  0.7208342 
971        0.249      374.256    -9999      -9999      5.064      1.651      2.489      2.262      1.795      1.998      2.267      0.383      0.803      0.931      2.464      0.1281179  0.1281179  0.3398864  0.6610172  1.430648   2.297      0.09371644 0.4713193  64.084     0.6417227  0.5605378  0.7229075 
971.2000000000001 0.248      374.206    -9999      -9999      5.004      1.6        2.464      2.338      1.77       1.973      2.281      0.391      0.818      0.935      2.489      0.1313712  0.1313712  0.338664   0.7594014  1.628068   2.313      0.1161786  0.4766628  64.105     0.62816    0.5317177  0.7246023 
971.4      0.248      373.596    -9999      -9999      4.94       1.549      2.515      2.363      1.744      1.947      2.296      0.396      0.823      0.939      2.489      0.134767   0.134767   0.3374416  0.8777462  1.868768   2.331      0.1387451  0.4822842  64.12      0.6141656  0.5026076  0.7257236 
971.6      0.247      372.478    -9999      -9999      4.875      1.6        2.591      2.363      1.744      1.922      2.31       0.395      0.826      0.944      2.489      0.1378214  0.1378214  0.3359136  0.9998718  2.149679   2.349      0.1584365  0.4869902  64.125     0.6002795  0.4746734  0.7258855 
971.8      0.247      370.853    -9999      -9999      4.818      1.676      2.642      2.363      1.719      1.897      2.323      0.396      0.82       0.95       2.515      0.13995    0.13995    0.33408    1.094895   2.430562   2.368      0.1727293  0.4901537  64.12      0.5882726  0.4514579  0.7250874 
972        0.247      368.668    -9999      -9999      4.763      1.727      2.616      2.338      1.693      1.871      2.331      0.395      0.824      0.956      2.565      0.1419244  0.1419244  0.3322464  1.191085   2.736327   2.387      0.1858209  0.493046   64.105     0.5767333  0.4301341  0.7233325 
972.2000000000001 0.247      366.23     -9999      -9999      4.706      1.702      2.565      2.312      1.668      1.846      2.338      0.393      0.838      0.961      2.616      0.1442512  0.1442512  0.3307184  1.315345   3.093863   2.403      0.1997833  0.4963149  64.084     0.5650522  0.4090969  0.7210076 
972.4      0.248      363.842    -9999      -9999      4.652      1.651      2.692      2.312      1.643      1.846      2.345      0.395      0.847      0.963      2.54       0.1472171  0.1472171  0.3301072  1.492711   3.475578   2.417      0.215983   0.5009936  64.059     0.5542125  0.3901169  0.718308  
972.6      0.248      361.404    -9999      -9999      4.605      1.803      2.769      2.312      1.617      1.82       2.351      0.398      0.853      0.963      2.54       0.150284   0.150284   0.3301072  1.701307   3.845946   2.431      0.2320209  0.5062633  64.033     0.5449187  0.3743155  0.7155219 
972.8      0.248      358.915    -9999      -9999      4.567      1.829      2.692      2.312      1.617      1.82       2.356      0.398      0.866      0.959      2.464      0.1539797  0.1539797  0.3313296  1.99175    4.174059   2.443      0.2498349  0.5130879  64.008     0.5374241  0.362009   0.7128391 
973        0.248      356.832    -9999      -9999      4.543      1.727      2.743      2.363      1.643      1.795      2.358      0.4        0.872      0.951      2.388      0.1581915  0.1581915  0.3337744  2.383681   4.39556    2.447      0.267823   0.5206265  63.978     0.5320694  0.3544459  0.709693  
973.2000000000001 0.248      355.003    -9999      -9999      4.536      1.727      2.845      2.389      1.668      1.795      2.353      0.4        0.868      0.941      2.337      0.1622941  0.1622941  0.3368304  2.839481   4.462356   2.445      0.2836949  0.5277522  63.937     0.5288978  0.3522698  0.7055259 
973.4      0.248      353.225    -9999      -9999      4.56       1.778      2.819      2.389      1.617      1.795      2.337      0.397      0.861      0.93       2.235      0.1652537  0.1652537  0.340192   3.221489   4.237486   2.435      0.2935234  0.532912   63.886     0.5301162  0.3597866  0.7004458 
973.6      0.248      351.803    -9999      -9999      4.595      1.803      2.819      2.389      1.592      1.77       2.313      0.392      0.848      0.917      2.235      0.1683563  0.1683563  0.3441648  3.677272   3.929706   2.414      0.3020455  0.5375368  63.825     0.5327529  0.3710369  0.6944689 
973.8      0.248      351.371    -9999      -9999      4.631      1.854      2.87       2.363      1.566      1.77       2.281      0.386      0.828      0.904      2.184      0.1715659  0.1715659  0.3481376  4.216713   3.636436   2.361      0.3062414  0.53902    63.749     0.5350659  0.3829759  0.6871558 
