~Version
 VERS              .         2.0                           : CWLS LOG ASCII STANDARD - VERSION 2.0
 WRAP              .         NO                            : ONE LINE PER DEPTH STEP
 DLM               .         SPACE                         : DELIMITING CHARACTER(SPACE TAB OR COMMA)
~Well Information
#_______________________________________________________________________________
#
#PARAMETER_NAME    .UNIT     VALUE                         : DESCRIPTION
#_______________________________________________________________________________
STRT               .M        870                           : First reference value
STOP               .M        1172.2                        : Last reference value
STEP               .M        0.2                           : Step increment
NULL               .         -9999                         : Missing value
COMP               .                                       : Company
WELL               .         7146                          : Well name
FLD                .         УЗЕНЬ                         : Field
LOC                .                                       : Location
CNTY               .                                       : County
STAT               .                                       : State
CTRY               .                                       : Country
SRVC               .                                       : Service Company
DATE               .                                       : Date
UWI                .                                       : Unique Well ID
API                .                                       : 
Block              .         7                             : 
Category           .         Нефтяная                      : 
Condition          .         В работе                      : 
Date               .         02.04.1983                    : 
EREF               .m        86.7                          : 100.8
Gorizont           .         15                            : 14
Interpretator      .         Ким С.В.                      : 
Kupol              .         основной                      : osnovnoi
Mud                .         0                             : 
Mud_density        .         0                             : 
Mud_resistivity    .         0                             : 
NGDU               .         НГДУ-2                        : 
ORIGINALWELLNAME   .         7146                          : 
Spud_date          .         1983                          : 1961
Viscosity          .         0                             : 
X                  .m        42705                         : 46154
Y                  .m        84284.43                      : 85761.93
YEAR               .         2018                          : 
~Parameter Information Block
#_______________________________________________________________________________
#
#PARAMETER_NAME    .UNIT     VALUE                         : DESCRIPTION
#_______________________________________________________________________________
SET                .         LQC_KAZNIPI_Petrel            : 
GSDD               .         CSAT                          : CSATкрив,0,DEPT,BOTTOM,,,,0
TLFamily_CALI      .         Caliper                       : 
TLFamily_CILD      .         Conductivity                  : 
TLFamily_COLL      .         Net Reservoir Flag            : 
TLFamily_CSAT      .         Fluid Code                    : 
TLFamily_DEPT      .         Measured Depth                : 
TLFamily_GR        .         Russian Gamma Ray             : 
TLFamily_GZ1       .         Gradient 045                  : 
TLFamily_GZ2       .         Gradient 105                  : 
TLFamily_GZ3       .         Gradient 225                  : 
TLFamily_GZ4       .         Gradient 425                  : 
TLFamily_GZ5       .         Gradient 850                  : 
TLFamily_LLS       .         Lateral Log Resistivity       : 
TLFamily_MINV      .         Micro Gradient Resistivity    : 
TLFamily_MNOR      .         Micro Resistivity             : 
TLFamily_NGLD      .         Neutron Gamma                 : 
TLFamily_OGZ       .         Gradient Inverted 225         : 
TLFamily_PHIE      .         Effective Porosity            : 
TLFamily_PHIEN     .         Effective Porosity            : 
TLFamily_PHIT      .         Porosity                      : 
TLFamily_PRMB      .         Permeability                  : 
TLFamily_PRMB_DGR  .         Permeability                  : 
TLFamily_RT        .         Formation Resistivity         : 
TLFamily_SOIL_ARCHIE .         Oil Saturation                : 
TLFamily_SOIL_DW   .         Oil Saturation                : 
TLFamily_SP        .         Spontaneous Potential         : 
TLFamily_VSH_FIN   .         Shale Volume                  : 
TLFamily_VSH_GR    .         Shale Volume                  : 
TLFamily_VSH_SP    .         Shale Volume                  : 
~Curve Information
#_______________________________________________________________________________
#
#LOGNAME           .UNIT     LOG_ID                        : DESCRIPTION
#_______________________________________________________________________________
DEPT               .M                                      : Колонка глубины 
CALI               .м                                      : Каверномер 
CILD               .мСм/м                                  : Индукционный каротаж зондом 6Ф1 
COLL               .unitless                               : Описание 
CSAT               .unitless                               : Описание 
GR                 .uR/h                                   : Гамма каротаж 
GZ1                .Ohmm                                   :  
GZ2                .Ohmm                                   :  
GZ3                .Ohmm                                   :  
GZ4                .Ohmm                                   :  
GZ5                .Ohmm                                   :  
LLS                .Ohmm                                   : Боковой каротаж 
MINV               .Ohmm                                   : Микро-градиент зонд 
MNOR               .Ohmm                                   : Микро-потенциал зонд 
NGLD               .у.е.                                   : Показания зонда НГК-60 аппаратуры ДРСТ-3-90 
OGZ                .Ohmm                                   :  
PHIE               .v/v                                    : Описание 
PHIEN              .v/v                                    :  
PHIT               .v/v                                    : Описание 
PRMB               .mD                                     :  
PRMB_DGR           .mD                                     :  
RT                 .ohmm                                   : Удельное электрическое сопротивление 
SOIL_ARCHIE        .v/v                                    :  
SOIL_DW            .v/v                                    :  
SP                 .мВ                                     : Потенциал самополяризации 
VSH_FIN            .v/v                                    : Описание 
VSH_GR             .v/v                                    : Shale volume 
VSH_SP             .v/v                                    : Shale Volume 
~Ascii
# ...
1140.4     0.224      425.869    -9999      -9999      6.576      2.464      2.819      3.1        1.744      2.963      2.308      1.035      0.807      0.97       1.6        0.1583226  0.1583226  0.327968   2.397048   2.633174   1.888      0.1851592  0.4556483  43.48      0.5140769  0.4369365  0.5912173 
1140.6     0.227      438.518    -9999      -9999      6.759      2.21       2.667      3.1        1.389      2.354      2.213      1.07       0.804      0.961      1.6        0.136862   0.136862   0.3307184  0.9597856  1.735582   1.831      0.06153757 0.4190457  44.176     0.5874436  0.5180131  0.6568742 
1140.8     0.228      449.237    -9999      -9999      6.931      1.956      2.515      2.82       1.185      1.795      2.131      1.112      0.82       0.954      1.549      0.114533   0.114533   0.3328576  0.3703286  1.172983   1.788      0          0.3756504  44.734     0.6615897  0.607883   0.7152964 
1141       0.228      453.481    -9999      -9999      7.06       1.753      2.362      2.566      1.033      1.414      2.067      1.152      0.851      0.948      1.778      0.09635446 0.09635446 0.3346912  0.1705597  0.8743343  1.773      0          0.3372416  45.105     0.7222325  0.6853764  0.7590886 
1141.2     0.227      457.619    -9999      -9999      7.105      1.6        2.184      2.338      0.83       1.109      2.025      1.203      0.896      0.942      2.032      0.08898199 0.08898199 0.3365248  0.1245433  0.7891518  1.759      0          0.319543   45.288     0.7501298  0.7146721  0.7855874 
1141.4     0.225      463.563    -9999      -9999      7.077      1.549      2.032      2.185      0.779      0.855      2.004      1.268      0.929      0.938      2.362      0.09205785 0.09205785 0.3377472  0.1420015  0.8411237  1.741      0          0.3251874  45.278     0.7445132  0.6963     0.7927263 
1141.6     0.223      467.119    -9999      -9999      7.026      1.499      2.007      2.185      0.83       0.728      2          1.324      0.976      0.935      2.362      0.09987997 0.09987997 0.338664   0.1982336  0.94474    1.734      0          0.3430023  45.105     0.723588   0.6640411  0.7831348 
1141.8     0.222      468.541    -9999      -9999      6.982      1.575      2.108      2.338      0.855      0.627      2.008      1.443      1.039      0.935      2.489      0.1053061  0.1053061  0.338664   0.2498516  1.044335   1.735      0          0.3548255  44.964     0.7071452  0.6374134  0.776877  
1142       0.222      468.49     -9999      -9999      6.846      1.676      2.007      2.516      0.906      0.525      2.025      1.564      1.087      0.938      2.311      0.1180285  0.1180285  0.3377472  0.4298655  1.423571   1.739      0          0.379474   44.816     0.6658142  0.5616741  0.7699542 
1142.2     0.222      467.474    -9999      -9999      6.706      1.778      1.854      2.236      0.9310000000000001 0.525      2.045      1.625      1.095      0.942      2.057      0.1323264  0.1323264  0.3365248  0.7909771  1.958285   1.748      0.01231447 0.4045926  44.48      0.6187831  0.493096   0.7444701 
1142.4     0.223      465.595    -9999      -9999      6.595      1.651      1.829      1.881      1.058      0.525      2.067      1.661      1.087      0.944      1.956      0.1444939  0.1444939  0.3359136  1.329032   2.521644   1.762      0.08857711 0.4252651  44.099     0.5800597  0.4447267  0.7153926 
1142.6     0.224      462.598    -9999      -9999      6.523      1.549      1.803      1.881      1.211      0.525      2.104      1.668      1.036      0.94       1.956      0.1548707  0.1548707  0.337136   2.068895   2.971056   1.785      0.1472061  0.4449655  43.734     0.5523192  0.4159192  0.6887192 
1142.8     0.227      458.076    -9999      -9999      6.51       1.626      1.803      1.55       1.439      0.525      2.144      1.582      0.96       0.935      2.311      0.162441   0.162441   0.338664   2.857326   3.060346   1.817      0.1887194  0.461315   43.304     0.534009   0.4109205  0.6570976 
1143       0.229      451.625    -9999      -9999      6.494      1.626      2.057      1.296      1.719      0.55       2.176      1.453      0.894      0.928      2.769      0.1694427  0.1694427  0.3408032  3.851655   3.173943   1.863      0.2271169  0.478609   42.956     0.5192744  0.4048503  0.6336984 
1143.2     0.231      442.938    -9999      -9999      6.492      1.6        2.337      1.093      2.024      0.525      2.215      1.343      0.853      0.923      3.429      0.1591223  0.1591223  0.3423312  2.480219   2.021288   1.92       0.1951005  0.4753139  42.758     0.5551783  0.4867611  0.6235955 
1143.4     0.232      432.321    -9999      -9999      6.487      1.626      2.591      2.185      2.354      0.474      2.266      1.184      0.842      0.924      4.267      0.1604109  0.1604109  0.3420256  2.620336   2.045777   1.992      0.2144238  0.4861812  42.54      0.5503476  0.4843735  0.6163216 
1143.6     0.23       419.875    -9999      -9999      6.456      1.753      2.337      2.185      2.659      0.423      2.334      1.043      0.9        0.934      4.267      0.1619252  0.1619252  0.3389696  2.795153   2.204361   2.077      0.2359557  0.4958238  42.25      0.5364982  0.4698296  0.6031669 
1143.8     0.225      405.854    -9999      -9999      6.423      1.88       2.007      2.262      2.989      0.373      2.423      0.978      1.013      0.953      5.626      0.1630615  0.1630615  0.3331632  2.933944   2.386707   2.128      0.2491904  0.4979275  41.783     0.5154598  0.454827   0.5760927 
1144       0.221      390.462    -9999      -9999      6.397      1.778      1.905      2.058      3.192      0.373      2.539      0.962      1.16       0.98       6.985      0.1662205  0.1662205  0.324912   3.357106   2.540936   2.179      0.2697942  0.4998887  40.889     0.4808833  0.4433449  0.5184217 
1144.2     0.217      373.19     -9999      -9999      6.328      1.651      1.829      1.83       2.963      0.347      2.687      0.976      1.331      1.014      7.112      0.1737829  0.1737829  0.3145216  4.634876   3.000293   2.307      0.3161148  0.512855   39.568     0.426481   0.4142593  0.4387027 
1144.4     0.214      352.666    -9999      -9999      6.254      1.549      1.727      1.677      2.608      0.296      2.87       1.055      1.51       1.05       6.604      0.1831002  0.1831002  0.30352    6.896323   3.585616   2.488      0.3692819  0.5306633  37.734     0.3649086  0.3851832  0.3446341 
1144.6     0.212      329.197    8          2          6.182      1.549      2.54       1.677      2.278      0.22       3.093      1.146      1.66       1.081      6.604      0.1929186  0.1929186  0.2940464  10.48283   4.264538   2.731      0.4231197  0.5530962  35.408     0.3064479  0.3588529  0.254043  
1144.8     0.211      302.781    8          2          6.116      1.753      3.2        1.5        2.049      0.169      3.353      1.217      1.775      1.103      6.858      0.2011121  0.2011121  0.2873232  14.86762   4.999247   3.052      0.4719138  0.5787345  32.796     0.2612458  0.336301   0.1861906 
1145       0.21       273.825    8          2          6.077      2.032      3.861      1.449      1.922      0.119      3.647      1.28       1.862      1.116      7.62       0.2053388  0.2053388  0.2833504  17.80452   5.49157    3.463      0.5112462  0.604718   30.399     0.2363988  0.3236469  0.1491507 
1145.2     0.21       244.361    8          2          6.036      2.362      4.445      1.855      1.846      0.119      3.968      1.327      1.927      1.12       9.017      0.2093199  0.2093199  0.282128   21.09946   6.061507   3.951      0.5481864  0.6319608  28.214     0.2206305  0.3108568  0.1304041 
1145.4     0.21       217.386    8          2          5.906      2.718      4.953      2.645      1.795      0.169      4.3        1.363      1.994      1.119      10.033     0.2171411  0.2171411  0.2824336  29.4536    8.28998    4.475      0.5872347  0.6596717  26.452     0.1978561  0.2735509  0.1221612 
