~Version
 VERS              .         2.0                           : CWLS LOG ASCII STANDARD - VERSION 2.0
 WRAP              .         NO                            : ONE LINE PER DEPTH STEP
 DLM               .         SPACE                         : DELIMITING CHARACTER(SPACE TAB OR COMMA)
~Well Information
#_______________________________________________________________________________
#
#PARAMETER_NAME    .UNIT     VALUE                         : DESCRIPTION
#_______________________________________________________________________________
STRT               .M        870                           : First reference value
STOP               .M        1172.2                        : Last reference value
STEP               .M        0.2                           : Step increment
NULL               .         -9999                         : Missing value
COMP               .                                       : Company
WELL               .         7146                          : Well name
FLD                .         УЗЕНЬ                         : Field
LOC                .                                       : Location
CNTY               .                                       : County
STAT               .                                       : State
CTRY               .                                       : Country
SRVC               .                                       : Service Company
DATE               .                                       : Date
UWI                .                                       : Unique Well ID
API                .                                       : 
Block              .         7                             : 
Category           .         Нефтяная                      : 
Condition          .         В работе                      : 
Date               .         02.04.1983                    : 
EREF               .m        86.7                          : 100.8
Gorizont           .         15                            : 14
Interpretator      .         Ким С.В.                      : 
Kupol              .         основной                      : osnovnoi
Mud                .         0                             : 
Mud_density        .         0                             : 
Mud_resistivity    .         0                             : 
NGDU               .         НГДУ-2                        : 
ORIGINALWELLNAME   .         7146                          : 
Spud_date          .         1983                          : 1961
Viscosity          .         0                             : 
X                  .m        42705                         : 46154
Y                  .m        84284.43                      : 85761.93
YEAR               .         2018                          : 
~Parameter Information Block
#_______________________________________________________________________________
#
#PARAMETER_NAME    .UNIT     VALUE                         : DESCRIPTION
#_______________________________________________________________________________
SET                .         LQC_KAZNIPI_Petrel            : 
GSDD               .         CSAT                          : CSATкрив,0,DEPT,BOTTOM,,,,0
TLFamily_CALI      .         Caliper                       : 
TLFamily_CILD      .         Conductivity                  : 
TLFamily_COLL      .         Net Reservoir Flag            : 
TLFamily_CSAT      .         Fluid Code                    : 
TLFamily_DEPT      .         Measured Depth                : 
TLFamily_GR        .         Russian Gamma Ray             : 
TLFamily_GZ1       .         Gradient 045                  : 
TLFamily_GZ2       .         Gradient 105                  : 
TLFamily_GZ3       .         Gradient 225                  : 
TLFamily_GZ4       .         Gradient 425                  : 
TLFamily_GZ5       .         Gradient 850                  : 
TLFamily_LLS       .         Lateral Log Resistivity       : 
TLFamily_MINV      .         Micro Gradient Resistivity    : 
TLFamily_MNOR      .         Micro Resistivity             : 
TLFamily_NGLD      .         Neutron Gamma                 : 
TLFamily_OGZ       .         Gradient Inverted 225         : 
TLFamily_PHIE      .         Effective Porosity            : 
TLFamily_PHIEN     .         Effective Porosity            : 
TLFamily_PHIT      .         Porosity                      : 
TLFamily_PRMB      .         Permeability                  : 
TLFamily_PRMB_DGR  .         Permeability                  : 
TLFamily_RT        .         Formation Resistivity         : 
TLFamily_SOIL_ARCHIE .         Oil Saturation                : 
TLFamily_SOIL_DW   .         Oil Saturation                : 
TLFamily_SP        .         Spontaneous Potential         : 
TLFamily_VSH_FIN   .         Shale Volume                  : 
TLFamily_VSH_GR    .         Shale Volume                  : 
TLFamily_VSH_SP    .         Shale Volume                  : 
~Curve Information
#_______________________________________________________________________________
#
#LOGNAME           .UNIT     LOG_ID                        : DESCRIPTION
#_______________________________________________________________________________
DEPT               .M                                      : Колонка глубины 
CALI               .м                                      : Каверномер 
CILD               .мСм/м                                  : Индукционный каротаж зондом 6Ф1 
COLL               .unitless                               : Описание 
CSAT               .unitless                               : Описание 
GR                 .uR/h                                   : Гамма каротаж 
GZ1                .Ohmm                                   :  
GZ2                .Ohmm                                   :  
GZ3                .Ohmm                                   :  
GZ4                .Ohmm                                   :  
GZ5                .Ohmm                                   :  
LLS                .Ohmm                                   : Боковой каротаж 
MINV               .Ohmm                                   : Микро-градиент зонд 
MNOR               .Ohmm                                   : Микро-потенциал зонд 
NGLD               .у.е.                                   : Показания зонда НГК-60 аппаратуры ДРСТ-3-90 
OGZ                .Ohmm                                   :  
PHIE               .v/v                                    : Описание 
PHIEN              .v/v                                    :  
PHIT               .v/v                                    : Описание 
PRMB               .mD                                     :  
PRMB_DGR           .mD                                     :  
RT                 .ohmm                                   : Удельное электрическое сопротивление 
SOIL_ARCHIE        .v/v                                    :  
SOIL_DW            .v/v                                    :  
SP                 .мВ                                     : Потенциал самополяризации 
VSH_FIN            .v/v                                    : Описание 
VSH_GR             .v/v                                    : Shale volume 
VSH_SP             .v/v                                    : Shale Volume 
~Ascii
# ...
906.4      0.211      449.491    1          3          2.369      1.88       2.184      1.652      0.9310000000000001 1.236      2.197      1.431      1.344      1.135      2.134      0.2520163  0.2520163  0.277544   130.3503   2038.117   1.846      0.4429314  0.4902164  46.873     0.07735655 0.02889652 0.1258166 
906.6      0.211      446.9      1          3          2.354      1.905      2.184      1.652      0.982      1.211      2.21       1.43       1.36       1.138      2.134      0.2510496  0.2510496  0.2766272  125.0852   2071.755   1.852      0.4419141  0.4892389  46.97      0.07750785 0.02870401 0.1263117 
906.8      0.211      445.275    1          3          2.317      1.854      2.159      1.525      1.109      1.185      2.227      1.451      1.382      1.146      2.311      0.2485899  0.2485899  0.2741824  112.628    2157.123   1.858      0.4379614  0.4853035  47.076     0.07755298 0.02823462 0.1268713 
907        0.211      444.005    1          3          2.279      1.778      2.134      1.398      1.084      1.16       2.252      1.483      1.402      1.157      2.286      0.2451915  0.2451915  0.2708208  97.43165   2248.46    1.864      0.4320427  0.4794354  47.203     0.07766449 0.02776053 0.1275685 
907.2000000000001 0.211      442.836    1          3          2.25       1.702      2.311      1.373      1.084      1.135      2.29       1.514      1.419      1.171      2.235      0.2408023  0.2408023  0.2665424  80.79811   2320.759   1.873      0.4243394  0.4718677  47.381     0.07800025 0.02740408 0.1285964 
907.4      0.211      441.668    1          3          2.231      1.778      2.337      1.398      1.058      1.084      2.344      1.532      1.406      1.183      2.311      0.2369398  0.2369398  0.2628752  68.52655   2369.383   1.891      0.4187893  0.4665256  47.61      0.078592   0.02717303 0.130011  
907.6      0.211      439.941    1          3          2.216      1.956      2.184      1.398      1.008      1.008      2.419      1.529      1.395      1.194      2.311      0.2332933  0.2332933  0.2595136  58.65654   2408.488   1.922      0.415363   0.4633844  47.894     0.07945538 0.026992   0.1319187 
907.8      0.211      436.74     1          3          2.217      1.829      2.184      1.373      0.906      1.008      2.522      1.535      1.398      1.203      2.489      0.2300906  0.2300906  0.2567632  51.16761   2405.861   1.978      0.4162031  0.4646431  48.26      0.08082595 0.02700404 0.1346479 
908        0.212      431.203    1          3          2.232      1.829      2.134      1.322      0.83       0.982      2.663      1.549      1.428      1.213      2.743      0.2263578  0.2263578  0.2537072  43.63697   2366.798   2.081      0.4217665  0.4707813  48.722     0.08287677 0.02718515 0.1385684 
908.2000000000001 0.212      422.11     1          3          2.261      1.829      2.134      1.271      0.855      0.957      2.852      1.596      1.53       1.225      2.972      0.2217024  0.2217024  0.25004    35.77873   2293.066   2.245      0.4317961  0.4816277  49.291     0.08587143 0.02753874 0.1442041 
908.4      0.212      407.48     1          3          2.303      1.727      2.235      1.398      0.906      0.9310000000000001 3.105      1.754      1.707      1.242      2.997      0.215103   0.215103   0.2448448  27.00148   2190.333   2.487      0.4440044  0.4950578  49.967     0.09012669 0.02805902 0.1521944 
908.6      0.212      386.702    1          3          2.368      1.854      2.083      1.398      0.982      1.033      3.418      1.969      1.935      1.263      2.997      0.2066593  0.2066593  0.2384272  18.83603   2040.342   2.806      0.4559691  0.5090147  50.764     0.09626637 0.02888365 0.1636491 
908.8      0.212      359.88     1          3          2.45       1.753      2.007      1.601      1.033      1.109      3.784      2.238      2.214      1.287      3.912      0.1964873  0.1964873  0.2310928  12.20618   1865.686   3.188      0.4645688  0.5208457  51.674     0.1048652  0.02995862 0.1797717 
909        0.212      328.536    1          3          2.542      1.6        2.159      1.931      1.058      1.16       4.177      2.566      2.511      1.309      4.826      0.185911   0.185911   0.2243696  7.774659   1687.464   3.595      0.4689375  0.5301499  52.68      0.1165411  0.03121237 0.2018698 
909.2000000000001 0.213      295.262    1          3          2.642      1.753      2.515      2.287      1.033      1.135      4.558      2.891      2.724      1.325      5.842      0.1760609  0.1760609  0.21948    5.107797   1513       4.003      0.4705456  0.5385492  53.736     0.1315729  0.03263472 0.2305111 
909.4      0.214      263.97     1          3          2.753      1.727      3.099      2.643      1.008      1.109      4.876      3.088      2.85       1.333      7.112      0.167276   0.167276   0.2170352  3.511681   1340.385   4.383      0.4694737  0.5464919  54.844     0.1507856  0.03428957 0.2672815 
909.6      0.214      236.741    1          3          2.872      1.956      3.505      2.643      0.982      1.084      5.097      3.218      2.874      1.332      7.112      0.1598799  0.1598799  0.2173408  2.561661   1177.141   4.726      0.4673316  0.5553155  55.961     0.1741239  0.036157   0.3120908 
909.8      0.215      214.998    1          3          3.012      2.616      3.912      2.973      0.957      1.058      5.2        3.253      2.794      1.323      9.779      0.1537381  0.1537381  0.2200912  1.971339   1010.357   5.036      0.4650345  0.5654076  57.043     0.2010699  0.0384846  0.3636552 
910        0.216      198.539    1          3          3.158      3.099      4.699      3.201      0.957      0.9310000000000001 5.191      3.217      2.634      1.312      12.065     0.147321   0.147321   0.2234528  1.499338   861.543    5.312      0.4585238  0.5732383  58.064     0.2307025  0.0410717  0.4203333 
910.2000000000001 0.217      186.246    -9999      -9999      3.29       3.734      5.588      3.176      0.9310000000000001 0.982      5.106      3.172      2.493      1.304      11.557     0.1394654  0.1394654  0.2258976  1.072495   745.9584   5.537      0.4430042  0.5753886  59.009     0.2619158  0.04356011 0.4802715 
910.4      0.218      176.695    -9999      -9999      3.387      4.801      6.858      3.074      0.906      0.957      5          3.175      2.384      1.303      10.287     0.1292418  0.1292418  0.2262032  0.6934745  671.0283   5.702      0.4129648  0.5690246  59.878     0.2938223  0.04548432 0.5421603 
910.6      0.219      169.583    -9999      -9999      3.431      5.182      8.128      3.074      0.881      0.906      4.922      3.203      2.311      1.309      10.287     0.1173064  0.1173064  0.2243696  0.4168274  639.5679   5.797      0.3662066  0.553818   60.645     0.3244341  0.04638495 0.6024832 
910.8      0.219      164.605    -9999      -9999      3.419      4.775      9.144      3.176      0.855      0.881      4.884      3.239      2.275      1.32       9.651999999999999 0.1045202  0.1045202  0.221008   0.2416157  647.9989   5.827      0.3008841  0.5304635  61.316     0.3529934  0.04613756 0.6598492 
911        0.22       161.76     -9999      -9999      3.375      4.597      8.128      3.582      0.83       0.855      4.886      3.23       2.265      1.33       8.890000000000001 0.09318047 0.09318047 0.217952   0.1489657  679.8737   5.811      0.2263429  0.5048543  61.874     0.3780955  0.04524174 0.7109493 
911.2000000000001 0.22       160.795    -9999      -9999      3.332      3.251      7.874      4.243      0.8040000000000001 0.8040000000000001 4.91       3.111      2.203      1.335      8.000999999999999 0.08448122 0.08448122 0.216424   0.102791   712.5387   5.787      0.1557642  0.4834359  62.332     0.3998266  0.04438307 0.7552701 
911.4      0.221      161.15     -9999      -9999      3.309      3.251      8.382      5.362      0.754      0.779      4.922      2.899      2.118      1.334      7.493      0.0789436  0.0789436  0.2167296  0.08116805 730.6501   5.786      0.104341   0.4712007  62.687     0.4175333  0.0439305  0.7911362 
