~Version
 VERS              .         2.0                           : CWLS LOG ASCII STANDARD - VERSION 2.0
 WRAP              .         NO                            : ONE LINE PER DEPTH STEP
 DLM               .         SPACE                         : DELIMITING CHARACTER(SPACE TAB OR COMMA)
~Well Information
#_______________________________________________________________________________
#
#PARAMETER_NAME    .UNIT     VALUE                         : DESCRIPTION
#_______________________________________________________________________________
STRT               .M        870                           : First reference value
STOP               .M        1172.2                        : Last reference value
STEP               .M        0.2                           : Step increment
NULL               .         -9999                         : Missing value
COMP               .                                       : Company
WELL               .         7146                          : Well name
FLD                .         УЗЕНЬ                         : Field
LOC                .                                       : Location
CNTY               .                                       : County
STAT               .                                       : State
CTRY               .                                       : Country
SRVC               .                                       : Service Company
DATE               .                                       : Date
UWI                .                                       : Unique Well ID
API                .                                       : 
Block              .         7                             : 
Category           .         Нефтяная                      : 
Condition          .         В работе                      : 
Date               .         02.04.1983                    : 
EREF               .m        86.7                          : 100.8
Gorizont           .         15                            : 14
Interpretator      .         Ким С.В.                      : 
Kupol              .         основной                      : osnovnoi
Mud                .         0                             : 
Mud_density        .         0                             : 
Mud_resistivity    .         0                             : 
NGDU               .         НГДУ-2                        : 
ORIGINALWELLNAME   .         7146                          : 
Spud_date          .         1983                          : 1961
Viscosity          .         0                             : 
X                  .m        42705                         : 46154
Y                  .m        84284.43                      : 85761.93
YEAR               .         2018                          : 
~Parameter Information Block
#_______________________________________________________________________________
#
#PARAMETER_NAME    .UNIT     VALUE                         : DESCRIPTION
#_______________________________________________________________________________
SET                .         LQC_KAZNIPI_Petrel            : 
GSDD               .         CSAT                          : CSATкрив,0,DEPT,BOTTOM,,,,0
TLFamily_CALI      .         Caliper                       : 
TLFamily_CILD      .         Conductivity                  : 
TLFamily_COLL      .         Net Reservoir Flag            : 
TLFamily_CSAT      .         Fluid Code                    : 
TLFamily_DEPT      .         Measured Depth                : 
TLFamily_GR        .         Russian Gamma Ray             : 
TLFamily_GZ1       .         Gradient 045                  : 
TLFamily_GZ2       .         Gradient 105                  : 
TLFamily_GZ3       .         Gradient 225                  : 
TLFamily_GZ4       .         Gradient 425                  : 
TLFamily_GZ5       .         Gradient 850                  : 
TLFamily_LLS       .         Lateral Log Resistivity       : 
TLFamily_MINV      .         Micro Gradient Resistivity    : 
TLFamily_MNOR      .         Micro Resistivity             : 
TLFamily_NGLD      .         Neutron Gamma                 : 
TLFamily_OGZ       .         Gradient Inverted 225         : 
TLFamily_PHIE      .         Effective Porosity            : 
TLFamily_PHIEN     .         Effective Porosity            : 
TLFamily_PHIT      .         Porosity                      : 
TLFamily_PRMB      .         Permeability                  : 
TLFamily_PRMB_DGR  .         Permeability                  : 
TLFamily_RT        .         Formation Resistivity         : 
TLFamily_SOIL_ARCHIE .         Oil Saturation                : 
TLFamily_SOIL_DW   .         Oil Saturation                : 
TLFamily_SP        .         Spontaneous Potential         : 
TLFamily_VSH_FIN   .         Shale Volume                  : 
TLFamily_VSH_GR    .         Shale Volume                  : 
TLFamily_VSH_SP    .         Shale Volume                  : 
~Curve Information
#_______________________________________________________________________________
#
#LOGNAME           .UNIT     LOG_ID                        : DESCRIPTION
#_______________________________________________________________________________
DEPT               .M                                      : Колонка глубины 
CALI               .м                                      : Каверномер 
CILD               .мСм/м                                  : Индукционный каротаж зондом 6Ф1 
COLL               .unitless                               : Описание 
CSAT               .unitless                               : Описание 
GR                 .uR/h                                   : Гамма каротаж 
GZ1                .Ohmm                                   :  
GZ2                .Ohmm                                   :  
GZ3                .Ohmm                                   :  
GZ4                .Ohmm                                   :  
GZ5                .Ohmm                                   :  
LLS                .Ohmm                                   : Боковой каротаж 
MINV               .Ohmm                                   : Микро-градиент зонд 
MNOR               .Ohmm                                   : Микро-потенциал зонд 
NGLD               .у.е.                                   : Показания зонда НГК-60 аппаратуры ДРСТ-3-90 
OGZ                .Ohmm                                   :  
PHIE               .v/v                                    : Описание 
PHIEN              .v/v                                    :  
PHIT               .v/v                                    : Описание 
PRMB               .mD                                     :  
PRMB_DGR           .mD                                     :  
RT                 .ohmm                                   : Удельное электрическое сопротивление 
SOIL_ARCHIE        .v/v                                    :  
SOIL_DW            .v/v                                    :  
SP                 .мВ                                     : Потенциал самополяризации 
VSH_FIN            .v/v                                    : Описание 
VSH_GR             .v/v                                    : Shale volume 
VSH_SP             .v/v                                    : Shale Volume 
~Ascii
# ...
948        0.217      296.736    -9999      -9999      4.41       2.21       3.073      3.151      2.379      2.43       2.756      2.174      1.365      1.061      2.642      0.128046   0.128046   0.3001584  0.6589937  5.854072   2.967      0.1958914  0.4964291  63.754     0.5215526  0.3153083  0.727797  
948.2000000000001 0.217      297.955    -9999      -9999      4.431      1.981      3.277      3.506      2.43       2.43       2.761      2.18       1.42       1.069      2.591      0.1246838  0.1246838  0.2977136  0.5709586  5.595113   2.959      0.1759952  0.488141   63.754     0.5243327  0.3211877  0.7274777 
948.4      0.219      298.412    -9999      -9999      4.471      2.032      3.556      3.557      2.354      2.405      2.759      2.186      1.432      1.072      2.54       0.1219214  0.1219214  0.2967968  0.5075036  5.133129   2.928      0.1555957  0.4801771  63.754     0.5299253  0.3326913  0.7271593 
948.6      0.221      297.853    -9999      -9999      4.531      2.311      3.48       3.557      2.278      2.405      2.74       2.182      1.424      1.066      2.54       0.1208322  0.1208322  0.2986304  0.4844668  4.510684   2.874      0.1415036  0.4756479  63.754     0.5387824  0.3507238  0.7268409 
948.8      0.225      297.142    -9999      -9999      4.597      2.413      3.607      3.455      2.1        2.405      2.697      2.147      1.398      1.052      2.464      0.1217036  0.1217036  0.3029088  0.5028106  3.912806   2.791      0.1350465  0.4740773  63.754     0.5491065  0.3716904  0.7265227 
949        0.229      297.904    -9999      -9999      4.65       2.489      3.835      3.481      2.151      2.405      2.633      2.024      1.325      1.032      2.413      0.1249409  0.1249409  0.3090208  0.577254   3.490586   2.686      0.1392483  0.4756991  63.754     0.5578179  0.3894312  0.7262046 
949.2000000000001 0.234      300.952    -9999      -9999      4.694      2.515      4.089      3.303      2.354      2.405      2.552      1.874      1.218      1.009      2.464      0.1294863  0.1294863  0.3160496  0.7007432  3.174895   2.579      0.1495553  0.4793561  63.754     0.5653433  0.4048008  0.7258859 
949.4      0.238      306.388    -9999      -9999      4.71       2.515      3.734      3.125      2.328      2.405      2.46       1.7        1.127      0.986      2.464      0.1356207  0.1356207  0.3230784  0.9102967  3.067314   2.477      0.1675425  0.4849135  63.754     0.5680535  0.4105391  0.725568  
949.6      0.24       314.973    -9999      -9999      4.698      2.819      3.378      3.125      2.201      2.379      2.373      1.53       1.044      0.967      2.464      0.1421909  0.1421909  0.3288848  1.2047     3.14765    2.384      0.1866702  0.4898232  63.754     0.565739   0.4062279  0.7252502 
949.8      0.241      325.895    -9999      -9999      4.669      2.515      3.023      2.998      2.074      2.379      2.3        1.37       0.968      0.952      2.362      0.1485157  0.1485157  0.3334688  1.577717   3.350585   2.302      0.2039535  0.4935802  63.754     0.5604639  0.3959952  0.7249326 
950        0.241      337.68     -9999      -9999      4.64       2.007      2.921      2.82       2.049      2.379      2.247      1.262      0.914      0.943      2.286      0.1529644  0.1529644  0.3362192  1.907347   3.566605   2.234      0.2131618  0.4941896  63.754     0.5553176  0.3860202  0.724615  
950.2000000000001 0.24       349.364    -9999      -9999      4.616      1.651      2.845      2.668      2.151      2.328      2.216      1.195      0.885      0.936      2.21       0.1564866  0.1564866  0.3383584  2.216513   3.755873   2.182      0.2200366  0.4945688  63.754     0.5511265  0.3779554  0.7242976 
950.4      0.238      360.642    -9999      -9999      4.592      1.499      2.692      2.566      2.227      2.303      2.203      1.157      0.862      0.934      2.159      0.1584532  0.1584532  0.3389696  2.410439   3.955185   2.149      0.2229373  0.4936689  63.754     0.5470193  0.370059   0.7239796 
950.6      0.236      371.208    -9999      -9999      4.568      1.651      2.515      2.566      2.278      2.328      2.205      1.145      0.858      0.934      2.159      0.1597812  0.1597812  0.3389696  2.550906   4.165076   2.137      0.2265357  0.4938515  63.754     0.542995   0.3623276  0.7236624 
950.8      0.233      380.556    -9999      -9999      4.556      1.753      2.286      2.541      2.252      2.354      2.22       1.185      0.886      0.935      2.286      0.1601558  0.1601558  0.338664   2.591978   4.274158   2.15       0.2303049  0.4955494  63.754     0.5409341  0.3585228  0.7233453 
951        0.23       388.074    -9999      -9999      4.551      1.549      2.134      2.465      2.227      2.354      2.245      1.27       0.934      0.939      2.362      0.1592453  0.1592453  0.3374416  2.493257   4.320451   2.184      0.2321479  0.4972808  63.754     0.5399888  0.3569492  0.7230284 
951.2000000000001 0.226      393.002    -9999      -9999      4.548      1.346      2.235      2.363      2.125      2.379      2.283      1.39       0.991      0.946      2.286      0.1573136  0.1573136  0.3353024  2.296086   4.348468   2.23       0.2314963  0.4982089  63.754     0.5393599  0.3560083  0.7227115 
951.4      0.223      394.83     -9999      -9999      4.56       1.143      2.362      2.287      2.1        2.405      2.332      1.517      1.049      0.955      2.21       0.1539922  0.1539922  0.332552   1.992816   4.237486   2.281      0.2253434  0.497263   63.754     0.5410903  0.3597866  0.722394  
951.6      0.221      392.697    -9999      -9999      4.594      1.245      2.388      2.287      2.227      2.481      2.388      1.631      1.101      0.967      2.21       0.1485748  0.1485748  0.3288848  1.581698   3.938182   2.331      0.2088904  0.4924392  63.754     0.546394   0.3707106  0.7220774 
951.8      0.219      387.718    -9999      -9999      4.625      1.499      2.362      2.185      2.303      2.506      2.439      1.716      1.129      0.98       2.515      0.1429631  0.1429631  0.324912   1.245035   3.683747   2.374      0.1888993  0.4858676  63.754     0.5513603  0.3809597  0.7217609 
952        0.218      381.013    -9999      -9999      4.642      1.778      2.438      2.211      2.43       2.455      2.494      1.742      1.14       0.992      2.87       0.138401   0.138401   0.3212448  1.024895   3.551268   2.414      0.1721784  0.4802693  63.754     0.5540723  0.3867001  0.7214445 
952.2000000000001 0.218      373.698    -9999      -9999      4.633      2.007      2.616      2.287      2.557      2.354      2.52       1.745      1.147      1.003      3.124      0.1355947  0.1355947  0.3178832  0.9092883  3.620801   2.452      0.1634308  0.4769333  63.754     0.5523893  0.3836503  0.7211282 
952.4      0.217      366.687    -9999      -9999      4.584      1.88       2.896      2.338      2.608      2.379      2.525      1.732      1.152      1.011      3.2        0.135873   0.135873   0.3154384  0.9201439  4.023946   2.492      0.1712402  0.4790143  63.754     0.5441375  0.3674638  0.7208112 
952.6      0.216      360.845    -9999      -9999      4.483      1.981      2.87       2.338      2.481      2.278      2.536      1.709      1.158      1.018      3.2        0.1389409  0.1389409  0.3132992  1.04877    5.002124   2.537      0.1939985  0.4857329  63.754     0.5283586  0.3362219  0.7204952 
952.8      0.216      355.714    -9999      -9999      4.349      2.21       2.718      2.262      2.328      2.151      2.558      1.683      1.174      1.026      3.15       0.1427173  0.1427173  0.3108544  1.232049   6.676263   2.592      0.2204906  0.4938365  63.754     0.5095065  0.2988337  0.7201793 
953        0.215      350.888    -9999      -9999      4.204      1.93       2.692      2.16       2.151      2.024      2.598      1.693      1.204      1.036      3.15       0.1456185  0.1456185  0.3077984  1.394329   9.124415   2.657      0.2428854  0.5007963  63.754     0.4914543  0.2630452  0.7198634 
