~Version
 VERS              .         2.0                           : CWLS LOG ASCII STANDARD - VERSION 2.0
 WRAP              .         NO                            : ONE LINE PER DEPTH STEP
 DLM               .         SPACE                         : DELIMITING CHARACTER(SPACE TAB OR COMMA)
~Well Information
#_______________________________________________________________________________
#
#PARAMETER_NAME    .UNIT     VALUE                         : DESCRIPTION
#_______________________________________________________________________________
STRT               .M        0.25                          : First reference value
STOP               .M        1174.65                       : Last reference value
STEP               .M        0.2                           : Step increment
NULL               .         -9999                         : Missing value
COMP               .                                       : Company
WELL               .         7169                          : Well name
FLD                .         Узень                         : Field
LOC                .                                       : Location
CNTY               .                                       : County
STAT               .                                       : State
CTRY               .                                       : Country
SRVC               .                                       : Service Company
DATE               .                                       : Date
UWI                .                                       : Unique Well ID
Block              .         6а                            : 
Category           .         Нефтяная                      : 
Condition          .         В работе                      : 
Date               .         29.04.2017                    : 
EREF               .m        88.4                          : 100.8
GRP                .                                       : Group name
Gorizont           .         15                            : 14
ISS                .                                       : Well surveys
Interpretator      .         Бекбулатова А.А.              : 
Kupol              .         Основной                      : osnovnoi
Mud                .         Полимерный                    : 
Mud_density        .         1.36                          : 
Mud_resistivity    .         0.35                          : 
NGDU               .         НГДУ-2                        : 
ORIGINALWELLNAME   .         7169                          : 
Spud_date          .         2017                          : 1961
TIME               .         11_03                         : LOG TIME
Viscosity          .         40                            : 
X                  .m        42538.74                      : 46154
Y                  .m        84287.88                      : 85761.93
YEAR               .         2018                          : 
Исправ_15гор       .         Исправ.15гор                  : 
~Parameter Information Block
#_______________________________________________________________________________
#
#PARAMETER_NAME    .UNIT     VALUE                         : DESCRIPTION
#_______________________________________________________________________________
SET                .         LQC_KAZNIPI_Petrel            : 
TLFamily_CALI      .         Caliper                       : 
TLFamily_CILD      .         Conductivity                  : 
TLFamily_COLL      .         Net Reservoir Flag            : 
TLFamily_CSAT      .         Fluid Code                    : 
TLFamily_DEPT      .         Measured Depth                : 
TLFamily_DT        .         Compressional Slowness        : 
TLFamily_GR        .         Russian Gamma Ray             : 
TLFamily_GZ3       .         Gradient 225                  : 
TLFamily_IK1       .         Resistivity 05                : 
TLFamily_IK2       .         Resistivity 07                : 
TLFamily_IK3       .         Resistivity 10                : 
TLFamily_IK4       .         Resistivity 14                : 
TLFamily_IK5       .         Resistivity 20                : 
TLFamily_LLS       .         Lateral Log Resistivity       : 
TLFamily_MBK       .         Micro Lateral Log Resistivity : 
TLFamily_MINV      .         Micro Gradient Resistivity    : 
TLFamily_MNOR      .         Micro Resistivity             : 
TLFamily_NNKTB_1   .         Neutron Far                   : 
TLFamily_NNKTM_1   .         Neutron Near                  : 
TLFamily_NPHI      .         Neutron Porosity              : 
TLFamily_OGZ       .         Gradient Inverted 225         : 
TLFamily_PHIE      .         Effective Porosity            : 
TLFamily_PHIED     .         Effective Porosity            : 
TLFamily_PHIEN     .         Effective Porosity            : 
TLFamily_PHIES     .         Effective Porosity            : 
TLFamily_PHIT      .         Porosity                      : 
TLFamily_PRMB      .         Permeability                  : 
TLFamily_PRMB_DGR  .         Permeability                  : 
TLFamily_RHOB      .         Bulk Density                  : 
TLFamily_RT        .         Formation Resistivity         : 
TLFamily_SOIL_ARCHIE .         Oil Saturation                : 
TLFamily_SOIL_DW   .         Oil Saturation                : 
TLFamily_SP        .         Spontaneous Potential         : 
TLFamily_VSH_FIN   .         Shale Volume                  : 
TLFamily_VSH_GR    .         Shale Volume                  : 
TLFamily_VSH_SP    .         Shale Volume                  : 
~Curve Information
#_______________________________________________________________________________
#
#LOGNAME           .UNIT     LOG_ID                        : DESCRIPTION
#_______________________________________________________________________________
DEPT               .M                                      : Колонка глубины 
CALI               .м                                      : Каверномер 
CILD               .мСм/м                                  : Проводимость 
COLL               .unitless                               : Описание 
CSAT               .unitless                               : Описание 
DT                 .мкс/м                                  : Интервальное время пробега продольной волны 
GR                 .uR/h                                   : Гамма каротаж 
GZ3                .ohmm                                   : Градиент-зонд  длиной 2.25м 
IK1                .OHMM                                   : И0.10И0.40 
IK2                .OHMM                                   : И0.14И0.56 
IK3                .OHMM                                   : И0.20И0.8 
IK4                .OHMM                                   : И0.28И1.12 
IK5                .OHMM                                   : И0.40И1.60 
LLS                .ohmm                                   : Боковой каротаж 
MBK                .ohmm                                   : Микробоковой каротаж 
MINV               .ohmm                                   : Микро-градиент зонд 
MNOR               .ohmm                                   : Микро-потенциал зонд 
NNKTB_1            .у.е.                                   : Показания большого зонда 2ННКт аппаратуры СРК 
NNKTM_1            .у.е.                                   : Показания малого зонда 2ННКт аппаратуры СРК 
NPHI               .д.ед.                                  : Водородосодержание по НКТ 
OGZ                .ohmm                                   : Обращенный градиент-зонд 
PHIE               .д.ед.                                  : Описание 
PHIED              .д.ед.                                  :  
PHIEN              .д.ед.                                  :  
PHIES              .д.ед.                                  :  
PHIT               .д.ед.                                  : Описание 
PRMB               .mD                                     :  
PRMB_DGR           .mD                                     :  
RHOB               .G/C3                                   : Плотность по ГГКп 
RT                 .ohmm                                   : Удельное электрическое сопротивление 
SOIL_ARCHIE        .д.ед.                                  :  
SOIL_DW            .д.ед.                                  :  
SP                 .мВ                                     : Потенциал самополяризации 
VSH_FIN            .д.ед.                                  : Описание 
VSH_GR             .д.ед.                                  : Shale volume 
VSH_SP             .д.ед.                                  : Shale Volume 
~Ascii
# ...
1004.05    0.231      364.2899   -9999      -9999      269.719    6.82       2.72       2.258827129286698 2.458312429289927 2.679272289260922 2.683970938740041 2.740620367727162 2.85       2.94       3.035      3.24       2.84       1.52       0.185      3.84       0.03406721 -0.03227752 0.04327535 0.09120381 0.1261925  0.01197196 6.650439   2.565      2.745      0          0          206.52     0.4294687  0.299307   0.5596303 
1004.25    0.232      415.8      -9999      -9999      278.98     7.07       2.82       2.365861365338214 2.354357661868731 2.434584153402794 2.449918365986916 2.404745308759329 2.475      3.075      5.475      3.58       2.68       1.48       0.2        3.8        0.04929631 -0.01466093 0.05775782 0.104792   0.141758   0.02292162 5.419803   2.535      2.405      0          0          205.78     0.4310369  0.32539    0.5366839 
1004.45    0.232      407.33     -9999      -9999      277.418    7.43       2.78       2.040220576310544 2.274335067662697 2.48439127353167 2.534876722840806 2.454383833062854 2.535      2.475      2.815      2.985      2.61       1.44       0.199      3.88       0.03815528 -0.02237346 0.04527031 0.09156898 0.1380841  0.01425235 4.036595   2.535      2.455      0          0          206.68     0.4658476  0.3669932  0.5647019 
1004.65    0.23       374.53     -9999      -9999      270.337    7.26       2.87       2.32       2.534995069028729 2.834254752134956 2.743355609467975 2.668801229016412 2.72       3.455      5.885      4.37       2.68       1.46       0.193      3.93       0.02613189 -0.03398997 0.03534626 0.07703938 0.1286115  0.008534618 4.639214   2.55       2.67       0          0          208.02     0.4777386  0.346723   0.6087542 
1004.85    0.23       338.4      -9999      -9999      266.186    6.9        3.03       2.720294101746827 2.80499554366848 3.094995961225157 3.0345016065246 2.954657340538883 2.87       4.245      7.14       4.71       2.78       1.47       0.18       3.93       0.02433205 -0.03035331 0.02776292 0.07558654 0.1232907  0.007903995 6.228923   2.55       2.955      0          0          208.21     0.4613245  0.3074177  0.6152313 
1005.05    0.231      321.54     -9999      -9999      265.629    6.6        3.24       2.703405260037451 2.850228061050366 3.083536930214933 3.199609351155174 3.10985530210005 2.92       3.305      4.835001   4.19       2.87       1.49       0.172      3.91       0.03034993 -0.01676832 0.02661895 0.08119917 0.1248519  0.01021674 7.962573   2.535      3.11       0          0          207.85     0.4405487  0.2780891  0.6030082 
1005.25    0.23       322.58     -9999      -9999      265.552    6.76       3.49       3.179622619116929 3.292992559967302 3.338502658378453 3.284356862461812 3.099854835310841 2.9        5.655001   6.23       4.264999   2.95       1.51       0.166      3.82       0.02633951 -0.01382657 0.01608164 0.07676346 0.1237909  0.008610526 6.985192   2.525      3.1        0          0          208.21     0.454298   0.2933648  0.6152313 
1005.45    0.23       344.23     -9999      -9999      271.038    7.01       3.59       2.357880404091663 2.622479742533642 2.77820085666954 2.821772492600907 2.904031680267883 2.81       2.96       3.98       3.27       2.91       1.53       0.178      3.76       0.02194304 -0.02251102 0.01514651 0.07319362 0.1278026  0.007138324 5.692612   2.525      2.905      0          0          209.7      0.4934954  0.3189299  0.668061  
1005.65    0.231      362.97     -9999      -9999      278.612    7.35       3.7        2.199636333578849 2.409917011019282 2.604995201531095 2.60998084284156 2.754995462791176 2.72       2.935      3.9        3.29       2.77       1.5        0.191      3.73       0.01242595 -0.04054578 0.01020338 0.06762023 0.1299491  0.004756819 4.309755   2.535      2.755      0          0          211.54     0.5478685  0.3573107  0.7384264 
1005.85    0.231      342.46     -9999      -9999      271.322    7.64       3.88       2.183712435280885 2.473863375370682 2.738174574420087 2.808558349046816 2.918903903865376 2.86       2.895      3.85       3.35       2.68       1.47       0.197      3.75       0.01       -0.06110495 0.003419143 0.04444169 0.1214186  0.00428926 3.399122   2.555      2.92       0          0          212.55     0.5866086  0.3936764  0.7795409 
1006.05    0.229      301.65     -9999      -9999      250.651    7.28       4.07       2.680149249575217 3.016620625799416 3.39617431825843 3.450043477986698 3.312249990565172 3.105      3.45       4.555      3.765      2.85       1.5        0.178      3.8        0.01       -0.06514309 0          0.01666553 0.1021485  0.00428926 4.563889   2.57       3.315      0          0          212.55     0.5642946  0.3490484  0.7795409 
1006.25    0.229      269.17     -9999      -9999      238.218    6.4        4.32       4.122426469932484 4.162114847045911 4.289813515760329 4.094630630472057 3.714835124201342 3.315      6.765      7.76       6.455      3.11       1.56       0.158      3.77       0.01       -0.05854878 0          0.01065013 0.08973961 0.00428926 9.378791   2.58       3.715      0          0          211.95     0.5075042  0.2601083  0.7549001 
1006.45    0.229      287.35     -9999      -9999      246.954    5.82       4.37       3.140764238206474 3.36416408636635 3.457831690524755 3.446998694516457 3.476765738441233 3.2        4.510001   6.5        4.025      3.13       1.59       0.163      3.53       0.01       -0.04539131 0.001742888 0.03354719 0.1014548  0.00428926 15.07711   2.565      3.48       0          0          212.15     0.4886579  0.2142731  0.7630428 
1006.65    0.231      336.13     -9999      -9999      268.809    6.26       4.11       2.333795192385227 2.549509756796449 2.68970258578904 2.808860979116003 2.973482806407436 2.745      2.94       3.7        3.375      2.87       1.53       0.184      3.15       0.01454209 -0.0332921 0.01400744 0.06291091 0.1250423  0.005206102 10.5175    2.535      2.975      0          0          212.61     0.515129   0.248218   0.7820399 
1006.85    0.232      350.2599   -9999      -9999      277.018    7.15       3.87       2.199909089030704 2.579302231224629 2.788548009269443 2.789354764098748 2.854890540808905 2.555      2.995      3.88       3.425      2.66       1.44       0.19       2.95       0.01371608 -0.02978445 0.007394114 0.06353859 0.1324153  0.005025892 5.076286   2.515      2.855      0          0          212.38     0.5533512  0.3342075  0.7724948 
1007.05    0.231      343.64     -9999      -9999      276.41     7.58       3.64       2.549509756796336 2.88       3.109983922788015 2.979983221429264 2.909982817818701 2.545      3.725      6.155      4.09       2.68       1.44       0.187      3.05       0.01       -0.031556  0          0.05588628 0.130522   0.00428926 3.570219   2.51       2.91       0          0          212.17     0.5748609  0.3858606  0.7638611 
1007.25    0.231      366.2999   -9999      -9999      284.587    7.36       3.47       2.188149903457256 2.421239352067449 2.699962962708933 2.726407893181062 2.728167883397208 2.445      3.09       3.695      3.24       2.63       1.46       0.202      3.16       0.01528109 -0.03892275 0.01470192 0.07006409 0.1370304  0.005372801 4.274621   2.525      2.73       0          0          212.48     0.56757    0.3585069  0.776633  
1007.45    0.232      423.72     -9999      -9999      298.457    7.64       3.23       1.828250529878131 2.049390153191863 2.214046069981307 2.324091220240646 2.3586436780488 2.25       2.555      3.275      2.99       2.49       1.42       0.215      3.34       0.01675068 -0.04813464 0.01844051 0.07994617 0.1445202  0.005720332 3.399122   2.53       2.36       0          0          212.98     0.5956348  0.3936764  0.7975933 
1007.65    0.231      461.89     -9999      -9999      311.078    8.24       2.97       1.77493661858672 2          2.109976303184481 2.184856974724004 2.164855653386646 2.145      2.63       3.125      2.89       2.3        1.37       0.238      3.62       0.01764831 -0.05509118 0.02661968 0.08141643 0.1550518  0.005943572 2.08011    2.525      2.165      0          0          213.18     0.6405464  0.4810929  0.8       
