~Version
 VERS              .         2.0                           : CWLS LOG ASCII STANDARD - VERSION 2.0
 WRAP              .         NO                            : ONE LINE PER DEPTH STEP
 DLM               .         SPACE                         : DELIMITING CHARACTER(SPACE TAB OR COMMA)
~Well Information
#_______________________________________________________________________________
#
#PARAMETER_NAME    .UNIT     VALUE                         : DESCRIPTION
#_______________________________________________________________________________
STRT               .M        0.25                          : First reference value
STOP               .M        1174.65                       : Last reference value
STEP               .M        0.2                           : Step increment
NULL               .         -9999                         : Missing value
COMP               .                                       : Company
WELL               .         7169                          : Well name
FLD                .         Узень                         : Field
LOC                .                                       : Location
CNTY               .                                       : County
STAT               .                                       : State
CTRY               .                                       : Country
SRVC               .                                       : Service Company
DATE               .                                       : Date
UWI                .                                       : Unique Well ID
Block              .         6а                            : 
Category           .         Нефтяная                      : 
Condition          .         В работе                      : 
Date               .         29.04.2017                    : 
EREF               .m        88.4                          : 100.8
GRP                .                                       : Group name
Gorizont           .         15                            : 14
ISS                .                                       : Well surveys
Interpretator      .         Бекбулатова А.А.              : 
Kupol              .         Основной                      : osnovnoi
Mud                .         Полимерный                    : 
Mud_density        .         1.36                          : 
Mud_resistivity    .         0.35                          : 
NGDU               .         НГДУ-2                        : 
ORIGINALWELLNAME   .         7169                          : 
Spud_date          .         2017                          : 1961
TIME               .         11_03                         : LOG TIME
Viscosity          .         40                            : 
X                  .m        42538.74                      : 46154
Y                  .m        84287.88                      : 85761.93
YEAR               .         2018                          : 
Исправ_15гор       .         Исправ.15гор                  : 
~Parameter Information Block
#_______________________________________________________________________________
#
#PARAMETER_NAME    .UNIT     VALUE                         : DESCRIPTION
#_______________________________________________________________________________
SET                .         LQC_KAZNIPI_Petrel            : 
TLFamily_CALI      .         Caliper                       : 
TLFamily_CILD      .         Conductivity                  : 
TLFamily_COLL      .         Net Reservoir Flag            : 
TLFamily_CSAT      .         Fluid Code                    : 
TLFamily_DEPT      .         Measured Depth                : 
TLFamily_DT        .         Compressional Slowness        : 
TLFamily_GR        .         Russian Gamma Ray             : 
TLFamily_GZ3       .         Gradient 225                  : 
TLFamily_IK1       .         Resistivity 05                : 
TLFamily_IK2       .         Resistivity 07                : 
TLFamily_IK3       .         Resistivity 10                : 
TLFamily_IK4       .         Resistivity 14                : 
TLFamily_IK5       .         Resistivity 20                : 
TLFamily_LLS       .         Lateral Log Resistivity       : 
TLFamily_MBK       .         Micro Lateral Log Resistivity : 
TLFamily_MINV      .         Micro Gradient Resistivity    : 
TLFamily_MNOR      .         Micro Resistivity             : 
TLFamily_NNKTB_1   .         Neutron Far                   : 
TLFamily_NNKTM_1   .         Neutron Near                  : 
TLFamily_NPHI      .         Neutron Porosity              : 
TLFamily_OGZ       .         Gradient Inverted 225         : 
TLFamily_PHIE      .         Effective Porosity            : 
TLFamily_PHIED     .         Effective Porosity            : 
TLFamily_PHIEN     .         Effective Porosity            : 
TLFamily_PHIES     .         Effective Porosity            : 
TLFamily_PHIT      .         Porosity                      : 
TLFamily_PRMB      .         Permeability                  : 
TLFamily_PRMB_DGR  .         Permeability                  : 
TLFamily_RHOB      .         Bulk Density                  : 
TLFamily_RT        .         Formation Resistivity         : 
TLFamily_SOIL_ARCHIE .         Oil Saturation                : 
TLFamily_SOIL_DW   .         Oil Saturation                : 
TLFamily_SP        .         Spontaneous Potential         : 
TLFamily_VSH_FIN   .         Shale Volume                  : 
TLFamily_VSH_GR    .         Shale Volume                  : 
TLFamily_VSH_SP    .         Shale Volume                  : 
~Curve Information
#_______________________________________________________________________________
#
#LOGNAME           .UNIT     LOG_ID                        : DESCRIPTION
#_______________________________________________________________________________
DEPT               .M                                      : Колонка глубины 
CALI               .м                                      : Каверномер 
CILD               .мСм/м                                  : Проводимость 
COLL               .unitless                               : Описание 
CSAT               .unitless                               : Описание 
DT                 .мкс/м                                  : Интервальное время пробега продольной волны 
GR                 .uR/h                                   : Гамма каротаж 
GZ3                .ohmm                                   : Градиент-зонд  длиной 2.25м 
IK1                .OHMM                                   : И0.10И0.40 
IK2                .OHMM                                   : И0.14И0.56 
IK3                .OHMM                                   : И0.20И0.8 
IK4                .OHMM                                   : И0.28И1.12 
IK5                .OHMM                                   : И0.40И1.60 
LLS                .ohmm                                   : Боковой каротаж 
MBK                .ohmm                                   : Микробоковой каротаж 
MINV               .ohmm                                   : Микро-градиент зонд 
MNOR               .ohmm                                   : Микро-потенциал зонд 
NNKTB_1            .у.е.                                   : Показания большого зонда 2ННКт аппаратуры СРК 
NNKTM_1            .у.е.                                   : Показания малого зонда 2ННКт аппаратуры СРК 
NPHI               .д.ед.                                  : Водородосодержание по НКТ 
OGZ                .ohmm                                   : Обращенный градиент-зонд 
PHIE               .д.ед.                                  : Описание 
PHIED              .д.ед.                                  :  
PHIEN              .д.ед.                                  :  
PHIES              .д.ед.                                  :  
PHIT               .д.ед.                                  : Описание 
PRMB               .mD                                     :  
PRMB_DGR           .mD                                     :  
RHOB               .G/C3                                   : Плотность по ГГКп 
RT                 .ohmm                                   : Удельное электрическое сопротивление 
SOIL_ARCHIE        .д.ед.                                  :  
SOIL_DW            .д.ед.                                  :  
SP                 .мВ                                     : Потенциал самополяризации 
VSH_FIN            .д.ед.                                  : Описание 
VSH_GR             .д.ед.                                  : Shale volume 
VSH_SP             .д.ед.                                  : Shale Volume 
~Ascii
# ...
1083.85    0.228      192.49     -9999      -9999      239.389    8.93       4.46       4.155057159656191 5.139581695042221 5.755414841695665 5.670925850335689 5.192687165620866 4.835001   6.275      3.5        4.25       3.09       1.56       0.161      6.07       0.06928229 0.07784434 0.05684363 0.0731589  0.136987   0.05375688 72.38499   2.54       5.195001   0          0.2180456  216.73     0.3156254  0.1129166  0.5183342 
1084.05    0.228      211.86     -9999      -9999      242.716    9.73       3.57       3.439636608713194 4.109951337911435 4.989959919678714 5.144880951003628 4.718940559066198 4.1        5.015      3.185      4.215      3.11       1.51       0.145      4.77       0.0590073  0.07784434 0.02988233 0.06929522 0.1338372  0.03468298 29.64494   2.54       4.72       0          0.1154778  217.29     0.3488414  0.1625802  0.5351026 
1084.25    0.228      221.48     -9999      -9999      247.867    10.11      2.96       3.299454500368205 4.10411988129002 5.064938301697269 5.159990310068422 4.514864339047188 3.695      4.69       3.53       4.23       3.07       1.49       0.145      4.09       0.06141376 0.08682629 0.0239557  0.0734593  0.1400962  0.03843172 19.39964   2.525      4.515      0          0.1341776  217.46     0.3668009  0.1933148  0.5402871 
1084.45    0.228      244.2      -9999      -9999      264.003    10.14      2.66       3.864065216840938 4.348057037344382 4.967091704408125 4.776504998427198 4.088251459976501 3.265      5.265      3.565      3.925      2.79       1.48       0.181      3.76       0.08866119 0.1017964  0.06126988 0.1029173  0.1664893  0.1228509  18.76094   2.5        4.095      0.04790539 0.2896772  217.11     0.3628185  0.1959755  0.5296615 
1084.65    0.228      331.12     -9999      -9999      285.344    10.27      2.65       2.692990902323249 2.811761014025499 3.109308604817552 3.1211536328724 3.001916054788258 2.6        2.745      2.02       2.57       2.45       1.44       0.231      3.83       0.1252388  0.1257485  0.112999   0.1369689  0.201943   0.5846347  16.22758   2.46       3.02       0.1869988  0.3580194  216.35     0.3575788  0.2079348  0.5072227 
1084.85    0.23       469.4799   -9999      -9999      295.005    10.78      2.76       1.577973383806132 1.707629936491129 1.844695096757503 1.924915582564915 2.126029162547225 2.36       1.485      1.455      2.51       2.26       1.38       0.251      3.96       0.1384215  0.1437125  0.1270784  0.1444734  0.2189742  1.025793   9.185358   2.43       2.13       0.1222138  0.3004396  215.7      0.3755199  0.2623312  0.4887086 
1085.05    0.23       501.25     -9999      -9999      293.144    11.59      2.87       1.384990974699835 1.619506097549497 1.724122965452291 1.798638373881754 1.993940821589247 2.535      1.68       1.44       2.41       2.18       1.33       0.251      4.27       0.09992724 0.06401199 0.1099919  0.1257779  0.1915867  0.1986337  3.720072   2.405      1.995      0          0.1084532  215.21     0.4272973  0.3794364  0.4751582 
1085.25    0.23       420.16     -9999      -9999      291.577    12.23      3.26       2.019801970491167 2.13473651769955 2.268259244442751 2.244994432064365 2.376972864800942 2.815      3.525      2.485      3.13       2.05       1.29       0.269      4.97       0.09622755 0.07045987 0.110839   0.1073838  0.1990369  0.169639   1.821348   2.375      2.38       0          0.1910222  214.29     0.4792757  0.5079104  0.450641  
1085.45    0.225      353.35     -9999      -9999      296.548    12.3       3.94       1.91468012994338 2.134713095476767 2.45495417472506 2.604611295375953 2.828869031963127 3.085      2.965      2.455      3.03       1.94       1.29       0.303      5.61       0.1119914  0.0744068  0.1462582  0.1153091  0.2138782  0.3322844  1.684492   2.37       2.83       0.07610504 0.3304833  213.3      0.474975   0.5243718  0.4255783 
1085.65    0.225      328.4      -9999      -9999      302.175    12.63      4.530001   2.471861646614423 2.631634473098897 2.82074458255298 2.873081968897054 3.044897371012748 3.18       4.01       2.7        3.47       1.91       1.3        0.319      6.010001   0.1078795  0.05862827 0.1521352  0.112875   0.2163466  0.2788356  1.165584   2.385      3.045      0.07774978 0.3497541  212.31     0.5056508  0.6094559  0.4018458 
1085.85    0.224      332.22     -9999      -9999      302.896    12.73      4.82       2.451020195755706 2.676845158017472 2.822658321512095 2.90890013579034 3.009734207534039 3.19       3.59       2.665      3.34       1.97       1.32       0.308      6.26       0.1008563  0.05136413 0.1392345  0.1119703  0.2105589  0.2066626  1.042513   2.395      3.01       0.0167412  0.3175996  211.57     0.5114106  0.6378682  0.384953  
1086.05    0.226      362.31     -9999      -9999      301.997    12.52      4.77       2.088827422263505 2.379915964902963 2.594763958436297 2.604880035625441 2.759710129705654 3.105      2.755      2.055      2.89       1.96       1.32       0.312      6.64       0.1108833  0.05387725 0.1558966  0.1228762  0.2123552  0.3169469  1.317806   2.405      2.76       0.0570516  0.316442   210.72     0.4730406  0.5796618  0.3664194 
1086.25    0.224      367.64     -9999      -9999      301.547    12.2       4.48       2.489919677419334 2.664957785781981 2.854890540808877 2.709704780967845 2.719981617584943 3.21       4.335      2.8        3.46       1.95       1.32       0.315      7.26       0.1290402  0.07611299 0.174178   0.1368295  0.2205787  0.6875358  1.883351   2.385      2.72       0.1680382  0.3660611  210.05     0.4267333  0.5010147  0.3524519 
1086.45    0.224      359.71     -9999      -9999      300.849    12.02      4.27       2.088827422263505 2.369240384595873 2.684771871127974 2.734995429612269 2.779928056623049 3.4        3.155      2.295      3.135      1.96       1.31       0.306      8.22       0.1398355  0.1003011  0.1744484  0.1447571  0.225348   1.08956    2.302307   2.355      2.78       0.2321667  0.4005182  209.21     0.3986411  0.4615628  0.3357195 
1086.65    0.225      340.71     -9999      -9999      302.671    11.95      4.25       2.278222991719848 2.493551683843943 2.843413441622802 2.983152694717691 2.934484622553121 3.72       3.57       2.755      3.525      1.99       1.31       0.297      9.26       0.1879759  0.2005988  0.1915161  0.1718128  0.2565435  8.490392   2.489357   2.335      2.935      0.4214972  0.5211657  208.36     0.319648   0.4470731  0.3196479 
1086.85    0.224      303.49     8          2          304.919    11.8       4.39       2.43       2.769711176278042 3.149428519588775 3.433394821455634 3.292233284565051 4.26       4.665      3.1        3.83       2.05       1.3        0.273      10.32      0.1895308  0.2125748  0.1746452  0.1813725  0.2534644  9.072541   2.942934   2.315      3.295      0.4559858  0.5464347  207.14     0.298045   0.4175375  0.2980451 
1087.05    0.223      256.08     8          2          306.809    12.15      4.650001   2.424376208429707 2.928617421241634 3.505880773785669 3.94715087119811 3.900615336071989 4.79       4.455      2.545      3.48       2.03       1.31       0.284      11.48      0.2037607  0.2245509  0.194569   0.1921622  0.2618935  16.64563   1.991419   2.295      3.905      0.528359   0.6034002  205.46     0.271003   0.4897293  0.2710033 
1087.25    0.223      207.46     8          2          310.447    12.37      4.95       3.03344688432153 3.864867397466568 4.762352359916263 5.053236586584879 4.809365862564419 5.614999   6.585      3.16       4.3        1.97       1.31       0.303      12.14      0.2236781  0.239521   0.2245494  0.206964   0.2746733  38.92422   1.557921   2.27       4.82       0.6060579  0.6660998  203.08     0.237729   0.5413666  0.2377293 
1087.45    0.222      169.2      1          2          316.713    11.5       5.22       4.046838272034107 5.356883422289495 6.493966430464512 6.288990380021263 5.906267857115862 6.255      8.785      3.47       4.6        1.96       1.29       0.296      12.26      0.2318796  0.251497   0.2238762  0.2202657  0.2787623  55.22443   4.113083   2.25       5.91       0.6530533  0.705537   201.49     0.218557   0.3641909  0.2185572 
