~Version
 VERS              .         2.0                           : CWLS LOG ASCII STANDARD - VERSION 2.0
 WRAP              .         NO                            : ONE LINE PER DEPTH STEP
 DLM               .         SPACE                         : DELIMITING CHARACTER(SPACE TAB OR COMMA)
~Well Information
#_______________________________________________________________________________
#
#PARAMETER_NAME    .UNIT     VALUE                         : DESCRIPTION
#_______________________________________________________________________________
STRT               .M        0.25                          : First reference value
STOP               .M        1174.65                       : Last reference value
STEP               .M        0.2                           : Step increment
NULL               .         -9999                         : Missing value
COMP               .                                       : Company
WELL               .         7169                          : Well name
FLD                .         Узень                         : Field
LOC                .                                       : Location
CNTY               .                                       : County
STAT               .                                       : State
CTRY               .                                       : Country
SRVC               .                                       : Service Company
DATE               .                                       : Date
UWI                .                                       : Unique Well ID
Block              .         6а                            : 
Category           .         Нефтяная                      : 
Condition          .         В работе                      : 
Date               .         29.04.2017                    : 
EREF               .m        88.4                          : 100.8
GRP                .                                       : Group name
Gorizont           .         15                            : 14
ISS                .                                       : Well surveys
Interpretator      .         Бекбулатова А.А.              : 
Kupol              .         Основной                      : osnovnoi
Mud                .         Полимерный                    : 
Mud_density        .         1.36                          : 
Mud_resistivity    .         0.35                          : 
NGDU               .         НГДУ-2                        : 
ORIGINALWELLNAME   .         7169                          : 
Spud_date          .         2017                          : 1961
TIME               .         11_03                         : LOG TIME
Viscosity          .         40                            : 
X                  .m        42538.74                      : 46154
Y                  .m        84287.88                      : 85761.93
YEAR               .         2018                          : 
Исправ_15гор       .         Исправ.15гор                  : 
~Parameter Information Block
#_______________________________________________________________________________
#
#PARAMETER_NAME    .UNIT     VALUE                         : DESCRIPTION
#_______________________________________________________________________________
SET                .         LQC_KAZNIPI_Petrel            : 
TLFamily_CALI      .         Caliper                       : 
TLFamily_CILD      .         Conductivity                  : 
TLFamily_COLL      .         Net Reservoir Flag            : 
TLFamily_CSAT      .         Fluid Code                    : 
TLFamily_DEPT      .         Measured Depth                : 
TLFamily_DT        .         Compressional Slowness        : 
TLFamily_GR        .         Russian Gamma Ray             : 
TLFamily_GZ3       .         Gradient 225                  : 
TLFamily_IK1       .         Resistivity 05                : 
TLFamily_IK2       .         Resistivity 07                : 
TLFamily_IK3       .         Resistivity 10                : 
TLFamily_IK4       .         Resistivity 14                : 
TLFamily_IK5       .         Resistivity 20                : 
TLFamily_LLS       .         Lateral Log Resistivity       : 
TLFamily_MBK       .         Micro Lateral Log Resistivity : 
TLFamily_MINV      .         Micro Gradient Resistivity    : 
TLFamily_MNOR      .         Micro Resistivity             : 
TLFamily_NNKTB_1   .         Neutron Far                   : 
TLFamily_NNKTM_1   .         Neutron Near                  : 
TLFamily_NPHI      .         Neutron Porosity              : 
TLFamily_OGZ       .         Gradient Inverted 225         : 
TLFamily_PHIE      .         Effective Porosity            : 
TLFamily_PHIED     .         Effective Porosity            : 
TLFamily_PHIEN     .         Effective Porosity            : 
TLFamily_PHIES     .         Effective Porosity            : 
TLFamily_PHIT      .         Porosity                      : 
TLFamily_PRMB      .         Permeability                  : 
TLFamily_PRMB_DGR  .         Permeability                  : 
TLFamily_RHOB      .         Bulk Density                  : 
TLFamily_RT        .         Formation Resistivity         : 
TLFamily_SOIL_ARCHIE .         Oil Saturation                : 
TLFamily_SOIL_DW   .         Oil Saturation                : 
TLFamily_SP        .         Spontaneous Potential         : 
TLFamily_VSH_FIN   .         Shale Volume                  : 
TLFamily_VSH_GR    .         Shale Volume                  : 
TLFamily_VSH_SP    .         Shale Volume                  : 
~Curve Information
#_______________________________________________________________________________
#
#LOGNAME           .UNIT     LOG_ID                        : DESCRIPTION
#_______________________________________________________________________________
DEPT               .M                                      : Колонка глубины 
CALI               .м                                      : Каверномер 
CILD               .мСм/м                                  : Проводимость 
COLL               .unitless                               : Описание 
CSAT               .unitless                               : Описание 
DT                 .мкс/м                                  : Интервальное время пробега продольной волны 
GR                 .uR/h                                   : Гамма каротаж 
GZ3                .ohmm                                   : Градиент-зонд  длиной 2.25м 
IK1                .OHMM                                   : И0.10И0.40 
IK2                .OHMM                                   : И0.14И0.56 
IK3                .OHMM                                   : И0.20И0.8 
IK4                .OHMM                                   : И0.28И1.12 
IK5                .OHMM                                   : И0.40И1.60 
LLS                .ohmm                                   : Боковой каротаж 
MBK                .ohmm                                   : Микробоковой каротаж 
MINV               .ohmm                                   : Микро-градиент зонд 
MNOR               .ohmm                                   : Микро-потенциал зонд 
NNKTB_1            .у.е.                                   : Показания большого зонда 2ННКт аппаратуры СРК 
NNKTM_1            .у.е.                                   : Показания малого зонда 2ННКт аппаратуры СРК 
NPHI               .д.ед.                                  : Водородосодержание по НКТ 
OGZ                .ohmm                                   : Обращенный градиент-зонд 
PHIE               .д.ед.                                  : Описание 
PHIED              .д.ед.                                  :  
PHIEN              .д.ед.                                  :  
PHIES              .д.ед.                                  :  
PHIT               .д.ед.                                  : Описание 
PRMB               .mD                                     :  
PRMB_DGR           .mD                                     :  
RHOB               .G/C3                                   : Плотность по ГГКп 
RT                 .ohmm                                   : Удельное электрическое сопротивление 
SOIL_ARCHIE        .д.ед.                                  :  
SOIL_DW            .д.ед.                                  :  
SP                 .мВ                                     : Потенциал самополяризации 
VSH_FIN            .д.ед.                                  : Описание 
VSH_GR             .д.ед.                                  : Shale volume 
VSH_SP             .д.ед.                                  : Shale Volume 
~Ascii
# ...
1137.05    0.226      722.0201   -9999      -9999      307.214    13.08      2.19       1.244989959798873 1.324990566004151 1.39       1.389964028311524 1.384990974699835 1.51       1.68       1.78       2.315      1.79       1.25       0.337      1.24       0.07980104 0.006355018 0.1413305  0.09171762 0.206992   0.08419123 1.104014   2.44       1.385      0          0          220.22     0.592938   0.6231121  0.5627638 
1137.25    0.226      727.2701   -9999      -9999      308.377    12.99      1.5        1.239959676763724 1.324990566004151 1.38       1.374990909060856 1.374990909060856 1.495      1.63       1.82       2.32       1.96       1.26       0.282      1.11       0.06401338 0.00572409 0.08985007 0.09646597 0.1889165  0.04293793 1.21486    2.445      1.375      0          0          220.3      0.5822725  0.5992379  0.5653072 
1137.45    0.226      735.29     -9999      -9999      311.068    12.47      1.14       1.204906635387157 1.304990421420786 1.364990842460125 1.37       1.36       1.485      1.69       1.85       2.29       2.06       1.26       0.252      1.11       0.06931709 0.009978766 0.0795657  0.1184068  0.1814045  0.05383673 2.111555   2.46       1.36       0          0          220.35     0.5225282  0.4781544  0.5669019 
1137.65    0.226      729.92     -9999      -9999      312.75     12.06      1.02       1.269842509920075 1.339962686047661 1.389964028311547 1.38       1.37       1.48       1.715      2.01       2.285      2.05       1.27       0.26       1.19       0.08022428 0.01357648 0.09738369 0.1297127  0.1859297  0.08572476 3.265077   2.465      1.37       0          0          220.92     0.4927767  0.4001975  0.5853559 
1137.85    0.226      724.6299   -9999      -9999      313.479    12.11      1.03       1.259960316835438 1.319962120668643 1.374918179383811 1.384990974699847 1.38       1.48       1.635      1.985      2.305      2.12       1.27       0.241      1.28       0.06832363 0.004626667 0.07397223 0.126372   0.1768966  0.0516033  3.096061   2.475      1.38       0          0          221.46     0.5061448  0.4089783  0.6033112 
1138.05    0.226      727.2701   -9999      -9999      313.777    12.26      1.07       1.24       1.304990421420786 1.35       1.37       1.374990909060856 1.465      1.725      2.02       2.335      2.11       1.27       0.243      1.39       0.06497563 0.005907748 0.06896143 0.1200577  0.1781059  0.04473675 2.63971    2.465      1.375      0          0          221.9      0.5273896  0.4364943  0.6182848 
1138.25    0.226      727.2701   -9999      -9999      314.018    12.66      1.23       1.224989795875868 1.314990494262221 1.364990842460125 1.384990974699835 1.374990909060856 1.445      1.7        1.965      2.315      1.93       1.27       0.296      1.54       0.07070357 -0.00110962 0.10705    0.1061703  0.1935267  0.05711626 1.72537    2.46       1.375      0          0          222.12     0.5725757  0.5192627  0.6258888 
1138.45    0.226      754.7101   -9999      -9999      314.78     12.68      1.46       1.244989959798873 1.284211820534292 1.339850737955538 1.334541119636259 1.324764129949177 1.425      1.595      1.845      2.285      1.81       1.27       0.34       1.72       0.08455955 -0.001958358 0.1497858  0.1058512  0.2082044  0.103135   1.689073   2.46       1.325      0          0          222.21     0.5764065  0.5237906  0.6290225 
1138.65    0.227      800        -9999      -9999      316.248    12.33      1.81       1.018233764908765 1.114899098573533 1.204906635387123 1.224908159822571 1.249959999359957 1.405      1.58       1.815      2.28       1.8        1.27       0.344      1.99       0.09629223 0.005599703 0.1650433  0.1182337  0.2126194  0.1701076  2.450409   2.46       1.25       0          0          222.37     0.5422931  0.4499612  0.634625  
1138.85    0.227      806.45     -9999      -9999      318.019    12.28      2.11       1.11       1.214989711890587 1.274911761652513 1.249839989758644 1.239959676763702 1.42       1.79       1.86       2.22       1.82       1.27       0.336      2.26       0.09663729 0.009625025 0.1585793  0.1217076  0.211966   0.1726295  2.584181   2.455      1.24       0          0          222.38     0.5376386  0.4403003  0.6349769 
1139.05    0.227      772.2001   -9999      -9999      319.059    12.59      2.36       1.174734012447073 1.25475097130865 1.319848476151714 1.304913790255893 1.294990347454374 1.465      1.785      1.885      2.435      1.82       1.26       0.33       2.36       0.0900379  0.01247248 0.1434422  0.114199   0.211306   0.1302802  1.858662   2.44       1.295      0          0          222.15     0.5653268  0.5037218  0.6269317 
1139.25    0.227      754.7101   -9999      -9999      320.941    12.75      2.43       1.25       1.3        1.364990842460125 1.35       1.324990566004151 1.48       1.8        1.87       2.465      1.87       1.25       0.307      2.41       0.07819909 0.008728408 0.1148655  0.1110033  0.2030922  0.0786312  1.567944   2.44       1.325      0          0          222.08     0.5822257  0.5399507  0.6245007 
1139.45    0.227      760.45     -9999      -9999      323.524    13.07      2.36       1.149608629055993 1.229837387624884 1.279843740462093 1.319848476151714 1.314990494262221 1.48       1.74       1.85       2.405      1.86       1.25       0.31       2.59       0.06453193 -0.007724073 0.1022791  0.09904073 0.1995567  0.04389812 1.115813   2.45       1.315      0          0          222.48     0.6294572  0.6204131  0.6385013 
1139.65    0.227      769.2299   -9999      -9999      326.66     13.09      2.25       1.179830496300256 1.249839989758735 1.304760514424064 1.309847319346846 1.3        1.485      1.715      1.76       2.37       1.74       1.25       0.357      2.74       0.07461436 -0.01733845 0.1438778  0.09730371 0.2131501  0.06748341 1.092339   2.46       1.3        0          0          223.24     0.6458248  0.625823   0.6658266 
1139.85    0.227      749.0599   -9999      -9999      329.679    13.06      2.18       1.234908903522813 1.309961831505003 1.379963767640273 1.369963503163474 1.334915727677185 1.495      1.64       1.45       2.335      1.71       1.25       0.371      2.79       0.08350503 -0.008232665 0.158062   0.1006857  0.221921   0.09859931 1.127738   2.445      1.335      0          0          223.43     0.6452665  0.617726   0.672807  
1140.05    0.227      724.6299   -9999      -9999      329.615    12.95      2.05       1.234989878501035 1.324990566004151 1.384990974699835 1.394991039397745 1.38       1.51       1.765      1.68       2.385      1.76       1.25       0.349      2.79       0.08101425 -0.0000403 0.1393453  0.1037378  0.217296   0.08866218 1.267633   2.435      1.38       0          0          223.67     0.6353173  0.5889229  0.6817117 
1140.25    0.229      722.0201   -9999      -9999      327.341    13.06      1.87       1.224989795875868 1.32       1.374990909060856 1.39       1.384990974699835 1.51       1.675      1.67       2.35       1.86       1.23       0.3        2.66       0.06244911 0.005544005 0.08528468 0.09651865 0.2020205  0.04016679 1.127738   2.42       1.385      0          0          223.72     0.6506525  0.617726   0.6835791 
1140.45    0.228      727.2701   -9999      -9999      323.754    13.09      1.67       1.224908159822605 1.339962686047638 1.389964028311524 1.39       1.374990909060856 1.525      1.685      1.795      2.37       1.88       1.23       0.293      2.51       0.05846348 0.005266168 0.07787085 0.09225341 0.1983038  0.03388781 1.092339   2.42       1.375      0          0          223.57     0.6519065  0.625823   0.6779901 
1140.65    0.228      719.4199   -9999      -9999      320.608    12.7       1.44       1.259960316835393 1.37       1.42       1.41       1.39       1.555      1.785      1.74       2.34       1.89       1.23       0.289      2.39       0.07073007 0.01437624 0.09189927 0.1059147  0.1988514  0.05718084 1.653541   2.425      1.39       0          0          223.25     0.597275   0.5283577  0.6661923 
