~Version
 VERS              .         2.0                           : CWLS LOG ASCII STANDARD - VERSION 2.0
 WRAP              .         NO                            : ONE LINE PER DEPTH STEP
 DLM               .         SPACE                         : DELIMITING CHARACTER(SPACE TAB OR COMMA)
~Well Information
#_______________________________________________________________________________
#
#PARAMETER_NAME    .UNIT     VALUE                         : DESCRIPTION
#_______________________________________________________________________________
STRT               .M        0.25                          : First reference value
STOP               .M        1174.65                       : Last reference value
STEP               .M        0.2                           : Step increment
NULL               .         -9999                         : Missing value
COMP               .                                       : Company
WELL               .         7169                          : Well name
FLD                .         Узень                         : Field
LOC                .                                       : Location
CNTY               .                                       : County
STAT               .                                       : State
CTRY               .                                       : Country
SRVC               .                                       : Service Company
DATE               .                                       : Date
UWI                .                                       : Unique Well ID
Block              .         6а                            : 
Category           .         Нефтяная                      : 
Condition          .         В работе                      : 
Date               .         29.04.2017                    : 
EREF               .m        88.4                          : 100.8
GRP                .                                       : Group name
Gorizont           .         15                            : 14
ISS                .                                       : Well surveys
Interpretator      .         Бекбулатова А.А.              : 
Kupol              .         Основной                      : osnovnoi
Mud                .         Полимерный                    : 
Mud_density        .         1.36                          : 
Mud_resistivity    .         0.35                          : 
NGDU               .         НГДУ-2                        : 
ORIGINALWELLNAME   .         7169                          : 
Spud_date          .         2017                          : 1961
TIME               .         11_03                         : LOG TIME
Viscosity          .         40                            : 
X                  .m        42538.74                      : 46154
Y                  .m        84287.88                      : 85761.93
YEAR               .         2018                          : 
Исправ_15гор       .         Исправ.15гор                  : 
~Parameter Information Block
#_______________________________________________________________________________
#
#PARAMETER_NAME    .UNIT     VALUE                         : DESCRIPTION
#_______________________________________________________________________________
SET                .         LQC_KAZNIPI_Petrel            : 
TLFamily_CALI      .         Caliper                       : 
TLFamily_CILD      .         Conductivity                  : 
TLFamily_COLL      .         Net Reservoir Flag            : 
TLFamily_CSAT      .         Fluid Code                    : 
TLFamily_DEPT      .         Measured Depth                : 
TLFamily_DT        .         Compressional Slowness        : 
TLFamily_GR        .         Russian Gamma Ray             : 
TLFamily_GZ3       .         Gradient 225                  : 
TLFamily_IK1       .         Resistivity 05                : 
TLFamily_IK2       .         Resistivity 07                : 
TLFamily_IK3       .         Resistivity 10                : 
TLFamily_IK4       .         Resistivity 14                : 
TLFamily_IK5       .         Resistivity 20                : 
TLFamily_LLS       .         Lateral Log Resistivity       : 
TLFamily_MBK       .         Micro Lateral Log Resistivity : 
TLFamily_MINV      .         Micro Gradient Resistivity    : 
TLFamily_MNOR      .         Micro Resistivity             : 
TLFamily_NNKTB_1   .         Neutron Far                   : 
TLFamily_NNKTM_1   .         Neutron Near                  : 
TLFamily_NPHI      .         Neutron Porosity              : 
TLFamily_OGZ       .         Gradient Inverted 225         : 
TLFamily_PHIE      .         Effective Porosity            : 
TLFamily_PHIED     .         Effective Porosity            : 
TLFamily_PHIEN     .         Effective Porosity            : 
TLFamily_PHIES     .         Effective Porosity            : 
TLFamily_PHIT      .         Porosity                      : 
TLFamily_PRMB      .         Permeability                  : 
TLFamily_PRMB_DGR  .         Permeability                  : 
TLFamily_RHOB      .         Bulk Density                  : 
TLFamily_RT        .         Formation Resistivity         : 
TLFamily_SOIL_ARCHIE .         Oil Saturation                : 
TLFamily_SOIL_DW   .         Oil Saturation                : 
TLFamily_SP        .         Spontaneous Potential         : 
TLFamily_VSH_FIN   .         Shale Volume                  : 
TLFamily_VSH_GR    .         Shale Volume                  : 
TLFamily_VSH_SP    .         Shale Volume                  : 
~Curve Information
#_______________________________________________________________________________
#
#LOGNAME           .UNIT     LOG_ID                        : DESCRIPTION
#_______________________________________________________________________________
DEPT               .M                                      : Колонка глубины 
CALI               .м                                      : Каверномер 
CILD               .мСм/м                                  : Проводимость 
COLL               .unitless                               : Описание 
CSAT               .unitless                               : Описание 
DT                 .мкс/м                                  : Интервальное время пробега продольной волны 
GR                 .uR/h                                   : Гамма каротаж 
GZ3                .ohmm                                   : Градиент-зонд  длиной 2.25м 
IK1                .OHMM                                   : И0.10И0.40 
IK2                .OHMM                                   : И0.14И0.56 
IK3                .OHMM                                   : И0.20И0.8 
IK4                .OHMM                                   : И0.28И1.12 
IK5                .OHMM                                   : И0.40И1.60 
LLS                .ohmm                                   : Боковой каротаж 
MBK                .ohmm                                   : Микробоковой каротаж 
MINV               .ohmm                                   : Микро-градиент зонд 
MNOR               .ohmm                                   : Микро-потенциал зонд 
NNKTB_1            .у.е.                                   : Показания большого зонда 2ННКт аппаратуры СРК 
NNKTM_1            .у.е.                                   : Показания малого зонда 2ННКт аппаратуры СРК 
NPHI               .д.ед.                                  : Водородосодержание по НКТ 
OGZ                .ohmm                                   : Обращенный градиент-зонд 
PHIE               .д.ед.                                  : Описание 
PHIED              .д.ед.                                  :  
PHIEN              .д.ед.                                  :  
PHIES              .д.ед.                                  :  
PHIT               .д.ед.                                  : Описание 
PRMB               .mD                                     :  
PRMB_DGR           .mD                                     :  
RHOB               .G/C3                                   : Плотность по ГГКп 
RT                 .ohmm                                   : Удельное электрическое сопротивление 
SOIL_ARCHIE        .д.ед.                                  :  
SOIL_DW            .д.ед.                                  :  
SP                 .мВ                                     : Потенциал самополяризации 
VSH_FIN            .д.ед.                                  : Описание 
VSH_GR             .д.ед.                                  : Shale volume 
VSH_SP             .д.ед.                                  : Shale Volume 
~Ascii
# ...
1057.25    0.228      464.03     -9999      -9999      286.987    9.58       2.53       2.280394702677587 2.440081965836394 2.451285377103204 2.30893915034589 2.154715758516654 2.155      4.22       4.54       4.25       2.01       1.3        0.285      2.32       0.09169798 -0.0090091 0.1556353  0.1284677  0.1757889  0.1398386  4.237012   2.54       2.155      0          0.06513995 207.74     0.3920141  0.3598029  0.4242254 
1057.45    0.228      466.2      -9999      -9999      291.86     9.36       2.19       1.791926337771729 2.006489471689299 2.164093343643014 2.156084413931885 2.144714433205503 2.16       2.49       3.225      3.045      1.99       1.34       0.311      2.36       0.1411178  0.08682629 0.1917726  0.1447546  0.2186192  1.150808   5.053067   2.525      2.145      0.1396773  0.3076428  206.19     0.361295   0.3348337  0.3877564 
1057.65    0.228      511.5      -9999      -9999      301.926    9.63       1.9        1.53479640343603 1.734819875376172 1.87       1.89       1.954840146917332 2.02       2.18       2.925      2.85       1.97       1.34       0.318      2.38       0.151087   0.09580839 0.1992123  0.1582403  0.2283025  1.760578   4.070752   2.51       1.955      0.1532717  0.3125372  204.63     0.3599629  0.3657326  0.3541931 
1057.85    0.229      510.2      -9999      -9999      310.641    10.19      1.75       1.699970587980885 1.954840146917332 2.004844133592378 2.014696006845618 1.959897956527283 1.99       2.565      3.405      3.175      1.95       1.31       0.31       2.4        0.1138776  0.000537181 0.1814759  0.1596198  0.1974221  0.3601207  2.599919   2.525      1.96       0          0.1609235  203.91     0.3894671  0.43921    0.3397241 
1058.05    0.228      492.61     -9999      -9999      315.689    9.96       1.75       1.584929020492716 1.844830615530868 1.984993702760792 2.05       2.029975369308702 2.04       2.245      3.25       2.97       1.94       1.32       0.318      2.43       0.1468995  0.07784434 0.1935113  0.1693427  0.2278208  1.472626   3.125589   2.54       2.03       0.1474821  0.3167494  204.28     0.3772383  0.4073962  0.3470804 
1058.25    0.228      476.1901   -9999      -9999      313.826    9.85       1.86       1.85817114389391 2.12602916254693 2.168524844220144 2.149627874772747 2.09990475974507 2.035      2.945      4.105      3.89       1.88       1.33       0.346      2.45       0.1582041  0.08383235 0.2225764  0.1682034  0.238433   2.38496    3.413338   2.53       2.1        0.2134035  0.3655538  204.67     0.3740107  0.3930061  0.3550154 
1058.45    0.227      484.26     -9999      -9999      311.523    10.26      2.08       1.809972375479803 2.006414712864716 2.117144303064862 2.093991403993818 2.064703368525368 2          2.45       4.3        3.4        1.91       1.32       0.329      2.46       0.1228186  0.01340982 0.1973518  0.1576943  0.2083939  0.5272992  2.458216   2.5        2.065      0.01158024 0.2321621  204.35     0.3989341  0.4493771  0.3484911 
1058.65    0.228      537.6301   -9999      -9999      323.034    10.9       2.27       1.64996969669145 1.804826861502176 1.829562789302315 1.824171044611646 1.859032006179423 1.845      2.365      3.15       2.78       2.05       1.29       0.269      2.48       0.09864337 0.0157593  0.1230134  0.1571574  0.193539   0.1880497  1.472614   2.48       1.86       0          0.07778116 203.45     0.4423836  0.5539592  0.330808  
1058.85    0.228      604.22     -9999      -9999      346.387    11.21      2.32       1.3734627770713 1.553640885147034 1.604057355583148 1.604369034854615 1.654629867976601 1.705      1.885      2.51       2.55       2.04       1.27       0.262      2.47       0.09752539 0.008351093 0.1094385  0.1747866  0.1966949  0.1792936  1.148948   2.485      1.655      0          0.02775624 202.41     0.4623075  0.6130438  0.3115712 
1059.05    0.229      638.97     -9999      -9999      354.742    11.07      2.42       1.374772708486752 1.484789547377001 1.529869275461142 1.52499180325666 1.564992012759171 1.685      1.955      2.375      2.395      1.88       1.25       0.303      2.47       0.1158393  0.00324788 0.156216   0.1880542  0.2112533  0.3915469  1.285225   2.5        1.565      0          0.1047607  201.98     0.4448001  0.5856179  0.3039823 
1059.25    0.232      634.9199   -9999      -9999      341.526    10.85      2.45       1.349962962454897 1.48492424049175 1.569872606296447 1.569968152543229 1.574992063472067 1.735      2.04       2.59       2.47       1.73       1.24       0.356      2.49       0.1384118  0.01466767 0.2173064  0.1832615  0.2285668  1.025372   1.532759   2.49       1.575      0          0.207032   201.49     0.4202837  0.544978   0.2955895 
1059.45    0.235      621.11     -9999      -9999      324.359    10.74      2.51       1.364258040108249 1.509470105699348 1.584613517549311 1.574992063472067 1.609968943799849 1.79       2.13       2.465      2.535      1.7        1.26       0.381      2.62       0.1465925  0.01909074 0.2488944  0.1717923  0.232465   1.45347    1.67387    2.49       1.61       0.04778361 0.2413106  200.21     0.4003201  0.5257279  0.2749123 
1059.65    0.232      593.4699   -9999      -9999      314.79     10.45      2.61       1.55       1.684933233098604 1.74482090771523 1.764652940382409 1.684636459299236 1.88       2.325      2.62       2.775      1.87       1.27       0.317      2.88       0.1541874  0.09880233 0.1940193  0.1697405  0.2341285  2.009473   2.111331   2.505      1.685      0.1080301  0.2764924  199.7      0.3726689  0.4781751  0.2671626 
1059.85    0.233      550.96     -9999      -9999      307.094    10.44      2.66       1.529869275461097 1.704934016318486 1.809751364138111 1.859758048779396 1.814662503056618 1.95       2.315      2.415      2.665      1.94       1.27       0.293      2.99       0.1392145  0.08682629 0.170104   0.1607134  0.2191006  1.061083   2.128302   2.525      1.815      0.05845085 0.244169   199.77     0.3724123  0.4766144  0.2682102 
1060.05    0.233      496.27     -9999      -9999      300.736    10.49      2.82       1.776400855662933 2.000449949386387 2.102379604162864 2.063976744055029 2.014696006845698 1.99       2.685      2.845      3.025      1.93       1.29       0.307      3.07       0.1389278  0.08383235 0.1820576  0.1508934  0.2201441  1.048185   2.044788   2.53       2.015      0.1019115  0.2840914  200.07     0.3786134  0.4844692  0.2727577 
1060.25    0.241      492.61     -9999      -9999      300.583    10.08      2.84       1.873392644375439 1.985069268312822 2.097617696340303 2.099619013059274 2.029901475441604 2          3.65       4.925      3.32       1.83       1.32       0.36       2.99       0.1639694  0.08982037 0.2434318  0.1586561  0.2397422  3.049786   2.839273   2.52       2.03       0.2253207  0.3661352  200.71     0.353237   0.4236962  0.2827779 
1060.45    0.238      529.0999   -9999      -9999      304.82     9.84       2.58       1.609875771604753 1.774936618586703 1.87       1.869759342803239 1.889576672167605 1.935      2.215      2.45       2.77       1.79       1.32       0.377      2.74       0.1759699  0.09580839 0.2643922  0.1677091  0.2491683  5.088008   3.440776   2.51       1.89       0.2466996  0.3762062  201.2      0.3412357  0.3917233  0.2907481 
1060.65    0.249      563.3799   -9999      -9999      310.899    10.23      2.16       1.589213642025401 1.739540169125072 1.824664352696054 1.804937672054046 1.774936618586669 1.89       2.385      2.335      2.635      1.85       1.29       0.336      2.44       0.1608338  0.1047905  0.2127626  0.1649483  0.2409418  2.668028   2.517976   2.495      1.775      0.1609608  0.3187703  201.86     0.3734466  0.4449912  0.3019021 
1060.85    0.235      569.8      -9999      -9999      309.119    10.27      1.83       1.429685280052989 1.569713349627955 1.694933627019098 1.74       1.754992877478413 1.92       1.945      2.41       2.635      1.92       1.28       0.305      2.3        0.1494893  0.1077844  0.1797583  0.1609252  0.2309001  1.64461    2.438614   2.49       1.755      0.1010007  0.2761556  202.22     0.3795203  0.4508486  0.308192  
