~Version
 VERS              .         2.0                           : CWLS LOG ASCII STANDARD - VERSION 2.0
 WRAP              .         NO                            : ONE LINE PER DEPTH STEP
 DLM               .         SPACE                         : DELIMITING CHARACTER(SPACE TAB OR COMMA)
~Well Information
#_______________________________________________________________________________
#
#PARAMETER_NAME    .UNIT     VALUE                         : DESCRIPTION
#_______________________________________________________________________________
STRT               .M        0.25                          : First reference value
STOP               .M        1174.65                       : Last reference value
STEP               .M        0.2                           : Step increment
NULL               .         -9999                         : Missing value
COMP               .                                       : Company
WELL               .         7169                          : Well name
FLD                .         Узень                         : Field
LOC                .                                       : Location
CNTY               .                                       : County
STAT               .                                       : State
CTRY               .                                       : Country
SRVC               .                                       : Service Company
DATE               .                                       : Date
UWI                .                                       : Unique Well ID
Block              .         6а                            : 
Category           .         Нефтяная                      : 
Condition          .         В работе                      : 
Date               .         29.04.2017                    : 
EREF               .m        88.4                          : 100.8
GRP                .                                       : Group name
Gorizont           .         15                            : 14
ISS                .                                       : Well surveys
Interpretator      .         Бекбулатова А.А.              : 
Kupol              .         Основной                      : osnovnoi
Mud                .         Полимерный                    : 
Mud_density        .         1.36                          : 
Mud_resistivity    .         0.35                          : 
NGDU               .         НГДУ-2                        : 
ORIGINALWELLNAME   .         7169                          : 
Spud_date          .         2017                          : 1961
TIME               .         11_03                         : LOG TIME
Viscosity          .         40                            : 
X                  .m        42538.74                      : 46154
Y                  .m        84287.88                      : 85761.93
YEAR               .         2018                          : 
Исправ_15гор       .         Исправ.15гор                  : 
~Parameter Information Block
#_______________________________________________________________________________
#
#PARAMETER_NAME    .UNIT     VALUE                         : DESCRIPTION
#_______________________________________________________________________________
SET                .         LQC_KAZNIPI_Petrel            : 
TLFamily_CALI      .         Caliper                       : 
TLFamily_CILD      .         Conductivity                  : 
TLFamily_COLL      .         Net Reservoir Flag            : 
TLFamily_CSAT      .         Fluid Code                    : 
TLFamily_DEPT      .         Measured Depth                : 
TLFamily_DT        .         Compressional Slowness        : 
TLFamily_GR        .         Russian Gamma Ray             : 
TLFamily_GZ3       .         Gradient 225                  : 
TLFamily_IK1       .         Resistivity 05                : 
TLFamily_IK2       .         Resistivity 07                : 
TLFamily_IK3       .         Resistivity 10                : 
TLFamily_IK4       .         Resistivity 14                : 
TLFamily_IK5       .         Resistivity 20                : 
TLFamily_LLS       .         Lateral Log Resistivity       : 
TLFamily_MBK       .         Micro Lateral Log Resistivity : 
TLFamily_MINV      .         Micro Gradient Resistivity    : 
TLFamily_MNOR      .         Micro Resistivity             : 
TLFamily_NNKTB_1   .         Neutron Far                   : 
TLFamily_NNKTM_1   .         Neutron Near                  : 
TLFamily_NPHI      .         Neutron Porosity              : 
TLFamily_OGZ       .         Gradient Inverted 225         : 
TLFamily_PHIE      .         Effective Porosity            : 
TLFamily_PHIED     .         Effective Porosity            : 
TLFamily_PHIEN     .         Effective Porosity            : 
TLFamily_PHIES     .         Effective Porosity            : 
TLFamily_PHIT      .         Porosity                      : 
TLFamily_PRMB      .         Permeability                  : 
TLFamily_PRMB_DGR  .         Permeability                  : 
TLFamily_RHOB      .         Bulk Density                  : 
TLFamily_RT        .         Formation Resistivity         : 
TLFamily_SOIL_ARCHIE .         Oil Saturation                : 
TLFamily_SOIL_DW   .         Oil Saturation                : 
TLFamily_SP        .         Spontaneous Potential         : 
TLFamily_VSH_FIN   .         Shale Volume                  : 
TLFamily_VSH_GR    .         Shale Volume                  : 
TLFamily_VSH_SP    .         Shale Volume                  : 
~Curve Information
#_______________________________________________________________________________
#
#LOGNAME           .UNIT     LOG_ID                        : DESCRIPTION
#_______________________________________________________________________________
DEPT               .M                                      : Колонка глубины 
CALI               .м                                      : Каверномер 
CILD               .мСм/м                                  : Проводимость 
COLL               .unitless                               : Описание 
CSAT               .unitless                               : Описание 
DT                 .мкс/м                                  : Интервальное время пробега продольной волны 
GR                 .uR/h                                   : Гамма каротаж 
GZ3                .ohmm                                   : Градиент-зонд  длиной 2.25м 
IK1                .OHMM                                   : И0.10И0.40 
IK2                .OHMM                                   : И0.14И0.56 
IK3                .OHMM                                   : И0.20И0.8 
IK4                .OHMM                                   : И0.28И1.12 
IK5                .OHMM                                   : И0.40И1.60 
LLS                .ohmm                                   : Боковой каротаж 
MBK                .ohmm                                   : Микробоковой каротаж 
MINV               .ohmm                                   : Микро-градиент зонд 
MNOR               .ohmm                                   : Микро-потенциал зонд 
NNKTB_1            .у.е.                                   : Показания большого зонда 2ННКт аппаратуры СРК 
NNKTM_1            .у.е.                                   : Показания малого зонда 2ННКт аппаратуры СРК 
NPHI               .д.ед.                                  : Водородосодержание по НКТ 
OGZ                .ohmm                                   : Обращенный градиент-зонд 
PHIE               .д.ед.                                  : Описание 
PHIED              .д.ед.                                  :  
PHIEN              .д.ед.                                  :  
PHIES              .д.ед.                                  :  
PHIT               .д.ед.                                  : Описание 
PRMB               .mD                                     :  
PRMB_DGR           .mD                                     :  
RHOB               .G/C3                                   : Плотность по ГГКп 
RT                 .ohmm                                   : Удельное электрическое сопротивление 
SOIL_ARCHIE        .д.ед.                                  :  
SOIL_DW            .д.ед.                                  :  
SP                 .мВ                                     : Потенциал самополяризации 
VSH_FIN            .д.ед.                                  : Описание 
VSH_GR             .д.ед.                                  : Shale volume 
VSH_SP             .д.ед.                                  : Shale Volume 
~Ascii
# ...
844.4500000000001 0.229      427.35     -9999      -9999      382.513    10.28      2.63       1.624992307674107 1.96       2.2        2.28       2.339978632381063 2.41       2.345      2.285      2.84       1.64       1.15       0.34       3.74       0.1234877  0.03374184 0.1583653  0.178356   0.2415557  0.5425628  0.3916805  2.41       2.34       0.0723003  0.3419953  195.74     0.5504082  0.8        0.3008165 
844.65     0.229      431.96     -9999      -9999      383.658    10.66      2.64       1.619969135508463 1.954993606127657 2.19       2.274994505487876 2.314994600425674 2.4        2.345      2.215      2.915      1.57       1.14       0.365      3.86       0.1371908  0.03986628 0.1880278  0.1836784  0.252228   0.9733419  0.2869818  2.405      2.315      0.1492681  0.3815406  194        0.5362793  0.8        0.2725586 
844.85     0.228      431.96     -9999      -9999      382.828    10.29      2.68       1.659879513699737 1.979974747313724 2.204994331058478 2.28       2.314994600425663 2.39       2.36       2.285      2.875      1.51       1.15       0.404      3.99       0.1565048  0.05156463 0.2310738  0.186876   0.268912   2.21823    0.3884875  2.39       2.315      0.2414713  0.4351909  192.3      0.5240188  0.8        0.2480377 
845.05     0.228      435.72     -9999      -9999      381.872    9.94       2.72       1.604805284138886 1.924837655492044 2.164855653386646 2.239910712506215 2.294994553370449 2.385      2.4        2.425      2.96       1.59       1.17       0.376      4.21       0.1484191  0.05048766 0.205929   0.1888406  0.2589703  1.57123    0.5173579  2.395      2.295      0.2023631  0.4073547  190.96     0.5153666  0.8        0.2307332 
845.25     0.228      444.44     -9999      -9999      382.385    10.11      2.82       1.554991961394013 1.894993403682451 2.104994061749344 2.194994305231793 2.249977777668037 2.37       2.225      2.18       2.865      1.66       1.17       0.343      4.45       0.1346736  0.04382082 0.171918   0.1882819  0.245882   0.8742572  0.4501546  2.405      2.25       0.1238032  0.3582338  191.45     0.5184304  0.8        0.2368608 
845.4500000000001 0.229      449.43     -9999      -9999      383.894    10.23      2.89       1.56       1.894993403682456 2.119976414963159 2.19       2.224994382015374 2.39       2.26       2.15       2.845      1.66       1.18       0.349      4.889999   0.1322172  0.03786841 0.1735117  0.1852715  0.2462898  0.787302   0.4080427  2.41       2.225      0.1049619  0.3506272  193.4      0.5317829  0.8        0.2635657 
845.65     0.231      450.4501   -9999      -9999      382.408    10.26      2.93       1.584929020492699 1.92997409309036 2.13       2.184994279168718 2.22       2.46       2.235      2.1        2.99       1.65       1.18       0.354      5.35       0.1292735  0.03685003 0.1725352  0.1784354  0.247231   0.6944129  0.398145   2.405      2.22       0.0862731  0.3456967  195.68     0.5498932  0.8        0.2997864 
845.85     0.232      449.43     -9999      -9999      377.801    10.44      2.93       1.569968152543218 1.889894176931585 2.094946300027742 2.149976744060259 2.224994382015385 2.57       2.165      2.09       2.86       1.71       1.18       0.328      5.87       0.1164795  0.03906754 0.1409193  0.1694517  0.2380875  0.4023842  0.3436032  2.395      2.225      0.0005123733 0.3037078  197.55     0.5669114  0.8        0.3338228 
846.05     0.228      428.2599   -9999      -9999      373.908    10.36      3.03       1.544927182750031 1.88483421021582 2.104709006014806 2.214542842213664 2.33456634088641 2.795      2.2        2.225      2.82       1.8        1.2        0.305      6.320001   0.1048451  0.03905366 0.1134392  0.1620425  0.2293653  0.2449877  0.3668551  2.39       2.335      0          0.2760495  198.9      0.5804873  0.8        0.3609746 
846.25     0.227      372.43     -9999      -9999      358.816    10.4       3.12       1.747140520965615 2.184856974723975 2.469493875270802 2.575033980358318 2.681081871185585 3.24       2.365      2.48       2.955      1.95       1.23       0.27       6.81       0.08446933 0.02452196 0.07909201 0.149794   0.2085652  0.1027389  0.3550388  2.415      2.685      0          0.2235069  198.71     0.5785091  0.8        0.3570182 
846.4500000000001 0.229      293.25     -9999      -9999      320.902    10.91      3.33       2.518590875867173 3.027986129426926 3.386738844375561 3.423974298969275 3.402234559815325 3.91       4.775      3.185      3.675      2.22       1.25       0.209      7.199999   0.04572786 0.002208069 0.02053201 0.1144435  0.1682377  0.01968561 0.2338768  2.455      3.41       0          0.02031172 197.98     0.5711151  0.8        0.3422303 
846.65     0.229      236.12     -9999      -9999      277.12     11.52      3.65       3.492434680849189 4.150566226431926 4.5155730533342 4.468825349014841 4.230508243698163 4.56       7.385      5.675      5.38       2.61       1.35       0.171      7.49       0.01208319 -0.02355115 0          0.05980071 0.1282104  0.004687788 0.1419554  2.5        4.235      0          0          197.43     0.5657579  0.8        0.3315158 
846.85     0.228      212.31     -9999      -9999      254.268    11.85      4          4.696221885729404 5.308879354440358 5.361081980347111 5.094290922199182 4.709957536963599 4.889999   7.82       6.35       6.455      2.91       1.45       0.155      7.49       0.01       -0.03468905 0          0.02388535 0.1067973  0.00428926 0.1083546  2.52       4.71       0          0          197.03     0.5619749  0.8        0.3239499 
847.05     0.227      222.96     -9999      -9999      258.451    11.02      4.22       4.820643110623545 5.312089984177932 5.284089325513244 4.829285661462012 4.482320827428753 4.55       8.415      6.829999   6.36       2.95       1.5        0.164      7.13       0.01       -0.02562444 0          0.03128418 0.1152462  0.00428926 0.2137399  2.505      4.485001   0          0          196.99     0.5616019  0.8        0.3232038 
847.25     0.227      263.5      -9999      -9999      285.374    9.52       4.22       3.096837096135346 3.677907013506458 3.897691624538812 3.811810593405711 3.790488095219401 3.84       5.62       5.305      4.495      2.78       1.49       0.186      6.3        0.02890776 -0.004594156 0.009697753 0.08161969 0.1435095  0.009607269 0.729604   2.48       3.795      0          0          197.38     0.5342492  0.7379385  0.3305599 
847.4500000000001 0.229      296.73     -9999      -9999      314.641    9.25       3.89       2.51189171741126 2.963781368454736 3.269617714657116 3.299863633546056 3.369762602914291 3.355      3.34       3.41       3.495      2.57       1.42       0.2        5.45       0.06011961 0.01738746 0.03414109 0.1288303  0.1679328  0.03636797 0.9100467  2.455      3.37       0          0.1002925  197.4      0.5026028  0.6742637  0.3309418 
847.65     0.228      289.43     -9999      -9999      319.019    9.68       3.57       2.470748874329236 3.047228248753136 3.422718218024824 3.478261059782479 3.454388513181384 3.325      2.86       2.87       3.44       2.43       1.37       0.21       4.87       0.05345512 0.008427944 0.03079625 0.1211412  0.1699429  0.02737011 0.6400478  2.455      3.455      0          0.08182998 196.13     0.5430416  0.7784739  0.3076093 
847.85     0.23       257.73     -9999      -9999      303.039    9.89       3.58       2.824995575217779 3.374966666502073 3.879368505311221 4.05275215131659 3.8781438859332 3.56       3.885      4.155      4.125      2.39       1.37       0.218      4.71       0.04400088 -0.01163246 0.04013339 0.1035017  0.1596195  0.01828778 0.5389696  2.49       3.88       0          0.03636487 194.35     0.5389897  0.8        0.2779794 
848.05     0.229      228.83     -9999      -9999      287.98     9.51       3.79       3.161771655258735 3.753558311788713 4.212149095176773 4.53866720524857 4.368855685416834 3.865      4.510001   4.075      4.17       2.38       1.38       0.224      4.7        0.04481395 -0.02085194 0.05915809 0.09613569 0.1519661  0.01893307 0.7356003  2.52       4.37       0          0.06708907 193.4      0.499521   0.7354763  0.2635657 
