~Version
 VERS              .         2.0                           : CWLS LOG ASCII STANDARD - VERSION 2.0
 WRAP              .         NO                            : ONE LINE PER DEPTH STEP
 DLM               .         SPACE                         : DELIMITING CHARACTER(SPACE TAB OR COMMA)
~Well Information
#_______________________________________________________________________________
#
#PARAMETER_NAME    .UNIT     VALUE                         : DESCRIPTION
#_______________________________________________________________________________
STRT               .M        0.25                          : First reference value
STOP               .M        1174.65                       : Last reference value
STEP               .M        0.2                           : Step increment
NULL               .         -9999                         : Missing value
COMP               .                                       : Company
WELL               .         7169                          : Well name
FLD                .         Узень                         : Field
LOC                .                                       : Location
CNTY               .                                       : County
STAT               .                                       : State
CTRY               .                                       : Country
SRVC               .                                       : Service Company
DATE               .                                       : Date
UWI                .                                       : Unique Well ID
Block              .         6а                            : 
Category           .         Нефтяная                      : 
Condition          .         В работе                      : 
Date               .         29.04.2017                    : 
EREF               .m        88.4                          : 100.8
GRP                .                                       : Group name
Gorizont           .         15                            : 14
ISS                .                                       : Well surveys
Interpretator      .         Бекбулатова А.А.              : 
Kupol              .         Основной                      : osnovnoi
Mud                .         Полимерный                    : 
Mud_density        .         1.36                          : 
Mud_resistivity    .         0.35                          : 
NGDU               .         НГДУ-2                        : 
ORIGINALWELLNAME   .         7169                          : 
Spud_date          .         2017                          : 1961
TIME               .         11_03                         : LOG TIME
Viscosity          .         40                            : 
X                  .m        42538.74                      : 46154
Y                  .m        84287.88                      : 85761.93
YEAR               .         2018                          : 
Исправ_15гор       .         Исправ.15гор                  : 
~Parameter Information Block
#_______________________________________________________________________________
#
#PARAMETER_NAME    .UNIT     VALUE                         : DESCRIPTION
#_______________________________________________________________________________
SET                .         LQC_KAZNIPI_Petrel            : 
TLFamily_CALI      .         Caliper                       : 
TLFamily_CILD      .         Conductivity                  : 
TLFamily_COLL      .         Net Reservoir Flag            : 
TLFamily_CSAT      .         Fluid Code                    : 
TLFamily_DEPT      .         Measured Depth                : 
TLFamily_DT        .         Compressional Slowness        : 
TLFamily_GR        .         Russian Gamma Ray             : 
TLFamily_GZ3       .         Gradient 225                  : 
TLFamily_IK1       .         Resistivity 05                : 
TLFamily_IK2       .         Resistivity 07                : 
TLFamily_IK3       .         Resistivity 10                : 
TLFamily_IK4       .         Resistivity 14                : 
TLFamily_IK5       .         Resistivity 20                : 
TLFamily_LLS       .         Lateral Log Resistivity       : 
TLFamily_MBK       .         Micro Lateral Log Resistivity : 
TLFamily_MINV      .         Micro Gradient Resistivity    : 
TLFamily_MNOR      .         Micro Resistivity             : 
TLFamily_NNKTB_1   .         Neutron Far                   : 
TLFamily_NNKTM_1   .         Neutron Near                  : 
TLFamily_NPHI      .         Neutron Porosity              : 
TLFamily_OGZ       .         Gradient Inverted 225         : 
TLFamily_PHIE      .         Effective Porosity            : 
TLFamily_PHIED     .         Effective Porosity            : 
TLFamily_PHIEN     .         Effective Porosity            : 
TLFamily_PHIES     .         Effective Porosity            : 
TLFamily_PHIT      .         Porosity                      : 
TLFamily_PRMB      .         Permeability                  : 
TLFamily_PRMB_DGR  .         Permeability                  : 
TLFamily_RHOB      .         Bulk Density                  : 
TLFamily_RT        .         Formation Resistivity         : 
TLFamily_SOIL_ARCHIE .         Oil Saturation                : 
TLFamily_SOIL_DW   .         Oil Saturation                : 
TLFamily_SP        .         Spontaneous Potential         : 
TLFamily_VSH_FIN   .         Shale Volume                  : 
TLFamily_VSH_GR    .         Shale Volume                  : 
TLFamily_VSH_SP    .         Shale Volume                  : 
~Curve Information
#_______________________________________________________________________________
#
#LOGNAME           .UNIT     LOG_ID                        : DESCRIPTION
#_______________________________________________________________________________
DEPT               .M                                      : Колонка глубины 
CALI               .м                                      : Каверномер 
CILD               .мСм/м                                  : Проводимость 
COLL               .unitless                               : Описание 
CSAT               .unitless                               : Описание 
DT                 .мкс/м                                  : Интервальное время пробега продольной волны 
GR                 .uR/h                                   : Гамма каротаж 
GZ3                .ohmm                                   : Градиент-зонд  длиной 2.25м 
IK1                .OHMM                                   : И0.10И0.40 
IK2                .OHMM                                   : И0.14И0.56 
IK3                .OHMM                                   : И0.20И0.8 
IK4                .OHMM                                   : И0.28И1.12 
IK5                .OHMM                                   : И0.40И1.60 
LLS                .ohmm                                   : Боковой каротаж 
MBK                .ohmm                                   : Микробоковой каротаж 
MINV               .ohmm                                   : Микро-градиент зонд 
MNOR               .ohmm                                   : Микро-потенциал зонд 
NNKTB_1            .у.е.                                   : Показания большого зонда 2ННКт аппаратуры СРК 
NNKTM_1            .у.е.                                   : Показания малого зонда 2ННКт аппаратуры СРК 
NPHI               .д.ед.                                  : Водородосодержание по НКТ 
OGZ                .ohmm                                   : Обращенный градиент-зонд 
PHIE               .д.ед.                                  : Описание 
PHIED              .д.ед.                                  :  
PHIEN              .д.ед.                                  :  
PHIES              .д.ед.                                  :  
PHIT               .д.ед.                                  : Описание 
PRMB               .mD                                     :  
PRMB_DGR           .mD                                     :  
RHOB               .G/C3                                   : Плотность по ГГКп 
RT                 .ohmm                                   : Удельное электрическое сопротивление 
SOIL_ARCHIE        .д.ед.                                  :  
SOIL_DW            .д.ед.                                  :  
SP                 .мВ                                     : Потенциал самополяризации 
VSH_FIN            .д.ед.                                  : Описание 
VSH_GR             .д.ед.                                  : Shale volume 
VSH_SP             .д.ед.                                  : Shale Volume 
~Ascii
# ...
977.4500000000001 0.231      480.76     -9999      -9999      311.438    8.23       2.71       1.674813422444394 1.83499318799825 1.974943037153207 2.009975124224167 2.079975961399543 2.045      2.34       2.96       2.735      2.35       1.33       0.211      2.53       0.07680137 0.01275446 0.06945671 0.1481929  0.1688087  0.0740808  2.097205   2.49       2.08       0          0          199.71     0.428919   0.4794876  0.3783505 
977.65     0.23       480.76     -9999      -9999      313.083    8.35       2.74       1.674932834474249 1.899763143131235 2.004844133592406 2.034944716693781 2.079975961399543 2.03       2.285      2.855      2.775      2.17       1.32       0.249      2.39       0.08857059 0.007116201 0.1079777  0.1506179  0.1802393  0.1223771  1.901011   2.5        2.08       0          0.05032574 198.64     0.4273404  0.4991091  0.3555717 
977.85     0.231      471.69     -9999      -9999      311.896    8.63       2.77       1.729971098024484 1.954993606127657 2.094946300027777 2.099976190341225 2.119976414963159 2.04       2.395      3.055      2.845      2.03       1.32       0.289      2.24       0.09518564 -0.002143922 0.143104   0.1445969  0.1900224  0.1622659  1.511659   2.51       2.12       0          0.1142962  197.67     0.4421091  0.5480715  0.3361467 
978.05     0.232      473.93     -9999      -9999      313.762    8.51       2.78       1.759971590679793 1.96       2.109976303184481 2.104994061749349 2.109976303184481 2.02       2.44       2.94       2.92       2.06       1.32       0.28       2.07       0.09525628 -0.0003433413 0.1367859  0.1493263  0.1883497  0.1627554  1.667669   2.51       2.11       0          0.1076136  197.94     0.4339821  0.5265254  0.3414389 
978.25     0.233      493.82     -9999      -9999      319.745    8.39       2.79       1.65372307234313 1.834448145901104 1.999599959991998 2.014844907182684 2.024845673131658 1.965      2.385      2.7        2.87       2.14       1.3        0.249      1.93       0.08975133 0.008300854 0.1052826  0.1556706  0.1831719  0.1286976  1.83978    2.495      2.025      0          0.05187452 199.1      0.4355073  0.5058263  0.3651882 
978.4500000000001 0.232      514.1299   -9999      -9999      328.715    8.68       2.78       1.59       1.784992997185138 1.914993472573726 1.93997422663291 1.944942158522955 1.915      2.3        2.69       2.785      2.03       1.28       0.27       1.74       0.09473994 0.01761827 0.1134038  0.1531978  0.1965321  0.1592105  1.451042   2.465      1.945      0          0.0927061  200.31     0.474534   0.5573073  0.3917607 
978.65     0.231      524.93     -9999      -9999      338.99     9.06       2.77       1.529869275461165 1.729971098024484 1.869973261840939 1.899973684028293 1.904993438308915 1.895      2.2        2.775      2.645      1.87       1.26       0.312      1.62       0.1040241  0.0246566  0.1391304  0.1482853  0.2163945  0.2365576  1.063169   2.435      1.905      0          0.1664929  201.3      0.5238474  0.6327782  0.4149167 
978.85     0.231      530.5      -9999      -9999      344.376    9.2        2.65       1.509867543859372 1.684933233098553 1.829972677391649 1.869973261840917 1.884993368688595 1.88       2.22       2.81       2.74       1.88       1.26       0.308      1.55       0.1008346  0.02410586 0.1298507  0.1485472  0.2166369  0.2064712  0.9480627  2.43       1.885      0          0.1527146  201.37     0.5398464  0.6630898  0.416603  
979.05     0.231      539.08     -9999      -9999      342.938    9.02       2.51       1.45       1.62       1.78       1.824993150672084 1.854993261443292 1.86       2.105      2.52       2.585      1.97       1.26       0.279      1.56       0.08949216 0.01649346 0.1028906  0.1490924  0.2039685  0.1272829  1.098553   2.445      1.855      0          0.07251585 202.43     0.5336648  0.624375   0.4429546 
979.25     0.231      546.4399   -9999      -9999      340.356    8.97       2.41       1.49       1.654992447112675 1.774936618586703 1.799972222007884 1.82997267739166 1.835      2.23       2.61       2.715      1.96       1.25       0.277      1.64       0.07662375 -0.001142218 0.09246081 0.1385527  0.1965797  0.07352173 1.144444   2.465      1.83       0          0          204.69     0.5592097  0.6140278  0.5043916 
979.4500000000001 0.231      555.5499   -9999      -9999      337.567    8.71       2.28       1.359411637437269 1.524598307751874 1.664812301732512 1.729971098024461 1.799972222007873 1.815      1.985      2.25       2.545      1.88       1.27       0.314      1.84       0.07348355 -0.02122861 0.1173808  0.1242985  0.2012919  0.06430602 1.415847   2.485      1.8        0          0          208.6      0.5958159  0.5629232  0.6287086 
979.65     0.232      550.96     -9999      -9999      332.778    8.53       2.3        1.412444689182457 1.623268308074708 1.7689827585366 1.784656829757435 1.814938015470484 1.8        2.085      2.28       2.63       1.94       1.28       0.298      2.01       0.06354354 -0.0302007 0.1013957  0.1194356  0.1913422  0.04208609 1.640592   2.5        1.815      0          0          209.52     0.5957707  0.5300566  0.6614849 
979.85     0.232      552.4799   -9999      -9999      333.252    8.51       2.3        1.529477034806297 1.699264546796586 1.814442063004442 1.819752730455398 1.809889499389374 1.785      2.33       2.665      2.735      1.97       1.28       0.288      2.09       0.06621289 -0.01903219 0.09465222 0.1230186  0.1918947  0.04716083 1.667669   2.485      1.81       0          0          209.07     0.5859023  0.5265254  0.6452793 
980.05     0.231      589.97     -9999      -9999      340.746    8.61       2.32       1.259364919314539 1.434294251539811 1.564352901362145 1.629509128541521 1.694638604540843 1.715      1.76       2.03       2.455      1.93       1.27       0.296      2.2        0.07646901 -0.01068015 0.1061734  0.1339138  0.199862   0.07303814 1.536608   2.475      1.695      0          0          207.94     0.5752323  0.5444201  0.6060444 
980.25     0.232      617.2801   -9999      -9999      347.397    8.62       2.34       1.294758664771161 1.459863007271573 1.564928113364956 1.589968553148143 1.619969135508452 1.645      1.96       2.17       2.535      1.88       1.26       0.308      2.28       0.0907752  0.004501062 0.1229473  0.1448772  0.2110649  0.134442   1.524082   2.455      1.62       0          0.03375313 207.01     0.5607657  0.5462428  0.5752885 
980.4500000000001 0.23       625        -9999      -9999      351.327    8.22       2.39       1.23       1.409964538561154 1.529967319912411 1.57996835411345 1.599968749694807 1.625      1.715      1.975      2.42       1.88       1.25       0.303      2.36       0.1101353  0.02416755 0.1383208  0.1679176  0.2171817  0.306995   2.11444    2.445      1.6        0          0.1121838  205.23     0.4990277  0.4778879  0.5201676 
980.65     0.229      657.8901   -9999      -9999      359.413    8.11       2.38       1.214495780149152 1.349666625504273 1.474788120375291 1.514793715328951 1.519868415357089 1.59       1.695      1.94       2.455      1.84       1.23       0.307      2.47       0.1266966  0.03621858 0.155811   0.1880602  0.2249739  0.6221377  2.313647   2.44       1.52       0          0.1559088  202.92     0.4581484  0.4606377  0.4556591 
980.85     0.228      694.4401   -9999      -9999      367.67     8.43       2.39       1.099954544515352 1.254910355364062 1.369854006819682 1.409858148892978 1.439965277359134 1.58       1.52       1.61       2.325      1.76       1.21       0.326      2.53       0.1345482  0.03555437 0.1738217  0.1942685  0.2334686  0.8695948  1.780522   2.44       1.44       0          0.1719213  201.08     0.4611463  0.512634   0.4096587 
981.05     0.228      709.2099   -9999      -9999      364.58     8.79       2.39       1.08       1.23       1.33499063667129 1.374990909060862 1.41       1.605      1.48       1.56       2.375      1.77       1.2        0.316      2.61       0.1206032  0.02139496 0.1561101  0.1843046  0.2245364  0.4797582  1.326108   2.455      1.41       0          0.10542    200.27     0.4845149  0.5781774  0.3908524 
