~Version
 VERS              .         2.0                           : CWLS LOG ASCII STANDARD - VERSION 2.0
 WRAP              .         NO                            : ONE LINE PER DEPTH STEP
 DLM               .         SPACE                         : DELIMITING CHARACTER(SPACE TAB OR COMMA)
~Well Information
#_______________________________________________________________________________
#
#PARAMETER_NAME    .UNIT     VALUE                         : DESCRIPTION
#_______________________________________________________________________________
STRT               .M        0.25                          : First reference value
STOP               .M        1174.65                       : Last reference value
STEP               .M        0.2                           : Step increment
NULL               .         -9999                         : Missing value
COMP               .                                       : Company
WELL               .         7169                          : Well name
FLD                .         Узень                         : Field
LOC                .                                       : Location
CNTY               .                                       : County
STAT               .                                       : State
CTRY               .                                       : Country
SRVC               .                                       : Service Company
DATE               .                                       : Date
UWI                .                                       : Unique Well ID
Block              .         6а                            : 
Category           .         Нефтяная                      : 
Condition          .         В работе                      : 
Date               .         29.04.2017                    : 
EREF               .m        88.4                          : 100.8
GRP                .                                       : Group name
Gorizont           .         15                            : 14
ISS                .                                       : Well surveys
Interpretator      .         Бекбулатова А.А.              : 
Kupol              .         Основной                      : osnovnoi
Mud                .         Полимерный                    : 
Mud_density        .         1.36                          : 
Mud_resistivity    .         0.35                          : 
NGDU               .         НГДУ-2                        : 
ORIGINALWELLNAME   .         7169                          : 
Spud_date          .         2017                          : 1961
TIME               .         11_03                         : LOG TIME
Viscosity          .         40                            : 
X                  .m        42538.74                      : 46154
Y                  .m        84287.88                      : 85761.93
YEAR               .         2018                          : 
Исправ_15гор       .         Исправ.15гор                  : 
~Parameter Information Block
#_______________________________________________________________________________
#
#PARAMETER_NAME    .UNIT     VALUE                         : DESCRIPTION
#_______________________________________________________________________________
SET                .         LQC_KAZNIPI_Petrel            : 
TLFamily_CALI      .         Caliper                       : 
TLFamily_CILD      .         Conductivity                  : 
TLFamily_COLL      .         Net Reservoir Flag            : 
TLFamily_CSAT      .         Fluid Code                    : 
TLFamily_DEPT      .         Measured Depth                : 
TLFamily_DT        .         Compressional Slowness        : 
TLFamily_GR        .         Russian Gamma Ray             : 
TLFamily_GZ3       .         Gradient 225                  : 
TLFamily_IK1       .         Resistivity 05                : 
TLFamily_IK2       .         Resistivity 07                : 
TLFamily_IK3       .         Resistivity 10                : 
TLFamily_IK4       .         Resistivity 14                : 
TLFamily_IK5       .         Resistivity 20                : 
TLFamily_LLS       .         Lateral Log Resistivity       : 
TLFamily_MBK       .         Micro Lateral Log Resistivity : 
TLFamily_MINV      .         Micro Gradient Resistivity    : 
TLFamily_MNOR      .         Micro Resistivity             : 
TLFamily_NNKTB_1   .         Neutron Far                   : 
TLFamily_NNKTM_1   .         Neutron Near                  : 
TLFamily_NPHI      .         Neutron Porosity              : 
TLFamily_OGZ       .         Gradient Inverted 225         : 
TLFamily_PHIE      .         Effective Porosity            : 
TLFamily_PHIED     .         Effective Porosity            : 
TLFamily_PHIEN     .         Effective Porosity            : 
TLFamily_PHIES     .         Effective Porosity            : 
TLFamily_PHIT      .         Porosity                      : 
TLFamily_PRMB      .         Permeability                  : 
TLFamily_PRMB_DGR  .         Permeability                  : 
TLFamily_RHOB      .         Bulk Density                  : 
TLFamily_RT        .         Formation Resistivity         : 
TLFamily_SOIL_ARCHIE .         Oil Saturation                : 
TLFamily_SOIL_DW   .         Oil Saturation                : 
TLFamily_SP        .         Spontaneous Potential         : 
TLFamily_VSH_FIN   .         Shale Volume                  : 
TLFamily_VSH_GR    .         Shale Volume                  : 
TLFamily_VSH_SP    .         Shale Volume                  : 
~Curve Information
#_______________________________________________________________________________
#
#LOGNAME           .UNIT     LOG_ID                        : DESCRIPTION
#_______________________________________________________________________________
DEPT               .M                                      : Колонка глубины 
CALI               .м                                      : Каверномер 
CILD               .мСм/м                                  : Проводимость 
COLL               .unitless                               : Описание 
CSAT               .unitless                               : Описание 
DT                 .мкс/м                                  : Интервальное время пробега продольной волны 
GR                 .uR/h                                   : Гамма каротаж 
GZ3                .ohmm                                   : Градиент-зонд  длиной 2.25м 
IK1                .OHMM                                   : И0.10И0.40 
IK2                .OHMM                                   : И0.14И0.56 
IK3                .OHMM                                   : И0.20И0.8 
IK4                .OHMM                                   : И0.28И1.12 
IK5                .OHMM                                   : И0.40И1.60 
LLS                .ohmm                                   : Боковой каротаж 
MBK                .ohmm                                   : Микробоковой каротаж 
MINV               .ohmm                                   : Микро-градиент зонд 
MNOR               .ohmm                                   : Микро-потенциал зонд 
NNKTB_1            .у.е.                                   : Показания большого зонда 2ННКт аппаратуры СРК 
NNKTM_1            .у.е.                                   : Показания малого зонда 2ННКт аппаратуры СРК 
NPHI               .д.ед.                                  : Водородосодержание по НКТ 
OGZ                .ohmm                                   : Обращенный градиент-зонд 
PHIE               .д.ед.                                  : Описание 
PHIED              .д.ед.                                  :  
PHIEN              .д.ед.                                  :  
PHIES              .д.ед.                                  :  
PHIT               .д.ед.                                  : Описание 
PRMB               .mD                                     :  
PRMB_DGR           .mD                                     :  
RHOB               .G/C3                                   : Плотность по ГГКп 
RT                 .ohmm                                   : Удельное электрическое сопротивление 
SOIL_ARCHIE        .д.ед.                                  :  
SOIL_DW            .д.ед.                                  :  
SP                 .мВ                                     : Потенциал самополяризации 
VSH_FIN            .д.ед.                                  : Описание 
VSH_GR             .д.ед.                                  : Shale volume 
VSH_SP             .д.ед.                                  : Shale Volume 
~Ascii
# ...
1163.65    0.224      584.79     -9999      -9999      309.33     10.35      3.74       1.36       1.59       1.894993403682439 1.674992537296797 1.71       1.66       1.41       0.93       0.275      1.59       1.26       0.438      3.28       0.22335    0.4341317  0.3781964  0.2233497  0.3841     38.38327   20.1083    1.945      1.71       0.3674483  0.5459937  198.48     0.181223   0.1905033  0.1719428 
1163.85    -9999      584.79     -9999      -9999      308.13     10.6       3.82       1.364990842460136 1.59499216299014 1.894993403682439 1.679970237831588 1.71       1.66       1.28       1.07       0.39       1.55       1.25       0.454      3.43       0.218577   0.4491018  0.3906893  0.2185773  0.3939433  31.3137    15.41537   1.92       1.71       0.3554347  0.5489941  198.4      0.1918507  0.2123405  0.1713609 
1164.05    -9999      584.79     -9999      -9999      309.12     10.82      3.88       1.36       1.594992162990151 1.9        1.684992581586044 1.71       1.66       1.3        1.17       0.44       1.71       1.33       0.421      3.51       0.216667   0.4550898  0.3544269  0.2166668  0.3853357  28.864     12.20067   1.91       1.71       0.3504887  0.5413489  198.19     0.2017366  0.2336186  0.1698546 
1164.25    -9999      584.79     -9999      -9999      309.792    -9999      3.9        1.36       1.584992113545049 1.89       1.68       1.71       1.66       1.3        1.17       0.45       1.9        1.39       0.371      3.51       0.228037   0.497006   0.3155494  0.228037   0.3829086  46.87664   -9999      1.84       1.71       0.3787869  0.5489198  197.93     0.168032   -9999      0.1680315 
1164.45    -9999      586.5101   -9999      -9999      309.505    -9999      3.97       1.36       1.59       1.89       1.68       1.704992668605939 1.665      1.3        1.17       0.44       1.93       1.42       0.376      3.47       0.228167   0.5479042  0.3210467  0.2281671  0.4014272  47.13727   -9999      1.755      1.705      0.3782414  0.5609799  197.71     0.166525   -9999      0.1665248 
1164.65    -9999      584.79     -9999      -9999      310.406    -9999      4          1.36       1.59       1.89       1.68       1.71       1.67       1.3        1.16       0.44       1.79       1.43       0.445      3.38       0.229598   0.5808383  0.3904239  0.2295983  0.4357629  50.10374   -9999      1.7        1.71       0.382467   0.5838852  197.54     0.165382   -9999      0.1653825 
1164.85    -9999      584.79     -9999      -9999      311.284    -9999      4.05       1.36       1.58499211354506 1.894993403682462 1.68       1.71       1.67       1.3        1.16       0.46       1.67       1.42       0.505      3.34       0.230866   0.5928144  0.4506642  0.2308661  0.4601015  52.88792   -9999      1.68       1.71       0.3854221  0.5983223  197.43     0.164654   -9999      0.1646537 
1165.05    -9999      584.79     -9999      -9999      310.227    -9999      4.03       1.364990842460125 1.58       1.89       1.68       1.71       1.67       1.3        1.16       0.44       1.75       1.41       0.453      3.18       0.229758   0.5928144  0.398816   0.2297581  0.4423507  50.44679   -9999      1.68       1.71       0.3828416  0.587781   197.36     0.164194   -9999      0.1641941 
1165.25    -9999      584.79     -9999      -9999      309.105    -9999      4.02       1.36       1.59       1.89       1.68       1.71       1.665      1.3        1.16       0.44       1.88       1.41       0.391      2.95       0.228275   0.5928144  0.3366642  0.2282754  0.4212379  47.3549    -9999      1.68       1.71       0.379351   0.5742688  197.43     0.164654   -9999      0.1646537 
1165.45    -9999      586.5101   -9999      -9999      309.781    -9999      4.01       1.37       1.584992113545049 1.9        1.68       1.704992668605939 1.66       1.3        1.16       0.44       1.87       1.42       0.401      2.73       0.228834   0.5928144  0.3464018  0.2288337  0.4248404  48.49746   -9999      1.68       1.705      0.3798201  0.5762482  197.55     0.165449   -9999      0.1654492 
1165.65    -9999      584.79     -9999      -9999      310.663    -9999      3.99       1.364990842460113 1.584992113545037 1.9        1.68       1.709970759983902 1.66       1.3        1.16       0.44       1.82       1.4        0.412      2.6        0.229566   -9999      0.3570692  0.2295661  -9999      50.03538   -9999      -9999      1.71       0.382392   -9999      197.7      0.166457   -9999      0.166457  
1165.85    -9999      586.5101   -9999      -9999      311.692    -9999      3.95       1.36       1.584992113545037 1.89       1.674992537296797 1.704992668605927 1.66       1.3        1.16       0.44       -9999      -9999      -9999      2.58       0.230569   -9999      -9999      0.2305686  -9999      52.22224   -9999      -9999      1.705      0.3838866  -9999      197.8      0.167137   -9999      0.1671372 
1166.05    -9999      584.79     -9999      -9999      311.84     -9999      3.91       1.36       1.59       1.904993438308909 1.68       1.71       1.66       1.3        1.16       0.44       -9999      -9999      -9999      2.83       0.230807   -9999      -9999      0.2308071  -9999      52.75502   -9999      -9999      1.71       0.3852853  -9999      197.77     0.166932   -9999      0.1669324 
1166.25    -9999      584.79     -9999      -9999      309.585    -9999      3.86       1.364990842460125 1.59       1.9        1.684992581586044 1.71       1.66       1.3        1.16       0.43       -9999      -9999      -9999      3.15       0.227899   -9999      -9999      0.2278986  -9999      46.60155   -9999      -9999      1.71       0.3784593  -9999      197.88     0.167686   -9999      0.1676862 
1166.45    -9999      586.5101   -9999      -9999      308.078    -9999      3.82       1.37       1.59       1.89       1.684992581586044 1.704992668605939 1.66       1.3        1.15       0.43       -9999      -9999      -9999      3.4        0.225852   -9999      -9999      0.2258521  -9999      42.70562   -9999      -9999      1.705      0.3726944  -9999      197.99     0.168448   -9999      0.1684482 
1166.65    -9999      583.09     -9999      -9999      308.015    -9999      3.73       1.364990842460113 1.59       1.894993403682439 1.684992581586055 1.714992711354763 1.66       1.3        1.16       0.43       -9999      -9999      -9999      3.59       0.225513   -9999      -9999      0.2255125  -9999      42.09261   -9999      -9999      1.715      0.3735945  -9999      198.11     0.169289   -9999      0.1692887 
1166.85    -9999      584.79     -9999      -9999      -9999      -9999      3.64       1.364990842460136 1.59       1.894993403682462 1.69       1.71       1.66       -9999      -9999      -9999      -9999      -9999      -9999      3.63       -9999      -9999      -9999      -9999      -9999      -9999      -9999      -9999      1.71       -9999      -9999      198.18     0.169784   -9999      0.1697835 
1167.05    -9999      583.09     -9999      -9999      -9999      -9999      3.62       1.37       1.584992113545049 1.894993403682451 1.684992581586044 1.714992711354774 1.66       -9999      -9999      -9999      -9999      -9999      -9999      3.44       -9999      -9999      -9999      -9999      -9999      -9999      -9999      -9999      1.715      -9999      -9999      198.24     0.17021    -9999      0.1702105 
1167.25    -9999      584.79     -9999      -9999      -9999      -9999      3.62       1.37       1.58       1.89       1.684992581586044 1.71       1.66       -9999      -9999      -9999      -9999      -9999      -9999      3.26       -9999      -9999      -9999      -9999      -9999      -9999      -9999      -9999      1.71       -9999      -9999      198.38     0.171216   -9999      0.1712162 
1167.45    -9999      588.23     -9999      -9999      -9999      -9999      3.68       -9999      -9999      -9999      -9999      -9999      1.66       -9999      -9999      -9999      -9999      -9999      -9999      -9999      -9999      -9999      -9999      -9999      -9999      -9999      -9999      -9999      -9999      -9999      -9999      198.49     0.172016   -9999      0.1720159 
