~Version
 VERS              .         2.0                           : CWLS LOG ASCII STANDARD - VERSION 2.0
 WRAP              .         NO                            : ONE LINE PER DEPTH STEP
 DLM               .         SPACE                         : DELIMITING CHARACTER(SPACE TAB OR COMMA)
~Well Information
#_______________________________________________________________________________
#
#PARAMETER_NAME    .UNIT     VALUE                         : DESCRIPTION
#_______________________________________________________________________________
STRT               .M        0.25                          : First reference value
STOP               .M        1174.65                       : Last reference value
STEP               .M        0.2                           : Step increment
NULL               .         -9999                         : Missing value
COMP               .                                       : Company
WELL               .         7169                          : Well name
FLD                .         Узень                         : Field
LOC                .                                       : Location
CNTY               .                                       : County
STAT               .                                       : State
CTRY               .                                       : Country
SRVC               .                                       : Service Company
DATE               .                                       : Date
UWI                .                                       : Unique Well ID
Block              .         6а                            : 
Category           .         Нефтяная                      : 
Condition          .         В работе                      : 
Date               .         29.04.2017                    : 
EREF               .m        88.4                          : 100.8
GRP                .                                       : Group name
Gorizont           .         15                            : 14
ISS                .                                       : Well surveys
Interpretator      .         Бекбулатова А.А.              : 
Kupol              .         Основной                      : osnovnoi
Mud                .         Полимерный                    : 
Mud_density        .         1.36                          : 
Mud_resistivity    .         0.35                          : 
NGDU               .         НГДУ-2                        : 
ORIGINALWELLNAME   .         7169                          : 
Spud_date          .         2017                          : 1961
TIME               .         11_03                         : LOG TIME
Viscosity          .         40                            : 
X                  .m        42538.74                      : 46154
Y                  .m        84287.88                      : 85761.93
YEAR               .         2018                          : 
Исправ_15гор       .         Исправ.15гор                  : 
~Parameter Information Block
#_______________________________________________________________________________
#
#PARAMETER_NAME    .UNIT     VALUE                         : DESCRIPTION
#_______________________________________________________________________________
SET                .         LQC_KAZNIPI_Petrel            : 
TLFamily_CALI      .         Caliper                       : 
TLFamily_CILD      .         Conductivity                  : 
TLFamily_COLL      .         Net Reservoir Flag            : 
TLFamily_CSAT      .         Fluid Code                    : 
TLFamily_DEPT      .         Measured Depth                : 
TLFamily_DT        .         Compressional Slowness        : 
TLFamily_GR        .         Russian Gamma Ray             : 
TLFamily_GZ3       .         Gradient 225                  : 
TLFamily_IK1       .         Resistivity 05                : 
TLFamily_IK2       .         Resistivity 07                : 
TLFamily_IK3       .         Resistivity 10                : 
TLFamily_IK4       .         Resistivity 14                : 
TLFamily_IK5       .         Resistivity 20                : 
TLFamily_LLS       .         Lateral Log Resistivity       : 
TLFamily_MBK       .         Micro Lateral Log Resistivity : 
TLFamily_MINV      .         Micro Gradient Resistivity    : 
TLFamily_MNOR      .         Micro Resistivity             : 
TLFamily_NNKTB_1   .         Neutron Far                   : 
TLFamily_NNKTM_1   .         Neutron Near                  : 
TLFamily_NPHI      .         Neutron Porosity              : 
TLFamily_OGZ       .         Gradient Inverted 225         : 
TLFamily_PHIE      .         Effective Porosity            : 
TLFamily_PHIED     .         Effective Porosity            : 
TLFamily_PHIEN     .         Effective Porosity            : 
TLFamily_PHIES     .         Effective Porosity            : 
TLFamily_PHIT      .         Porosity                      : 
TLFamily_PRMB      .         Permeability                  : 
TLFamily_PRMB_DGR  .         Permeability                  : 
TLFamily_RHOB      .         Bulk Density                  : 
TLFamily_RT        .         Formation Resistivity         : 
TLFamily_SOIL_ARCHIE .         Oil Saturation                : 
TLFamily_SOIL_DW   .         Oil Saturation                : 
TLFamily_SP        .         Spontaneous Potential         : 
TLFamily_VSH_FIN   .         Shale Volume                  : 
TLFamily_VSH_GR    .         Shale Volume                  : 
TLFamily_VSH_SP    .         Shale Volume                  : 
~Curve Information
#_______________________________________________________________________________
#
#LOGNAME           .UNIT     LOG_ID                        : DESCRIPTION
#_______________________________________________________________________________
DEPT               .M                                      : Колонка глубины 
CALI               .м                                      : Каверномер 
CILD               .мСм/м                                  : Проводимость 
COLL               .unitless                               : Описание 
CSAT               .unitless                               : Описание 
DT                 .мкс/м                                  : Интервальное время пробега продольной волны 
GR                 .uR/h                                   : Гамма каротаж 
GZ3                .ohmm                                   : Градиент-зонд  длиной 2.25м 
IK1                .OHMM                                   : И0.10И0.40 
IK2                .OHMM                                   : И0.14И0.56 
IK3                .OHMM                                   : И0.20И0.8 
IK4                .OHMM                                   : И0.28И1.12 
IK5                .OHMM                                   : И0.40И1.60 
LLS                .ohmm                                   : Боковой каротаж 
MBK                .ohmm                                   : Микробоковой каротаж 
MINV               .ohmm                                   : Микро-градиент зонд 
MNOR               .ohmm                                   : Микро-потенциал зонд 
NNKTB_1            .у.е.                                   : Показания большого зонда 2ННКт аппаратуры СРК 
NNKTM_1            .у.е.                                   : Показания малого зонда 2ННКт аппаратуры СРК 
NPHI               .д.ед.                                  : Водородосодержание по НКТ 
OGZ                .ohmm                                   : Обращенный градиент-зонд 
PHIE               .д.ед.                                  : Описание 
PHIED              .д.ед.                                  :  
PHIEN              .д.ед.                                  :  
PHIES              .д.ед.                                  :  
PHIT               .д.ед.                                  : Описание 
PRMB               .mD                                     :  
PRMB_DGR           .mD                                     :  
RHOB               .G/C3                                   : Плотность по ГГКп 
RT                 .ohmm                                   : Удельное электрическое сопротивление 
SOIL_ARCHIE        .д.ед.                                  :  
SOIL_DW            .д.ед.                                  :  
SP                 .мВ                                     : Потенциал самополяризации 
VSH_FIN            .д.ед.                                  : Описание 
VSH_GR             .д.ед.                                  : Shale volume 
VSH_SP             .д.ед.                                  : Shale Volume 
~Ascii
# ...
791.05     0.231      198.6      -9999      -9999      -9999      8.64       5.739999   4.099878046966996 5.22617450914169 5.564009345786663 5.169032791538585 5.033448122311526 4.965      -9999      -9999      -9999      2.16       1.32       0.252      7.27       -9999      -9999      -9999      -9999      -9999      -9999      -9999      2.44       5.035      -9999      -9999      189.52     -9999      0.3490484  0.8       
791.25     0.232      215.51     -9999      -9999      -9999      8.97       5.32       3.444183502660682 4.552691511622548 5.124119436547121 4.844563963867131 4.638922288635584 4.415      -9999      -9999      -9999      1.99       1.26       0.272      5.91       -9999      -9999      -9999      -9999      -9999      -9999      -9999      2.4        4.64       -9999      -9999      186.92     -9999      0.4351953  0.8       
791.4500000000001 0.233      230.14     -9999      -9999      -9999      8.81       4.889999   3.239753077010609 3.978479609096798 4.663046214653954 4.554206846422231 4.344513781771138 4.06       -9999      -9999      -9999      1.91       1.25       0.293      5.1        -9999      -9999      -9999      -9999      -9999      -9999      -9999      2.365      4.345      -9999      -9999      184.43     -9999      0.3910538  0.8       
791.65     0.231      243.3      -9999      -9999      -9999      8.66       4.66       2.89402833434652 3.457918449009598 4.016403864155292 4.218814999499381 4.109562020459181 3.82       -9999      -9999      -9999      1.87       1.24       0.301      4.889999   -9999      -9999      -9999      -9999      -9999      -9999      -9999      2.35       4.11       -9999      -9999      183.42     -9999      0.353746   0.8       
791.85     0.23       255.1      -9999      -9999      -9999      8.72       4.530001   2.694958255706367 3.194808288457971 3.589498572224192 3.939682728342417 3.919885202400669 3.595      -9999      -9999      -9999      1.88       1.22       0.288      4.78       -9999      -9999      -9999      -9999      -9999      -9999      -9999      2.35       3.92       -9999      -9999      183.88     -9999      0.3682218  0.8       
792.05     0.23       259.74     -9999      -9999      -9999      8.88       4.56       2.604956813461615 3.104963767904564 3.40482011272259 3.759667538493321 3.84998701296512 3.445      -9999      -9999      -9999      1.88       1.2        0.277      4.72       -9999      -9999      -9999      -9999      -9999      -9999      -9999      2.36       3.85       -9999      -9999      185.1      -9999      0.4097862  0.8       
792.25     0.231      258.73     -9999      -9999      -9999      9.21       4.8        2.584956479324168 3.069983713311848 3.344996263077136 3.594829620441002 3.864996765845995 3.395      -9999      -9999      -9999      1.83       1.18       0.284      4.82       -9999      -9999      -9999      -9999      -9999      -9999      -9999      2.355      3.865      -9999      -9999      186.38     -9999      0.5109234  0.8       
792.4500000000001 0.23       261.78     -9999      -9999      -9999      9.15       5.19       2.564878164747763 2.999933332592554 3.304965960490347 3.464909811236044 3.81994764362024 3.375      -9999      -9999      -9999      1.75       1.18       0.312      4.98       -9999      -9999      -9999      -9999      -9999      -9999      -9999      2.335      3.82       -9999      -9999      188.26     -9999      0.4908376  0.8       
792.65     0.23       267.37     -9999      -9999      -9999      8.84       5.59       2.524995049500092 2.979983221429264 3.284996194822753 3.404996328926075 3.739946523681879 3.365      -9999      -9999      -9999      1.74       1.18       0.316      5.06       -9999      -9999      -9999      -9999      -9999      -9999      -9999      2.32       3.74       -9999      -9999      190.88     -9999      0.3989747  0.8       
792.85     0.23       271.73     -9999      -9999      -9999      8.83       6.05       2.549980392081488 3.019983443663238 3.32       3.404996328926075 3.679986413018384 3.365      -9999      -9999      -9999      1.73       1.19       0.326      5          -9999      -9999      -9999      -9999      -9999      -9999      -9999      2.325      3.68       -9999      -9999      193.31     -9999      0.3963166  0.8       
793.05     0.23       275.86     -9999      -9999      -9999      8.89       6.36       2.584879107424534 3.059983660087081 3.32       3.414996339675936 3.624968965384411 3.395      -9999      -9999      -9999      1.67       1.19       0.351      4.94       -9999      -9999      -9999      -9999      -9999      -9999      -9999      2.345      3.625      -9999      -9999      195.25     -9999      0.4125346  0.8       
793.25     0.229      281.69     -9999      -9999      -9999      8.94       6.5        2.614995219880909 3.06       3.334996251871957 3.409985337211877 3.549985915465018 3.415      -9999      -9999      -9999      1.62       1.19       0.374      4.82       -9999      -9999      -9999      -9999      -9999      -9999      -9999      2.36       3.55       -9999      -9999      195.87     -9999      0.426555   0.8       
793.4500000000001 0.229      284.49     -9999      -9999      -9999      8.75       6.36       2.60495681346158 3.054963174900787 3.314996229258785 3.390000000000001 3.514967994164368 3.42       -9999      -9999      -9999      1.62       1.17       0.361      4.66       -9999      -9999      -9999      -9999      -9999      -9999      -9999      2.36       3.515      -9999      -9999      194.97     -9999      0.3756803  0.8       
793.65     0.23       286.94     -9999      -9999      -9999      8.83       6.19       2.57495631030899 3.004962562162814 3.284996194822764 3.38       3.484996413197586 3.425      -9999      -9999      -9999      1.64       1.17       0.352      4.530001   -9999      -9999      -9999      -9999      -9999      -9999      -9999      2.36       3.485      -9999      -9999      193.24     -9999      0.3963166  0.8       
793.85     0.23       286.53     -9999      -9999      -9999      9.13       5.929999   2.574878637916775 3.019933774108322 3.304965960490382 3.384996307235805 3.49       3.395      -9999      -9999      -9999      1.63       1.17       0.357      4.36       -9999      -9999      -9999      -9999      -9999      -9999      -9999      2.36       3.49       -9999      -9999      191.54     -9999      0.4843195  0.8       
794.05     0.23       284.49     -9999      -9999      -9999      9.19       5.69       2.594995183039851 3.064995921693867 3.34       3.429985422709537 3.514996443810429 3.39       -9999      -9999      -9999      1.64       1.18       0.359      4.18       -9999      -9999      -9999      -9999      -9999      -9999      -9999      2.35       3.515      -9999      -9999      190.23     -9999      0.5041384  0.8       
794.25     0.23       285.3      -9999      -9999      -9999      9.35       5.469999   2.55       3.0299834983049 3.314996229258791 3.41499633967593 3.504996433664377 3.395      -9999      -9999      -9999      1.69       1.18       0.336      3.99       -9999      -9999      -9999      -9999      -9999      -9999      -9999      2.34       3.505      -9999      -9999      189.67     -9999      0.5610451  0.8       
794.4500000000001 0.23       284.9      -9999      -9999      -9999      9.39       5.29       2.59       3.029983498304889 3.294996206371103 3.404996328926062 3.509985754956861 3.365      -9999      -9999      -9999      1.79       1.18       0.298      3.88       -9999      -9999      -9999      -9999      -9999      -9999      -9999      2.34       3.51       -9999      -9999      190.2      -9999      0.5762483  0.8       
794.65     0.23       284.9      -9999      -9999      -9999      9.26       5.199999   2.509980079602238 2.954995769878535 3.284996194822764 3.410000000000001 3.51       3.355      -9999      -9999      -9999      1.9        1.18       0.261      3.8        -9999      -9999      -9999      -9999      -9999      -9999      -9999      2.345      3.51       -9999      -9999      191.46     -9999      0.5282881  0.8       
