~Version
 VERS              .         2.0                           : CWLS LOG ASCII STANDARD - VERSION 2.0
 WRAP              .         NO                            : ONE LINE PER DEPTH STEP
 DLM               .         SPACE                         : DELIMITING CHARACTER(SPACE TAB OR COMMA)
~Well Information
#_______________________________________________________________________________
#
#PARAMETER_NAME    .UNIT     VALUE                         : DESCRIPTION
#_______________________________________________________________________________
STRT               .M        0.25                          : First reference value
STOP               .M        1174.65                       : Last reference value
STEP               .M        0.2                           : Step increment
NULL               .         -9999                         : Missing value
COMP               .                                       : Company
WELL               .         7169                          : Well name
FLD                .         Узень                         : Field
LOC                .                                       : Location
CNTY               .                                       : County
STAT               .                                       : State
CTRY               .                                       : Country
SRVC               .                                       : Service Company
DATE               .                                       : Date
UWI                .                                       : Unique Well ID
Block              .         6а                            : 
Category           .         Нефтяная                      : 
Condition          .         В работе                      : 
Date               .         29.04.2017                    : 
EREF               .m        88.4                          : 100.8
GRP                .                                       : Group name
Gorizont           .         15                            : 14
ISS                .                                       : Well surveys
Interpretator      .         Бекбулатова А.А.              : 
Kupol              .         Основной                      : osnovnoi
Mud                .         Полимерный                    : 
Mud_density        .         1.36                          : 
Mud_resistivity    .         0.35                          : 
NGDU               .         НГДУ-2                        : 
ORIGINALWELLNAME   .         7169                          : 
Spud_date          .         2017                          : 1961
TIME               .         11_03                         : LOG TIME
Viscosity          .         40                            : 
X                  .m        42538.74                      : 46154
Y                  .m        84287.88                      : 85761.93
YEAR               .         2018                          : 
Исправ_15гор       .         Исправ.15гор                  : 
~Parameter Information Block
#_______________________________________________________________________________
#
#PARAMETER_NAME    .UNIT     VALUE                         : DESCRIPTION
#_______________________________________________________________________________
SET                .         LQC_KAZNIPI_Petrel            : 
TLFamily_CALI      .         Caliper                       : 
TLFamily_CILD      .         Conductivity                  : 
TLFamily_COLL      .         Net Reservoir Flag            : 
TLFamily_CSAT      .         Fluid Code                    : 
TLFamily_DEPT      .         Measured Depth                : 
TLFamily_DT        .         Compressional Slowness        : 
TLFamily_GR        .         Russian Gamma Ray             : 
TLFamily_GZ3       .         Gradient 225                  : 
TLFamily_IK1       .         Resistivity 05                : 
TLFamily_IK2       .         Resistivity 07                : 
TLFamily_IK3       .         Resistivity 10                : 
TLFamily_IK4       .         Resistivity 14                : 
TLFamily_IK5       .         Resistivity 20                : 
TLFamily_LLS       .         Lateral Log Resistivity       : 
TLFamily_MBK       .         Micro Lateral Log Resistivity : 
TLFamily_MINV      .         Micro Gradient Resistivity    : 
TLFamily_MNOR      .         Micro Resistivity             : 
TLFamily_NNKTB_1   .         Neutron Far                   : 
TLFamily_NNKTM_1   .         Neutron Near                  : 
TLFamily_NPHI      .         Neutron Porosity              : 
TLFamily_OGZ       .         Gradient Inverted 225         : 
TLFamily_PHIE      .         Effective Porosity            : 
TLFamily_PHIED     .         Effective Porosity            : 
TLFamily_PHIEN     .         Effective Porosity            : 
TLFamily_PHIES     .         Effective Porosity            : 
TLFamily_PHIT      .         Porosity                      : 
TLFamily_PRMB      .         Permeability                  : 
TLFamily_PRMB_DGR  .         Permeability                  : 
TLFamily_RHOB      .         Bulk Density                  : 
TLFamily_RT        .         Formation Resistivity         : 
TLFamily_SOIL_ARCHIE .         Oil Saturation                : 
TLFamily_SOIL_DW   .         Oil Saturation                : 
TLFamily_SP        .         Spontaneous Potential         : 
TLFamily_VSH_FIN   .         Shale Volume                  : 
TLFamily_VSH_GR    .         Shale Volume                  : 
TLFamily_VSH_SP    .         Shale Volume                  : 
~Curve Information
#_______________________________________________________________________________
#
#LOGNAME           .UNIT     LOG_ID                        : DESCRIPTION
#_______________________________________________________________________________
DEPT               .M                                      : Колонка глубины 
CALI               .м                                      : Каверномер 
CILD               .мСм/м                                  : Проводимость 
COLL               .unitless                               : Описание 
CSAT               .unitless                               : Описание 
DT                 .мкс/м                                  : Интервальное время пробега продольной волны 
GR                 .uR/h                                   : Гамма каротаж 
GZ3                .ohmm                                   : Градиент-зонд  длиной 2.25м 
IK1                .OHMM                                   : И0.10И0.40 
IK2                .OHMM                                   : И0.14И0.56 
IK3                .OHMM                                   : И0.20И0.8 
IK4                .OHMM                                   : И0.28И1.12 
IK5                .OHMM                                   : И0.40И1.60 
LLS                .ohmm                                   : Боковой каротаж 
MBK                .ohmm                                   : Микробоковой каротаж 
MINV               .ohmm                                   : Микро-градиент зонд 
MNOR               .ohmm                                   : Микро-потенциал зонд 
NNKTB_1            .у.е.                                   : Показания большого зонда 2ННКт аппаратуры СРК 
NNKTM_1            .у.е.                                   : Показания малого зонда 2ННКт аппаратуры СРК 
NPHI               .д.ед.                                  : Водородосодержание по НКТ 
OGZ                .ohmm                                   : Обращенный градиент-зонд 
PHIE               .д.ед.                                  : Описание 
PHIED              .д.ед.                                  :  
PHIEN              .д.ед.                                  :  
PHIES              .д.ед.                                  :  
PHIT               .д.ед.                                  : Описание 
PRMB               .mD                                     :  
PRMB_DGR           .mD                                     :  
RHOB               .G/C3                                   : Плотность по ГГКп 
RT                 .ohmm                                   : Удельное электрическое сопротивление 
SOIL_ARCHIE        .д.ед.                                  :  
SOIL_DW            .д.ед.                                  :  
SP                 .мВ                                     : Потенциал самополяризации 
VSH_FIN            .д.ед.                                  : Описание 
VSH_GR             .д.ед.                                  : Shale volume 
VSH_SP             .д.ед.                                  : Shale Volume 
~Ascii
# ...
871.05     0.223      457.66     -9999      -9999      296.664    8.2        2.6        3.149285633282865 2.66520168092416 2.30688101123587 2.15332301339126 2.184536564125266 3.275      3.66       3.545      4.065      2.4        1.44       0.242      3.08       0.1731634  0.2095809  0.1412512  0.1686582  0.2386531  4.514034   2.149339   2.32       2.185      0.2863411  0.4010096  177.93     0.3052994  0.4747041  0.1358947 
871.25     0.223      505.05     -9999      -9999      317.348    8.8        2.66       2.577653972122713 2.299652147608416 2.024845673131658 1.87976062305816 1.97977271422757 3.395      3.375      3.06       3.685      2.28       1.4        0.255      3.7        0.1836122  0.2365269  0.1369527  0.177357   0.2603464  7.048581   1.315298   2.275      1.98       0.289757   0.4163856  177.76     0.357719   0.5801131  0.135325  
871.4500000000001 0.224      486.61     -9999      -9999      335.171    9.43       2.86       2.32980685894772 2.154715758516614 1.994943608225573 1.909581105897357 2.054263858417476 4.045      3.335      2.99       3.54       2.26       1.36       0.243      4.88       0.1383093  0.1364717  0.1028908  0.1755654  0.2293845  1.020897   0.785379   2.285      2.055      0.106693   0.3070707  177.05     0.4245734  0.7160721  0.1330747 
871.65     0.225      397.61     -9999      -9999      320.636    9.46       3.51       2.475459553294935 2.363345086947469 2.429485542249322 2.386943652455718 2.505793287563596 5.35       3.745      3.105      3.765      2.64       1.4        0.181      6.7        0.092661   0.07892314 0.03990427 0.1591556  0.1843774  0.1457017  0.7663294  2.38       2.515      0          0.1629773  176.63     0.4275628  0.7232879  0.1318378 
871.85     0.226      265.25     -9999      -9999      276.289    8.92       4.5        4.81886916195163 4.338087136055122 4.2804439022145 3.959040287747199 3.743046887230217 7.855      43.75      4.515      5.9        3.36       1.54       0.125      8.05       0.07496538 0.1017964  0.003035797 0.1200639  0.1542457  0.06850129 1.192252   2.5        3.77       0          0.1722405  177.76     0.3695885  0.603852   0.135325  
872.05     0.226      187.09     -9999      -9999      233.043    7.67       5.65       7.343459675111919 6.657995193749687 5.944316613370833 6.013933820719598 5.335709887165548 9.98       29.24      4.93       6.575      4.19       1.71       0.089      8.23       0.03990832 0.04491016 0.000138078 0.07467672 0.09767121 0.01535879 3.316674   2.595      5.345      0          0          179.29     0.2692786  0.3976434  0.1409137 
872.25     0.225      161.55     -9999      -9999      213.3      6.41       6.14       9.952497174076463 9.438188385490086 7.591719172888312 7.105244541885944 6.189022539949261 9.98       19.68      4.84       6.715      4.67       1.82       0.077      7.64       0.02946264 0.02994019 0.009198762 0.04924899 0.07353546 0.009837341 9.302341   2.62       6.19       0          0          181.29     0.2054583  0.2609791  0.1499375 
872.4500000000001 0.226      162.07     -9999      -9999      212.122    5.94       6.219999   12.20497439571262 13.00472221925569 9.478649692862557 7.331548267589612 6.166425220498264 8.785      32.355     6.705      9.605      4.64       1.84       0.081      6.92       0.0394742  0.05089818 0.01732944 0.05019499 0.08086196 0.01507704 13.66665   2.585      6.17       0          0          183.55     0.1929411  0.2230414  0.1628408 
872.65     0.226      206.18     -9999      -9999      232.504    6.05       5.94       7.248793002978481 7.856411394525757 6.810132157309219 5.35052333889029 4.823111029201544 6.02       28.48      6.375      7.985      4.06       1.8        0.114      6.15       0.07867973 0.09580839 0.04644685 0.09378394 0.1225913  0.08025968 12.48994   2.51       4.85       0.02417506 0.1769789  185.68     0.2047065  0.2313939  0.1780191 
872.85     0.225      302.11     -9999      -9999      280.417    6.98       5.179999   3.301847967426391 3.568753283710832 3.671620895462459 3.257821357901246 3.298969536082135 3.465      3.34       2.99       3.955      3.13       1.64       0.176      5.23       0.1319932  0.1407186  0.09252935 0.1627316  0.1862516  0.7798155  5.834122   2.435      3.31       0.2560633  0.3703056  187.12     0.2529414  0.3157481  0.1901346 
873.05     0.226      414.93     -9999      -9999      333.238    8.82       4.18       2.228901074521291 2.376762503911905 2.513085752615974 2.446548589339832 2.405930173550505 2.56       3.33       2.84       3.885      2.36       1.45       0.255      4.41       0.1307234  0.08130542 0.1263715  0.1844933  0.2143357  0.7387072  1.293942   2.39       2.41       0.1293131  0.3183458  187.71     0.3897834  0.5840036  0.1955631 
873.25     0.231      488.99     -9999      -9999      365.126    10.65      3.43       1.509867543859394 1.714409519338947 1.929352222897623 2.034256620979762 2.044504830026087 2.41       2.14       1.985      3.08       2.01       1.33       0.3        4.44       0.1261013  0.06300504 0.1351949  0.180104   0.2332295  0.6065413  0.2893402  2.38       2.045      0.02960666 0.2867104  188.05     0.4994094  0.8        0.1988188 
873.4500000000001 0.229      488.99     -9999      -9999      370.701    11.82      3.09       1.628895331198485 1.744648961825885 1.904940943966522 2.039779399837183 2.044700467061169 2.545      2.365      2.21       3.045      1.96       1.28       0.292      5.32       0.1243149  0.06692912 0.1241205  0.181895   0.2334415  0.5620456  0.1110482  2.37       2.045      0.01747273 0.2831222  189.83     0.5087256  0.8        0.2174513 
873.65     0.226      429.18     -9999      -9999      354.289    11.77      3.21       1.699970587980874 1.794937324811075 1.929766825292597 2.219189041068763 2.327853088147848 2.885      2.52       2.405      3.15       2.08       1.28       0.256      6.79       0.09843027 0.04655903 0.08453707 0.1641947  0.2098863  0.1863483  0.115687   2.4        2.33       0          0.2156315  191.63     0.5195847  0.8        0.2391693 
873.85     0.225      334.44     -9999      -9999      317.724    10.66      3.9        2.415947019287271 2.587005991489507 2.569202210804382 2.927575788942414 2.983957104249538 3.375      3.195      2.835      3.605      2.41       1.35       0.206      8.42       0.05923313 0.01872056 0.03320778 0.1257711  0.1715532  0.03501865 0.2869818  2.445      2.99       0          0.05306514 192.24     0.5236128  0.8        0.2472256 
874.05     0.226      284.09     -9999      -9999      291.042    9.1        4.85       4.514199818350881 4.263449307778725 3.92       3.684915195767768 3.519943181359586 3.89       56.945     5.420001   7.01       2.78       1.45       0.174      9.44       0.06627853 0.04969215 0.02950089 0.1196425  0.1602072  0.04729304 1.028925   2.425      3.52       0          0.1239637  191.26     0.4378761  0.6412944  0.2344577 
874.25     0.223      338.98     -9999      -9999      299.11     7.82       5.56       3.639244427075489 3.275820507903325 2.948219801846531 2.702998335182618 2.943212530552287 3.795      4.01       3.39       4.255      2.82       1.53       0.191      9.12       0.1483402  0.1886227  0.08734624 0.1690517  0.2157182  1.565954   2.933477   2.355      2.95       0.2906866  0.4169227  189.16     0.3141023  0.4180866  0.2101179 
874.4500000000001 0.222      424.62     -9999      -9999      327.168    7.62       5.3        2.672077843177335 2.529980237076951 2.309978354876957 2.139906540015218 2.354357661868669 3.435      3.53       3.165      3.835      2.58       1.49       0.222      8.11       0.1887746  0.2305389  0.126339   0.209446   0.2509571  8.784604   3.455223   2.285      2.355      0.3608963  0.4594765  186.96     0.2898819  0.3910536  0.1887101 
874.65     0.221      421.9401   -9999      -9999      337.132    8.02       4.26       3.021522794883236 2.882707061079784 2.676845158017028 2.397915761656246 2.369240384595805 3.81       7.945      3.39       3.97       2.45       1.42       0.223      7.75       0.1905787  0.2365269  0.1212315  0.2139778  0.2567313  9.487209   2.490513   2.275      2.37       0.3680545  0.4703986  184.58     0.3083895  0.4469883  0.1697907 
