~Version
 VERS              .         2.0                           : CWLS LOG ASCII STANDARD - VERSION 2.0
 WRAP              .         NO                            : ONE LINE PER DEPTH STEP
 DLM               .         SPACE                         : DELIMITING CHARACTER(SPACE TAB OR COMMA)
~Well Information
#_______________________________________________________________________________
#
#PARAMETER_NAME    .UNIT     VALUE                         : DESCRIPTION
#_______________________________________________________________________________
STRT               .M        0.25                          : First reference value
STOP               .M        1174.65                       : Last reference value
STEP               .M        0.2                           : Step increment
NULL               .         -9999                         : Missing value
COMP               .                                       : Company
WELL               .         7169                          : Well name
FLD                .         Узень                         : Field
LOC                .                                       : Location
CNTY               .                                       : County
STAT               .                                       : State
CTRY               .                                       : Country
SRVC               .                                       : Service Company
DATE               .                                       : Date
UWI                .                                       : Unique Well ID
Block              .         6а                            : 
Category           .         Нефтяная                      : 
Condition          .         В работе                      : 
Date               .         29.04.2017                    : 
EREF               .m        88.4                          : 100.8
GRP                .                                       : Group name
Gorizont           .         15                            : 14
ISS                .                                       : Well surveys
Interpretator      .         Бекбулатова А.А.              : 
Kupol              .         Основной                      : osnovnoi
Mud                .         Полимерный                    : 
Mud_density        .         1.36                          : 
Mud_resistivity    .         0.35                          : 
NGDU               .         НГДУ-2                        : 
ORIGINALWELLNAME   .         7169                          : 
Spud_date          .         2017                          : 1961
TIME               .         11_03                         : LOG TIME
Viscosity          .         40                            : 
X                  .m        42538.74                      : 46154
Y                  .m        84287.88                      : 85761.93
YEAR               .         2018                          : 
Исправ_15гор       .         Исправ.15гор                  : 
~Parameter Information Block
#_______________________________________________________________________________
#
#PARAMETER_NAME    .UNIT     VALUE                         : DESCRIPTION
#_______________________________________________________________________________
SET                .         LQC_KAZNIPI_Petrel            : 
TLFamily_CALI      .         Caliper                       : 
TLFamily_CILD      .         Conductivity                  : 
TLFamily_COLL      .         Net Reservoir Flag            : 
TLFamily_CSAT      .         Fluid Code                    : 
TLFamily_DEPT      .         Measured Depth                : 
TLFamily_DT        .         Compressional Slowness        : 
TLFamily_GR        .         Russian Gamma Ray             : 
TLFamily_GZ3       .         Gradient 225                  : 
TLFamily_IK1       .         Resistivity 05                : 
TLFamily_IK2       .         Resistivity 07                : 
TLFamily_IK3       .         Resistivity 10                : 
TLFamily_IK4       .         Resistivity 14                : 
TLFamily_IK5       .         Resistivity 20                : 
TLFamily_LLS       .         Lateral Log Resistivity       : 
TLFamily_MBK       .         Micro Lateral Log Resistivity : 
TLFamily_MINV      .         Micro Gradient Resistivity    : 
TLFamily_MNOR      .         Micro Resistivity             : 
TLFamily_NNKTB_1   .         Neutron Far                   : 
TLFamily_NNKTM_1   .         Neutron Near                  : 
TLFamily_NPHI      .         Neutron Porosity              : 
TLFamily_OGZ       .         Gradient Inverted 225         : 
TLFamily_PHIE      .         Effective Porosity            : 
TLFamily_PHIED     .         Effective Porosity            : 
TLFamily_PHIEN     .         Effective Porosity            : 
TLFamily_PHIES     .         Effective Porosity            : 
TLFamily_PHIT      .         Porosity                      : 
TLFamily_PRMB      .         Permeability                  : 
TLFamily_PRMB_DGR  .         Permeability                  : 
TLFamily_RHOB      .         Bulk Density                  : 
TLFamily_RT        .         Formation Resistivity         : 
TLFamily_SOIL_ARCHIE .         Oil Saturation                : 
TLFamily_SOIL_DW   .         Oil Saturation                : 
TLFamily_SP        .         Spontaneous Potential         : 
TLFamily_VSH_FIN   .         Shale Volume                  : 
TLFamily_VSH_GR    .         Shale Volume                  : 
TLFamily_VSH_SP    .         Shale Volume                  : 
~Curve Information
#_______________________________________________________________________________
#
#LOGNAME           .UNIT     LOG_ID                        : DESCRIPTION
#_______________________________________________________________________________
DEPT               .M                                      : Колонка глубины 
CALI               .м                                      : Каверномер 
CILD               .мСм/м                                  : Проводимость 
COLL               .unitless                               : Описание 
CSAT               .unitless                               : Описание 
DT                 .мкс/м                                  : Интервальное время пробега продольной волны 
GR                 .uR/h                                   : Гамма каротаж 
GZ3                .ohmm                                   : Градиент-зонд  длиной 2.25м 
IK1                .OHMM                                   : И0.10И0.40 
IK2                .OHMM                                   : И0.14И0.56 
IK3                .OHMM                                   : И0.20И0.8 
IK4                .OHMM                                   : И0.28И1.12 
IK5                .OHMM                                   : И0.40И1.60 
LLS                .ohmm                                   : Боковой каротаж 
MBK                .ohmm                                   : Микробоковой каротаж 
MINV               .ohmm                                   : Микро-градиент зонд 
MNOR               .ohmm                                   : Микро-потенциал зонд 
NNKTB_1            .у.е.                                   : Показания большого зонда 2ННКт аппаратуры СРК 
NNKTM_1            .у.е.                                   : Показания малого зонда 2ННКт аппаратуры СРК 
NPHI               .д.ед.                                  : Водородосодержание по НКТ 
OGZ                .ohmm                                   : Обращенный градиент-зонд 
PHIE               .д.ед.                                  : Описание 
PHIED              .д.ед.                                  :  
PHIEN              .д.ед.                                  :  
PHIES              .д.ед.                                  :  
PHIT               .д.ед.                                  : Описание 
PRMB               .mD                                     :  
PRMB_DGR           .mD                                     :  
RHOB               .G/C3                                   : Плотность по ГГКп 
RT                 .ohmm                                   : Удельное электрическое сопротивление 
SOIL_ARCHIE        .д.ед.                                  :  
SOIL_DW            .д.ед.                                  :  
SP                 .мВ                                     : Потенциал самополяризации 
VSH_FIN            .д.ед.                                  : Описание 
VSH_GR             .д.ед.                                  : Shale volume 
VSH_SP             .д.ед.                                  : Shale Volume 
~Ascii
# ...
1030.65    0.227      625        -9999      -9999      336.826    11.23      1.48       1.394560862780746 1.499866660740169 1.574928569808769 1.574611063088199 1.599718725276347 1.59       1.885      2.13       2.505      1.83       1.25       0.321      1.74       0.09569535 0.01650768 0.1359929  0.1345855  0.2159555  0.1658319  1.130697   2.435      1.6        0          0.06024964 210.74     0.5606276  0.6170652  0.50419   
1030.85    0.228      653.5901   -9999      -9999      342.461    11.78      1.36       1.304990421420797 1.414920492465954 1.509966887054173 1.509966887054173 1.529967319912445 1.545      1.765      2.055      2.515      1.66       1.23       0.381      1.79       0.1015687  0.006449662 0.1765525  0.121704   0.2344657  0.2130383  0.7279614  2.43       1.53       0          0.1073601  210.61     0.6195378  0.738618   0.5004576 
1031.05    0.231      673.4      -9999      -9999      344.339    12.08      1.33       1.279960936903935 1.364917579929279 1.474923726841493 1.484991582467726 1.484991582467726 1.525      1.735      2.045      2.495      1.53       1.22       0.444      1.95       0.1110691  -0.00507958 0.2268395  0.1114474  0.2522299  0.3194683  0.5725281  2.435      1.485      0          0.1628658  211.15     0.658062   0.8        0.516124  
1031.25    0.228      687.28     -9999      -9999      346.667    12.15      1.36       1.254990039801113 1.33       1.424991228043176 1.454991408909345 1.454991408909345 1.52       1.735      2.015      2.445      1.53       1.21       0.436      2.2        0.09700821 -0.02776879 0.2118016  0.1069918  0.2427438  0.1753821  0.5413241  2.465      1.455      0          0.08928718 212.55     0.6793891  0.8        0.5587782 
1031.45    0.227      701.7499   -9999      -9999      347.21     12.19      1.5        1.244989959798873 1.31996212066862 1.389964028311524 1.429965034537558 1.424991228043176 1.525      1.75       2.15       2.455      1.58       1.21       0.408      2.33       0.08061738 -0.0422323 0.1800966  0.1039879  0.2287614  0.08717412 0.5242629  2.485      1.425      0          0          213.25     0.6906164  0.8        0.5812328 
1031.65    0.227      694.4401   -9999      -9999      343.766    12.15      1.75       1.22       1.294990347454385 1.374990909060868 1.40499110317469 1.439965277359168 1.56       1.73       2.14       2.445      1.7        1.22       0.357      2.4        0.06273437 -0.04429262 0.1304874  0.1020083  0.2099743  0.04065845 0.5413241  2.49       1.44       0          0          212.99     0.6864018  0.8        0.5728036 
1031.85    0.228      662.2501   -9999      -9999      335.038    12.07      1.99       1.308625232830104 1.399106857963209 1.4839811319554 1.489462990476678 1.509701957341181 1.625      1.92       2.26       2.48       1.86       1.23       0.3        2.39       0.04475685 -0.04128673 0.07796456 0.09759273 0.1890865  0.01888702 0.5771304  2.49       1.51       0          0          212.13     0.6728347  0.8        0.5456694 
1032.05    0.23       615.3799   -9999      -9999      324.171    11.65      2.16       1.449965516831349 1.534991856655924 1.629969324864735 1.619722198403171 1.624807680927192 1.695      2.035      2.515      2.575      1.92       1.25       0.29       2.43       0.0543396  -0.02843141 0.08711202 0.1043382  0.1862228  0.0284223  0.8078114  2.49       1.625      0          0          211.34     0.614812   0.7078847  0.5217394 
1032.25    0.235      583.09     -9999      -9999      318.983    11.1       2.18       1.597998748435054 1.654388104405977 1.729537510434509 1.709883036935568 1.714992711354774 1.745      2.25       2.535      2.66       1.98       1.27       0.28       2.45       0.067122   -0.01457926 0.09774426 0.118201   0.1855936  0.0490253  1.254723   2.49       1.715      0          0          211.05     0.5522901  0.5913898  0.5131905 
1032.45    0.231      581.39     -9999      -9999      320.003    10.57      2.24       1.57403938959608 1.649515080258438 1.734646938140439 1.724934781375806 1.72       1.765      2.075      2.485      2.69       2.01       1.26       0.267      2.43       0.07129426 -0.01279136 0.09632616 0.130348   0.1822373  0.05857344 1.917925   2.5        1.72       0          0          211.85     0.5171934  0.4973069  0.5370799 
1032.65    0.232      583.09     -9999      -9999      320.812    10.73      2.26       1.529477034806433 1.619506097549588 1.694815624190488 1.704816705690144 1.714992711354786 1.77       2.08       2.385      2.64       2.01       1.26       0.267      2.39       0.06745948 -0.01374136 0.09045161 0.1256682  0.1822212  0.04973605 1.687326   2.495      1.715      0          0          212.14     0.5349951  0.524012   0.5459782 
1032.85    0.232      568.1799   -9999      -9999      318.152    11.16      2.24       1.609968943799871 1.714992711354786 1.804937672054046 1.779971909890692 1.759971590679782 1.8        2.205      2.575      2.695      2.05       1.26       0.255      2.32       0.05390072 -0.01586763 0.06636571 0.1112041  0.1765186  0.02789524 1.195874   2.485      1.76       0          0          211.95     0.571619   0.6031045  0.5401337 
1033.05    0.231      558.6501   -9999      -9999      312.117    11.24      2.24       1.564992012759171 1.679970237831611 1.804993074778959 1.799972222007884 1.789972066821156 1.82       2.1        2.425      2.695      2.05       1.27       0.26       2.23       0.05136787 -0.01508643 0.06806992 0.1011201  0.1761281  0.02503892 1.12168    2.48       1.79       0          0          212.08     0.5816063  0.6190858  0.5441267 
1033.25    0.231      546.4399   -9999      -9999      306.633    10.86      2.19       1.639969511911731 1.724934781375806 1.844939023382616 1.859892470010027 1.82989070711887 1.825      2.315      2.395      2.82       1.93       1.27       0.296      2.11       0.06448184 -0.01923327 0.1112716  0.1014071  0.1845608  0.04380444 1.520538   2.495      1.83       0          0          212.99     0.5597829  0.5467623  0.5728036 
1033.45    0.232      529.0999   -9999      -9999      306.411    10.67      2.09       1.654811167475008 1.774823934929885 1.899894733926067 1.914941252362589 1.889973544788392 1.825      2.205      2.605      2.78       1.88       1.26       0.308      2          0.07030363 -0.02221885 0.1277439  0.1053859  0.1874755  0.05615026 1.770358   2.505      1.89       0          0          213.17     0.5462307  0.5138336  0.5786278 
1033.65    0.231      530.5      -9999      -9999      314.665    10.83      1.97       1.769971751186984 1.844939023382582 1.964993638666537 1.949974358805754 1.884993368688589 1.8        2.36       2.79       2.855      2          1.26       0.269      1.95       0.05935863 -0.0253753 0.0885018  0.1149494  0.1766878  0.03520658 1.5575     2.51       1.885      0          0          212.35     0.5469642  0.5414262  0.5525022 
1033.85    0.231      557.0999   -9999      -9999      326.916    11.17      1.83       1.589213642025628 1.678928229556123 1.804161855266997 1.809309260463896 1.794435844492738 1.75       2.09       2.53       2.665      2.07       1.26       0.25       1.97       0.05517389 -0.02053208 0.06333712 0.1227166  0.1765103  0.02945183 1.186338   2.495      1.795      0          0          211.49     0.5656451  0.6050794  0.5262108 
1034.05    0.231      597.0101   -9999      -9999      334.958    11.5       1.75       1.424780684877501 1.519868415357066 1.634808857328587 1.644627617425903 1.674813422444422 1.665      1.905      2.325      2.58       2.01       1.25       0.262      2.01       0.05524822 -0.02347286 0.06649759 0.1227199  0.1823306  0.02954535 0.9108894  2.49       1.675      0          0          210.97     0.5924315  0.6740089  0.5108541 
1034.25    0.231      628.93     -9999      -9999      334.078    11.49      1.65       1.354916971625937 1.459965753022995 1.569968152543229 1.574992063472067 1.589968553148143 1.655      1.875      2.245      2.54       1.87       1.23       0.296      2.05       0.06438471 -0.02493035 0.09832673 0.1197578  0.1928782  0.04362336 0.9182116  2.49       1.59       0          0          211.49     0.5990099  0.671809   0.5262108 
