~Version
 VERS              .         2.0                           : CWLS LOG ASCII STANDARD - VERSION 2.0
 WRAP              .         NO                            : ONE LINE PER DEPTH STEP
 DLM               .         SPACE                         : DELIMITING CHARACTER(SPACE TAB OR COMMA)
~Well Information
#_______________________________________________________________________________
#
#PARAMETER_NAME    .UNIT     VALUE                         : DESCRIPTION
#_______________________________________________________________________________
STRT               .M        0.25                          : First reference value
STOP               .M        1174.65                       : Last reference value
STEP               .M        0.2                           : Step increment
NULL               .         -9999                         : Missing value
COMP               .                                       : Company
WELL               .         7169                          : Well name
FLD                .         Узень                         : Field
LOC                .                                       : Location
CNTY               .                                       : County
STAT               .                                       : State
CTRY               .                                       : Country
SRVC               .                                       : Service Company
DATE               .                                       : Date
UWI                .                                       : Unique Well ID
Block              .         6а                            : 
Category           .         Нефтяная                      : 
Condition          .         В работе                      : 
Date               .         29.04.2017                    : 
EREF               .m        88.4                          : 100.8
GRP                .                                       : Group name
Gorizont           .         15                            : 14
ISS                .                                       : Well surveys
Interpretator      .         Бекбулатова А.А.              : 
Kupol              .         Основной                      : osnovnoi
Mud                .         Полимерный                    : 
Mud_density        .         1.36                          : 
Mud_resistivity    .         0.35                          : 
NGDU               .         НГДУ-2                        : 
ORIGINALWELLNAME   .         7169                          : 
Spud_date          .         2017                          : 1961
TIME               .         11_03                         : LOG TIME
Viscosity          .         40                            : 
X                  .m        42538.74                      : 46154
Y                  .m        84287.88                      : 85761.93
YEAR               .         2018                          : 
Исправ_15гор       .         Исправ.15гор                  : 
~Parameter Information Block
#_______________________________________________________________________________
#
#PARAMETER_NAME    .UNIT     VALUE                         : DESCRIPTION
#_______________________________________________________________________________
SET                .         LQC_KAZNIPI_Petrel            : 
TLFamily_CALI      .         Caliper                       : 
TLFamily_CILD      .         Conductivity                  : 
TLFamily_COLL      .         Net Reservoir Flag            : 
TLFamily_CSAT      .         Fluid Code                    : 
TLFamily_DEPT      .         Measured Depth                : 
TLFamily_DT        .         Compressional Slowness        : 
TLFamily_GR        .         Russian Gamma Ray             : 
TLFamily_GZ3       .         Gradient 225                  : 
TLFamily_IK1       .         Resistivity 05                : 
TLFamily_IK2       .         Resistivity 07                : 
TLFamily_IK3       .         Resistivity 10                : 
TLFamily_IK4       .         Resistivity 14                : 
TLFamily_IK5       .         Resistivity 20                : 
TLFamily_LLS       .         Lateral Log Resistivity       : 
TLFamily_MBK       .         Micro Lateral Log Resistivity : 
TLFamily_MINV      .         Micro Gradient Resistivity    : 
TLFamily_MNOR      .         Micro Resistivity             : 
TLFamily_NNKTB_1   .         Neutron Far                   : 
TLFamily_NNKTM_1   .         Neutron Near                  : 
TLFamily_NPHI      .         Neutron Porosity              : 
TLFamily_OGZ       .         Gradient Inverted 225         : 
TLFamily_PHIE      .         Effective Porosity            : 
TLFamily_PHIED     .         Effective Porosity            : 
TLFamily_PHIEN     .         Effective Porosity            : 
TLFamily_PHIES     .         Effective Porosity            : 
TLFamily_PHIT      .         Porosity                      : 
TLFamily_PRMB      .         Permeability                  : 
TLFamily_PRMB_DGR  .         Permeability                  : 
TLFamily_RHOB      .         Bulk Density                  : 
TLFamily_RT        .         Formation Resistivity         : 
TLFamily_SOIL_ARCHIE .         Oil Saturation                : 
TLFamily_SOIL_DW   .         Oil Saturation                : 
TLFamily_SP        .         Spontaneous Potential         : 
TLFamily_VSH_FIN   .         Shale Volume                  : 
TLFamily_VSH_GR    .         Shale Volume                  : 
TLFamily_VSH_SP    .         Shale Volume                  : 
~Curve Information
#_______________________________________________________________________________
#
#LOGNAME           .UNIT     LOG_ID                        : DESCRIPTION
#_______________________________________________________________________________
DEPT               .M                                      : Колонка глубины 
CALI               .м                                      : Каверномер 
CILD               .мСм/м                                  : Проводимость 
COLL               .unitless                               : Описание 
CSAT               .unitless                               : Описание 
DT                 .мкс/м                                  : Интервальное время пробега продольной волны 
GR                 .uR/h                                   : Гамма каротаж 
GZ3                .ohmm                                   : Градиент-зонд  длиной 2.25м 
IK1                .OHMM                                   : И0.10И0.40 
IK2                .OHMM                                   : И0.14И0.56 
IK3                .OHMM                                   : И0.20И0.8 
IK4                .OHMM                                   : И0.28И1.12 
IK5                .OHMM                                   : И0.40И1.60 
LLS                .ohmm                                   : Боковой каротаж 
MBK                .ohmm                                   : Микробоковой каротаж 
MINV               .ohmm                                   : Микро-градиент зонд 
MNOR               .ohmm                                   : Микро-потенциал зонд 
NNKTB_1            .у.е.                                   : Показания большого зонда 2ННКт аппаратуры СРК 
NNKTM_1            .у.е.                                   : Показания малого зонда 2ННКт аппаратуры СРК 
NPHI               .д.ед.                                  : Водородосодержание по НКТ 
OGZ                .ohmm                                   : Обращенный градиент-зонд 
PHIE               .д.ед.                                  : Описание 
PHIED              .д.ед.                                  :  
PHIEN              .д.ед.                                  :  
PHIES              .д.ед.                                  :  
PHIT               .д.ед.                                  : Описание 
PRMB               .mD                                     :  
PRMB_DGR           .mD                                     :  
RHOB               .G/C3                                   : Плотность по ГГКп 
RT                 .ohmm                                   : Удельное электрическое сопротивление 
SOIL_ARCHIE        .д.ед.                                  :  
SOIL_DW            .д.ед.                                  :  
SP                 .мВ                                     : Потенциал самополяризации 
VSH_FIN            .д.ед.                                  : Описание 
VSH_GR             .д.ед.                                  : Shale volume 
VSH_SP             .д.ед.                                  : Shale Volume 
~Ascii
# ...
897.65     0.224      778.21     1          3          306.523    4.27       1.39       3.43418112510109 2.599692289483553 1.739885053674546 1.389964028311536 1.284990272336727 1.915      3.4        2.635      3          2.37       1.42       0.241      1.1        0.235286   0.2664671  0.2008014  0.2385894  0.2614163  63.85943   53.61587   2.225      1.285      0.2989968  0.3488326  167.08     0.121814   0.1276398  0.1159882 
897.85     0.224      784.3101   1          3          305.409    4.28       1.39       3.214125075350903 2.449489742783121 1.684992581586038 1.364990842460119 1.274990196040733 1.885      3.735      2.59       3.125      2.51       1.41       0.208      1.24       0.2257022  0.2724552  0.1676075  0.2370439  0.2519585  42.43365   53.17878   2.215      1.275      0.2704723  0.3203685  167.79     0.1224014  0.1280671  0.1167357 
898.05     0.224      781.2501   1          3          305.069    4.22       1.45       3.004995840263349 2.324994623649692 1.674932834474249 1.359963234797165 1.279960936903924 1.88       3.37       2.555      3.05       2.55       1.41       0.2        1.42       0.2251077  0.2784432  0.1599388  0.2369411  0.2511487  41.37127   55.8556    2.205      1.28       0.2701363  0.3196796  168.29     0.1213976  0.1255245  0.1172708 
898.25     0.224      766.28     1          3          306.82     4.18       1.46       3.169747624023087 2.454750496486354 1.749971428338189 1.404919926543858 1.304990421420786 1.9        3.705      2.52       3.03       2.42       1.41       0.226      1.59       0.2356922  0.2814371  0.1862564  0.239383   0.2615267  64.9754    57.71457   2.2        1.305      0.3051036  0.3544748  168.05     0.1204351  0.1238576  0.1170127 
898.4500000000001 0.224      763.35     1          3          309.816    4.08       1.55       3.24986153551197 2.53992125862203 1.769971751187018 1.42       1.31       1.92       3.325      2.59       3.01       2.3        1.42       0.258      1.76       0.2461337  0.2754491  0.2191318  0.2438203  0.2713992  101.4266   62.63718   2.21       1.31       0.3320496  0.3808177  166.88     0.1177825  0.1197864  0.1157786 
898.65     0.224      763.35     1          3          309.615    4.07       1.67       3.54471437495317 2.679925372095253 1.804993074778953 1.42       1.31       1.92       3.355      2.635      3.135      2.3        1.43       0.262      1.89       0.2446016  0.2664671  0.2234525  0.2438853  0.2696587  95.01099   63.15196   2.225      1.31       0.3284073  0.3768719  165.43     0.1168106  0.1193868  0.1142344 
898.85     0.223      766.28     1          3          306.967    4.18       1.79       3.454562200916285 2.599692289483462 1.784936973677205 1.404991103174673 1.304990421420792 1.905      3.805      2.615      3.195      2.37       1.43       0.245      1.92       0.2363973  0.263473   0.2057184  0.2400005  0.2619315  66.95921   57.71457   2.23       1.305      0.3069094  0.3558703  165.41     0.119035   0.1238576  0.1142125 
899.05     0.223      766.28     1          3          306        4.11       1.88       3.109212118849484 2.434748446965352 1.734992795374096 1.404991103174673 1.304990421420792 1.885      3.58       2.58       3.16       2.39       1.46       0.252      1.98       0.2395933  0.2664671  0.2131141  0.2391987  0.2648703  76.73743   61.11786   2.225      1.305      0.3149684  0.363637   165.84     0.1178362  0.1209935  0.1146788 
899.25     0.224      763.35     1          3          308.492    4.01       1.92       3.109421167998957 2.439918031410072 1.764992917832817 1.414991166050163 1.31       1.87       3.615      2.575      3.02       2.41       1.47       0.251      1.96       0.2416205  0.2694611  0.2126616  0.2427389  0.2665416  83.66737   66.33075   2.22       1.31       0.3211961  0.3694128  166.46     0.116177   0.1170165  0.1153375 
899.4500000000001 0.223      763.35     1          3          309.768    4.09       1.95       3.279618880296973 2.509980079602238 1.774992957732515 1.42       1.31       1.885      3.52       2.59       3.08       2.4        1.47       0.253      1.9        0.2423493  0.2694611  0.2139739  0.2436131  0.2677175  86.3089    62.12659   2.22       1.31       0.3229744  0.3718081  167.41     0.118261   0.1201875  0.1163346 
899.65     0.224      769.2299   1          3          307.571    3.95       1.93       3.384907679686377 2.56495613997587 1.79       1.434991289172162 1.3        1.91       3.5        2.55       3.12       2.45       1.48       0.245      1.83       0.2373502  0.263473   0.206809   0.2417685  0.2621755  69.73627   69.66954   2.23       1.3        0.308088   0.3560872  167.82     0.1157304  0.1146934  0.1167675 
899.85     0.224      778.21     1          3          305.313    3.86       1.92       3.444967343821982 2.59499518303984 1.774992957732503 1.424991228043171 1.284990272336715 1.92       3.655      2.595      3.195      2.51       1.48       0.232      1.77       0.229443   0.2544911  0.1943275  0.2395103  0.2539312  49.77354   74.99549   2.245      1.285      0.283474   0.3307587  168.06     0.1141591  0.1112948  0.1170234 
900.05     0.224      778.21     1          3          304.62     3.78       1.85       3.409985337211889 2.554995107627415 1.76       1.39499103939775 1.284990272336727 1.91       3.58       2.545      3.15       2.53       1.48       0.228      1.67       0.2251453  0.245509   0.1908102  0.2391165  0.2493197  41.43758   80.0705    2.26       1.285      0.2715761  0.3182103  168.07     0.1126963  0.1083585  0.1170341 
900.25     0.224      781.2501   1          3          304.697    3.99       1.73       3.349940297975473 2.504875246394518 1.739971264130532 1.374990909060856 1.28       1.875      3.585      2.61       3.195      2.45       1.48       0.245      1.5        0.2280448  0.239521   0.2065752  0.2380381  0.253022   46.89217   67.4255    2.27       1.28       0.2783302  0.3263145  167.7      0.1164387  0.116237   0.1166404 
900.4500000000001 0.224      787.4      1          3          304.284    4.06       1.59       3.198999843701062 2.344354921934754 1.689881652660896 1.35       1.27       1.845      3.67       2.68       3.14       2.45       1.48       0.245      1.32       0.227749   0.239521   0.2063816  0.2373445  0.2528521  46.30439   63.67097   2.27       1.27       0.27485    0.3230315  166.2      0.1170256  0.1189884  0.1150628 
900.65     0.224      778.21     1          3          302.307    3.84       1.41       2.939846934791028 2.214949209349974 1.63       1.36       1.284990272336715 1.835      3.515      2.64       3.16       2.53       1.48       0.228      1.11       0.2242819  0.245509   0.1909555  0.2363812  0.2483619  39.93954   76.23325   2.26       1.285      0.2691346  0.3155831  165.18     0.112256   0.1105533  0.1139586 
900.85     0.223      757.5699   1          3          300.996    3.91       1.25       2.694958255706402 2.239441894758659 1.699735273505882 1.429860133020033 1.319962120668631 1.85       3.725      2.595      3          2.57       1.49       0.224      0.98       0.2221461  0.245509   0.1865663  0.2343631  0.2464792  36.46223   71.98825   2.26       1.32       0.2722538  0.3189882  164.95     0.1134356  0.1131703  0.1137009 
901.05     0.223      743.4901   1          3          301.847    4.24       1.1        3.251768749465271 2.573907535246665 1.839755418527113 1.479966215830607 1.344990706287588 1.91       3.685      2.66       3.09       2.61       1.49       0.216      0.9        0.2194024  0.2485029  0.1763629  0.2333413  0.2451677  32.43565   54.94869   2.255      1.345      0.2707825  0.3196746  165.09     0.1201123  0.1263664  0.1138582 
901.25     0.222      737.9999   1          3          301.233    4.35       1.02       3.459942196048946 2.664957785781981 1.849891888732961 1.479966215830618 1.354990774876346 1.98       3.845      2.81       3.11       2.63       1.5        0.215      0.99       0.2222865  0.2604791  0.1745674  0.231813   0.2485689  36.68117   50.2176    2.235      1.355      0.2815316  0.3312587  165.17     0.122523   0.1310986  0.1139475 
