~Version
 VERS              .         2.0                           : CWLS LOG ASCII STANDARD - VERSION 2.0
 WRAP              .         NO                            : ONE LINE PER DEPTH STEP
 DLM               .         SPACE                         : DELIMITING CHARACTER(SPACE TAB OR COMMA)
~Well Information
#_______________________________________________________________________________
#
#PARAMETER_NAME    .UNIT     VALUE                         : DESCRIPTION
#_______________________________________________________________________________
STRT               .M        0.25                          : First reference value
STOP               .M        1174.65                       : Last reference value
STEP               .M        0.2                           : Step increment
NULL               .         -9999                         : Missing value
COMP               .                                       : Company
WELL               .         7169                          : Well name
FLD                .         Узень                         : Field
LOC                .                                       : Location
CNTY               .                                       : County
STAT               .                                       : State
CTRY               .                                       : Country
SRVC               .                                       : Service Company
DATE               .                                       : Date
UWI                .                                       : Unique Well ID
Block              .         6а                            : 
Category           .         Нефтяная                      : 
Condition          .         В работе                      : 
Date               .         29.04.2017                    : 
EREF               .m        88.4                          : 100.8
GRP                .                                       : Group name
Gorizont           .         15                            : 14
ISS                .                                       : Well surveys
Interpretator      .         Бекбулатова А.А.              : 
Kupol              .         Основной                      : osnovnoi
Mud                .         Полимерный                    : 
Mud_density        .         1.36                          : 
Mud_resistivity    .         0.35                          : 
NGDU               .         НГДУ-2                        : 
ORIGINALWELLNAME   .         7169                          : 
Spud_date          .         2017                          : 1961
TIME               .         11_03                         : LOG TIME
Viscosity          .         40                            : 
X                  .m        42538.74                      : 46154
Y                  .m        84287.88                      : 85761.93
YEAR               .         2018                          : 
Исправ_15гор       .         Исправ.15гор                  : 
~Parameter Information Block
#_______________________________________________________________________________
#
#PARAMETER_NAME    .UNIT     VALUE                         : DESCRIPTION
#_______________________________________________________________________________
SET                .         LQC_KAZNIPI_Petrel            : 
TLFamily_CALI      .         Caliper                       : 
TLFamily_CILD      .         Conductivity                  : 
TLFamily_COLL      .         Net Reservoir Flag            : 
TLFamily_CSAT      .         Fluid Code                    : 
TLFamily_DEPT      .         Measured Depth                : 
TLFamily_DT        .         Compressional Slowness        : 
TLFamily_GR        .         Russian Gamma Ray             : 
TLFamily_GZ3       .         Gradient 225                  : 
TLFamily_IK1       .         Resistivity 05                : 
TLFamily_IK2       .         Resistivity 07                : 
TLFamily_IK3       .         Resistivity 10                : 
TLFamily_IK4       .         Resistivity 14                : 
TLFamily_IK5       .         Resistivity 20                : 
TLFamily_LLS       .         Lateral Log Resistivity       : 
TLFamily_MBK       .         Micro Lateral Log Resistivity : 
TLFamily_MINV      .         Micro Gradient Resistivity    : 
TLFamily_MNOR      .         Micro Resistivity             : 
TLFamily_NNKTB_1   .         Neutron Far                   : 
TLFamily_NNKTM_1   .         Neutron Near                  : 
TLFamily_NPHI      .         Neutron Porosity              : 
TLFamily_OGZ       .         Gradient Inverted 225         : 
TLFamily_PHIE      .         Effective Porosity            : 
TLFamily_PHIED     .         Effective Porosity            : 
TLFamily_PHIEN     .         Effective Porosity            : 
TLFamily_PHIES     .         Effective Porosity            : 
TLFamily_PHIT      .         Porosity                      : 
TLFamily_PRMB      .         Permeability                  : 
TLFamily_PRMB_DGR  .         Permeability                  : 
TLFamily_RHOB      .         Bulk Density                  : 
TLFamily_RT        .         Formation Resistivity         : 
TLFamily_SOIL_ARCHIE .         Oil Saturation                : 
TLFamily_SOIL_DW   .         Oil Saturation                : 
TLFamily_SP        .         Spontaneous Potential         : 
TLFamily_VSH_FIN   .         Shale Volume                  : 
TLFamily_VSH_GR    .         Shale Volume                  : 
TLFamily_VSH_SP    .         Shale Volume                  : 
~Curve Information
#_______________________________________________________________________________
#
#LOGNAME           .UNIT     LOG_ID                        : DESCRIPTION
#_______________________________________________________________________________
DEPT               .M                                      : Колонка глубины 
CALI               .м                                      : Каверномер 
CILD               .мСм/м                                  : Проводимость 
COLL               .unitless                               : Описание 
CSAT               .unitless                               : Описание 
DT                 .мкс/м                                  : Интервальное время пробега продольной волны 
GR                 .uR/h                                   : Гамма каротаж 
GZ3                .ohmm                                   : Градиент-зонд  длиной 2.25м 
IK1                .OHMM                                   : И0.10И0.40 
IK2                .OHMM                                   : И0.14И0.56 
IK3                .OHMM                                   : И0.20И0.8 
IK4                .OHMM                                   : И0.28И1.12 
IK5                .OHMM                                   : И0.40И1.60 
LLS                .ohmm                                   : Боковой каротаж 
MBK                .ohmm                                   : Микробоковой каротаж 
MINV               .ohmm                                   : Микро-градиент зонд 
MNOR               .ohmm                                   : Микро-потенциал зонд 
NNKTB_1            .у.е.                                   : Показания большого зонда 2ННКт аппаратуры СРК 
NNKTM_1            .у.е.                                   : Показания малого зонда 2ННКт аппаратуры СРК 
NPHI               .д.ед.                                  : Водородосодержание по НКТ 
OGZ                .ohmm                                   : Обращенный градиент-зонд 
PHIE               .д.ед.                                  : Описание 
PHIED              .д.ед.                                  :  
PHIEN              .д.ед.                                  :  
PHIES              .д.ед.                                  :  
PHIT               .д.ед.                                  : Описание 
PRMB               .mD                                     :  
PRMB_DGR           .mD                                     :  
RHOB               .G/C3                                   : Плотность по ГГКп 
RT                 .ohmm                                   : Удельное электрическое сопротивление 
SOIL_ARCHIE        .д.ед.                                  :  
SOIL_DW            .д.ед.                                  :  
SP                 .мВ                                     : Потенциал самополяризации 
VSH_FIN            .д.ед.                                  : Описание 
VSH_GR             .д.ед.                                  : Shale volume 
VSH_SP             .д.ед.                                  : Shale Volume 
~Ascii
# ...
764.4500000000001 0.224      0.37       -9999      -9999      -9999      7.89       3.89       3.079853892638381 3.244811242584035 2666.030000000001 2665.620099999999 2666.030000000001 3.01       -9999      -9999      -9999      2.01       1.32       0.295      4.78       -9999      -9999      -9999      -9999      -9999      -9999      -9999      2.2        2666.03    -9999      -9999      193.27     -9999      0.2114275  0.8       
764.65     0.225      0.37       -9999      -9999      -9999      7.86       3.96       3.034962932228316 3.194964788538349 3.269984709444362 2665.620099999999 2666.030000000001 2.98       -9999      -9999      -9999      1.9        1.3        0.322      4.91       -9999      -9999      -9999      -9999      -9999      -9999      -9999      2.19       2666.03    -9999      -9999      193.2      -9999      0.20723    0.8       
764.85     0.224      0.37       -9999      -9999      -9999      7.83       3.96       3.044995894906927 3.24       3.299984848450076 93.9319036905613 2666.030000000001 2.965      -9999      -9999      -9999      1.89       1.28       0.315      4.94       -9999      -9999      -9999      -9999      -9999      -9999      -9999      2.18       2666.03    -9999      -9999      193.24     -9999      0.2031158  0.8       
765.05     0.224      0.37       -9999      -9999      -9999      7.68       4.01       3.07       3.224903099319449 3.309984894225361 3.279939023823484 2666.030000000001 2.955      -9999      -9999      -9999      1.95       1.28       0.295      4.94       -9999      -9999      -9999      -9999      -9999      -9999      -9999      2.165      2666.03    -9999      -9999      193.35     -9999      0.1837379  0.8       
765.25     0.225      0.74       -9999      -9999      -9999      7.64       4.02       3.014962686336267 3.134900317394478 3.19480828845801 3.189937303459113 92.79696600643797 2.935      -9999      -9999      -9999      1.99       1.28       0.282      4.91       -9999      -9999      -9999      -9999      -9999      -9999      -9999      2.15       1334.63    -9999      -9999      193.04     -9999      0.1788903  0.8       
765.4500000000001 0.224      310.07     -9999      -9999      -9999      7.8        4.07       2.964995784145406 3.08998381872787 3.154996038032383 3.179984276690699 3.224965116090389 2.925      -9999      -9999      -9999      1.92       1.29       0.31       4.82       -9999      -9999      -9999      -9999      -9999      -9999      -9999      2.155      3.225      -9999      -9999      191.87     -9999      0.1990833  0.8       
765.65     0.224      310.07     -9999      -9999      -9999      7.99       4.07       2.974995798316366 3.104995974232501 3.15       3.184996075350806 3.224996124028673 2.97       -9999      -9999      -9999      1.84       1.3        0.345      4.82       -9999      -9999      -9999      -9999      -9999      -9999      -9999      2.175      3.225      -9999      -9999      189.96     -9999      0.2260432  0.8       
765.85     0.224      307.69     -9999      -9999      -9999      8.16       4.16       2.964995784145406 3.099983870925794 3.174964566731432 3.204996099841627 3.249984615348213 3.015      -9999      -9999      -9999      1.78       1.33       0.388      4.85       -9999      -9999      -9999      -9999      -9999      -9999      -9999      2.205      3.25       -9999      -9999      187.97     -9999      0.2532457  0.8       
766.05     0.225      301.2      -9999      -9999      -9999      8.02       4.25       3.059591475998005 3.219751543209461 3.284813541131328 3.289863219041146 3.319864455064359 3.08       -9999      -9999      -9999      1.78       1.33       0.388      4.889999   -9999      -9999      -9999      -9999      -9999      -9999      -9999      2.23       3.32       -9999      -9999      185.51     -9999      0.2306219  0.8       
766.25     0.225      291.12     -9999      -9999      -9999      7.94       4.34       3.179984276690688 3.329939939398307 3.38496676497717 3.384996307235799 3.434967248752163 3.15       -9999      -9999      -9999      1.88       1.33       0.346      4.86       -9999      -9999      -9999      -9999      -9999      -9999      -9999      2.24       3.435      -9999      -9999      182.74     -9999      0.2186133  0.8       
766.4500000000001 0.225      288.6      -9999      -9999      -9999      7.77       4.38       3.314905730183015 3.424996350363025 3.434996360987889 3.42998542270956 3.464996392494521 3.215      -9999      -9999      -9999      2.01       1.33       0.3        4.86       -9999      -9999      -9999      -9999      -9999      -9999      -9999      2.23       3.465      -9999      -9999      181.39     -9999      0.1951308  0.8       
766.65     0.225      284.09     -9999      -9999      -9999      7.57       4.32       3.149857139617639 3.279756088491993 3.384966764977186 3.444996371551059 3.519943181359586 3.28       -9999      -9999      -9999      2.11       1.34       0.274      4.889999   -9999      -9999      -9999      -9999      -9999      -9999      -9999      2.235      3.52       -9999      -9999      181.36     -9999      0.1707128  0.8       
766.85     0.225      275.86     -9999      -9999      -9999      7.51       4.34       3.1        3.289756829919242 3.503969177946729 3.584578078379721 3.624831030544774 3.345      -9999      -9999      -9999      2.15       1.34       0.263      5.02       -9999      -9999      -9999      -9999      -9999      -9999      -9999      2.275      3.625      -9999      -9999      182.83     -9999      0.1640016  0.8       
767.05     0.224      255.75     -9999      -9999      -9999      7.67       4.38       3.349895520758609 3.747639256918681 4.058768286068808 4.056846065602998 3.90896405713831 3.5        -9999      -9999      -9999      2.13       1.33       0.264      5.199999   -9999      -9999      -9999      -9999      -9999      -9999      -9999      2.33       3.91       -9999      -9999      184.05     -9999      0.1825139  0.8       
767.25     0.224      237.24     -9999      -9999      -9999      7.9        4.46       4.600228255206473 4.884588007191599 5.002899159487428 4.684036720607558 4.214641147238991 3.63       -9999      -9999      -9999      2.12       1.32       0.263      5.130001   -9999      -9999      -9999      -9999      -9999      -9999      -9999      2.345      4.215      -9999      -9999      184.31     -9999      0.2128455  0.8       
767.4500000000001 0.225      240.67     -9999      -9999      -9999      7.89       4.43       4.788235583176602 5.007114937765866 4.953160607127381 4.582706623819431 4.154130474599853 3.635      -9999      -9999      -9999      2.13       1.31       0.255      4.98       -9999      -9999      -9999      -9999      -9999      -9999      -9999      2.305      4.155      -9999      -9999      183.33     -9999      0.2114275  0.8       
767.65     0.223      265.95     -9999      -9999      -9999      7.86       4.19       3.991991983960064 4.368352092036675 4.338052558464602 3.967165234774241 3.75866997753206 3.445      -9999      -9999      -9999      2.07       1.3        0.268      4.77       -9999      -9999      -9999      -9999      -9999      -9999      -9999      2.235      3.76       -9999      -9999      182.83     -9999      0.20723    0.8       
767.85     0.223      288.18     -9999      -9999      -9999      7.9        3.84       3.423390132602357 3.948733974326341 3.979547712994462 3.614719906161421 3.469639750752174 3.27       -9999      -9999      -9999      2.05       1.3        0.273      4.6        -9999      -9999      -9999      -9999      -9999      -9999      -9999      2.21       3.47       -9999      -9999      184.15     -9999      0.2128455  0.8       
768.05     0.222      296.2901   -9999      -9999      -9999      7.57       3.73       3.094672842159623 3.574213200132389 3.809881887933045 3.519985795425897 3.374996296294269 3.205      -9999      -9999      -9999      1.99       1.3        0.292      4.58       -9999      -9999      -9999      -9999      -9999      -9999      -9999      2.21       3.375      -9999      -9999      185.92     -9999      0.1707128  0.8       
