~Version
 VERS              .         2.0                           : CWLS LOG ASCII STANDARD - VERSION 2.0
 WRAP              .         NO                            : ONE LINE PER DEPTH STEP
 DLM               .         SPACE                         : DELIMITING CHARACTER(SPACE TAB OR COMMA)
~Well Information
#_______________________________________________________________________________
#
#PARAMETER_NAME    .UNIT     VALUE                         : DESCRIPTION
#_______________________________________________________________________________
STRT               .M        0.25                          : First reference value
STOP               .M        1174.65                       : Last reference value
STEP               .M        0.2                           : Step increment
NULL               .         -9999                         : Missing value
COMP               .                                       : Company
WELL               .         7169                          : Well name
FLD                .         Узень                         : Field
LOC                .                                       : Location
CNTY               .                                       : County
STAT               .                                       : State
CTRY               .                                       : Country
SRVC               .                                       : Service Company
DATE               .                                       : Date
UWI                .                                       : Unique Well ID
Block              .         6а                            : 
Category           .         Нефтяная                      : 
Condition          .         В работе                      : 
Date               .         29.04.2017                    : 
EREF               .m        88.4                          : 100.8
GRP                .                                       : Group name
Gorizont           .         15                            : 14
ISS                .                                       : Well surveys
Interpretator      .         Бекбулатова А.А.              : 
Kupol              .         Основной                      : osnovnoi
Mud                .         Полимерный                    : 
Mud_density        .         1.36                          : 
Mud_resistivity    .         0.35                          : 
NGDU               .         НГДУ-2                        : 
ORIGINALWELLNAME   .         7169                          : 
Spud_date          .         2017                          : 1961
TIME               .         11_03                         : LOG TIME
Viscosity          .         40                            : 
X                  .m        42538.74                      : 46154
Y                  .m        84287.88                      : 85761.93
YEAR               .         2018                          : 
Исправ_15гор       .         Исправ.15гор                  : 
~Parameter Information Block
#_______________________________________________________________________________
#
#PARAMETER_NAME    .UNIT     VALUE                         : DESCRIPTION
#_______________________________________________________________________________
SET                .         LQC_KAZNIPI_Petrel            : 
TLFamily_CALI      .         Caliper                       : 
TLFamily_CILD      .         Conductivity                  : 
TLFamily_COLL      .         Net Reservoir Flag            : 
TLFamily_CSAT      .         Fluid Code                    : 
TLFamily_DEPT      .         Measured Depth                : 
TLFamily_DT        .         Compressional Slowness        : 
TLFamily_GR        .         Russian Gamma Ray             : 
TLFamily_GZ3       .         Gradient 225                  : 
TLFamily_IK1       .         Resistivity 05                : 
TLFamily_IK2       .         Resistivity 07                : 
TLFamily_IK3       .         Resistivity 10                : 
TLFamily_IK4       .         Resistivity 14                : 
TLFamily_IK5       .         Resistivity 20                : 
TLFamily_LLS       .         Lateral Log Resistivity       : 
TLFamily_MBK       .         Micro Lateral Log Resistivity : 
TLFamily_MINV      .         Micro Gradient Resistivity    : 
TLFamily_MNOR      .         Micro Resistivity             : 
TLFamily_NNKTB_1   .         Neutron Far                   : 
TLFamily_NNKTM_1   .         Neutron Near                  : 
TLFamily_NPHI      .         Neutron Porosity              : 
TLFamily_OGZ       .         Gradient Inverted 225         : 
TLFamily_PHIE      .         Effective Porosity            : 
TLFamily_PHIED     .         Effective Porosity            : 
TLFamily_PHIEN     .         Effective Porosity            : 
TLFamily_PHIES     .         Effective Porosity            : 
TLFamily_PHIT      .         Porosity                      : 
TLFamily_PRMB      .         Permeability                  : 
TLFamily_PRMB_DGR  .         Permeability                  : 
TLFamily_RHOB      .         Bulk Density                  : 
TLFamily_RT        .         Formation Resistivity         : 
TLFamily_SOIL_ARCHIE .         Oil Saturation                : 
TLFamily_SOIL_DW   .         Oil Saturation                : 
TLFamily_SP        .         Spontaneous Potential         : 
TLFamily_VSH_FIN   .         Shale Volume                  : 
TLFamily_VSH_GR    .         Shale Volume                  : 
TLFamily_VSH_SP    .         Shale Volume                  : 
~Curve Information
#_______________________________________________________________________________
#
#LOGNAME           .UNIT     LOG_ID                        : DESCRIPTION
#_______________________________________________________________________________
DEPT               .M                                      : Колонка глубины 
CALI               .м                                      : Каверномер 
CILD               .мСм/м                                  : Проводимость 
COLL               .unitless                               : Описание 
CSAT               .unitless                               : Описание 
DT                 .мкс/м                                  : Интервальное время пробега продольной волны 
GR                 .uR/h                                   : Гамма каротаж 
GZ3                .ohmm                                   : Градиент-зонд  длиной 2.25м 
IK1                .OHMM                                   : И0.10И0.40 
IK2                .OHMM                                   : И0.14И0.56 
IK3                .OHMM                                   : И0.20И0.8 
IK4                .OHMM                                   : И0.28И1.12 
IK5                .OHMM                                   : И0.40И1.60 
LLS                .ohmm                                   : Боковой каротаж 
MBK                .ohmm                                   : Микробоковой каротаж 
MINV               .ohmm                                   : Микро-градиент зонд 
MNOR               .ohmm                                   : Микро-потенциал зонд 
NNKTB_1            .у.е.                                   : Показания большого зонда 2ННКт аппаратуры СРК 
NNKTM_1            .у.е.                                   : Показания малого зонда 2ННКт аппаратуры СРК 
NPHI               .д.ед.                                  : Водородосодержание по НКТ 
OGZ                .ohmm                                   : Обращенный градиент-зонд 
PHIE               .д.ед.                                  : Описание 
PHIED              .д.ед.                                  :  
PHIEN              .д.ед.                                  :  
PHIES              .д.ед.                                  :  
PHIT               .д.ед.                                  : Описание 
PRMB               .mD                                     :  
PRMB_DGR           .mD                                     :  
RHOB               .G/C3                                   : Плотность по ГГКп 
RT                 .ohmm                                   : Удельное электрическое сопротивление 
SOIL_ARCHIE        .д.ед.                                  :  
SOIL_DW            .д.ед.                                  :  
SP                 .мВ                                     : Потенциал самополяризации 
VSH_FIN            .д.ед.                                  : Описание 
VSH_GR             .д.ед.                                  : Shale volume 
VSH_SP             .д.ед.                                  : Shale Volume 
~Ascii
# ...
1110.45    0.222      278.55     1          5          322.731    10.56      4.97       3.012474066278414 2.974928570571065 3.104545055237562 3.29863608177683 3.585972671396145 3.665      8.295      3.47       4.655      1.92       1.23       0.28       4.98       0.2261935  0.2425149  0.2084855  0.2275801  0.27268    43.33218   11.74121   2.265      3.59       0.5520331  0.6133067  199.33     0.2167105  0.2373093  0.1961118 
1110.65    0.22       246        1          5          321.881    10.74      5.09       3.514825742480068 3.569495762709486 3.684996607868193 3.77994708957683 4.064627904249171 4.015      7.885      3.55       4.97       1.86       1.25       0.31       5.3        0.2349356  0.245509   0.2354951  0.2238028  0.2833661  62.91234   9.604642   2.26       4.065      0.5911367  0.6502283  199.1      0.2257725  0.2575932  0.1939518 
1110.85    0.22       250.62     1          5          322.012    11.06      5.17       3.874274125561932 3.694969553325135 3.634969050762365 3.664723727649978 3.989197914368432 3.87       7.32       3.32       4.650001   1.77       1.25       0.345      5.32       0.2415133  0.2425149  0.2641274  0.2178975  0.2940829  83.28555   6.720497   2.265      3.99       0.597349   0.658451   198.9      0.2450685  0.298029   0.192108  
1111.05    0.221      268.09     1          5          322.816    11.13      5          4.014623269996825 3.709784360309909 3.604968793207508 3.524826236851967 3.729517395052609 3.665      6.935      3.305      3.965      1.78       1.26       0.346      5.32       0.2393902  0.2365269  0.2639654  0.2176784  0.2927151  76.07572   6.215524   2.275      3.73       0.5812054  0.6444716  198.61     0.2485896  0.3076881  0.1894911 
1111.25    0.22       278.94     1          5          321.114    11.08      4.68       3.719946236170626 3.529943342321516 3.484967718645325 3.419868418521392 3.584829145161594 3.575      6.010001   2.995      3.95       1.88       1.28       0.319      5.24       0.2275135  0.2275449  0.238109   0.2168866  0.2800951  45.84164   6.572176   2.29       3.585      0.554006   0.6199217  198.61     0.2451242  0.3007573  0.1894911 
1111.45    0.221      287.35     1          5          317.707    11.56      4.32       3.654230425137419 3.494967811010568 3.494996423460259 3.409985337211877 3.479942528261064 3.585      6.14       2.85       3.93       1.89       1.28       0.315      5.179999   0.2148219  0.2215569  0.2216653  0.2012436  0.2754923  26.67973   3.846714   2.3        3.48       0.5245566  0.6009929  198.82     0.2828323  0.374285   0.1913796 
1111.65    0.221      289.43     0          0          316.041    12.31      4.09       3.430000000000001 3.52457089586816 3.514825742480068 3.474823736536941 3.454996382053088 3.62       5.685      2.91       4.03       1.88       1.27       0.314      5.14       0.1970041  0.2215569  0.1947407  0.1747147  0.2745262  12.4782    1.665798   2.3        3.455      0.4855787  0.5840033  199.32     0.3613918  0.5267667  0.196017  
1111.85    0.221      287.76     0          0          317.381    12.65      4.09       3.594968706400689 3.639876371526991 3.674914965002535 3.564968443058053 3.474996402875825 3.685      5.94       3.035      3.685      1.87       1.25       0.307      5.199999   0.1551797  0.1312609  0.1725078  0.1617704  0.2426036  2.096346   1.139859   2.3        3.475      0.3684491  0.5080056  199.74     0.4075521  0.6150352  0.200069  
1112.05    0.222      286.12     0          0          320.049    12.44      4.21       3.74807950822818 3.629876030941001 3.68998644983962 3.604968793207508 3.494967811010568 3.785      6.645      2.605      3.555      1.88       1.24       0.298      5.31       0.1604317  0.1368316  0.1718051  0.1726584  0.2424621  2.622662   1.440861   2.3        3.495      0.3881443  0.5158339  200.32     0.3824087  0.5589121  0.2059054 
1112.25    0.22       283.28     0          0          321.667    11.93      4.44       3.914971264262357 3.714996635260926 3.694915425283778 3.634996561208828 3.529985835665634 3.92       7.545      3.11       4.335      1.93       1.25       0.286      5.41       0.1952917  0.2155689  0.1782888  0.1920175  0.2653072  11.59938   2.545536   2.31       3.53       0.4868499  0.5786077  200.69     0.3263975  0.4430175  0.2097775 
1112.45    0.221      281.69     8          5          321.733    11.57      4.74       3.817787317282093 3.624417194529349 3.584717562096072 3.574912586343896 3.55       3.905      7.23       3.285      4.175      1.97       1.25       0.274      5.5        0.1962557  0.2095809  0.1769585  0.2022276  0.2593355  12.08618   3.804029   2.32       3.55       0.4903986  0.5750452  200.91     0.2940651  0.3759942  0.2121359 
1112.65    0.221      281.69     8          5          319.712    11.85      5.050001   3.488567041064509 3.4099853372119 3.429985422709525 3.479985632154225 3.55       3.785      5.795      3.1        3.945      1.98       1.26       0.275      5.57       0.1905136  0.2095809  0.1697647  0.1921951  0.2589196  9.46088    2.783231   2.32       3.55       0.477047   0.5693583  200.77     0.3188948  0.4271593  0.2106303 
1112.85    0.222      275.1      8          5          313.904    11.86      5.31       3.483417861813547 3.399764697740215 3.444996371551075 3.499942856676332 3.63483149540655 3.81       6.165      3.055      3.97       1.89       1.26       0.305      5.6        0.2010685  0.2185628  0.1994076  0.1852351  0.2697067  14.84003   2.752348   2.305      3.635      0.5065486  0.5936634  200.79     0.3199771  0.42911    0.2108442 
1113.05    0.222      261.09     8          5          305.949    11.64      5.53       3.324545081661549 3.389867254038128 3.54440404017375 3.674425125104606 3.829360259886761 3.965      6.829999   2.755      3.785      1.78       1.26       0.346      5.55       0.2180427  0.2245509  0.2472843  0.1822928  0.2822108  30.60815   3.518196   2.295      3.83       0.5513172  0.6272801  200.72     0.2991384  0.3881803  0.2100966 
1113.25    0.221      242.13     8          5          301.962    11.57      5.75       3.560519624998576 3.824774503157017 4.020746199401301 4.137632173115439 4.129225108903606 4.23       7.785      3.245      4.510001   1.82       1.28       0.342      5.37       0.2172424  0.2275449  0.2451008  0.1790815  0.2802298  29.58114   3.804029   2.29       4.13       0.5655286  0.6390442  200.83     0.2936338  0.3759942  0.2112734 
1113.45    0.221      225.98     8          5          302.86     11.36      5.96       3.90979539106588 4.289988344972512 4.559901314721625 4.549901097826193 4.424974576198149 4.365      9.595      3.205      4.625      1.87       1.26       0.312      5.050001   0.2093008  0.2215569  0.220762   0.1855835  0.2686082  21.08225   4.808559   2.3        4.425      0.5655026  0.6369747  200.83     0.2764787  0.3416841  0.2112734 
1113.65    0.221      232.55     8          5          304.46     11.23      5.97       3.696958209122397 4.143669871019893 4.358348311000123 4.303951672590916 4.299430194804729 4.09       8.52       3.155      4.33       1.87       1.25       0.307      4.64       0.2126622  0.2275449  0.2194086  0.1910331  0.2695992  24.33203   5.559247   2.29       4.3        0.5656893  0.6349704  200.6      0.2654285  0.3220322  0.2088248 
1113.85    0.221      253.48     8          5          304.425    11.2       5.68       3.354549150035044 3.754437374627669 3.934285195559841 3.889370128954204 3.944287007812863 3.86       5.14       2.94       3.965      1.88       1.25       0.303      4.4        0.2117608  0.2275449  0.2160952  0.1916422  0.2682515  23.41431   5.748499   2.29       3.945      0.546092   0.6171082  200.62     0.263348   0.3176602  0.2090358 
1114.05    0.222      263.85     8          5          302.986    11.33      5.26       3.378520386204588 3.748919844435194 3.894072418432918 3.799881577102108 3.789986807364902 4.005      6.555      2.72       3.84       1.84       1.26       0.323      4.46       0.2188264  0.2365269  0.2330183  0.1869341  0.2773172  31.64861   4.972256   2.275      3.79       0.5505081  0.6220616  200.55     0.2726719  0.3370452  0.2082985 
