~Version
 VERS              .         2.0                           : CWLS LOG ASCII STANDARD - VERSION 2.0
 WRAP              .         NO                            : ONE LINE PER DEPTH STEP
 DLM               .         SPACE                         : DELIMITING CHARACTER(SPACE TAB OR COMMA)
~Well Information
#_______________________________________________________________________________
#
#PARAMETER_NAME    .UNIT     VALUE                         : DESCRIPTION
#_______________________________________________________________________________
STRT               .M        0.25                          : First reference value
STOP               .M        1174.65                       : Last reference value
STEP               .M        0.2                           : Step increment
NULL               .         -9999                         : Missing value
COMP               .                                       : Company
WELL               .         7169                          : Well name
FLD                .         Узень                         : Field
LOC                .                                       : Location
CNTY               .                                       : County
STAT               .                                       : State
CTRY               .                                       : Country
SRVC               .                                       : Service Company
DATE               .                                       : Date
UWI                .                                       : Unique Well ID
Block              .         6а                            : 
Category           .         Нефтяная                      : 
Condition          .         В работе                      : 
Date               .         29.04.2017                    : 
EREF               .m        88.4                          : 100.8
GRP                .                                       : Group name
Gorizont           .         15                            : 14
ISS                .                                       : Well surveys
Interpretator      .         Бекбулатова А.А.              : 
Kupol              .         Основной                      : osnovnoi
Mud                .         Полимерный                    : 
Mud_density        .         1.36                          : 
Mud_resistivity    .         0.35                          : 
NGDU               .         НГДУ-2                        : 
ORIGINALWELLNAME   .         7169                          : 
Spud_date          .         2017                          : 1961
TIME               .         11_03                         : LOG TIME
Viscosity          .         40                            : 
X                  .m        42538.74                      : 46154
Y                  .m        84287.88                      : 85761.93
YEAR               .         2018                          : 
Исправ_15гор       .         Исправ.15гор                  : 
~Parameter Information Block
#_______________________________________________________________________________
#
#PARAMETER_NAME    .UNIT     VALUE                         : DESCRIPTION
#_______________________________________________________________________________
SET                .         LQC_KAZNIPI_Petrel            : 
TLFamily_CALI      .         Caliper                       : 
TLFamily_CILD      .         Conductivity                  : 
TLFamily_COLL      .         Net Reservoir Flag            : 
TLFamily_CSAT      .         Fluid Code                    : 
TLFamily_DEPT      .         Measured Depth                : 
TLFamily_DT        .         Compressional Slowness        : 
TLFamily_GR        .         Russian Gamma Ray             : 
TLFamily_GZ3       .         Gradient 225                  : 
TLFamily_IK1       .         Resistivity 05                : 
TLFamily_IK2       .         Resistivity 07                : 
TLFamily_IK3       .         Resistivity 10                : 
TLFamily_IK4       .         Resistivity 14                : 
TLFamily_IK5       .         Resistivity 20                : 
TLFamily_LLS       .         Lateral Log Resistivity       : 
TLFamily_MBK       .         Micro Lateral Log Resistivity : 
TLFamily_MINV      .         Micro Gradient Resistivity    : 
TLFamily_MNOR      .         Micro Resistivity             : 
TLFamily_NNKTB_1   .         Neutron Far                   : 
TLFamily_NNKTM_1   .         Neutron Near                  : 
TLFamily_NPHI      .         Neutron Porosity              : 
TLFamily_OGZ       .         Gradient Inverted 225         : 
TLFamily_PHIE      .         Effective Porosity            : 
TLFamily_PHIED     .         Effective Porosity            : 
TLFamily_PHIEN     .         Effective Porosity            : 
TLFamily_PHIES     .         Effective Porosity            : 
TLFamily_PHIT      .         Porosity                      : 
TLFamily_PRMB      .         Permeability                  : 
TLFamily_PRMB_DGR  .         Permeability                  : 
TLFamily_RHOB      .         Bulk Density                  : 
TLFamily_RT        .         Formation Resistivity         : 
TLFamily_SOIL_ARCHIE .         Oil Saturation                : 
TLFamily_SOIL_DW   .         Oil Saturation                : 
TLFamily_SP        .         Spontaneous Potential         : 
TLFamily_VSH_FIN   .         Shale Volume                  : 
TLFamily_VSH_GR    .         Shale Volume                  : 
TLFamily_VSH_SP    .         Shale Volume                  : 
~Curve Information
#_______________________________________________________________________________
#
#LOGNAME           .UNIT     LOG_ID                        : DESCRIPTION
#_______________________________________________________________________________
DEPT               .M                                      : Колонка глубины 
CALI               .м                                      : Каверномер 
CILD               .мСм/м                                  : Проводимость 
COLL               .unitless                               : Описание 
CSAT               .unitless                               : Описание 
DT                 .мкс/м                                  : Интервальное время пробега продольной волны 
GR                 .uR/h                                   : Гамма каротаж 
GZ3                .ohmm                                   : Градиент-зонд  длиной 2.25м 
IK1                .OHMM                                   : И0.10И0.40 
IK2                .OHMM                                   : И0.14И0.56 
IK3                .OHMM                                   : И0.20И0.8 
IK4                .OHMM                                   : И0.28И1.12 
IK5                .OHMM                                   : И0.40И1.60 
LLS                .ohmm                                   : Боковой каротаж 
MBK                .ohmm                                   : Микробоковой каротаж 
MINV               .ohmm                                   : Микро-градиент зонд 
MNOR               .ohmm                                   : Микро-потенциал зонд 
NNKTB_1            .у.е.                                   : Показания большого зонда 2ННКт аппаратуры СРК 
NNKTM_1            .у.е.                                   : Показания малого зонда 2ННКт аппаратуры СРК 
NPHI               .д.ед.                                  : Водородосодержание по НКТ 
OGZ                .ohmm                                   : Обращенный градиент-зонд 
PHIE               .д.ед.                                  : Описание 
PHIED              .д.ед.                                  :  
PHIEN              .д.ед.                                  :  
PHIES              .д.ед.                                  :  
PHIT               .д.ед.                                  : Описание 
PRMB               .mD                                     :  
PRMB_DGR           .mD                                     :  
RHOB               .G/C3                                   : Плотность по ГГКп 
RT                 .ohmm                                   : Удельное электрическое сопротивление 
SOIL_ARCHIE        .д.ед.                                  :  
SOIL_DW            .д.ед.                                  :  
SP                 .мВ                                     : Потенциал самополяризации 
VSH_FIN            .д.ед.                                  : Описание 
VSH_GR             .д.ед.                                  : Shale volume 
VSH_SP             .д.ед.                                  : Shale Volume 
~Ascii
# ...
950.85     0.23       418.41     -9999      -9999      314.065    7.22       2.72       1.959897956527306 2.149906974731675 2.319655146783631 2.419917353960645 2.39       2.315      2.68       3.08       3.115      2          1.29       0.284      2.45       0.1742623  0.1497006  0.1831544  0.1899319  0.2398149  4.730623   4.793617   2.42       2.39       0.3195099  0.4303957  193.77     0.3055927  0.3421185  0.269067  
951.05     0.23       421.9401   -9999      -9999      320.489    7.19       2.55       1.944685064476982 2.134853624958835 2.244994432064359 2.33495181963142 2.369978902859697 2.315      2.59       3.01       2.995      1.97       1.29       0.293      2.43       0.1770087  0.1467066  0.1895554  0.1947639  0.2442507  5.318484   4.912781   2.425      2.37       0.3260624  0.4377592  194.99     0.3134684  0.3387054  0.2882314 
951.25     0.23       422.83     -9999      -9999      320.445    7.46       2.45       1.869759342803239 2.089617189822097 2.204858272089161 2.274950548913097 2.364994714581832 2.315      2.665      2.9        3.025      1.96       1.27       0.287      2.51       0.1662935  0.1347306  0.1763146  0.1878355  0.2382423  3.367578   3.938682   2.445      2.365      0.2876891  0.413962   195.7      0.3354104  0.3706914  0.3001293 
951.4500000000001 0.231      410.67     -9999      -9999      308.005    7.66       2.43       1.74499283666152 2.029901475441626 2.23454693394438 2.289803485017908 2.434871659862207 2.345      2.56       2.775      2.97       2.01       1.27       0.271      2.57       0.150686   0.1257485  0.1565088  0.1698007  0.2251087  1.730726   3.343932   2.46       2.435      0.2343964  0.3781766  195.55     0.3469429  0.3963166  0.2975691 
951.65     0.231      383.87     -9999      -9999      294.85     7.51       2.53       2.36169430705994 2.524935642744005 2.691616614601562 2.588435821108855 2.604611295375902 2.41       3.21       3.355      3.38       2.07       1.28       0.259      2.66       0.1437103  0.1257485  0.1484288  0.1569536  0.2155849  1.28535    3.780746   2.46       2.605      0.2270009  0.3711809  195.29     0.3350643  0.376938   0.2931904 
951.85     0.231      383.14     -9999      -9999      297.918    7.51       2.63       2.221485989152164 2.441270161206918 2.591486060159152 2.578429754714965 2.609693468589704 2.44       3.125      3.36       3.42       2.07       1.3        0.268      2.72       0.1469207  0.1287426  0.1541681  0.1578513  0.2209148  1.473958   3.780746   2.455      2.61       0.2424148  0.3863575  196.43     0.3449451  0.376938   0.3129522 
952.05     0.232      413.22     -9999      -9999      308.752    7.57       2.74       1.859758048779498 2.084946042467303 2.249911109355235 2.33495181963142 2.419814042442139 2.335      2.385      2.565      2.855      2          1.31       0.293      2.82       0.1571606  0.1347306  0.172121   0.1646303  0.2357356  2.281152   3.599561   2.445      2.42       0.259798   0.4033838  198.27     0.3663     0.3845731  0.3480269 
952.25     0.231      417.53     -9999      -9999      314.489    7.82       2.93       2.034256620979762 2.269206909913682 2.404121461157901 2.424582438276744 2.394953026679229 2.31       2.81       3.195      3.13       1.9        1.29       0.317      2.89       0.128465   0.04443377 0.1825066  0.1584546  0.2158897  0.6708739  2.933477   2.445      2.395      0.1134029  0.3144078  200.54     0.4075558  0.4180866  0.3970251 
952.4500000000001 0.231      408.16     -9999      -9999      317.171    8.05       3.07       2.004993765576348 2.284863234419047 2.474954545037124 2.494954909412175 2.45       2.325      2.77       3.355      3.035      1.87       1.27       0.317      2.88       0.1177509  0.03318677 0.1702142  0.1498517  0.213166   0.4248053  2.430104   2.45       2.45       0.05367781 0.2929586  202.24     0.4448055  0.4514926  0.4381184 
952.65     0.231      425.5299   -9999      -9999      320.141    8.43       3.17       1.979974747313724 2.174718372571532 2.359660992600466 2.354357661868794 2.349808502835957 2.26       2.715      3.13       3.09       1.86       1.27       0.321      2.82       0.109015   0.02682058 0.1602724  0.1399519  0.2134927  0.2926712  1.780522   2.445      2.35       0          0.2567555  203.14     0.4870532  0.512634   0.4614725 
952.85     0.231      454.54     -9999      -9999      320.318    8.49       3.18       1.752426888631769 1.927407585333097 2.058033041522798 2.119150773305126 2.199636333578758 2.2        2.43       2.93       2.93       1.84       1.28       0.334      2.74       0.1156121  0.02850933 0.1757877  0.1425392  0.2184547  0.3877701  1.695193   2.445      2.2        0          0.2596275  202.15     0.479431   0.5230175  0.4358445 
953.05     0.23       453.51     -9999      -9999      310.987    8.33       3.24       1.529705854077801 1.793432463183293 1.949358868961736 2.108838542895037 2.204540768504809 2.21       2.095      2.52       2.66       1.84       1.27       0.328      2.74       0.1196091  0.02695257 0.1853069  0.1465678  0.2123639  0.4598415  1.932386   2.465      2.205      0.01918091 0.2575992  199.28     0.4324035  0.4957839  0.3690231 
953.25     0.231      404.04     -9999      -9999      295.869    7.82       3.35       2.095948472649077 2.421755561570985 2.575189313429209 2.555601690404826 2.473539973398449 2.36       3.065      3.435      3.395      1.9        1.27       0.307      2.7        0.1460329  0.1047905  0.1854496  0.1478587  0.2250443  1.419196   2.933477   2.495      2.475      0.2191861  0.3751902  196.74     0.3683344  0.4180866  0.3185823 
953.4500000000001 0.231      366.97     -9999      -9999      291.196    7.24       3.54       2.413503677229338 2.63573519155455 2.771209122386668 2.738521498911309 2.724995412840181 2.515      3.61       4.05       3.75       2.02       1.29       0.278      2.62       0.1456475  0.1047905  0.1739096  0.1582423  0.2133093  1.396056   4.715785   2.495      2.725      0.2519405  0.384691   194.88     0.3154254  0.344413   0.2864377 
953.65     0.232      389.86     -9999      -9999      300.289    6.91       3.62       1.939355563067335 2.149627874772793 2.294558781116804 2.40437101962245 2.564410263588945 2.405      2.455      2.78       2.885      2.09       1.31       0.266      2.51       0.153094   0.1167665  0.1672772  0.1752382  0.2172667  1.917916   6.178147   2.475      2.565      0.263102   0.3853442  195.09     0.2991601  0.3084468  0.2898733 
953.85     0.232      395.25     -9999      -9999      305.601    7.13       3.61       1.934218188312849 2.253397434985767 2.368290522718968 2.438995694953229 2.529683774703912 2.32       2.62       2.945      3.04       2.07       1.3        0.268      2.41       0.1552293  0.1287426  0.1619996  0.1749458  0.2241327  2.100785   5.160068   2.455      2.53       0.2672294  0.3957907  196.29     0.3212135  0.331981   0.3104459 
954.05     0.232      373.13     -9999      -9999      303.924    7.51       3.54       2.213368473616531 2.614421542138848 2.773697892705596 2.739105693469963 2.679832084291816 2.365      3.21       3.485      3.455      2.07       1.29       0.263      2.32       0.1502332  0.1407186  0.1467956  0.1631855  0.2257696  1.697625   3.780746   2.435      2.68       0.2661555  0.4075814  197.21     0.3521347  0.376938   0.3273314 
954.25     0.231      378.78     -9999      -9999      311.256    7.59       3.46       2.279649095804001 2.568754562039745 2.777822888522593 2.71851062164561 2.639318093750733 2.295      3.09       3.565      3.37       2.07       1.29       0.263      2.17       0.1521875  0.1437125  0.1437198  0.1691301  0.2297232  1.845182   3.541116   2.43       2.64       0.2692309  0.4123212  197.65     0.3614552  0.3871523  0.335758  
954.4500000000001 0.232      443.45     -9999      -9999      330.795    7.73       3.3        1.793320941716559 2.053777008343227 2.178761115863596 2.230291460773516 2.250955352733437 2.04       2.495      2.815      2.965      1.98       1.27       0.28       1.9        0.1670602  0.1526946  0.1591436  0.1893422  0.2456204  3.479504   3.157728   2.415      2.255      0.2745018  0.411646   197.18     0.3662314  0.4056979  0.3267649 
