~Version
 VERS              .         2.0                           : CWLS LOG ASCII STANDARD - VERSION 2.0
 WRAP              .         NO                            : ONE LINE PER DEPTH STEP
 DLM               .         SPACE                         : DELIMITING CHARACTER(SPACE TAB OR COMMA)
~Well Information
#_______________________________________________________________________________
#
#PARAMETER_NAME    .UNIT     VALUE                         : DESCRIPTION
#_______________________________________________________________________________
STRT               .M        0.25                          : First reference value
STOP               .M        1174.65                       : Last reference value
STEP               .M        0.2                           : Step increment
NULL               .         -9999                         : Missing value
COMP               .                                       : Company
WELL               .         7169                          : Well name
FLD                .         Узень                         : Field
LOC                .                                       : Location
CNTY               .                                       : County
STAT               .                                       : State
CTRY               .                                       : Country
SRVC               .                                       : Service Company
DATE               .                                       : Date
UWI                .                                       : Unique Well ID
Block              .         6а                            : 
Category           .         Нефтяная                      : 
Condition          .         В работе                      : 
Date               .         29.04.2017                    : 
EREF               .m        88.4                          : 100.8
GRP                .                                       : Group name
Gorizont           .         15                            : 14
ISS                .                                       : Well surveys
Interpretator      .         Бекбулатова А.А.              : 
Kupol              .         Основной                      : osnovnoi
Mud                .         Полимерный                    : 
Mud_density        .         1.36                          : 
Mud_resistivity    .         0.35                          : 
NGDU               .         НГДУ-2                        : 
ORIGINALWELLNAME   .         7169                          : 
Spud_date          .         2017                          : 1961
TIME               .         11_03                         : LOG TIME
Viscosity          .         40                            : 
X                  .m        42538.74                      : 46154
Y                  .m        84287.88                      : 85761.93
YEAR               .         2018                          : 
Исправ_15гор       .         Исправ.15гор                  : 
~Parameter Information Block
#_______________________________________________________________________________
#
#PARAMETER_NAME    .UNIT     VALUE                         : DESCRIPTION
#_______________________________________________________________________________
SET                .         LQC_KAZNIPI_Petrel            : 
TLFamily_CALI      .         Caliper                       : 
TLFamily_CILD      .         Conductivity                  : 
TLFamily_COLL      .         Net Reservoir Flag            : 
TLFamily_CSAT      .         Fluid Code                    : 
TLFamily_DEPT      .         Measured Depth                : 
TLFamily_DT        .         Compressional Slowness        : 
TLFamily_GR        .         Russian Gamma Ray             : 
TLFamily_GZ3       .         Gradient 225                  : 
TLFamily_IK1       .         Resistivity 05                : 
TLFamily_IK2       .         Resistivity 07                : 
TLFamily_IK3       .         Resistivity 10                : 
TLFamily_IK4       .         Resistivity 14                : 
TLFamily_IK5       .         Resistivity 20                : 
TLFamily_LLS       .         Lateral Log Resistivity       : 
TLFamily_MBK       .         Micro Lateral Log Resistivity : 
TLFamily_MINV      .         Micro Gradient Resistivity    : 
TLFamily_MNOR      .         Micro Resistivity             : 
TLFamily_NNKTB_1   .         Neutron Far                   : 
TLFamily_NNKTM_1   .         Neutron Near                  : 
TLFamily_NPHI      .         Neutron Porosity              : 
TLFamily_OGZ       .         Gradient Inverted 225         : 
TLFamily_PHIE      .         Effective Porosity            : 
TLFamily_PHIED     .         Effective Porosity            : 
TLFamily_PHIEN     .         Effective Porosity            : 
TLFamily_PHIES     .         Effective Porosity            : 
TLFamily_PHIT      .         Porosity                      : 
TLFamily_PRMB      .         Permeability                  : 
TLFamily_PRMB_DGR  .         Permeability                  : 
TLFamily_RHOB      .         Bulk Density                  : 
TLFamily_RT        .         Formation Resistivity         : 
TLFamily_SOIL_ARCHIE .         Oil Saturation                : 
TLFamily_SOIL_DW   .         Oil Saturation                : 
TLFamily_SP        .         Spontaneous Potential         : 
TLFamily_VSH_FIN   .         Shale Volume                  : 
TLFamily_VSH_GR    .         Shale Volume                  : 
TLFamily_VSH_SP    .         Shale Volume                  : 
~Curve Information
#_______________________________________________________________________________
#
#LOGNAME           .UNIT     LOG_ID                        : DESCRIPTION
#_______________________________________________________________________________
DEPT               .M                                      : Колонка глубины 
CALI               .м                                      : Каверномер 
CILD               .мСм/м                                  : Проводимость 
COLL               .unitless                               : Описание 
CSAT               .unitless                               : Описание 
DT                 .мкс/м                                  : Интервальное время пробега продольной волны 
GR                 .uR/h                                   : Гамма каротаж 
GZ3                .ohmm                                   : Градиент-зонд  длиной 2.25м 
IK1                .OHMM                                   : И0.10И0.40 
IK2                .OHMM                                   : И0.14И0.56 
IK3                .OHMM                                   : И0.20И0.8 
IK4                .OHMM                                   : И0.28И1.12 
IK5                .OHMM                                   : И0.40И1.60 
LLS                .ohmm                                   : Боковой каротаж 
MBK                .ohmm                                   : Микробоковой каротаж 
MINV               .ohmm                                   : Микро-градиент зонд 
MNOR               .ohmm                                   : Микро-потенциал зонд 
NNKTB_1            .у.е.                                   : Показания большого зонда 2ННКт аппаратуры СРК 
NNKTM_1            .у.е.                                   : Показания малого зонда 2ННКт аппаратуры СРК 
NPHI               .д.ед.                                  : Водородосодержание по НКТ 
OGZ                .ohmm                                   : Обращенный градиент-зонд 
PHIE               .д.ед.                                  : Описание 
PHIED              .д.ед.                                  :  
PHIEN              .д.ед.                                  :  
PHIES              .д.ед.                                  :  
PHIT               .д.ед.                                  : Описание 
PRMB               .mD                                     :  
PRMB_DGR           .mD                                     :  
RHOB               .G/C3                                   : Плотность по ГГКп 
RT                 .ohmm                                   : Удельное электрическое сопротивление 
SOIL_ARCHIE        .д.ед.                                  :  
SOIL_DW            .д.ед.                                  :  
SP                 .мВ                                     : Потенциал самополяризации 
VSH_FIN            .д.ед.                                  : Описание 
VSH_GR             .д.ед.                                  : Shale volume 
VSH_SP             .д.ед.                                  : Shale Volume 
~Ascii
# ...
817.65     0.234      305.34     -9999      -9999      -9999      8.94       4.06       2.314951403377635 2.819929077122353 3.114803364580218 3.254688925227776 3.274690825100949 3.06       -9999      -9999      -9999      1.89       1.23       0.289      4.16       -9999      -9999      -9999      -9999      -9999      -9999      -9999      2.41       3.275      -9999      -9999      201.66     -9999      0.426555   0.8       
817.85     0.234      317.46     -9999      -9999      -9999      9.48       4.08       2.158124185490622 2.602883016963955 2.919383496562177 3.059411708155603 3.149857139617571 2.97       -9999      -9999      -9999      1.92       1.22       0.275      3.98       -9999      -9999      -9999      -9999      -9999      -9999      -9999      2.415      3.15       -9999      -9999      201.65     -9999      0.6119788  0.8       
818.05     0.233      321.54     -9999      -9999      -9999      9.82       4.09       1.983935482821885 2.47901189993102 2.824783177519962 2.984794800317061 3.109983922788015 2.96       -9999      -9999      -9999      1.94       1.2        0.259      3.58       -9999      -9999      -9999      -9999      -9999      -9999      -9999      2.42       3.11       -9999      -9999      201.51     -9999      0.7681357  0.8       
818.25     0.233      311.52     -9999      -9999      -9999      9.91       4.07       2.239642828667107 2.744886154287642 3.059738550922285 3.164806471176398 3.209859810022862 3.035      -9999      -9999      -9999      1.98       1.21       0.252      3.24       -9999      -9999      -9999      -9999      -9999      -9999      -9999      2.42       3.21       -9999      -9999      201.07     -9999      0.8        0.8       
818.4500000000001 0.233      306.27     -9999      -9999      -9999      10.01      3.99       2.25964598997272 2.699536997338561 2.984493256819259 3.149746021507085 3.264996171513829 3.105      -9999      -9999      -9999      1.99       1.23       0.258      3.05       -9999      -9999      -9999      -9999      -9999      -9999      -9999      2.405      3.265      -9999      -9999      201.32     -9999      0.8        0.8       
818.65     0.234      306.74     -9999      -9999      -9999      9.97       4          2.214542842213664 2.609827580511751 2.89496113963554 3.084963533009733 3.259984662540596 3.13       -9999      -9999      -9999      1.91       1.24       0.288      2.91       -9999      -9999      -9999      -9999      -9999      -9999      -9999      2.4        3.26       -9999      -9999      202.09     -9999      0.8        0.8       
818.85     0.233      301.65     -9999      -9999      -9999      9.73       4.11       2.279802623035634 2.754777667979799 3.029735962093112 3.184807686501691 3.314905730183015 3.19       -9999      -9999      -9999      1.9        1.25       0.296      2.91       -9999      -9999      -9999      -9999      -9999      -9999      -9999      2.415      3.315      -9999      -9999      201.83     -9999      0.7232876  0.8       
819.05     0.232      291.12     -9999      -9999      -9999      9.38       4.25       2.514875742457241 2.949389767392502 3.194683082873741 3.279939023823438 3.434967248752145 3.27       -9999      -9999      -9999      1.9        1.27       0.307      3.08       -9999      -9999      -9999      -9999      -9999      -9999      -9999      2.42       3.435      -9999      -9999      200.85     -9999      0.5724093  0.8       
819.25     0.232      291.12     -9999      -9999      -9999      9.3        4.530001   2.51968251968378 2.929385601111605 3.18326876025258 3.314996229258791 3.434967248752163 3.315      -9999      -9999      -9999      1.87       1.27       0.317      3.39       -9999      -9999      -9999      -9999      -9999      -9999      -9999      2.41       3.435      -9999      -9999      200.35     -9999      0.5426037  0.8       
819.4500000000001 0.234      299.85     -9999      -9999      -9999      9.72       5.22       2.09914268214424 2.533574549919444 2.824641570181907 3.134517506730439 3.334906295535125 3.37       -9999      -9999      -9999      1.79       1.27       0.348      4.28       -9999      -9999      -9999      -9999      -9999      -9999      -9999      2.4        3.335      -9999      -9999      201.85     -9999      0.7184694  0.8       
819.65     0.232      297.61     -9999      -9999      -9999      9.91       5.91       2.039975490048827 2.651565575277969 3.163036515754835 3.451666264284269 3.359627955592646 3.575      -9999      -9999      -9999      1.95       1.29       0.3        4.94       -9999      -9999      -9999      -9999      -9999      -9999      -9999      2.435      3.36       -9999      -9999      203.02     -9999      0.8        0.8       
819.85     0.231      258.39     -9999      -9999      -9999      9.59       6.26       3.623147802672268 4.686512562664234 5.122450585414068 4.806245936279649 3.864828586108543 4.06       -9999      -9999      -9999      2.11       1.32       0.265      5.23       -9999      -9999      -9999      -9999      -9999      -9999      -9999      2.49       3.87       -9999      -9999      203.32     -9999      0.6586723  0.8       
820.05     0.227      220.99     -9999      -9999      -9999      8.59       6.8        4.75786716922653 5.193322635847459 5.453475955755743 5.207206544780355 4.524378410345533 4.415      -9999      -9999      -9999      2.39       1.4        0.229      5.469999   -9999      -9999      -9999      -9999      -9999      -9999      -9999      2.495      4.525      -9999      -9999      202.8      -9999      0.3375753  0.8       
820.25     0.228      275.48     -9999      -9999      -9999      8.02       6.79       3.035457131965464 3.358332919768378 3.71258669932434 3.647684196856959 3.621380952067871 3.515      -9999      -9999      -9999      2.38       1.43       0.242      5.179999   -9999      -9999      -9999      -9999      -9999      -9999      -9999      2.445      3.63       -9999      -9999      201.4      -9999      0.2306219  0.8       
820.4500000000001 0.23       347.22     -9999      -9999      -9999      8.65       5.94       2.248265998497248 2.657724590697715 2.893440858216974 2.8834354509854 2.878263365295008 2.805      -9999      -9999      -9999      2.07       1.34       0.286      4.44       -9999      -9999      -9999      -9999      -9999      -9999      -9999      2.385      2.88       -9999      -9999      199.67     -9999      0.3513893  0.8       
820.65     0.233      378.78     -9999      -9999      -9999      9.59       4.95       1.909581105897357 2.419483415938261 2.684958100231751 2.674957943594645 2.63982953995143 2.625      -9999      -9999      -9999      1.8        1.24       0.327      3.76       -9999      -9999      -9999      -9999      -9999      -9999      -9999      2.37       2.64       -9999      -9999      198.03     -9999      0.6586723  0.8       
820.85     0.233      390.62     -9999      -9999      -9999      9.81       4.2        1.734646938140399 2.128849454517548 2.53460056024608 2.564878164747763 2.559980468675482 2.575      -9999      -9999      -9999      1.75       1.21       0.33       3.55       -9999      -9999      -9999      -9999      -9999      -9999      -9999      2.38       2.56       -9999      -9999      196.13     -9999      0.7630187  0.8       
821.05     0.234      395.25     -9999      -9999      -9999      9.95       3.71       1.73997126413052 2.02997536930869 2.39991666521988 2.544955795293882 2.53       2.575      -9999      -9999      -9999      1.68       1.2        0.353      3.45       -9999      -9999      -9999      -9999      -9999      -9999      -9999      2.365      2.53       -9999      -9999      194.86     -9999      0.8        0.8       
821.25     0.233      383.87     -9999      -9999      -9999      10.26      3.37       1.73       2.104281350010022 2.379810916858732 2.634767541928509 2.604880035625441 2.63       -9999      -9999      -9999      1.63       1.2        0.376      3.39       -9999      -9999      -9999      -9999      -9999      -9999      -9999      2.34       2.605      -9999      -9999      193.9      -9999      0.8        0.8       
