~Version
 VERS              .         2.0                           : CWLS LOG ASCII STANDARD - VERSION 2.0
 WRAP              .         NO                            : ONE LINE PER DEPTH STEP
 DLM               .         SPACE                         : DELIMITING CHARACTER(SPACE TAB OR COMMA)
~Well Information
#_______________________________________________________________________________
#
#PARAMETER_NAME    .UNIT     VALUE                         : DESCRIPTION
#_______________________________________________________________________________
STRT               .M        0.25                          : First reference value
STOP               .M        1174.65                       : Last reference value
STEP               .M        0.2                           : Step increment
NULL               .         -9999                         : Missing value
COMP               .                                       : Company
WELL               .         7169                          : Well name
FLD                .         Узень                         : Field
LOC                .                                       : Location
CNTY               .                                       : County
STAT               .                                       : State
CTRY               .                                       : Country
SRVC               .                                       : Service Company
DATE               .                                       : Date
UWI                .                                       : Unique Well ID
Block              .         6а                            : 
Category           .         Нефтяная                      : 
Condition          .         В работе                      : 
Date               .         29.04.2017                    : 
EREF               .m        88.4                          : 100.8
GRP                .                                       : Group name
Gorizont           .         15                            : 14
ISS                .                                       : Well surveys
Interpretator      .         Бекбулатова А.А.              : 
Kupol              .         Основной                      : osnovnoi
Mud                .         Полимерный                    : 
Mud_density        .         1.36                          : 
Mud_resistivity    .         0.35                          : 
NGDU               .         НГДУ-2                        : 
ORIGINALWELLNAME   .         7169                          : 
Spud_date          .         2017                          : 1961
TIME               .         11_03                         : LOG TIME
Viscosity          .         40                            : 
X                  .m        42538.74                      : 46154
Y                  .m        84287.88                      : 85761.93
YEAR               .         2018                          : 
Исправ_15гор       .         Исправ.15гор                  : 
~Parameter Information Block
#_______________________________________________________________________________
#
#PARAMETER_NAME    .UNIT     VALUE                         : DESCRIPTION
#_______________________________________________________________________________
SET                .         LQC_KAZNIPI_Petrel            : 
TLFamily_CALI      .         Caliper                       : 
TLFamily_CILD      .         Conductivity                  : 
TLFamily_COLL      .         Net Reservoir Flag            : 
TLFamily_CSAT      .         Fluid Code                    : 
TLFamily_DEPT      .         Measured Depth                : 
TLFamily_DT        .         Compressional Slowness        : 
TLFamily_GR        .         Russian Gamma Ray             : 
TLFamily_GZ3       .         Gradient 225                  : 
TLFamily_IK1       .         Resistivity 05                : 
TLFamily_IK2       .         Resistivity 07                : 
TLFamily_IK3       .         Resistivity 10                : 
TLFamily_IK4       .         Resistivity 14                : 
TLFamily_IK5       .         Resistivity 20                : 
TLFamily_LLS       .         Lateral Log Resistivity       : 
TLFamily_MBK       .         Micro Lateral Log Resistivity : 
TLFamily_MINV      .         Micro Gradient Resistivity    : 
TLFamily_MNOR      .         Micro Resistivity             : 
TLFamily_NNKTB_1   .         Neutron Far                   : 
TLFamily_NNKTM_1   .         Neutron Near                  : 
TLFamily_NPHI      .         Neutron Porosity              : 
TLFamily_OGZ       .         Gradient Inverted 225         : 
TLFamily_PHIE      .         Effective Porosity            : 
TLFamily_PHIED     .         Effective Porosity            : 
TLFamily_PHIEN     .         Effective Porosity            : 
TLFamily_PHIES     .         Effective Porosity            : 
TLFamily_PHIT      .         Porosity                      : 
TLFamily_PRMB      .         Permeability                  : 
TLFamily_PRMB_DGR  .         Permeability                  : 
TLFamily_RHOB      .         Bulk Density                  : 
TLFamily_RT        .         Formation Resistivity         : 
TLFamily_SOIL_ARCHIE .         Oil Saturation                : 
TLFamily_SOIL_DW   .         Oil Saturation                : 
TLFamily_SP        .         Spontaneous Potential         : 
TLFamily_VSH_FIN   .         Shale Volume                  : 
TLFamily_VSH_GR    .         Shale Volume                  : 
TLFamily_VSH_SP    .         Shale Volume                  : 
~Curve Information
#_______________________________________________________________________________
#
#LOGNAME           .UNIT     LOG_ID                        : DESCRIPTION
#_______________________________________________________________________________
DEPT               .M                                      : Колонка глубины 
CALI               .м                                      : Каверномер 
CILD               .мСм/м                                  : Проводимость 
COLL               .unitless                               : Описание 
CSAT               .unitless                               : Описание 
DT                 .мкс/м                                  : Интервальное время пробега продольной волны 
GR                 .uR/h                                   : Гамма каротаж 
GZ3                .ohmm                                   : Градиент-зонд  длиной 2.25м 
IK1                .OHMM                                   : И0.10И0.40 
IK2                .OHMM                                   : И0.14И0.56 
IK3                .OHMM                                   : И0.20И0.8 
IK4                .OHMM                                   : И0.28И1.12 
IK5                .OHMM                                   : И0.40И1.60 
LLS                .ohmm                                   : Боковой каротаж 
MBK                .ohmm                                   : Микробоковой каротаж 
MINV               .ohmm                                   : Микро-градиент зонд 
MNOR               .ohmm                                   : Микро-потенциал зонд 
NNKTB_1            .у.е.                                   : Показания большого зонда 2ННКт аппаратуры СРК 
NNKTM_1            .у.е.                                   : Показания малого зонда 2ННКт аппаратуры СРК 
NPHI               .д.ед.                                  : Водородосодержание по НКТ 
OGZ                .ohmm                                   : Обращенный градиент-зонд 
PHIE               .д.ед.                                  : Описание 
PHIED              .д.ед.                                  :  
PHIEN              .д.ед.                                  :  
PHIES              .д.ед.                                  :  
PHIT               .д.ед.                                  : Описание 
PRMB               .mD                                     :  
PRMB_DGR           .mD                                     :  
RHOB               .G/C3                                   : Плотность по ГГКп 
RT                 .ohmm                                   : Удельное электрическое сопротивление 
SOIL_ARCHIE        .д.ед.                                  :  
SOIL_DW            .д.ед.                                  :  
SP                 .мВ                                     : Потенциал самополяризации 
VSH_FIN            .д.ед.                                  : Описание 
VSH_GR             .д.ед.                                  : Shale volume 
VSH_SP             .д.ед.                                  : Shale Volume 
~Ascii
# ...
924.25     0.231      280.89     -9999      -9999      283.558    6.38       7.05       2.531600284405104 2.660826939130014 3.000533285934353 3.239135687185703 3.558300155973355 3.585      3.85       4.745      4.225      2.32       1.38       0.237      5.699999   0.1532341  0.1437125  0.1510729  0.1649168  0.2090892  1.929411   9.533586   2.43       3.56       0.3686708  0.4665921  193.32     0.2603852  0.2583754  0.2623951 
924.4500000000001 0.231      300.75     -9999      -9999      283.284    6.45       7.04       2.319806026373791 2.53191627033769 2.870818698559874 3.04836021493535 3.324906013709288 3.555      3.52       4.345      4.11       2.3        1.35       0.23       5.89       0.1479801  0.1317365  0.1459212  0.1662826  0.2026338  1.542085   9.002716   2.45       3.325      0.3279987  0.4296469  192.08     0.2547843  0.2644914  0.2450773 
924.65     0.232      254.45     -9999      -9999      266.243    6.49       7.06       3.443718920004018 3.965450794045246 3.939949238251177 4.076665303896917 3.923837407436506 3.98       4.55       4.105      5.69       2.35       1.35       0.219      6.219999   0.1299601  0.1107785  0.136842   0.1422599  0.1833653  0.7150482  8.712742   2.485      3.93       0.3043082  0.4130335  190.89     0.2489636  0.2680511  0.2298761 
924.85     0.231      223.21     -9999      -9999      254.589    6.28       7.190001   4.281051272759302 4.250694060973476 4.652225273994839 4.597553697348018 4.48       4.475      10.75      7.27       7.05       2.51       1.39       0.201      6.57       0.1173866  0.1017964  0.1234216  0.1269419  0.1678149  0.4182569  10.34673   2.5        4.48       0.2851557  0.396041   190.08     0.2350862  0.2498827  0.2202896 
925.05     0.232      241.25     -9999      -9999      255.76     5.94       7.4        2.920342445672922 3.144105596190984 3.61496887953408 3.80405047285137 4.144128376389999 4.22       3.575      3.71       4.37       2.57       1.43       0.203      6.49       0.1224901  0.1017964  0.1311922  0.1344818  0.1691674  0.519963   13.66665   2.5        4.145      0.2855805  0.3859434  189.35     0.2175995  0.2230414  0.2121576 
925.25     0.231      247.83     -9999      -9999      258.055    5.96       7.36       3.987856567129765 3.959191836726278 4.089951099952174 4.019390501058587 4.034996902105378 4.01       8.255001   7.665      7.485      2.51       1.42       0.211      6.28       0.1275163  0.1047905  0.1392467  0.1385116  0.174158   0.6442712  13.44475   2.495      4.035      0.3014073  0.3982482  189.18     0.2174342  0.2245373  0.210331  
925.4500000000001 0.232      244.79     -9999      -9999      254.833    6.11       7.09       2.696367927416594 3.338787204959412 3.749146569554287 3.899987179466096 4.084972460127502 4.06       3.305      3.435      4.145      2.47       1.41       0.216      5.989999   0.1223227  0.09281431 0.1427086  0.1314451  0.1699643  0.5162627  11.89139   2.515      4.085      0.2798178  0.3828028  188.97     0.2220953  0.2360809  0.2081096 
925.65     0.231      235.01     -9999      -9999      250.057    6.19       6.6        4.570514194266834 4.723833189264467 5.033865314050047 4.496398558846642 4.254503496296527 4.145      5.995      6.89       6.905001   2.47       1.42       0.219      5.68       0.1187692  0.08982037 0.1446357  0.1218516  0.1671082  0.4436619  11.13769   2.52       4.255      0.2750906  0.3817293  188.98     0.2253464  0.2424783  0.2082145 
925.85     0.231      233.91     -9999      -9999      249.636    6.03       6.13       3.552140199935219 3.857201057761486 4.280408858975509 4.335389255879803 4.274342054632417 4.3        4.75       5.75       5.515      2.49       1.42       0.215      5.41       0.1214592  0.09880233 0.1426148  0.1229604  0.1685117  0.4975956  12.69609   2.505      4.275      0.2906561  0.3918506  189.04     0.2193491  0.2298523  0.2088458 
926.05     0.233      251.25     -9999      -9999      252.754    5.91       5.84       3.279024245106483 3.571134273588357 3.909091966172974 3.964290604887503 3.979886933067355 4.01       3.97       3.795      3.965      2.53       1.41       0.204      5.28       0.1251527  0.1137724  0.1323621  0.1293236  0.1717195  0.5824922  14.00639   2.48       3.98       0.2853427  0.3843252  189.46     0.2170845  0.2208162  0.2133528 
926.25     0.23       250        -9999      -9999      259.158    5.87       5.65       4.673713726791576 4.648182440481441 4.613805370840864 4.379954337661524 3.999987499980469 3.98       8.215      7.435      6.705      2.51       1.39       0.201      5.1        0.1369533  0.1407186  0.1295012  0.1406402  0.1834297  0.963532   14.47254   2.435      4          0.3408354  0.430807   189.65     0.216663   0.2178838  0.2154422 
926.4500000000001 0.231      274.72     -9999      -9999      270.278    6.05       5.54       2.815137652051469 3.059607818004991 3.263357167089982 3.481034329046185 3.638021440288527 3.885      4.175      5.110001   4.605      2.43       1.38       0.213      4.99       0.1480569  0.1497006  0.13851    0.15596    0.1964776  1.547143   12.48994   2.42       3.64       0.3562351  0.4450877  190.06     0.2257272  0.2313939  0.2200604 
926.65     0.233      291.54     -9999      -9999      271.45     6.27       5.38       2.294428033301364 2.551430971043351 2.966209702633816 3.13870992606825 3.429868802155524 3.605      2.605      3.94       3.71       2.31       1.36       0.232      5.02       0.1506741  0.1437125  0.1539267  0.154383   0.201424   1.729846   10.43176   2.43       3.43       0.3480568  0.4406834  190.41     0.2365858  0.249049   0.2241226 
926.85     0.231      253.48     -9999      -9999      256.989    6.3        5.43       3.590988721787221 3.932009664281637 4.227505174450256 4.061034351000061 3.941116593048418 3.95       4.915      5.71       5.594999   2.29       1.35       0.232      5.27       0.1338595  0.1197605  0.1525028  0.1293153  0.1855351  0.8444249  10.17873   2.47       3.945      0.3232031  0.4252435  190.92     0.2409007  0.2515587  0.2302428 
927.05     0.231      236.12     -9999      -9999      247.372    5.9        5.68       3.831748947935564 3.89050125305265 4.232540608193042 4.341865958318108 4.23476091414857 4.22       9.785      8.805      7.72       2.36       1.38       0.228      5.38       0.1255951  0.1077844  0.1528559  0.116145   0.174441   0.593587   14.12149   2.49       4.235      0.3079987  0.4094863  191.33     0.2277093  0.2200795  0.2353392 
927.25     0.233      258.06     -9999      -9999      250.396    5.44       5.91       2.779352442566434 2.991955882027674 3.384996307235799 3.619323141141172 3.874067629765904 3.905      3.095      3.775      4          2.38       1.4        0.231      5.110001   0.1328294  0.1137724  0.159512   0.1252037  0.1792987  0.8081276  20.57766   2.48       3.875      0.3128854  0.4064541  192.04     0.2166305  0.1887169  0.244544  
927.4500000000001 0.231      264.9      -9999      -9999      257.998    5.53       5.77       4.293949231185777 3.879175170058616 3.92461463076319 3.834918512823996 3.774996688740265 3.685      7.75       8.06       7.765      2.39       1.38       0.221      4.72       0.1343361  0.1197605  0.146984   0.1362638  0.1824487  0.8617638  19.1163    2.47       3.775      0.3112032  0.4075181  192.74     0.2242911  0.1944797  0.2541025 
927.65     0.232      274.34     -9999      -9999      264.531    5.64       5.49       2.396476580315507 2.73642102023809 3.094171940923991 3.407124887643699 3.644831957717707 3.7        3.68       5.465      4.57       2.41       1.37       0.214      4.49       0.133283   0.1197605  0.136338   0.1437507  0.1837657  0.823917   17.47038   2.47       3.645      0.2949665  0.3976159  193.76     0.2353394  0.2017626  0.2689162 
927.85     0.233      277.39     -9999      -9999      268.19     5.61       5.41       2.965130688519672 3.130814590486269 3.497999428244994 3.523748004611238 3.604830093083486 3.56       3.86       4.295      4.14       2.34       1.35       0.221      4.36       0.1378983  0.1257485  0.1407523  0.1471943  0.1900617  1.003159   17.90468   2.46       3.605      0.3120098  0.4144343  194.89     0.2431749  0.1997497  0.2866001 
