~Version
 VERS              .         2.0                           : CWLS LOG ASCII STANDARD - VERSION 2.0
 WRAP              .         NO                            : ONE LINE PER DEPTH STEP
 DLM               .         SPACE                         : DELIMITING CHARACTER(SPACE TAB OR COMMA)
~Well Information
#_______________________________________________________________________________
#
#PARAMETER_NAME    .UNIT     VALUE                         : DESCRIPTION
#_______________________________________________________________________________
STRT               .м        860                           : First reference value
STOP               .м        1150                          : Last reference value
STEP               .м        0.2                           : Step increment
NULL               .         -9999                         : Missing value
COMP               .                                       : Company
WELL               .         8414                          : Well name
FLD                .         Узень                         : Field
LOC                .                                       : Location
CNTY               .                                       : County
STAT               .                                       : State
CTRY               .                                       : Country
SRVC               .                                       : Service Company
DATE               .                                       : Date
UWI                .                                       : Unique Well ID
Block              .         7                             : 
Category           .         Нефтяная                      : 
Condition          .         В простое                     : 
Date               .         14.09.1993                    : 
EREF               .m        83.1                          : 100.8
GRP                .                                       : Group name
Gor                .         14                            : 
Gorizont           .         14                            : 14
ISS                .         БКЗ, магнитная лента          : Well surveys
Interpretator      .         Кайсанов Е.К                  : 
Kupol              .         Основной                      : osnovnoi
Mud                .                                       : 
Mud_density        .                                       : 
Mud_resistivity    .                                       : 
NGDU               .         НГДУ-2                        : 
ORIGINALWELLNAME   .         8414                          : 
Spud_date          .         1993                          : 1961
TIME               .         14_33                         : LOG TIME
Viscosity          .                                       : 
X                  .m        42913.2                       : 46154
Y                  .m        84318.83                      : 85761.93
YEAR               .         2019                          : 
Сдали_за_3_кв_2019 .         3                             : 
~Parameter Information Block
#_______________________________________________________________________________
#
#PARAMETER_NAME    .UNIT     VALUE                         : DESCRIPTION
#_______________________________________________________________________________
SET                .         LQC_KAZNIPI_Petrel            : 
TLFamily_CALI      .         Caliper                       : 
TLFamily_CILD      .         Conductivity                  : 
TLFamily_COLL      .         Net Reservoir Flag            : 
TLFamily_CSAT      .         Fluid Code                    : 
TLFamily_DEPT      .         Measured Depth                : 
TLFamily_GR        .         Russian Gamma Ray             : 
TLFamily_GZ1       .         Gradient 045                  : 
TLFamily_GZ2       .         Gradient 105                  : 
TLFamily_GZ3       .         Gradient 225                  : 
TLFamily_GZ4       .         Gradient 425                  : 
TLFamily_GZ5       .         Gradient 850                  : 
TLFamily_LLS       .         Lateral Log Resistivity       : 
TLFamily_MINV      .         Micro Gradient Resistivity    : 
TLFamily_MNOR      .         Micro Resistivity             : 
TLFamily_NGLD      .         Neutron Far                   : 
TLFamily_OGZ3      .         Gradient Inverted 225         : 
TLFamily_PHIE      .         Effective Porosity            : 
TLFamily_PHIEN     .         Effective Porosity            : 
TLFamily_PHIT      .         Porosity                      : 
TLFamily_PRMB      .         Permeability                  : 
TLFamily_PRMB_DGR  .         Permeability                  : 
TLFamily_RT        .         Formation Resistivity         : 
TLFamily_SOIL_ARCHIE .         Oil Saturation                : 
TLFamily_SOIL_DW   .         Oil Saturation                : 
TLFamily_SP        .         Spontaneous Potential         : 
TLFamily_VSH_FIN   .         Shale Volume                  : 
TLFamily_VSH_GR    .         Shale Volume                  : 
TLFamily_VSH_SP    .         Shale Volume                  : 
~Curve Information
#_______________________________________________________________________________
#
#LOGNAME           .UNIT     LOG_ID                        : DESCRIPTION
#_______________________________________________________________________________
DEPT               .м                                      : Колонка глубины 
CALI               .м                                      : Каверномер 
CILD               .мСм/м                                  : Индукционный каротаж 
COLL               .unitless                               :  
CSAT               .unitless                               :  
GR                 .uR/h                                   : Гамма каротаж 
GZ1                .Ohmm                                   : А0.4М0.1N 
GZ2                .Ohmm                                   : A1.0M0.1N 
GZ3                .Ohmm                                   : 146.20 - 1382.60- 195.20 - 1152.80 
GZ4                .Ohmm                                   : A4M0.5N 
GZ5                .Ohmm                                   : A8M1N 
LLS                .Ohmm                                   : Боковой каротаж 
MINV               .Ohmm                                   : Микро-градиент зонд 
MNOR               .Ohmm                                   : Микро-потенциал зонд 
NGLD               .у.е.                                   : Показания зонда НГК-60 аппаратуры ДРСТ-3-90 
OGZ3               .Ohmm                                   : 141.70 - 1378.10- 190.70 - 1148.30 
PHIE               .v/v                                    : Описание 
PHIEN              .v/v                                    :  
PHIT               .v/v                                    : Описание 
PRMB               .mD                                     :  
PRMB_DGR           .mD                                     :  
RT                 .ohmm                                   : УЭС пласта 
SOIL_ARCHIE        .v/v                                    :  
SOIL_DW            .v/v                                    :  
SP                 .мВ                                     : Потенциал самополяризации 
VSH_FIN            .v/v                                    : Описание 
VSH_GR             .v/v                                    : Shale volume 
VSH_SP             .v/v                                    : Shale Volume 
~Ascii
# ...
1125.2     0.216      0.091      1          2          2.407037   6.858      12.509     7.189099   7.805      7.411      7.096      3.093      3.796      1.022      7.265501   0.1659156  0.1699076  0.2079     3.313736   238.8402   8.011      0.5973864  0.6548913  23.2       0.1151285  0.06935114 0.1609059 
1125.4     0.215      0.09       1          2          2.413898   7.366      15.049     7.7012     7.64       7.017      6.606      2.739      3.4        1.023      6.487      0.1637101  0.1680347  0.20735    3.016243   232.1924   8.145      0.595825   0.6552823  23.8       0.1191373  0.07015514 0.1681195 
1125.6     0.215      0.09       1          2          2.440238   7.556      17.462     8.354199   7.36       6.611      5.612      2.629      2.88       1.014      5.987999   0.1687068  0.1729899  0.2123     3.732651   208.3453   8.145      0.6062711  0.6642342  23.5       0.1191213  0.07332928 0.1649133 
1125.8     0.214      0.091      1          2          2.472927   7.302      17.907     9.0468     6.814001   6.217      4.562      2.761      2.732      0.982      5.9681     0.1878581  0.1917653  0.2299     8.447828   182.127    7.985      0.6381159  0.6905048  22.4       0.1155597  0.077469   0.1536504 
1126       0.212      0.098      1          2          2.510437   6.075      16.192     9.77       6.344      5.823      4.427      1.624      2.22       0.935      5.9681     0.210221   0.2148146  0.25575    21.92612   156.081    7.454      0.6611162  0.7127669  23.5       0.1240467  0.08250802 0.1655853 
1126.2     0.213      0.108      1          2          2.554265   5.118001   14.224     10.3719    5.836      5.404      4.57       2.066      2.756      0.88       5.8483     0.241198   0.2455788  0.286      82.17332   130.328    6.763      0.6853096  0.7332599  22.6       0.1224887  0.08881244 0.1561649 
1126.4     0.215      0.119      1          2          2.592422   4.623      12.509     11.0045    5.417      5.011      4.62       2.242      2.674      0.846      5.6287     0.2586738  0.2632608  0.3047     173.1505   111.3928   6.126      0.68984    0.7376724  22.6       0.1255735  0.09469219 0.1564547 
1126.6     0.215      0.131      1          2          2.612614   4.559      11.493     11.5365    5.15       4.617      4.404      3.115      2.987      0.81       5.3293     0.2791654  0.2835664  0.3245     414.9328   102.5127   5.573      0.6965896  0.7432007  21.9       0.1240413  0.09795948 0.1501232 
1126.8     0.216      0.143      1          2          2.625721   4.521      10.541     11.4454    4.668      4.325      4.252      2.463      2.715      0.812      5.0499     0.277386   0.281916   0.3234     384.6099   97.13114   5.112      0.6822793  0.7306162  22         0.1257093  0.1001404  0.1512781 
1127       0.218      0.154      1          2          2.648977   4.254001   9.398001   10.7116    4.338      4.007      3.908      1.049      2.179      0.809      4.7904     0.2781851  0.2828642  0.32505    397.9436   88.26826   4.725      0.6711476  0.7209612  22         0.1278358  0.1041303  0.1515412 
1127.2     0.217      0.164      1          2          2.677563   4.039      8.636      9.7582     4.084001   3.728      3.758      2.43       2.732      0.805      4.7904     0.2794982  0.2843251  0.32725    420.8643   78.47418   4.434      0.6625772  0.7136387  21.9       0.1300754  0.1092532  0.1508976 
1127.4     0.221      0.171      1          2          2.694559   3.823      7.936999   8.864899   3.893      3.563      3.597      2.237      2.443      0.831      4.8902     0.2643149  0.2693093  0.31295    220.2473   73.17431   4.261      0.6390789  0.6930821  22         0.1322448  0.1124176  0.1520719 
1127.6     0.219      0.177      1          2          2.694909   3.48       7.239      8.0312     3.893      3.474      3.602      2.259      2.278      0.842      4.9301     0.2581948  0.2632042  0.3069     169.6496   73.06888   4.119      0.6257336  0.6811549  22         0.1324116  0.1124838  0.1523394 
1127.8     0.215      0.181      1          2          2.687749   3.353      6.527999   7.3187     4.033      3.474      3.547      2.259      2.492      0.823      5.0499     0.2688574  0.2738317  0.31735    267.3309   75.25343   4.032      0.6350571  0.6892675  22         0.1318737  0.1111388  0.1526085 
1128       0.215      0.181      1          2          2.683817   3.277      6.248      6.7867     4.287      3.576      3.459      2.342      2.55       0.767      5.2695     0.3010549  0.3057207  0.34815    1055.42    76.48066   4.032      0.6692952  0.7192137  21.3       0.1285737  0.1104072  0.1467403 
1128.2     0.214      0.179      1          2          2.687406   3.226      5.969      6.5461     4.579      3.792      3.605      2.408      2.608      0.776      5.5689     0.2948031  0.2997568  0.3432     808.4022   75.35981   4.084      0.6652146  0.716179   21.9       0.1316461  0.1110748  0.1522174 
1128.4     0.215      0.176      1          2          2.696055   3.162      5.766      6.5764     5.049      4.02       3.764      2.397      2.847      0.816      5.7884     0.2713919  0.2766401  0.3212     297.8482   72.7252    4.147      0.6427728  0.6969346  22.4       0.13503    0.1127006  0.1573595 
1128.6     0.215      0.175      1          2          2.706294   3.238      5.639      6.7271     5.607999   4.096      4.264      3.203      3.573      0.856      5.768499   0.2489373  0.2542686  0.2992     114.3091   69.72509   4.159      0.6153884  0.6729907  22.4       0.1361558  0.114656   0.1576556 
1128.8     0.215      0.176      1          2          2.715256   3.518      6.032      6.636199   6.065001   4.147      4.135      2.452      2.69       0.859      5.4491     0.2477131  0.2529387  0.29755    108.4941   67.20114   4.154      0.6135154  0.6710631  22         0.1351855  0.1163953  0.1539758 
1129       0.215      0.175      1          2          2.718461   3.607      6.02       6.294799   6.140999   4.211      3.829      2.458      2.756      0.847      5.0499     0.2537142  0.2590654  0.30415    140.1397   66.32088   4.159      0.621703   0.6786665  22.2       0.13662    0.1170236  0.1562163 
1129.2     0.215      0.174      1          2          2.714335   3.581      6.02       5.9636     6.153999   4.211      3.799      2.436      2.806      0.839      4.4511     0.2586316  0.2638765  0.30855    172.8391   67.45621   4.18       0.6288534  0.684692   22         0.1353743  0.1162154  0.1545333 
1129.4     0.214      0.173      1          2          2.711058   3.531      6.045001   5.763      6.166      4.249      3.739      2.43       2.905      0.838      3.7725     0.2592504  0.2644854  0.3091     177.4619   68.3718    4.224      0.6314406  0.6869774  22         0.1351958  0.1155773  0.1548142 
1129.6     0.212      0.172      1          2          2.720156   3.505      6.07       5.662499   6.204      4.375999   3.763      2.259      2.905      0.836      3.5729     0.2590789  0.2645746  0.3102     176.1685   65.85976   4.246      0.632126   0.6883404  22.4       0.1382587  0.1173575  0.1591599 
1129.8     0.211      0.172      1          2          2.74539    3.454      6.096      5.6527     6.268      4.541      3.821      2.154      2.715      0.836      3.3533     0.2575408  0.2633299  0.3102     164.9825   59.36526   4.238      0.6298857  0.6872587  22.6       0.1420306  0.1224396  0.1616216 
1130       0.213      0.172      1          2          2.783072   3.391      6.159      5.7028     6.331      4.68       3.907      2.132      2.756      0.856      3.2335     0.2457483  0.2516596  0.2992     99.77293   50.83942   4.238      0.6144644  0.6742812  22.2       0.1440617  0.1304414  0.157682  
1130.2     0.214      0.174      1          2          2.826087   3.518      6.159      5.7129     6.420001   4.846      3.886      2.231      2.542      0.854      3.014      0.243906   0.2503914  0.3003     92.23352   42.59341   4.202      0.6103727  0.672543   22.6       0.1512383  0.1402166  0.16226   
