~Version
 VERS              .         2.0                           : CWLS LOG ASCII STANDARD - VERSION 2.0
 WRAP              .         NO                            : ONE LINE PER DEPTH STEP
 DLM               .         SPACE                         : DELIMITING CHARACTER(SPACE TAB OR COMMA)
~Well Information
#_______________________________________________________________________________
#
#PARAMETER_NAME    .UNIT     VALUE                         : DESCRIPTION
#_______________________________________________________________________________
STRT               .м        860                           : First reference value
STOP               .м        1150                          : Last reference value
STEP               .м        0.2                           : Step increment
NULL               .         -9999                         : Missing value
COMP               .                                       : Company
WELL               .         8414                          : Well name
FLD                .         Узень                         : Field
LOC                .                                       : Location
CNTY               .                                       : County
STAT               .                                       : State
CTRY               .                                       : Country
SRVC               .                                       : Service Company
DATE               .                                       : Date
UWI                .                                       : Unique Well ID
Block              .         7                             : 
Category           .         Нефтяная                      : 
Condition          .         В простое                     : 
Date               .         14.09.1993                    : 
EREF               .m        83.1                          : 100.8
GRP                .                                       : Group name
Gor                .         14                            : 
Gorizont           .         14                            : 14
ISS                .         БКЗ, магнитная лента          : Well surveys
Interpretator      .         Кайсанов Е.К                  : 
Kupol              .         Основной                      : osnovnoi
Mud                .                                       : 
Mud_density        .                                       : 
Mud_resistivity    .                                       : 
NGDU               .         НГДУ-2                        : 
ORIGINALWELLNAME   .         8414                          : 
Spud_date          .         1993                          : 1961
TIME               .         14_33                         : LOG TIME
Viscosity          .                                       : 
X                  .m        42913.2                       : 46154
Y                  .m        84318.83                      : 85761.93
YEAR               .         2019                          : 
Сдали_за_3_кв_2019 .         3                             : 
~Parameter Information Block
#_______________________________________________________________________________
#
#PARAMETER_NAME    .UNIT     VALUE                         : DESCRIPTION
#_______________________________________________________________________________
SET                .         LQC_KAZNIPI_Petrel            : 
TLFamily_CALI      .         Caliper                       : 
TLFamily_CILD      .         Conductivity                  : 
TLFamily_COLL      .         Net Reservoir Flag            : 
TLFamily_CSAT      .         Fluid Code                    : 
TLFamily_DEPT      .         Measured Depth                : 
TLFamily_GR        .         Russian Gamma Ray             : 
TLFamily_GZ1       .         Gradient 045                  : 
TLFamily_GZ2       .         Gradient 105                  : 
TLFamily_GZ3       .         Gradient 225                  : 
TLFamily_GZ4       .         Gradient 425                  : 
TLFamily_GZ5       .         Gradient 850                  : 
TLFamily_LLS       .         Lateral Log Resistivity       : 
TLFamily_MINV      .         Micro Gradient Resistivity    : 
TLFamily_MNOR      .         Micro Resistivity             : 
TLFamily_NGLD      .         Neutron Far                   : 
TLFamily_OGZ3      .         Gradient Inverted 225         : 
TLFamily_PHIE      .         Effective Porosity            : 
TLFamily_PHIEN     .         Effective Porosity            : 
TLFamily_PHIT      .         Porosity                      : 
TLFamily_PRMB      .         Permeability                  : 
TLFamily_PRMB_DGR  .         Permeability                  : 
TLFamily_RT        .         Formation Resistivity         : 
TLFamily_SOIL_ARCHIE .         Oil Saturation                : 
TLFamily_SOIL_DW   .         Oil Saturation                : 
TLFamily_SP        .         Spontaneous Potential         : 
TLFamily_VSH_FIN   .         Shale Volume                  : 
TLFamily_VSH_GR    .         Shale Volume                  : 
TLFamily_VSH_SP    .         Shale Volume                  : 
~Curve Information
#_______________________________________________________________________________
#
#LOGNAME           .UNIT     LOG_ID                        : DESCRIPTION
#_______________________________________________________________________________
DEPT               .м                                      : Колонка глубины 
CALI               .м                                      : Каверномер 
CILD               .мСм/м                                  : Индукционный каротаж 
COLL               .unitless                               :  
CSAT               .unitless                               :  
GR                 .uR/h                                   : Гамма каротаж 
GZ1                .Ohmm                                   : А0.4М0.1N 
GZ2                .Ohmm                                   : A1.0M0.1N 
GZ3                .Ohmm                                   : 146.20 - 1382.60- 195.20 - 1152.80 
GZ4                .Ohmm                                   : A4M0.5N 
GZ5                .Ohmm                                   : A8M1N 
LLS                .Ohmm                                   : Боковой каротаж 
MINV               .Ohmm                                   : Микро-градиент зонд 
MNOR               .Ohmm                                   : Микро-потенциал зонд 
NGLD               .у.е.                                   : Показания зонда НГК-60 аппаратуры ДРСТ-3-90 
OGZ3               .Ohmm                                   : 141.70 - 1378.10- 190.70 - 1148.30 
PHIE               .v/v                                    : Описание 
PHIEN              .v/v                                    :  
PHIT               .v/v                                    : Описание 
PRMB               .mD                                     :  
PRMB_DGR           .mD                                     :  
RT                 .ohmm                                   : УЭС пласта 
SOIL_ARCHIE        .v/v                                    :  
SOIL_DW            .v/v                                    :  
SP                 .мВ                                     : Потенциал самополяризации 
VSH_FIN            .v/v                                    : Описание 
VSH_GR             .v/v                                    : Shale volume 
VSH_SP             .v/v                                    : Shale Volume 
~Ascii
# ...
1052.4     0.27       0.386      -9999      -9999      2.749045   1.918      3.111      2.4699     1.925      1.633      1.649      -0.387     0.817      0.787      1.8962     0.1652108  0.1652108  0.33715    3.21561    3.207255   1.891      0.2043457  0.4669652  49.1       0.5210278  0.403128   0.6389276 
1052.6     0.267      0.387      -9999      -9999      2.758083   1.892      2.921      2.4699     1.925      1.658      1.555      0.801      1.089      0.794      1.976      0.1560196  0.1560196  0.3333     2.1728     3.120295   1.885      0.1624257  0.4504665  49.5       0.5372133  0.4076783  0.6667482 
1052.8     0.251      0.379      -9999      -9999      2.779025   1.905      2.781      2.4497     1.95       1.772      1.633      1.988      1.362      0.803      2.1557     0.1499008  0.1499008  0.32835    1.673726   2.927757   1.921      0.1403911  0.4421883  49.4       0.5407552  0.41842    0.6630905 
1053       0.262      0.363      -9999      -9999      2.797912   1.88       2.603      2.5405     2.001      1.95       1.615      1.701      1.568      0.799      2.3353     0.158181   0.158181   0.33055    2.382617   2.764316   2.007      0.1964028  0.4674723  48.6       0.5223302  0.4283504  0.6163101 
1053.2     0.259      0.352      -9999      -9999      2.801042   1.778      2.489      2.9322     2.191      2.179      1.701      1.988      1.271      0.805      2.7745     0.1561503  0.1561503  0.32725    2.184944   2.738128   2.073      0.1995545  0.4701528  48.4       0.5184839  0.4300185  0.6069494 
1053.4     0.226      0.35       -9999      -9999      2.785882   1.765      2.705      3.3335     2.649      2.268      2.807      1.762      1.931      0.803      3.1737     0.1490153  0.1490153  0.32835    1.611696   2.867329   2.083      0.1681563  0.4631245  49.3       0.5434385  0.4219984  0.6648787 
1053.6     0.23       0.341      -9999      -9999      2.75671    2.21       3.188      3.3934     2.966      2.344      2.447      2.342      2.335      0.813      3.1737     0.1379392  0.1379392  0.32285    1.004908   3.133354   2.135      0.1205095  0.4484028  50         0.5603358  0.4069836  0.713688  
1053.8     0.238      0.329      -9999      -9999      2.716868   2.362      3.023      3.1724     2.979      2.369      2.065      2.353      1.717      0.803      3.0938     0.1538325  0.1538325  0.32835    1.979288   3.536985   2.218      0.2143851  0.4859227  49.3       0.528841   0.3873369  0.670345  
1054       0.221      0.327      -9999      -9999      2.672801   2.413      2.87       2.9919     2.89       2.217      2.728      2.54       2.17       0.79       3.0938     0.1649923  0.1649923  0.3355     3.185782   4.044266   2.232      0.2630521  0.5076325  49.2       0.5166899  0.3667087  0.6666712 
1054.2     0.231      0.329      -9999      -9999      2.642843   2.565      3.073      2.7205     2.776      2.09       2.739      2.458      2.814      0.78       2.9341     0.1733056  0.1733056  0.341      4.541483   4.430051   2.216      0.29155    0.5199365  49.1       0.508165   0.3533165  0.6630135 
1054.4     0.246      0.328      -9999      -9999      2.640611   2.502      3.086      2.3291     2.56       2.001      2.067      1.988      1.857      0.78       2.5549     0.181823   0.181823   0.341      6.530734   4.460233   2.22       0.3211182  0.5292127  48.3       0.4823545  0.3523383  0.6123706 
1054.6     0.239      0.328      -9999      -9999      2.659387   2.476      2.997      2.1586     2.331      1.912      2.275      2.259      1.948      0.789      2.3952     0.1757182  0.1757182  0.33605    5.033682   4.21267    2.226      0.3015068  0.5192828  48.3       0.4858539  0.3606505  0.6110573 
1054.8     0.233      0.329      -9999      -9999      2.687125   2.4        3.175      2.2291     2.229      1.861      2.241      2.59       2.055      0.8        2.5349     0.1648246  0.1648246  0.33       3.163072   3.871863   2.216      0.2599045  0.5006027  48.6       0.5005316  0.3732904  0.6277727 
1055       0.232      0.336      -9999      -9999      2.728926   2.362      3.429      2.3092     2.28       1.81       2.283      2.259      1.948      0.805      2.6148     0.1539019  0.1539019  0.32725    1.985153   3.409623   2.167      0.2060741  0.4789119  49.1       0.5252974  0.3931808  0.657414  
1055.2     0.219      0.351      -9999      -9999      2.797091   2.4        3.683      2.3294     2.344      1.747      2.601      3.004      2.649      0.793      2.5549     0.1640391  0.1640391  0.33385    3.058869   2.77123    2.076      0.2337075  0.4867752  48.2       0.5145784  0.4279136  0.6012431 
1055.4     0.225      0.365      -9999      -9999      2.891586   2.4        3.543      2.3092     2.293      1.696      2.051      2.209      1.857      0.779      2.3952     0.1612131  0.1612131  0.34155    2.711537   2.079025   1.999      0.2080996  0.4808892  48.4       0.5464755  0.4811953  0.6117558 
1055.6     0.235      0.37       -9999      -9999      2.9946     2.337      3.162      2.2892     2.115      1.645      1.763      2.32       1.395      0.775      2.3353     0.1603802  0.1603802  0.34375    2.616905   1.51983    1.971      0.1992358  0.4782743  47.6       0.5556662  0.5468664  0.564466  
1055.8     0.237      0.369      -9999      -9999      3.07471    2.134      2.857      2.3092     1.937      1.531      1.471      1.215      1.155      0.784      2.3752     0.1415204  0.1415204  0.3388     1.170736   1.191193   1.973      0.1074793  0.4486438  48.1       0.5978171  0.6040711  0.591563  
1056       0.234      0.368      -9999      -9999      3.097235   2.057      2.756      2.2891     1.81       1.442      1.672      1.994      1.485      0.776      2.4551     0.148877   0.148877   0.3432     1.602215   1.11232    1.98       0.1474338  0.4642047  47.5       0.5888576  0.6212078  0.5565073 
1056.2     0.234      0.364      -9999      -9999      3.045423   1.93       2.692      2.2892     1.747      1.544      1.711      2.237      1.717      0.786      2.475      0.1444008  0.1444008  0.3377     1.323767   1.302165   2.002      0.12899    0.4555869  48.1       0.5857551  0.582495   0.5890151 
1056.4     0.237      0.356      -9999      -9999      2.934184   1.854      2.565      2.3293     1.734      1.607      1.795      2.209      1.568      0.788      2.6148     0.1549584  0.1549584  0.3366     2.076654   1.826394   2.045      0.1890363  0.474274   48.2       0.550429   0.5073369  0.5935212 
1056.6     0.246      0.352      -9999      -9999      2.802336   1.968      2.591      2.4098     1.721      1.696      2.155      2.237      1.931      0.803      2.8743     0.1695969  0.1695969  0.32835    3.877069   2.727371   2.071      0.2547826  0.4874968  47.1       0.4810702  0.4307103  0.5314301 
1056.8     0.245      0.347      -9999      -9999      2.69542    2.108      2.743      2.5705     1.823      1.696      2.229      2.651      2.055      0.795      3.1737     0.1749012  0.1749012  0.33275    4.861293   3.775405   2.099      0.2790631  0.5010545  48         0.4783298  0.3771558  0.5795038 
1057       0.231      0.343      -9999      -9999      2.652942   2.235      2.832      2.6908     1.937      1.785      2.642      1.927      2.344      0.82       3.2735     0.1700307  0.1700307  0.319      3.949478   4.296052   2.127      0.2656906  0.4857873  47.4       0.451422   0.3577756  0.5450684 
1057.2     0.227      0.341      -9999      -9999      2.682715   2.311      2.845      2.6304     1.899      1.81       2.143      2.099      1.989      0.858      3.1737     0.1497316  0.1497316  0.2981     1.661691   3.924141   2.135      0.181153   0.4379894  47.1       0.4496013  0.3712517  0.5279508 
1057.4     0.209      0.341      -9999      -9999      2.752182   2.362      2.819      2.4798     1.823      1.798      2.38       2.369      2.08       0.872      2.9541     0.1425609  0.1425609  0.2904     1.223861   3.176797   2.135      0.1453952  0.4179943  46.4       0.4479972  0.4047018  0.4912927 
