~Version
 VERS              .         2.0                           : CWLS LOG ASCII STANDARD - VERSION 2.0
 WRAP              .         NO                            : ONE LINE PER DEPTH STEP
 DLM               .         SPACE                         : DELIMITING CHARACTER(SPACE TAB OR COMMA)
~Well Information
#_______________________________________________________________________________
#
#PARAMETER_NAME    .UNIT     VALUE                         : DESCRIPTION
#_______________________________________________________________________________
STRT               .м        860                           : First reference value
STOP               .м        1150                          : Last reference value
STEP               .м        0.2                           : Step increment
NULL               .         -9999                         : Missing value
COMP               .                                       : Company
WELL               .         8414                          : Well name
FLD                .         Узень                         : Field
LOC                .                                       : Location
CNTY               .                                       : County
STAT               .                                       : State
CTRY               .                                       : Country
SRVC               .                                       : Service Company
DATE               .                                       : Date
UWI                .                                       : Unique Well ID
Block              .         7                             : 
Category           .         Нефтяная                      : 
Condition          .         В простое                     : 
Date               .         14.09.1993                    : 
EREF               .m        83.1                          : 100.8
GRP                .                                       : Group name
Gor                .         14                            : 
Gorizont           .         14                            : 14
ISS                .         БКЗ, магнитная лента          : Well surveys
Interpretator      .         Кайсанов Е.К                  : 
Kupol              .         Основной                      : osnovnoi
Mud                .                                       : 
Mud_density        .                                       : 
Mud_resistivity    .                                       : 
NGDU               .         НГДУ-2                        : 
ORIGINALWELLNAME   .         8414                          : 
Spud_date          .         1993                          : 1961
TIME               .         14_33                         : LOG TIME
Viscosity          .                                       : 
X                  .m        42913.2                       : 46154
Y                  .m        84318.83                      : 85761.93
YEAR               .         2019                          : 
Сдали_за_3_кв_2019 .         3                             : 
~Parameter Information Block
#_______________________________________________________________________________
#
#PARAMETER_NAME    .UNIT     VALUE                         : DESCRIPTION
#_______________________________________________________________________________
SET                .         LQC_KAZNIPI_Petrel            : 
TLFamily_CALI      .         Caliper                       : 
TLFamily_CILD      .         Conductivity                  : 
TLFamily_COLL      .         Net Reservoir Flag            : 
TLFamily_CSAT      .         Fluid Code                    : 
TLFamily_DEPT      .         Measured Depth                : 
TLFamily_GR        .         Russian Gamma Ray             : 
TLFamily_GZ1       .         Gradient 045                  : 
TLFamily_GZ2       .         Gradient 105                  : 
TLFamily_GZ3       .         Gradient 225                  : 
TLFamily_GZ4       .         Gradient 425                  : 
TLFamily_GZ5       .         Gradient 850                  : 
TLFamily_LLS       .         Lateral Log Resistivity       : 
TLFamily_MINV      .         Micro Gradient Resistivity    : 
TLFamily_MNOR      .         Micro Resistivity             : 
TLFamily_NGLD      .         Neutron Far                   : 
TLFamily_OGZ3      .         Gradient Inverted 225         : 
TLFamily_PHIE      .         Effective Porosity            : 
TLFamily_PHIEN     .         Effective Porosity            : 
TLFamily_PHIT      .         Porosity                      : 
TLFamily_PRMB      .         Permeability                  : 
TLFamily_PRMB_DGR  .         Permeability                  : 
TLFamily_RT        .         Formation Resistivity         : 
TLFamily_SOIL_ARCHIE .         Oil Saturation                : 
TLFamily_SOIL_DW   .         Oil Saturation                : 
TLFamily_SP        .         Spontaneous Potential         : 
TLFamily_VSH_FIN   .         Shale Volume                  : 
TLFamily_VSH_GR    .         Shale Volume                  : 
TLFamily_VSH_SP    .         Shale Volume                  : 
~Curve Information
#_______________________________________________________________________________
#
#LOGNAME           .UNIT     LOG_ID                        : DESCRIPTION
#_______________________________________________________________________________
DEPT               .м                                      : Колонка глубины 
CALI               .м                                      : Каверномер 
CILD               .мСм/м                                  : Индукционный каротаж 
COLL               .unitless                               :  
CSAT               .unitless                               :  
GR                 .uR/h                                   : Гамма каротаж 
GZ1                .Ohmm                                   : А0.4М0.1N 
GZ2                .Ohmm                                   : A1.0M0.1N 
GZ3                .Ohmm                                   : 146.20 - 1382.60- 195.20 - 1152.80 
GZ4                .Ohmm                                   : A4M0.5N 
GZ5                .Ohmm                                   : A8M1N 
LLS                .Ohmm                                   : Боковой каротаж 
MINV               .Ohmm                                   : Микро-градиент зонд 
MNOR               .Ohmm                                   : Микро-потенциал зонд 
NGLD               .у.е.                                   : Показания зонда НГК-60 аппаратуры ДРСТ-3-90 
OGZ3               .Ohmm                                   : 141.70 - 1378.10- 190.70 - 1148.30 
PHIE               .v/v                                    : Описание 
PHIEN              .v/v                                    :  
PHIT               .v/v                                    : Описание 
PRMB               .mD                                     :  
PRMB_DGR           .mD                                     :  
RT                 .ohmm                                   : УЭС пласта 
SOIL_ARCHIE        .v/v                                    :  
SOIL_DW            .v/v                                    :  
SP                 .мВ                                     : Потенциал самополяризации 
VSH_FIN            .v/v                                    : Описание 
VSH_GR             .v/v                                    : Shale volume 
VSH_SP             .v/v                                    : Shale Volume 
~Ascii
# ...
1010.8     0.275      0.682      -9999      -9999      2.848066   1.854      2.845      2.7608     2.674      2.471      1.657      -9999      0.9        0.728      1.976      0.2307783  0.2307783  0.3696     52.69055   2.373245   1.068      0.2224404  0.4117695  47.1       0.4206717  0.4558787  0.3854647 
1011       0.269      0.492      -9999      -9999      2.87772    1.816      2.896      2.4999     2.509      2.395      1.683      -9999      0.9        0.727      1.8563     0.2195623  0.2195623  0.37015    32.65765   2.168571   1.483      0.3038932  0.4911967  48.4       0.4563263  0.4729805  0.4396721 
1011.2     0.28       0.442      -9999      -9999      2.942501   1.791      2.692      2.299      2.344      2.293      1.209      -9999      0.834      0.721      1.7764     0.2078428  0.2078428  0.37345    19.81118   1.780772   1.65       0.3054916  0.5096674  49.5       0.5018401  0.5126045  0.4910756 
1011.4     0.275      0.441      -9999      -9999      2.998488   1.664      2.426      2.1687     2.242      2.166      1.201      -9999      0.858      0.72       1.7365     0.2107843  0.2107843  0.374      22.45922   1.50196    1.652      0.3143304  0.5131054  48.4       0.494593   0.5495139  0.4396721 
1011.6     0.262      0.44       -9999      -9999      3.016832   1.626      2.273      2.1687     2.128      2.115      1.177      -9999      0.99       0.689      1.7764     0.2286187  0.2286187  0.39105    48.05413   1.420463   1.657      0.3620634  0.5417379  48         0.4922161  0.5621755  0.4222567 
1011.8     0.257      0.442      -9999      -9999      2.999304   1.537      2.248      2.1687     2.153      2.102      1.407      -9999      1.155      0.668      1.8164     0.2363078  0.2363078  0.4026     66.70412   1.498239   1.65       0.3789482  0.5546458  48.8       0.5039157  0.5500708  0.4577605 
1012       0.26       0.442      -9999      -9999      2.966574   1.473      2.197      2.1687     2.318      2.102      1.374      -9999      0.9        0.653      1.8563     0.2526082  0.2526082  0.41085    133.6823   1.655054   1.65       0.4140008  0.5716143  48.2       0.4795207  0.5281604  0.4308811 
1012.2     0.27       0.442      -9999      -9999      2.936282   1.524      2.146      2.1687     2.369      2.141      1.578      -9999      0.867      0.66       1.7964     0.2490468  0.2490468  0.407      114.8441   1.814774   1.65       0.4067092  0.5667306  48.6       0.478646   0.5086608  0.4486313 
1012.4     0.274      0.443      -9999      -9999      2.912593   1.562      2.083      2.1989     2.407      2.166      1.45       -9999      0.768      0.672      1.8563     0.24488    0.24488    0.4004     96.14558   1.950348   1.646      0.3972401  0.5589613  48.6       0.4712728  0.4939143  0.4486313 
1012.6     0.276      0.44       -9999      -9999      2.891278   1.714      2.146      2.1183     2.42       2.191      1.542      -9999      0.809      0.668      1.7764     0.2506872  0.2506872  0.4026     123.1667   2.080971   1.658      0.4114293  0.5661053  48.4       0.4603418  0.4810115  0.4396721 
1012.8     0.283      0.425      -9999      -9999      2.872582   1.613      2.07       2.0281     2.28       2.191      1.262      -9999      0.85       0.672      1.7764     0.2450115  0.2450115  0.4004     96.68639   2.202728   1.717      0.4093438  0.5682694  49.1       0.4708743  0.4699718  0.4717768 
1013       0.289      0.41       -9999      -9999      2.866544   1.486      1.994      2.0683     2.191      2.191      1.284      -9999      0.569      0.679      1.6966     0.2417407  0.2417407  0.39655    84.09737   2.243547   1.779      0.412255   0.5710918  49.1       0.469119   0.4664613  0.4717768 
1013.2     0.252      0.42       -9999      -9999      2.887318   1.689      2.172      2.1286     2.217      2.191      2.135      -9999      1.015      0.709      1.8962     0.2348391  0.2348391  0.38005    62.65399   2.106185   1.736      0.3902787  0.5494176  47.5       0.4400329  0.4786519  0.401414  
1013.4     0.236      0.443      -9999      -9999      2.944242   1.841      2.4        2.1687     2.242      2.191      2.133      -9999      1.568      0.729      1.8563     0.206444   0.206444   0.36905    18.66391   1.771368   1.644      0.3001998  0.5039141  49.1       0.4927454  0.513714   0.4717768 
1013.6     0.25       0.456      -9999      -9999      3.033081   1.88       2.451      2.1184     2.191      2.166      1.551      -9999      0.9        0.733      1.7764     0.194357   0.194357   0.36685    11.14605   1.351969   1.6        0.2529946  0.4832367  49.1       0.5227062  0.5736356  0.4717768 
1013.8     0.258      0.46       -9999      -9999      3.136318   1.867      2.438      2.0281     2.128      2.153      1.198      -9999      0.957      0.72       1.5768     0.2047067  0.2047067  0.374      17.33097   0.9876598  1.587      0.2832592  0.4974833  46.8       0.51301    0.6521029  0.373917  
1014       0.25       0.461      -9999      -9999      3.231436   1.714      2.349      1.9779     2.039      2.141      1.188      -9999      0.85       0.715      1.6367     0.1845666  0.1845666  0.37675    7.341407   0.7395573  1.582      0.2144393  0.4784306  48.2       0.582374   0.7338669  0.4308811 
1014.2     0.252      0.466      -9999      -9999      3.301548   1.651      2.286      1.9377     1.975      2.077      1.202      -9999      0.9        0.725      1.6766     0.1574082  0.1574082  0.37125    2.305369   0.5975382  1.563      0.09249843 0.4377823  49.6       0.6480053  0.8        0.4960106 
1014.4     0.259      0.482      -9999      -9999      3.345386   1.575      2.235      1.8875     1.912      2.026      1.169      -9999      0.825      0.722      1.6766     0.1630568  0.1630568  0.3729     2.933364   0.5229528  1.513      0.106411   0.4375567  49.1       0.6358884  0.8        0.4717768 
1014.6     0.242      0.497      -9999      -9999      3.372467   1.575      2.146      1.8675     1.848      1.975      1.172      -9999      0.941      0.715      1.6966     0.1699762  0.1699762  0.37675    3.940302   0.4816067  1.468      0.1258796  0.4414022  48.7       0.6265873  0.8        0.4531747 
1014.8     0.236      0.503      -9999      -9999      3.386921   1.549      2.07       1.8273     1.747      1.937      1.063      -9999      1.032      0.701      1.6567     0.1714225  0.1714225  0.38445    4.191017   0.4608943  1.451      0.1275508  0.4469633  49.5       0.6455378  0.8        0.4910756 
1015       0.241      0.502      -9999      -9999      3.380927   1.473      1.829      1.7369     1.658      1.912      1.021      -9999      0.9        0.73       1.6367     0.1513272  0.1513272  0.3685     1.778706   0.4693725  1.453      0.02809814 0.4055961  50         0.6580995  0.8        0.5161989 
1015.2     0.241      0.498      -9999      -9999      3.345681   1.397      1.753      1.6968     1.62       1.81       1.006      -9999      0.875      0.745      1.5768     0.1542258  0.1542258  0.36025    2.012773   0.5224833  1.465      0.0477098  0.4036811  48.6       0.6243156  0.8        0.4486313 
1015.4     0.238      0.498      -9999      -9999      3.283999   1.435      1.778      1.7471     1.62       1.747      1.247      -9999      0.9        0.758      1.5768     0.1411806  0.1411806  0.3531     1.153893   0.6302966  1.464      0          0.3759577  49.7       0.6421799  0.7833694  0.5009904 
1015.6     0.236      0.504      -9999      -9999      3.208441   1.46       1.854      1.7369     1.62       1.696      1.267      -9999      1.164      0.758      1.6966     0.1657487  0.1657487  0.3531     3.290229   0.7931318  1.447      0.1004317  0.4085804  48         0.5677312  0.7132058  0.4222567 
1015.8     0.236      0.51       -9999      -9999      3.136416   1.549      1.867      1.6968     1.582      1.696      1.188      -9999      1.164      0.762      1.5968     0.1654468  0.1654468  0.3509     3.248136   0.9873667  1.431      0.09428881 0.4025574  49.1       0.5619794  0.6521819  0.4717768 
