~Version
 VERS              .         2.0                           : CWLS LOG ASCII STANDARD - VERSION 2.0
 WRAP              .         NO                            : ONE LINE PER DEPTH STEP
 DLM               .         SPACE                         : DELIMITING CHARACTER(SPACE TAB OR COMMA)
~Well Information
#_______________________________________________________________________________
#
#PARAMETER_NAME    .UNIT     VALUE                         : DESCRIPTION
#_______________________________________________________________________________
STRT               .м        860                           : First reference value
STOP               .м        1150                          : Last reference value
STEP               .м        0.2                           : Step increment
NULL               .         -9999                         : Missing value
COMP               .                                       : Company
WELL               .         8414                          : Well name
FLD                .         Узень                         : Field
LOC                .                                       : Location
CNTY               .                                       : County
STAT               .                                       : State
CTRY               .                                       : Country
SRVC               .                                       : Service Company
DATE               .                                       : Date
UWI                .                                       : Unique Well ID
Block              .         7                             : 
Category           .         Нефтяная                      : 
Condition          .         В простое                     : 
Date               .         14.09.1993                    : 
EREF               .m        83.1                          : 100.8
GRP                .                                       : Group name
Gor                .         14                            : 
Gorizont           .         14                            : 14
ISS                .         БКЗ, магнитная лента          : Well surveys
Interpretator      .         Кайсанов Е.К                  : 
Kupol              .         Основной                      : osnovnoi
Mud                .                                       : 
Mud_density        .                                       : 
Mud_resistivity    .                                       : 
NGDU               .         НГДУ-2                        : 
ORIGINALWELLNAME   .         8414                          : 
Spud_date          .         1993                          : 1961
TIME               .         14_33                         : LOG TIME
Viscosity          .                                       : 
X                  .m        42913.2                       : 46154
Y                  .m        84318.83                      : 85761.93
YEAR               .         2019                          : 
Сдали_за_3_кв_2019 .         3                             : 
~Parameter Information Block
#_______________________________________________________________________________
#
#PARAMETER_NAME    .UNIT     VALUE                         : DESCRIPTION
#_______________________________________________________________________________
SET                .         LQC_KAZNIPI_Petrel            : 
TLFamily_CALI      .         Caliper                       : 
TLFamily_CILD      .         Conductivity                  : 
TLFamily_COLL      .         Net Reservoir Flag            : 
TLFamily_CSAT      .         Fluid Code                    : 
TLFamily_DEPT      .         Measured Depth                : 
TLFamily_GR        .         Russian Gamma Ray             : 
TLFamily_GZ1       .         Gradient 045                  : 
TLFamily_GZ2       .         Gradient 105                  : 
TLFamily_GZ3       .         Gradient 225                  : 
TLFamily_GZ4       .         Gradient 425                  : 
TLFamily_GZ5       .         Gradient 850                  : 
TLFamily_LLS       .         Lateral Log Resistivity       : 
TLFamily_MINV      .         Micro Gradient Resistivity    : 
TLFamily_MNOR      .         Micro Resistivity             : 
TLFamily_NGLD      .         Neutron Far                   : 
TLFamily_OGZ3      .         Gradient Inverted 225         : 
TLFamily_PHIE      .         Effective Porosity            : 
TLFamily_PHIEN     .         Effective Porosity            : 
TLFamily_PHIT      .         Porosity                      : 
TLFamily_PRMB      .         Permeability                  : 
TLFamily_PRMB_DGR  .         Permeability                  : 
TLFamily_RT        .         Formation Resistivity         : 
TLFamily_SOIL_ARCHIE .         Oil Saturation                : 
TLFamily_SOIL_DW   .         Oil Saturation                : 
TLFamily_SP        .         Spontaneous Potential         : 
TLFamily_VSH_FIN   .         Shale Volume                  : 
TLFamily_VSH_GR    .         Shale Volume                  : 
TLFamily_VSH_SP    .         Shale Volume                  : 
~Curve Information
#_______________________________________________________________________________
#
#LOGNAME           .UNIT     LOG_ID                        : DESCRIPTION
#_______________________________________________________________________________
DEPT               .м                                      : Колонка глубины 
CALI               .м                                      : Каверномер 
CILD               .мСм/м                                  : Индукционный каротаж 
COLL               .unitless                               :  
CSAT               .unitless                               :  
GR                 .uR/h                                   : Гамма каротаж 
GZ1                .Ohmm                                   : А0.4М0.1N 
GZ2                .Ohmm                                   : A1.0M0.1N 
GZ3                .Ohmm                                   : 146.20 - 1382.60- 195.20 - 1152.80 
GZ4                .Ohmm                                   : A4M0.5N 
GZ5                .Ohmm                                   : A8M1N 
LLS                .Ohmm                                   : Боковой каротаж 
MINV               .Ohmm                                   : Микро-градиент зонд 
MNOR               .Ohmm                                   : Микро-потенциал зонд 
NGLD               .у.е.                                   : Показания зонда НГК-60 аппаратуры ДРСТ-3-90 
OGZ3               .Ohmm                                   : 141.70 - 1378.10- 190.70 - 1148.30 
PHIE               .v/v                                    : Описание 
PHIEN              .v/v                                    :  
PHIT               .v/v                                    : Описание 
PRMB               .mD                                     :  
PRMB_DGR           .mD                                     :  
RT                 .ohmm                                   : УЭС пласта 
SOIL_ARCHIE        .v/v                                    :  
SOIL_DW            .v/v                                    :  
SP                 .мВ                                     : Потенциал самополяризации 
VSH_FIN            .v/v                                    : Описание 
VSH_GR             .v/v                                    : Shale volume 
VSH_SP             .v/v                                    : Shale Volume 
~Ascii
860.0      0.289      0.682      -9999      -9999      -9999      -9999      -9999      4.3775     -9999      -9999      2.476      1          1.188      0.785      3.7725     -9999      -9999      -9999      -9999      -9999      1.07       -9999      -9999      55.2       -9999      0.02       0.8       
860.2      0.265      0.68       -9999      -9999      -9999      -9999      -9999      4.488      -9999      -9999      2.57       0.823      0.941      0.786      3.7924     -9999      -9999      -9999      -9999      -9999      1.072      -9999      -9999      56         -9999      0.02       0.8       
860.4      0.269      0.684      -9999      -9999      -9999      -9999      -9999      4.6487     -9999      -9999      2.664      0.895      1.155      0.787      3.6327     -9999      -9999      -9999      -9999      -9999      1.065      -9999      -9999      56         -9999      0.02       0.8       
860.6      0.264      0.692      -9999      -9999      -9999      -9999      -9999      4.6486     -9999      -9999      2.8        1.679      1.362      0.829      3.3533     1          1          0.31405    9323613800000000.0000000 -9999      1.053      0.7817324  0.4278281  55.1       -4999.27   -9999      0.4607529 
860.8      0.255      0.702      -9999      -9999      -9999      -9999      -9999      4.3673     -9999      -9999      2.676      1.927      1.651      0.86       3.1737     1          1          0.297      9323613800000000.0000000 -9999      1.039      0.7803571  0.3909187  56         -4999.248  -9999      0.5042387 
861        0.235      0.707      -9999      -9999      3.09927    -9999      -9999      4.0762     -9999      -9999      2.656      2.209      1.692      0.86       3.0938     0.1036093  0.1036093  0.297      0.2324098  0.7393422  1.032      0          0.07232295 54.6       0.5860323  0.7339541  0.4381104 
861.2      0.243      0.71       -9999      -9999      3.115554   -9999      -9999      3.8251     -9999      -9999      2.642      2.651      1.857      0.851      3.0938     0.107181   0.107181   0.30195    0.2706514  0.6987613  1.027      0          0.09085786 54.4       0.5902091  0.7510691  0.4293491 
861.4      0.23       0.715      -9999      -9999      3.166765   -9999      -9999      3.5843     -9999      -9999      2.693      2.739      2.113      0.841      3.1737     0.1133473  0.1133473  0.30745    0.3520674  0.5850917  1.019      0          0.1155365  53.1       0.5881898  0.8        0.3763797 
861.6      0.216      0.718      -9999      -9999      3.24382    -9999      -9999      3.4438     -9999      -9999      2.615      2.077      1.948      0.844      3.1737     0.114766   0.114766   0.3058     0.3740276  0.447929   1.016      0          0.1150842  52.6       0.5788908  0.8        0.3577816 
861.8      0.214      0.717      -9999      -9999      3.347202   -9999      -9999      3.3233     -9999      -9999      2.654      2.066      1.89       0.845      3.2735     0.1176927  0.1176927  0.30525    0.4237534  0.3130081  1.017      0          0.1224505  52         0.5683553  0.8        0.3367105 
862        0.216      0.713      -9999      -9999      3.464944   -9999      -9999      3.3535     -9999      -9999      2.61       2.121      1.981      0.834      3.493      0.120266   0.120266   0.3113     0.4729083  0.208104   1.022      0          0.1422312  52.6       0.5788908  0.8        0.3577816 
862.2      0.218      0.706      -9999      -9999      3.550526   -9999      -9999      3.5141     -9999      -9999      2.687      2.132      1.981      0.822      3.6527     0.1237973  0.1237973  0.3179     0.5497751  0.1546776  1.033      0          0.166916   53.1       0.5881898  0.8        0.3763797 
862.4      0.224      0.703      -9999      -9999      3.550315   -9999      -9999      3.6346     -9999      -9999      2.816      2.474      1.651      0.798      3.4132     0.1282574  0.1282574  0.3311     0.6649614  0.1547908  1.036      0          0.1997635  54.4       0.6146746  0.8        0.4293491 
862.6      0.239      0.71       -9999      -9999      3.460466   -9999      -9999      3.5944     -9999      -9999      3.009      2.458      2.55       0.781      2.9341     0.1316574  0.1316574  0.34045    0.7687264  0.2113605  1.026      0          0.217483   55.2       0.6327049  0.8        0.4654098 
862.8      0.265      0.719      -9999      -9999      3.337774   -9999      -9999      3.3835     -9999      -9999      2.968      1.546      1.015      0.759      2.4551     0.1414093  0.1414093  0.35255    1.165203   0.3234081  1.014      0          0.2498622  55.5       0.6398202  0.8        0.4796405 
863        0.292      0.72       -9999      -9999      3.247033   -9999      -9999      3.1023     -9999      -9999      2.361      1.182      1.205      0.734      2.0758     0.1634574  0.1634574  0.3663     2.983907   0.4429674  1.013      0          0.3055212  54.4       0.6146746  0.8        0.4293491 
863.2      0.327      0.715      -9999      -9999      3.215641   -9999      -9999      2.9317     -9999      -9999      2.092      1.105      0.974      0.699      1.996      0.1719961  0.1719961  0.38555    4.294799   0.4938962  1.019      0          0.3420675  55.8       0.6471331  0.8        0.494266  
863.4      0.346      0.72       -9999      -9999      3.235981   -9999      -9999      2.8915     -9999      -9999      2.116      0.911      1.205      0.672      1.8962     0.1923758  0.1923758  0.4004     10.24293   0.4602687  1.013      0.06598695 0.3821368  55.1       0.6303765  0.8        0.4607529 
863.6      0.359      0.728      -9999      -9999      3.288721   -9999      -9999      2.9217     -9999      -9999      1.847      1.325      1.04       0.661      2.0758     0.1984258  0.1984258  0.40645    13.2582    0.3833593  1.001      0.08574092 0.3914147  55.1       0.6303765  0.8        0.4607529 
863.8      0.34       0.734      -9999      -9999      3.357402   -9999      -9999      3.1427     -9999      -9999      1.81       1.154      1.23       0.686      2.2156     0.178327   0.178327   0.3927     5.6261     0.3021328  0.993      0          0.3499883  55.9       0.649615   0.8        0.4992301 
864        0.258      0.738      -9999      -9999      3.437895   -9999      -9999      3.4539     -9999      -9999      1.787      1.121      1.155      0.715      2.5349     0.1780808  0.1780808  0.37675    5.567317   0.2285632  0.988      0          0.3309559  53.8       0.602028   0.8        0.404056  
864.2      0.232      0.74       -9999      -9999      3.527265   -9999      -9999      3.7954     -9999      -9999      1.948      2.032      1.386      0.766      2.7745     0.1486667  0.1486667  0.3487     1.587907   0.1676681  0.985      0          0.2475221  54         0.6061617  0.8        0.4123234 
864.4      0.214      0.745      -9999      -9999      3.594465   -9999      -9999      4.0161     -9999      -9999      2.284      2.496      1.807      0.789      2.7745     0.1419474  0.1419474  0.33605    1.192251   0.1328229  0.979      0          0.2141146  53.1       0.5881898  0.8        0.3763797 
864.6      0.212      0.747      -9999      -9999      3.582609   -9999      -9999      3.9558     -9999      -9999      2.276      2.397      1.725      0.826      2.7745     0.1215974  0.1215974  0.3157     0.5005371  0.1383958  0.976      0          0.1335409  53.1       0.5881898  0.8        0.3763797 
864.8      0.212      0.752      -9999      -9999      3.463767   -9999      -9999      3.775      -9999      -9999      2.671      3.562      3.136      0.843      2.6946     0.1204492  0.1204492  0.30635    0.476616   0.2089552  0.969      0          0.110501   51.7       0.5633359  0.8        0.3266717 
865        0.209      0.765      -9999      -9999      3.285352   -9999      -9999      3.524      -9999      -9999      2.876      3.314      2.476      0.886      2.3752     0.100458   0.100458   0.2827     0.2031812  0.3878625  0.953      0          0          51         0.5522486  0.8        0.3044972 
