~Version
 VERS              .         2.0                           : CWLS LOG ASCII STANDARD - VERSION 2.0
 WRAP              .         NO                            : ONE LINE PER DEPTH STEP
 DLM               .         SPACE                         : DELIMITING CHARACTER(SPACE TAB OR COMMA)
~Well Information
#_______________________________________________________________________________
#
#PARAMETER_NAME    .UNIT     VALUE                         : DESCRIPTION
#_______________________________________________________________________________
STRT               .м        860                           : First reference value
STOP               .м        1150                          : Last reference value
STEP               .м        0.2                           : Step increment
NULL               .         -9999                         : Missing value
COMP               .                                       : Company
WELL               .         8414                          : Well name
FLD                .         Узень                         : Field
LOC                .                                       : Location
CNTY               .                                       : County
STAT               .                                       : State
CTRY               .                                       : Country
SRVC               .                                       : Service Company
DATE               .                                       : Date
UWI                .                                       : Unique Well ID
Block              .         7                             : 
Category           .         Нефтяная                      : 
Condition          .         В простое                     : 
Date               .         14.09.1993                    : 
EREF               .m        83.1                          : 100.8
GRP                .                                       : Group name
Gor                .         14                            : 
Gorizont           .         14                            : 14
ISS                .         БКЗ, магнитная лента          : Well surveys
Interpretator      .         Кайсанов Е.К                  : 
Kupol              .         Основной                      : osnovnoi
Mud                .                                       : 
Mud_density        .                                       : 
Mud_resistivity    .                                       : 
NGDU               .         НГДУ-2                        : 
ORIGINALWELLNAME   .         8414                          : 
Spud_date          .         1993                          : 1961
TIME               .         14_33                         : LOG TIME
Viscosity          .                                       : 
X                  .m        42913.2                       : 46154
Y                  .m        84318.83                      : 85761.93
YEAR               .         2019                          : 
Сдали_за_3_кв_2019 .         3                             : 
~Parameter Information Block
#_______________________________________________________________________________
#
#PARAMETER_NAME    .UNIT     VALUE                         : DESCRIPTION
#_______________________________________________________________________________
SET                .         LQC_KAZNIPI_Petrel            : 
TLFamily_CALI      .         Caliper                       : 
TLFamily_CILD      .         Conductivity                  : 
TLFamily_COLL      .         Net Reservoir Flag            : 
TLFamily_CSAT      .         Fluid Code                    : 
TLFamily_DEPT      .         Measured Depth                : 
TLFamily_GR        .         Russian Gamma Ray             : 
TLFamily_GZ1       .         Gradient 045                  : 
TLFamily_GZ2       .         Gradient 105                  : 
TLFamily_GZ3       .         Gradient 225                  : 
TLFamily_GZ4       .         Gradient 425                  : 
TLFamily_GZ5       .         Gradient 850                  : 
TLFamily_LLS       .         Lateral Log Resistivity       : 
TLFamily_MINV      .         Micro Gradient Resistivity    : 
TLFamily_MNOR      .         Micro Resistivity             : 
TLFamily_NGLD      .         Neutron Far                   : 
TLFamily_OGZ3      .         Gradient Inverted 225         : 
TLFamily_PHIE      .         Effective Porosity            : 
TLFamily_PHIEN     .         Effective Porosity            : 
TLFamily_PHIT      .         Porosity                      : 
TLFamily_PRMB      .         Permeability                  : 
TLFamily_PRMB_DGR  .         Permeability                  : 
TLFamily_RT        .         Formation Resistivity         : 
TLFamily_SOIL_ARCHIE .         Oil Saturation                : 
TLFamily_SOIL_DW   .         Oil Saturation                : 
TLFamily_SP        .         Spontaneous Potential         : 
TLFamily_VSH_FIN   .         Shale Volume                  : 
TLFamily_VSH_GR    .         Shale Volume                  : 
TLFamily_VSH_SP    .         Shale Volume                  : 
~Curve Information
#_______________________________________________________________________________
#
#LOGNAME           .UNIT     LOG_ID                        : DESCRIPTION
#_______________________________________________________________________________
DEPT               .м                                      : Колонка глубины 
CALI               .м                                      : Каверномер 
CILD               .мСм/м                                  : Индукционный каротаж 
COLL               .unitless                               :  
CSAT               .unitless                               :  
GR                 .uR/h                                   : Гамма каротаж 
GZ1                .Ohmm                                   : А0.4М0.1N 
GZ2                .Ohmm                                   : A1.0M0.1N 
GZ3                .Ohmm                                   : 146.20 - 1382.60- 195.20 - 1152.80 
GZ4                .Ohmm                                   : A4M0.5N 
GZ5                .Ohmm                                   : A8M1N 
LLS                .Ohmm                                   : Боковой каротаж 
MINV               .Ohmm                                   : Микро-градиент зонд 
MNOR               .Ohmm                                   : Микро-потенциал зонд 
NGLD               .у.е.                                   : Показания зонда НГК-60 аппаратуры ДРСТ-3-90 
OGZ3               .Ohmm                                   : 141.70 - 1378.10- 190.70 - 1148.30 
PHIE               .v/v                                    : Описание 
PHIEN              .v/v                                    :  
PHIT               .v/v                                    : Описание 
PRMB               .mD                                     :  
PRMB_DGR           .mD                                     :  
RT                 .ohmm                                   : УЭС пласта 
SOIL_ARCHIE        .v/v                                    :  
SOIL_DW            .v/v                                    :  
SP                 .мВ                                     : Потенциал самополяризации 
VSH_FIN            .v/v                                    : Описание 
VSH_GR             .v/v                                    : Shale volume 
VSH_SP             .v/v                                    : Shale Volume 
~Ascii
# ...
1146       0.203      0.252      1          2          -9999      2.946      2.959      3.1129     2.953      1.34       4.414      2.32       3.301      -9999      5.1697     -9999      -9999      -9999      -9999      -9999      2.888      -9999      -9999      9.1        0.1226994  -9999      0.1226994 
1146.2     0.203      0.239      1          2          -9999      3.823      3.81       3.4541     3.245      1.467      5.418      2.297      3.351      -9999      4.9301     -9999      -9999      -9999      -9999      -9999      3.055      -9999      -9999      6.1        0.1161989  -9999      0.1161989 
1146.4     0.204      0.227      1          2          -9999      5.016      4.864      3.7954     3.474      1.594      5.661      2.452      3.309      -9999      4.4511     -9999      -9999      -9999      -9999      -9999      3.219      -9999      -9999      4.4        0.1130309  -9999      0.1130309 
1146.6     0.209      0.217      1          2          -9999      5.486      6.07       3.996      3.639      1.709      5.453      2.43       3.499      -9999      3.7725     -9999      -9999      -9999      -9999      -9999      3.363      -9999      -9999      5.5        0.1152194  -9999      0.1152194 
1146.8     0.207      0.217      1          2          -9999      5.537      8.509      3.9356     3.626      1.81       5.148      2.397      3.218      -9999      3.1737     -9999      -9999      -9999      -9999      -9999      3.363      -9999      -9999      5.3        0.11491    -9999      0.11491   
1147       0.207      0.226      1          2          -9999      5.283      9.207      3.8151     3.499      1.937      4.548      2.43       3.318      -9999      2.5549     -9999      -9999      -9999      -9999      -9999      3.227      -9999      -9999      9.5        0.1244208  -9999      0.1244208 
1147.2     0.207      0.244      1          2          -9999      4.928      9.461      3.6947     3.372      2.052      4.23       2.369      3.103      -9999      2.475      -9999      -9999      -9999      -9999      -9999      2.993      -9999      -9999      11.6       0.1334522  -9999      0.1334522 
1147.4     0.207      0.267      1          2          -9999      4.394      8.699      3.6144     3.334      2.141      3.515      2.43       2.971      -9999      2.495      -9999      -9999      -9999      -9999      -9999      2.726      -9999      -9999      13.1       0.1432368  -9999      0.1432368 
1147.6     0.209      0.293      1          2          -9999      3.861      7.232999   3.5944     3.334      2.191      3.212      2.54       3.136      -9999      2.475      -9999      -9999      -9999      -9999      -9999      2.492      -9999      -9999      14.6       0.1566235  -9999      0.1566235 
1147.8     0.211      0.313      -9999      -9999      -9999      3.213      6.02       3.5139     3.385      2.255      2.735      3.142      2.979      -9999      2.475      -9999      -9999      -9999      -9999      -9999      2.333      -9999      -9999      20.4       0.2537494  -9999      0.2537494 
1148       0.215      0.325      -9999      -9999      -9999      2.565      6.02       3.4035     3.36       2.433      1.988      1.927      2.311      -9999      2.4351     -9999      -9999      -9999      -9999      -9999      2.242      -9999      -9999      25.1       0.4073012  -9999      0.4073012 
1148.2     0.222      0.336      -9999      -9999      -9999      2.21       4.305      3.5847     3.245      2.776      1.834      1.325      1.675      -9999      -9999      -9999      -9999      -9999      -9999      -9999      2.167      -9999      -9999      28         0.5465844  -9999      0.5465844 
1148.4     0.229      0.348      -9999      -9999      -9999      2.286      4.267      4.2174     3.296      3.195      2.077      1.105      1.197      -9999      -9999      -9999      -9999      -9999      -9999      -9999      2.092      -9999      -9999      28.6       0.5817206  -9999      0.5817206 
1148.6     0.237      0.357      -9999      -9999      -9999      2.159      4.064      4.8398     3.372      3.487      1.631      0.74       1.271      -9999      -9999      -9999      -9999      -9999      -9999      -9999      2.04       -9999      -9999      28.8       0.5951316  -9999      0.5951316 
1148.8     0.23       0.362      -9999      -9999      -9999      2.121      3.937      4.9396     3.334      3.665      2.085      0.823      1.155      -9999      -9999      -9999      -9999      -9999      -9999      -9999      2.015      -9999      -9999      29.7       0.6515056  -9999      0.6515056 
1149       0.245      0.357      -9999      -9999      -9999      1.918      2.972      4.4166     3.334      3.499      1.857      0.641      0.825      -9999      -9999      -9999      -9999      -9999      -9999      -9999      2.04       -9999      -9999      32.4       0.8        -9999      0.8       
1149.2     0.258      0.35       -9999      -9999      -9999      2.134      3.023      3.6842     3.309      3.08       1.614      1.878      0.867      -9999      -9999      -9999      -9999      -9999      -9999      -9999      2.082      -9999      -9999      32.6       0.8        -9999      0.8       
1149.4     0.233      0.35       -9999      -9999      -9999      1.892      2.515      2.9714     3.271      2.534      2.417      1.049      1.122      -9999      -9999      -9999      -9999      -9999      -9999      -9999      2.082      -9999      -9999      31.9       0.8        -9999      0.8       
1149.6     0.248      0.355      -9999      -9999      -9999      1.981      2.121      2.3287     3.233      2.115      2.288      1.436      1.568      -9999      -9999      -9999      -9999      -9999      -9999      -9999      2.054      -9999      -9999      32         0.8        -9999      0.8       
1149.8     0.251      0.359      -9999      -9999      -9999      2.032      2.375      1.9475     3.233      1.721      2.172      1.602      1.395      -9999      -9999      -9999      -9999      -9999      -9999      -9999      2.032      -9999      -9999      33.5       0.8        -9999      0.8       
1150       0.251      0.356      -9999      -9999      -9999      2.007      2.311      1.7166     -9999      1.62       1.78       1.292      1.436      -9999      -9999      -9999      -9999      -9999      -9999      -9999      2.051      -9999      -9999      31.2       0.7671147  -9999      0.7671147 
