~Version
 VERS              .         2.0                           : CWLS LOG ASCII STANDARD - VERSION 2.0
 WRAP              .         NO                            : ONE LINE PER DEPTH STEP
 DLM               .         SPACE                         : DELIMITING CHARACTER(SPACE TAB OR COMMA)
~Well Information
#_______________________________________________________________________________
#
#PARAMETER_NAME    .UNIT     VALUE                         : DESCRIPTION
#_______________________________________________________________________________
STRT               .м        860                           : First reference value
STOP               .м        1150                          : Last reference value
STEP               .м        0.2                           : Step increment
NULL               .         -9999                         : Missing value
COMP               .                                       : Company
WELL               .         8414                          : Well name
FLD                .         Узень                         : Field
LOC                .                                       : Location
CNTY               .                                       : County
STAT               .                                       : State
CTRY               .                                       : Country
SRVC               .                                       : Service Company
DATE               .                                       : Date
UWI                .                                       : Unique Well ID
Block              .         7                             : 
Category           .         Нефтяная                      : 
Condition          .         В простое                     : 
Date               .         14.09.1993                    : 
EREF               .m        83.1                          : 100.8
GRP                .                                       : Group name
Gor                .         14                            : 
Gorizont           .         14                            : 14
ISS                .         БКЗ, магнитная лента          : Well surveys
Interpretator      .         Кайсанов Е.К                  : 
Kupol              .         Основной                      : osnovnoi
Mud                .                                       : 
Mud_density        .                                       : 
Mud_resistivity    .                                       : 
NGDU               .         НГДУ-2                        : 
ORIGINALWELLNAME   .         8414                          : 
Spud_date          .         1993                          : 1961
TIME               .         14_33                         : LOG TIME
Viscosity          .                                       : 
X                  .m        42913.2                       : 46154
Y                  .m        84318.83                      : 85761.93
YEAR               .         2019                          : 
Сдали_за_3_кв_2019 .         3                             : 
~Parameter Information Block
#_______________________________________________________________________________
#
#PARAMETER_NAME    .UNIT     VALUE                         : DESCRIPTION
#_______________________________________________________________________________
SET                .         LQC_KAZNIPI_Petrel            : 
TLFamily_CALI      .         Caliper                       : 
TLFamily_CILD      .         Conductivity                  : 
TLFamily_COLL      .         Net Reservoir Flag            : 
TLFamily_CSAT      .         Fluid Code                    : 
TLFamily_DEPT      .         Measured Depth                : 
TLFamily_GR        .         Russian Gamma Ray             : 
TLFamily_GZ1       .         Gradient 045                  : 
TLFamily_GZ2       .         Gradient 105                  : 
TLFamily_GZ3       .         Gradient 225                  : 
TLFamily_GZ4       .         Gradient 425                  : 
TLFamily_GZ5       .         Gradient 850                  : 
TLFamily_LLS       .         Lateral Log Resistivity       : 
TLFamily_MINV      .         Micro Gradient Resistivity    : 
TLFamily_MNOR      .         Micro Resistivity             : 
TLFamily_NGLD      .         Neutron Far                   : 
TLFamily_OGZ3      .         Gradient Inverted 225         : 
TLFamily_PHIE      .         Effective Porosity            : 
TLFamily_PHIEN     .         Effective Porosity            : 
TLFamily_PHIT      .         Porosity                      : 
TLFamily_PRMB      .         Permeability                  : 
TLFamily_PRMB_DGR  .         Permeability                  : 
TLFamily_RT        .         Formation Resistivity         : 
TLFamily_SOIL_ARCHIE .         Oil Saturation                : 
TLFamily_SOIL_DW   .         Oil Saturation                : 
TLFamily_SP        .         Spontaneous Potential         : 
TLFamily_VSH_FIN   .         Shale Volume                  : 
TLFamily_VSH_GR    .         Shale Volume                  : 
TLFamily_VSH_SP    .         Shale Volume                  : 
~Curve Information
#_______________________________________________________________________________
#
#LOGNAME           .UNIT     LOG_ID                        : DESCRIPTION
#_______________________________________________________________________________
DEPT               .м                                      : Колонка глубины 
CALI               .м                                      : Каверномер 
CILD               .мСм/м                                  : Индукционный каротаж 
COLL               .unitless                               :  
CSAT               .unitless                               :  
GR                 .uR/h                                   : Гамма каротаж 
GZ1                .Ohmm                                   : А0.4М0.1N 
GZ2                .Ohmm                                   : A1.0M0.1N 
GZ3                .Ohmm                                   : 146.20 - 1382.60- 195.20 - 1152.80 
GZ4                .Ohmm                                   : A4M0.5N 
GZ5                .Ohmm                                   : A8M1N 
LLS                .Ohmm                                   : Боковой каротаж 
MINV               .Ohmm                                   : Микро-градиент зонд 
MNOR               .Ohmm                                   : Микро-потенциал зонд 
NGLD               .у.е.                                   : Показания зонда НГК-60 аппаратуры ДРСТ-3-90 
OGZ3               .Ohmm                                   : 141.70 - 1378.10- 190.70 - 1148.30 
PHIE               .v/v                                    : Описание 
PHIEN              .v/v                                    :  
PHIT               .v/v                                    : Описание 
PRMB               .mD                                     :  
PRMB_DGR           .mD                                     :  
RT                 .ohmm                                   : УЭС пласта 
SOIL_ARCHIE        .v/v                                    :  
SOIL_DW            .v/v                                    :  
SP                 .мВ                                     : Потенциал самополяризации 
VSH_FIN            .v/v                                    : Описание 
VSH_GR             .v/v                                    : Shale volume 
VSH_SP             .v/v                                    : Shale Volume 
~Ascii
# ...
896.4      0.207      0.455      1          3          0.7320563  -9999      -9999      1.5863     -9999      -9999      1.337      1.811      1.692      0.996      1.6567     0.1890057  0.1890057  0.2222     8.871616   2709.938   1.603      0.2352801  0.2973606  45.8       0.1005887  0.02572305 0.1754543 
896.6      0.207      0.449      1          3          0.7208391  -9999      -9999      1.5964     -9999      -9999      1.258      2.077      1.981      1.025      1.6966     0.1727024  0.1727024  0.20625    4.426149   2817.397   1.623      0.177575   0.242667   46         0.1016593  0.02531781 0.1780009 
896.8      0.209      0.441      1          3          0.7244321  -9999      -9999      1.6165     -9999      -9999      1.354      1.911      1.816      1.029      1.7764     0.1722049  0.1722049  0.20405    4.333226   2782.521   1.653      0.182562   0.2439974  45.2       0.09650008 0.02544691 0.1675532 
897        0.209      0.441      1          3          0.7281042  -9999      -9999      1.7069     -9999      -9999      1.736      2.458      2.393      1.022      1.8962     0.1762528  0.1762528  0.2079     5.149769   2747.323   1.655      0.1993917  0.2598744  45.1       0.09590065 0.02557954 0.1662218 
897.2      0.209      0.446      1          3          0.7224171  -9999      -9999      1.7972     -9999      -9999      2.02       2.154      2.154      0.967      1.8962     0.2071268  0.2071268  0.23815    19.21535   2802.026   1.636      0.3006101  0.3571756  44.8       0.09400976 0.02537443 0.1626451 
897.4      0.209      0.447      1          3          0.7104844  -9999      -9999      1.757      -9999      -9999      1.52       1.988      1.931      0.909      1.7764     0.2383578  0.2383578  0.27005    72.7986    2920.373   1.631      0.3802436  0.4358007  45.2       0.09603695 0.0249494  0.1671245 
897.6      0.209      0.441      1          3          0.699764   -9999      -9999      1.6466     -9999      -9999      1.302      2.038      1.89       0.896      1.6168     0.2481804  0.2481804  0.2772     110.6779   3030.953   1.652      0.4052439  0.4571762  43.7       0.08793817 0.02457363 0.1513027 
897.8      0.209      0.438      1          3          0.6943837  -9999      -9999      1.5964     -9999      -9999      1.333      1.988      1.832      0.949      1.7764     0.216692   0.216692   0.24805    28.89474   3088.018   1.664      0.3329099  0.3891974  45.1       0.09502439 0.02438718 0.1656616 
898        0.209      0.446      1          3          0.6948962  -9999      -9999      1.6265     -9999      -9999      1.777      1.878      1.857      1.01       1.7764     0.1858363  0.1858363  0.2145     7.749915   3082.536   1.635      0.2310983  0.2849023  43.5       0.08685977 0.02440488 0.1493147 
898.2      0.211      0.454      1          3          0.7001828  -9999      -9999      1.6667     -9999      -9999      1.692      2.48       2.344      1.007      1.7365     0.1857236  0.1857236  0.21615    7.712774   3026.555   1.607      0.2244309  0.2816809  44.6       0.09220111 0.0245882  0.159814  
898.4      0.212      0.453      1          3          0.7120293  -9999      -9999      1.6365     -9999      -9999      1.047      1.441      1.651      0.985      1.5968     0.1989281  0.1989281  0.22825    13.54533   2904.773   1.609      0.2698915  0.3242871  43.9       0.08885417 0.02500403 0.1527043 
898.6      0.211      0.453      1          3          0.736104   -9999      -9999      1.5863     -9999      -9999      1.307      1.624      1.725      0.97       1.6567     0.2081932  0.2081932  0.2365     20.10951   2672.176   1.609      0.2982728  0.3506398  43.1       0.08577808 0.02587086 0.1456853 
898.8      0.213      0.457      1          3          0.7746916  -9999      -9999      1.6064     -9999      -9999      1.329      1.684      2.055      0.982      1.6966     0.2013693  0.2013693  0.2299     15.0316    2337.583   1.596      0.274851   0.3278434  43.1       0.08645681 0.02732337 0.1455902 
899        0.21       0.464      1          3          0.819096   -9999      -9999      1.6064     -9999      -9999      1.126      1.105      1.535      0.967      1.6567     0.2080534  0.2080534  0.23815    19.98997   2004.061   1.57       0.2897307  0.3450509  44         0.09120174 0.02909604 0.1533074 
899.2      0.209      0.471      1          3          0.855073   -9999      -9999      1.6165     -9999      -9999      1.192      1.668      1.651      0.957      1.6567     0.2134753  0.2134753  0.24365    25.19065   1769.064   1.549      0.3010657  0.3563059  43.9       0.09143832 0.03061626 0.1522604 
899.4      0.209      0.474      1          3          0.875288   -9999      -9999      1.6164     -9999      -9999      1.212      1.756      1.659      0.96       1.6766     0.2115431  0.2115431  0.242      23.19794   1649.33    1.539      0.2933643  0.3491773  44         0.09229366 0.03150506 0.1530823 
899.6      0.21       0.474      1          3          0.8830589  -9999      -9999      1.6265     -9999      -9999      1.135      1.878      1.659      0.954      1.6966     0.2159528  0.2159528  0.2453     27.99811   1605.489   1.539      0.3059483  0.3598719  43.2       0.08893079 0.03185355 0.146008  
899.8      0.211      0.472      1          3          0.8829255  -9999      -9999      1.6265     -9999      -9999      1.071      1.773      1.568      0.948      1.6966     0.2188607  0.2188607  0.2486     31.69485   1606.232   1.545      0.3152381  0.3696001  43.5       0.09011918 0.03184753 0.1483908 
900        0.209      0.472      1          3          0.8737067  -9999      -9999      1.6265     -9999      -9999      1.416      1.602      1.651      0.926      1.7764     0.229331   0.229331   0.2607     49.53635   1658.396   1.545      0.3425486  0.3986553  44.6       0.09505767 0.03143461 0.1586807 
900.2      0.209      0.475      1          3          0.8547814  -9999      -9999      1.6868     -9999      -9999      1.391      1.817      1.849      0.914      1.6966     0.2383368  0.2383368  0.2673     72.73331   1770.853   1.536      0.3624934  0.415176   43.1       0.0877674  0.03060363 0.1449312 
900.4      0.208      0.477      1          3          0.8336248  -9999      -9999      1.6867     -9999      -9999      1.364      1.684      1.799      0.911      1.6766     0.2401511  0.2401511  0.26895    78.58502   1905.619   1.527      0.3649414  0.41741    43.1       0.08726928 0.02970066 0.1448379 
900.6      0.207      0.48       1          3          0.8182496  -9999      -9999      1.6265     -9999      -9999      1.21       1.817      2.014      0.915      1.5768     0.2391268  0.2391268  0.26675    75.22581   2009.95    1.52       0.361197   0.412246   42.2       0.08370659 0.0290612  0.138352  
900.8      0.207      0.481      1          3          0.8061196  -9999      -9999      1.5863     -9999      -9999      1.32       1.922      1.651      0.946      1.6367     0.2217278  0.2217278  0.2497     35.81754   2096.276   1.517      0.3171209  0.3689349  42.6       0.08476415 0.02856643 0.1409619 
901        0.208      0.476      1          3          0.7889451  -9999      -9999      1.5863     -9999      -9999      1.198      1.486      1.948      0.96       1.5968     0.2157135  0.2157135  0.242      27.71381   2224.881   1.532      0.30379    0.3531097  41         0.07965595 0.02788029 0.1314316 
901.2      0.208      0.471      1          3          0.765512   -9999      -9999      1.5863     -9999      -9999      1.093      1.486      1.717      0.973      1.6168     0.2065628  0.2065628  0.23485    18.75866   2413.169   1.549      0.2807378  0.3332881  43.1       0.08571888 0.02697061 0.1444671 
901.4      0.208      0.469      1          3          0.7432941  -9999      -9999      1.5863     -9999      -9999      1.137      1.684      1.816      0.972      1.6966     0.2089026  0.2089026  0.2354     20.72722   2606.39    1.555      0.2890504  0.3386568  41.6       0.08029515 0.02613553 0.1344548 
