~Version
 VERS              .         2.0                           : CWLS LOG ASCII STANDARD - VERSION 2.0
 WRAP              .         NO                            : ONE LINE PER DEPTH STEP
 DLM               .         SPACE                         : DELIMITING CHARACTER(SPACE TAB OR COMMA)
~Well Information
#_______________________________________________________________________________
#
#PARAMETER_NAME    .UNIT     VALUE                         : DESCRIPTION
#_______________________________________________________________________________
STRT               .м        860                           : First reference value
STOP               .м        1150                          : Last reference value
STEP               .м        0.2                           : Step increment
NULL               .         -9999                         : Missing value
COMP               .                                       : Company
WELL               .         8414                          : Well name
FLD                .         Узень                         : Field
LOC                .                                       : Location
CNTY               .                                       : County
STAT               .                                       : State
CTRY               .                                       : Country
SRVC               .                                       : Service Company
DATE               .                                       : Date
UWI                .                                       : Unique Well ID
Block              .         7                             : 
Category           .         Нефтяная                      : 
Condition          .         В простое                     : 
Date               .         14.09.1993                    : 
EREF               .m        83.1                          : 100.8
GRP                .                                       : Group name
Gor                .         14                            : 
Gorizont           .         14                            : 14
ISS                .         БКЗ, магнитная лента          : Well surveys
Interpretator      .         Кайсанов Е.К                  : 
Kupol              .         Основной                      : osnovnoi
Mud                .                                       : 
Mud_density        .                                       : 
Mud_resistivity    .                                       : 
NGDU               .         НГДУ-2                        : 
ORIGINALWELLNAME   .         8414                          : 
Spud_date          .         1993                          : 1961
TIME               .         14_33                         : LOG TIME
Viscosity          .                                       : 
X                  .m        42913.2                       : 46154
Y                  .m        84318.83                      : 85761.93
YEAR               .         2019                          : 
Сдали_за_3_кв_2019 .         3                             : 
~Parameter Information Block
#_______________________________________________________________________________
#
#PARAMETER_NAME    .UNIT     VALUE                         : DESCRIPTION
#_______________________________________________________________________________
SET                .         LQC_KAZNIPI_Petrel            : 
TLFamily_CALI      .         Caliper                       : 
TLFamily_CILD      .         Conductivity                  : 
TLFamily_COLL      .         Net Reservoir Flag            : 
TLFamily_CSAT      .         Fluid Code                    : 
TLFamily_DEPT      .         Measured Depth                : 
TLFamily_GR        .         Russian Gamma Ray             : 
TLFamily_GZ1       .         Gradient 045                  : 
TLFamily_GZ2       .         Gradient 105                  : 
TLFamily_GZ3       .         Gradient 225                  : 
TLFamily_GZ4       .         Gradient 425                  : 
TLFamily_GZ5       .         Gradient 850                  : 
TLFamily_LLS       .         Lateral Log Resistivity       : 
TLFamily_MINV      .         Micro Gradient Resistivity    : 
TLFamily_MNOR      .         Micro Resistivity             : 
TLFamily_NGLD      .         Neutron Far                   : 
TLFamily_OGZ3      .         Gradient Inverted 225         : 
TLFamily_PHIE      .         Effective Porosity            : 
TLFamily_PHIEN     .         Effective Porosity            : 
TLFamily_PHIT      .         Porosity                      : 
TLFamily_PRMB      .         Permeability                  : 
TLFamily_PRMB_DGR  .         Permeability                  : 
TLFamily_RT        .         Formation Resistivity         : 
TLFamily_SOIL_ARCHIE .         Oil Saturation                : 
TLFamily_SOIL_DW   .         Oil Saturation                : 
TLFamily_SP        .         Spontaneous Potential         : 
TLFamily_VSH_FIN   .         Shale Volume                  : 
TLFamily_VSH_GR    .         Shale Volume                  : 
TLFamily_VSH_SP    .         Shale Volume                  : 
~Curve Information
#_______________________________________________________________________________
#
#LOGNAME           .UNIT     LOG_ID                        : DESCRIPTION
#_______________________________________________________________________________
DEPT               .м                                      : Колонка глубины 
CALI               .м                                      : Каверномер 
CILD               .мСм/м                                  : Индукционный каротаж 
COLL               .unitless                               :  
CSAT               .unitless                               :  
GR                 .uR/h                                   : Гамма каротаж 
GZ1                .Ohmm                                   : А0.4М0.1N 
GZ2                .Ohmm                                   : A1.0M0.1N 
GZ3                .Ohmm                                   : 146.20 - 1382.60- 195.20 - 1152.80 
GZ4                .Ohmm                                   : A4M0.5N 
GZ5                .Ohmm                                   : A8M1N 
LLS                .Ohmm                                   : Боковой каротаж 
MINV               .Ohmm                                   : Микро-градиент зонд 
MNOR               .Ohmm                                   : Микро-потенциал зонд 
NGLD               .у.е.                                   : Показания зонда НГК-60 аппаратуры ДРСТ-3-90 
OGZ3               .Ohmm                                   : 141.70 - 1378.10- 190.70 - 1148.30 
PHIE               .v/v                                    : Описание 
PHIEN              .v/v                                    :  
PHIT               .v/v                                    : Описание 
PRMB               .mD                                     :  
PRMB_DGR           .mD                                     :  
RT                 .ohmm                                   : УЭС пласта 
SOIL_ARCHIE        .v/v                                    :  
SOIL_DW            .v/v                                    :  
SP                 .мВ                                     : Потенциал самополяризации 
VSH_FIN            .v/v                                    : Описание 
VSH_GR             .v/v                                    : Shale volume 
VSH_SP             .v/v                                    : Shale Volume 
~Ascii
# ...
1068       0.223      0.361      -9999      -9999      2.99409    2.045      3.302      3.3931     2.28       2.128      1.831      0.685      0.974      0.787      2.1557     0.1623513  0.1623513  0.33715    2.846415   1.522186   2.017      0.2162411  0.4804311  48         0.529693   0.5465207  0.5128654 
1068.2     0.242      0.367      -9999      -9999      3.018766   2.032      3.023      3.1123     2.318      2.115      1.835      0.69       0.999      0.78       2.1557     0.1538693  0.1538693  0.341      1.982399   1.41213    1.988      0.173143   0.4696905  49.1       0.5670627  0.5635278  0.5705977 
1068.4     0.271      0.371      -9999      -9999      3.029613   2.007      2.832      2.9919     2.382      2.102      1.724      0.707      0.982      0.791      2.1557     0.1467623  0.1467623  0.33495    1.464037   1.366305   1.968      0.1342784  0.451385   49.1       0.5702657  0.5711702  0.5693613 
1068.6     0.271      0.374      -9999      -9999      3.026774   2.057      2.87       2.9216     2.382      2.09       1.773      0.712      1.065      0.797      2.2954     0.1439976  0.1439976  0.33165    1.301195   1.378153   1.947      0.1153772  0.4410549  49.1       0.5686437  0.56916    0.5681275 
1068.8     0.278      0.376      -9999      -9999      3.03022    2.019      2.807      2.801      2.369      2.064      1.772      0.823      0.99       0.816      2.3353     0.1333481  0.1333481  0.3212     0.8262053  1.363785   1.94       0.05255403 0.412184   49.1       0.5692483  0.5716009  0.5668957 
1069       0.277      0.375      -9999      -9999      3.055573   1.956      2.781      2.6907     2.445      2.077      1.8        0.79       1.032      0.816      2.3553     0.1350292  0.1350292  0.3212     0.887618   1.262579   1.943      0.06351504 0.4153368  48.6       0.564154   0.5898845  0.5384236 
1069.2     0.261      0.376      -9999      -9999      3.098117   1.93       2.756      2.6204     2.572      2.09       1.864      0.69       0.99       0.833      2.475      0.1114243  0.1114243  0.31185    0.3243439  1.109341   1.941      0          0.3611612  49.6       0.6073507  0.6218885  0.5928128 
1069.4     0.257      0.377      -9999      -9999      3.141679   1.956      2.68       2.6004     2.699      2.052      1.995      0.773      1.18       0.813      2.5549     0.1178813  0.1178813  0.32285    0.4271749  0.9716867  1.935      0          0.3866802  49.5       0.6211172  0.656459   0.5857755 
1069.6     0.239      0.381      -9999      -9999      3.168429   2.032      2.819      2.55       2.75       2.052      2.016      0.9        1.32       0.812      2.5349     0.1140326  0.1140326  0.3234     0.3625091  0.8957645  1.913      0          0.3765959  49.6       0.6344466  0.678633   0.5902603 
1069.8     0.236      0.386      -9999      -9999      3.164571   2.019      2.819      2.4498     2.674      2.039      1.962      0.806      1.164      0.823      2.5349     0.1133834  0.1133834  0.31735    0.35261    0.9063387  1.891      0          0.3639759  49.1       0.6180804  0.6753888  0.560772  
1070       0.236      0.385      -9999      -9999      3.1285     2.045      2.756      2.4096     2.572      2.001      1.864      0.884      1.23       0.847      2.5549     0.09773621 0.09773621 0.30415    0.180913   1.011427   1.892      0          0.3117414  49.9       0.6254963  0.6458017  0.6051909 
1070.2     0.248      0.384      -9999      -9999      3.073854   2.032      2.654      2.3795     2.522      1.988      1.848      0.773      1.271      0.858      2.6547     0.1008188  0.1008188  0.2981     0.206332   1.194299   1.898      0          0.3110873  49.7       0.5978219  0.6034293  0.5922145 
1070.4     0.252      0.384      -9999      -9999      3.022128   2.095      2.718      2.3393     2.483      1.988      1.861      0.817      1.155      0.846      2.6946     0.1138241  0.1138241  0.3047     0.3592999  1.397767   1.898      0          0.3491451  49.7       0.5784117  0.5658851  0.5909382 
1070.6     0.247      0.384      -9999      -9999      2.989972   2.045      2.756      2.2891     2.369      2.001      1.895      0.712      1.032      0.834      2.6946     0.1213983  0.1213983  0.3113     0.4963058  1.541372   1.898      0          0.3726915  50         0.5754597  0.5437323  0.6071869 
1070.8     0.248      0.383      -9999      -9999      2.982346   2.032      2.756      2.249      2.242      1.975      1.866      0.751      1.188      0.807      2.7745     0.1271606  0.1271606  0.32615    0.6345726  1.577538   1.904      0.003807788 0.402149   51         0.6029981  0.5386075  0.6673887 
1071       0.246      0.378      -9999      -9999      2.993452   2.032      2.73       2.1987     2.141      1.95       1.792      0.712      1.081      0.803      2.8144     0.1294094  0.1294094  0.32835    0.6984494  1.525143   1.929      0.02488961 0.4123148  50.9       0.6028502  0.5460876  0.6596128 
1071.2     0.243      0.371      -9999      -9999      3.008675   2.032      2.603      2.1687     2.09       1.937      1.864      0.74       1.106      0.797      2.8743     0.1402842  0.1402842  0.33165    1.11061    1.45614    1.963      0.09848618 0.4379291  50         0.5798964  0.5565099  0.6032828 
1071.4     0.247      0.366      -9999      -9999      3.010296   2.007      2.527      2.1586     2.077      1.925      2.02       0.712      1.172      0.797      2.9341     0.1403131  0.1403131  0.33165    1.11198    1.448979   1.993      0.1050403  0.4422179  50         0.5798088  0.5576313  0.6019863 
1071.6     0.243      0.36       -9999      -9999      2.985949   2.007      2.629      2.1486     2.064      1.925      2.044      0.994      1.411      0.778      3.0739     0.1371963  0.1371963  0.3421     0.9735665  1.560345   2.026      0.09436426 0.4530688  51.6       0.6209204  0.541023   0.7008178 
1071.8     0.234      0.354      -9999      -9999      2.932368   2.083      2.73       2.1587     2.064      1.912      2.164      1.105      1.651      0.797      3.1737     0.1501882  0.1501882  0.33165    1.694366   1.83651    2.061      0.1696902  0.4652036  49.9       0.5498844  0.5061938  0.593575  
1072       0.235      0.347      -9999      -9999      2.854968   2.121      2.692      2.2391     2.052      1.899      2.256      1.132      1.436      0.837      3.2735     0.1250544  0.1250544  0.30965    0.5800548  2.323945   2.101      0.03484858 0.4081448  51         0.5593806  0.4598032  0.658958  
1072.2     0.235      0.341      -9999      -9999      2.773493   2.222      2.857      2.3092     2.026      1.899      2.295      0.9        1.568      0.854      3.2934     0.1168245  0.1168245  0.3003     0.4083487  2.977432   2.141      0          0.3871909  51.6       0.5559864  0.4155552  0.6964175 
1072.4     0.237      0.336      -9999      -9999      2.718895   2.337      2.959      2.3092     1.988      1.899      2.367      1.756      1.452      0.841      3.4132     0.1287106  0.1287106  0.30745    0.6779389  3.515249   2.169      0.07273542 0.4209976  51.6       0.5416345  0.3883131  0.6949559 
1072.6     0.235      0.331      -9999      -9999      2.706788   2.388      3.061      2.3092     1.937      1.887      2.23       1.342      1.452      0.824      3.493      0.1763317  0.1937884  0.3168     5.167118   69.58367   2.2        0.2997738  0.4994449  52         0.3727624  0.1147511  0.6307738 
1072.8     0.235      0.326      -9999      -9999      2.72208    2.324      3.073      2.3294     1.912      1.887      2.252      0.928      1.452      0.829      3.5729     0.1743478  0.1917696  0.31405    4.747911   65.34045   2.24       0.2987935  0.499079   51.9       0.3705468  0.1177375  0.6233561 
1073       0.234      0.32       -9999      -9999      2.743759   2.337      3.099      2.3293     1.899      1.887      2.327      1.204      1.568      0.856      3.6527     0.1632441  0.1803378  0.2992     2.956893   59.76492   2.281      0.2637246  0.4753989  51.5       0.3601884  0.1221046  0.5982722 
