~Version
 VERS              .         2.0                           : CWLS LOG ASCII STANDARD - VERSION 2.0
 WRAP              .         NO                            : ONE LINE PER DEPTH STEP
 DLM               .         SPACE                         : DELIMITING CHARACTER(SPACE TAB OR COMMA)
~Well Information
#_______________________________________________________________________________
#
#PARAMETER_NAME    .UNIT     VALUE                         : DESCRIPTION
#_______________________________________________________________________________
STRT               .м        860                           : First reference value
STOP               .м        1150                          : Last reference value
STEP               .м        0.2                           : Step increment
NULL               .         -9999                         : Missing value
COMP               .                                       : Company
WELL               .         8414                          : Well name
FLD                .         Узень                         : Field
LOC                .                                       : Location
CNTY               .                                       : County
STAT               .                                       : State
CTRY               .                                       : Country
SRVC               .                                       : Service Company
DATE               .                                       : Date
UWI                .                                       : Unique Well ID
Block              .         7                             : 
Category           .         Нефтяная                      : 
Condition          .         В простое                     : 
Date               .         14.09.1993                    : 
EREF               .m        83.1                          : 100.8
GRP                .                                       : Group name
Gor                .         14                            : 
Gorizont           .         14                            : 14
ISS                .         БКЗ, магнитная лента          : Well surveys
Interpretator      .         Кайсанов Е.К                  : 
Kupol              .         Основной                      : osnovnoi
Mud                .                                       : 
Mud_density        .                                       : 
Mud_resistivity    .                                       : 
NGDU               .         НГДУ-2                        : 
ORIGINALWELLNAME   .         8414                          : 
Spud_date          .         1993                          : 1961
TIME               .         14_33                         : LOG TIME
Viscosity          .                                       : 
X                  .m        42913.2                       : 46154
Y                  .m        84318.83                      : 85761.93
YEAR               .         2019                          : 
Сдали_за_3_кв_2019 .         3                             : 
~Parameter Information Block
#_______________________________________________________________________________
#
#PARAMETER_NAME    .UNIT     VALUE                         : DESCRIPTION
#_______________________________________________________________________________
SET                .         LQC_KAZNIPI_Petrel            : 
TLFamily_CALI      .         Caliper                       : 
TLFamily_CILD      .         Conductivity                  : 
TLFamily_COLL      .         Net Reservoir Flag            : 
TLFamily_CSAT      .         Fluid Code                    : 
TLFamily_DEPT      .         Measured Depth                : 
TLFamily_GR        .         Russian Gamma Ray             : 
TLFamily_GZ1       .         Gradient 045                  : 
TLFamily_GZ2       .         Gradient 105                  : 
TLFamily_GZ3       .         Gradient 225                  : 
TLFamily_GZ4       .         Gradient 425                  : 
TLFamily_GZ5       .         Gradient 850                  : 
TLFamily_LLS       .         Lateral Log Resistivity       : 
TLFamily_MINV      .         Micro Gradient Resistivity    : 
TLFamily_MNOR      .         Micro Resistivity             : 
TLFamily_NGLD      .         Neutron Far                   : 
TLFamily_OGZ3      .         Gradient Inverted 225         : 
TLFamily_PHIE      .         Effective Porosity            : 
TLFamily_PHIEN     .         Effective Porosity            : 
TLFamily_PHIT      .         Porosity                      : 
TLFamily_PRMB      .         Permeability                  : 
TLFamily_PRMB_DGR  .         Permeability                  : 
TLFamily_RT        .         Formation Resistivity         : 
TLFamily_SOIL_ARCHIE .         Oil Saturation                : 
TLFamily_SOIL_DW   .         Oil Saturation                : 
TLFamily_SP        .         Spontaneous Potential         : 
TLFamily_VSH_FIN   .         Shale Volume                  : 
TLFamily_VSH_GR    .         Shale Volume                  : 
TLFamily_VSH_SP    .         Shale Volume                  : 
~Curve Information
#_______________________________________________________________________________
#
#LOGNAME           .UNIT     LOG_ID                        : DESCRIPTION
#_______________________________________________________________________________
DEPT               .м                                      : Колонка глубины 
CALI               .м                                      : Каверномер 
CILD               .мСм/м                                  : Индукционный каротаж 
COLL               .unitless                               :  
CSAT               .unitless                               :  
GR                 .uR/h                                   : Гамма каротаж 
GZ1                .Ohmm                                   : А0.4М0.1N 
GZ2                .Ohmm                                   : A1.0M0.1N 
GZ3                .Ohmm                                   : 146.20 - 1382.60- 195.20 - 1152.80 
GZ4                .Ohmm                                   : A4M0.5N 
GZ5                .Ohmm                                   : A8M1N 
LLS                .Ohmm                                   : Боковой каротаж 
MINV               .Ohmm                                   : Микро-градиент зонд 
MNOR               .Ohmm                                   : Микро-потенциал зонд 
NGLD               .у.е.                                   : Показания зонда НГК-60 аппаратуры ДРСТ-3-90 
OGZ3               .Ohmm                                   : 141.70 - 1378.10- 190.70 - 1148.30 
PHIE               .v/v                                    : Описание 
PHIEN              .v/v                                    :  
PHIT               .v/v                                    : Описание 
PRMB               .mD                                     :  
PRMB_DGR           .mD                                     :  
RT                 .ohmm                                   : УЭС пласта 
SOIL_ARCHIE        .v/v                                    :  
SOIL_DW            .v/v                                    :  
SP                 .мВ                                     : Потенциал самополяризации 
VSH_FIN            .v/v                                    : Описание 
VSH_GR             .v/v                                    : Shale volume 
VSH_SP             .v/v                                    : Shale Volume 
~Ascii
# ...
938        0.237      0.251      -9999      -9999      2.067716   2.184      3.886      3.6848     2.864      3.118      2.684      0.917      1.395      0.772      3.8523     0.1638863  0.1638863  0.3454     3.039      4.675524   2.902      0.3446349  0.5748063  60.1       0.5500414  0.345621   0.7544617 
938.2      0.236      0.251      -9999      -9999      1.978225   2.286      3.962      3.8556     3.118      3.296      3.209      2.154      1.89       0.785      4.0719     0.1648594  0.1648594  0.33825    3.167773   6.526831   2.902      0.3480052  0.5702337  60         0.525426   0.3016088  0.7492432 
938.4      0.229      0.261      -9999      -9999      1.91889    2.578      4.204      4.2372     3.525      3.512      4.126      3.004      2.715      0.794      4.1517     0.1639042  0.1639042  0.3333     3.041311   8.142469   2.79       0.3324814  0.5566998  60         0.5133207  0.2755637  0.7510777 
938.6      0.232      0.264      -9999      -9999      1.902109   3.213      4.661      4.6186     3.728      3.665      3.124      4.435      2.624      0.78       4.2116     0.1700985  0.1700985  0.341      3.960902   8.668062   2.762      0.3506369  0.5668935  60.2       0.5178835  0.2686144  0.7671527 
938.8      0.235      0.256      -9999      -9999      1.907528   3.289      4.737      4.5581     3.614      3.614      2.657      2.811      2.195      0.751      3.9721     0.1923281  0.1923281  0.35695    10.22213   8.494731   2.848      0.4248514  0.6045374  59.6       0.4988542  0.2708391  0.7268693 
939        0.246      0.247      -9999      -9999      1.90688    2.896      4.293      4.186601   3.372      3.449      2.348      1.8        1.485      0.753      3.5928     0.1965444  0.1965444  0.35585    12.23595   8.515265   2.947      0.4445902  0.6138026  59.1       0.4827442  0.2705722  0.6949161 
939.2      0.241      0.244      -9999      -9999      1.88992    2.438      3.81       3.7648     3.042      3.258      3.05       2.066      1.915      0.764      3.3533     0.1846268  0.1846268  0.3498     7.360267   9.070973   2.985      0.4170077  0.6026389  59.7       0.500525   0.2636769  0.7373731 
939.4      0.239      0.248      -9999      -9999      1.867053   2.54       4.013      3.5844     2.928      3.144      3.198      3.015      2.542      0.807      3.5729     0.1644456  0.1644456  0.32615    3.112353   9.878067   2.943      0.3508641  0.5631257  59.5       0.4900135  0.2546575  0.7253695 
939.6      0.237      0.252      -9999      -9999      1.846588   2.654      4.305      3.6848     3.131      3.271      3.65       2.452      2.666      0.828      3.4531     0.1433334  0.1433334  0.3146     1.264852   10.66108   2.888      0.2618334  0.5248166  60.4       0.5189898  0.2468475  0.7911321 
939.8      0.242      0.255      -9999      -9999      1.821023   2.946      4.508      3.7149     3.398      3.411      3.154      1.773      1.816      0.839      3.2934     0.1502295  0.1502295  0.30855    1.697353   11.72699   2.861      0.2883042  0.5253157  59.4       0.4797592  0.2374268  0.7220916 
940        0.25       0.257      -9999      -9999      1.78415    2.934      4.508      3.7149     3.779      3.449      2.443      2.154      1.799      0.838      3.1936     0.1491973  0.1491973  0.3091     1.624256   13.45486   2.835      0.2809441  0.5224141  59.7       0.4845535  0.2244684  0.7446387 
940.2      0.242      0.269      -9999      -9999      1.751738   2.819      4.483      3.7149     3.83       3.436      2.782      2.237      1.783      0.831      3.1936     0.1579623  0.1579623  0.31295    2.360496   15.1827    2.711      0.3013103  0.525816   59.4       0.4696597  0.2136633  0.7256561 
940.4      0.258      0.276      -9999      -9999      1.748363   2.819      4.826      3.735      3.474      3.309      3.121      2.601      1.419      0.813      3.014      0.1654632  0.1654632  0.32285    3.250414   15.37487   2.638      0.3203281  0.5367737  59.6       0.4769295  0.2125688  0.7412903 
940.6      0.278      0.271      -9999      -9999      1.778037   2.527      4.483      3.6746     3.03       3.169      2.606      1.734      1.23       0.778      2.8743     0.1938932  0.1938932  0.3421     10.92774   13.76493   2.693      0.4137008  0.5840169  58.6       0.4491115  0.2223897  0.6758333 
940.8      0.262      0.278      -9999      -9999      1.820462   2.324      4.166      3.6948     2.864      3.08       2.208      1.425      1.032      0.762      3.014      0.1945136  0.1945136  0.3509     11.22073   11.75157   2.619      0.4076349  0.5851443  59.1       0.4738983  0.2372238  0.7105727 
941        0.242      0.302      -9999      -9999      1.855715   2.578      4.432      3.956      3.106      2.979      2.951      2.021      2.212      0.757      3.2136     0.194816   0.194816   0.35365    11.36638   10.30448   2.415      0.3854905  0.5702823  59.1       0.4813152  0.2503005  0.7123298 
941.2      0.232      0.315      -9999      -9999      1.878635   2.578      4.469999   4.0562     3.169      2.903      2.591      1.259      1.783      0.757      3.0938     0.1862026  0.1862026  0.35365    7.871959   9.46069    2.313      0.3477296  0.5530806  59.7       0.5074162  0.2591864  0.7556459 
941.4      0.248      0.308      -9999      -9999      1.891815   2.286      4.039      3.795      3.055      2.903      2.03       1.121      1.155      0.731      3.0938     0.2116886  0.2116886  0.36795    23.34238   9.007113   2.364      0.4226215  0.5896425  58.6       0.4735193  0.2644387  0.6825998 
941.6      0.264      0.303      -9999      -9999      1.900245   1.994      3.378      3.4838     2.814      2.903      1.542      0.657      0.9        0.724      3.4531     0.2023125  0.2023125  0.3718     15.64861   8.728502   2.403      0.4039787  0.5882604  59.7       0.5135986  0.2678534  0.7593439 
941.8      0.246      0.305      -9999      -9999      1.917937   2.197      3.454      3.494      2.75       2.852      2.406      1.657      1.32       0.742      3.6926     0.1849086  0.1849086  0.3619     7.449269   8.171451   2.387      0.3533823  0.5650581  60.2       0.5363377  0.2751642  0.7975111 
942        0.243      0.303      -9999      -9999      1.964122   2.172      3.543      3.4939     2.725      2.814      2.552      3.137      1.386      0.776      3.7325     0.1754984  0.1754984  0.3432     4.986713   6.879118   2.41       0.3263259  0.5436981  59.1       0.5081866  0.2952036  0.7211696 
942.2      0.241      0.308      -9999      -9999      2.035688   2.134      3.111      3.3232     2.674      2.801      2.083      1.105      1.106      0.816      3.9721     0.1358804  0.1358804  0.3212     0.920434   5.268388   2.366      0.1508544  0.4713978  60.1       0.5615746  0.3291767  0.7939724 
942.4      0.231      0.308      -9999      -9999      2.093738   2.349      3.251      3.2429     2.649      2.776      3.008      2.59       1.725      0.846      3.7725     0.1188491  0.1188491  0.3047     0.4451765  4.243298   2.364      0.04542561 0.4257782  59.7       0.5631844  0.3595852  0.7667837 
942.6      0.235      0.294      -9999      -9999      2.096694   2.273      3.035      3.1626     2.687      2.737      2.614      0.74       0.999      0.847      3.7725     0.1177232  0.1177232  0.30415    0.4243044  4.196802   2.483      0.05940821 0.4371315  59.7       0.5649297  0.3612067  0.7686526 
942.8      0.237      0.282      -9999      -9999      2.046611   2.337      3.175      3.0924     2.763      2.687      2.492      2.43       1.766      0.827      3.9721     0.1386158  0.1386158  0.31515    1.034331   5.058199   2.583      0.1991343  0.4917678  59.2       0.534952   0.3346949  0.7352091 
943        0.217      0.279      -9999      -9999      1.979941   2.54       3.531      3.0723     2.814      2.649      2.999      3.01       2.847      0.794      3.7725     0.1571435  0.1571435  0.3333     2.279486   6.485193   2.617      0.2864212  0.5348774  59.6       0.5338075  0.302398   0.7652171 
