~Version
 VERS              .         2.0                           : CWLS LOG ASCII STANDARD - VERSION 2.0
 WRAP              .         NO                            : ONE LINE PER DEPTH STEP
 DLM               .         SPACE                         : DELIMITING CHARACTER(SPACE TAB OR COMMA)
~Well Information
#_______________________________________________________________________________
#
#PARAMETER_NAME    .UNIT     VALUE                         : DESCRIPTION
#_______________________________________________________________________________
STRT               .м        860                           : First reference value
STOP               .м        1150                          : Last reference value
STEP               .м        0.2                           : Step increment
NULL               .         -9999                         : Missing value
COMP               .                                       : Company
WELL               .         8414                          : Well name
FLD                .         Узень                         : Field
LOC                .                                       : Location
CNTY               .                                       : County
STAT               .                                       : State
CTRY               .                                       : Country
SRVC               .                                       : Service Company
DATE               .                                       : Date
UWI                .                                       : Unique Well ID
Block              .         7                             : 
Category           .         Нефтяная                      : 
Condition          .         В простое                     : 
Date               .         14.09.1993                    : 
EREF               .m        83.1                          : 100.8
GRP                .                                       : Group name
Gor                .         14                            : 
Gorizont           .         14                            : 14
ISS                .         БКЗ, магнитная лента          : Well surveys
Interpretator      .         Кайсанов Е.К                  : 
Kupol              .         Основной                      : osnovnoi
Mud                .                                       : 
Mud_density        .                                       : 
Mud_resistivity    .                                       : 
NGDU               .         НГДУ-2                        : 
ORIGINALWELLNAME   .         8414                          : 
Spud_date          .         1993                          : 1961
TIME               .         14_33                         : LOG TIME
Viscosity          .                                       : 
X                  .m        42913.2                       : 46154
Y                  .m        84318.83                      : 85761.93
YEAR               .         2019                          : 
Сдали_за_3_кв_2019 .         3                             : 
~Parameter Information Block
#_______________________________________________________________________________
#
#PARAMETER_NAME    .UNIT     VALUE                         : DESCRIPTION
#_______________________________________________________________________________
SET                .         LQC_KAZNIPI_Petrel            : 
TLFamily_CALI      .         Caliper                       : 
TLFamily_CILD      .         Conductivity                  : 
TLFamily_COLL      .         Net Reservoir Flag            : 
TLFamily_CSAT      .         Fluid Code                    : 
TLFamily_DEPT      .         Measured Depth                : 
TLFamily_GR        .         Russian Gamma Ray             : 
TLFamily_GZ1       .         Gradient 045                  : 
TLFamily_GZ2       .         Gradient 105                  : 
TLFamily_GZ3       .         Gradient 225                  : 
TLFamily_GZ4       .         Gradient 425                  : 
TLFamily_GZ5       .         Gradient 850                  : 
TLFamily_LLS       .         Lateral Log Resistivity       : 
TLFamily_MINV      .         Micro Gradient Resistivity    : 
TLFamily_MNOR      .         Micro Resistivity             : 
TLFamily_NGLD      .         Neutron Far                   : 
TLFamily_OGZ3      .         Gradient Inverted 225         : 
TLFamily_PHIE      .         Effective Porosity            : 
TLFamily_PHIEN     .         Effective Porosity            : 
TLFamily_PHIT      .         Porosity                      : 
TLFamily_PRMB      .         Permeability                  : 
TLFamily_PRMB_DGR  .         Permeability                  : 
TLFamily_RT        .         Formation Resistivity         : 
TLFamily_SOIL_ARCHIE .         Oil Saturation                : 
TLFamily_SOIL_DW   .         Oil Saturation                : 
TLFamily_SP        .         Spontaneous Potential         : 
TLFamily_VSH_FIN   .         Shale Volume                  : 
TLFamily_VSH_GR    .         Shale Volume                  : 
TLFamily_VSH_SP    .         Shale Volume                  : 
~Curve Information
#_______________________________________________________________________________
#
#LOGNAME           .UNIT     LOG_ID                        : DESCRIPTION
#_______________________________________________________________________________
DEPT               .м                                      : Колонка глубины 
CALI               .м                                      : Каверномер 
CILD               .мСм/м                                  : Индукционный каротаж 
COLL               .unitless                               :  
CSAT               .unitless                               :  
GR                 .uR/h                                   : Гамма каротаж 
GZ1                .Ohmm                                   : А0.4М0.1N 
GZ2                .Ohmm                                   : A1.0M0.1N 
GZ3                .Ohmm                                   : 146.20 - 1382.60- 195.20 - 1152.80 
GZ4                .Ohmm                                   : A4M0.5N 
GZ5                .Ohmm                                   : A8M1N 
LLS                .Ohmm                                   : Боковой каротаж 
MINV               .Ohmm                                   : Микро-градиент зонд 
MNOR               .Ohmm                                   : Микро-потенциал зонд 
NGLD               .у.е.                                   : Показания зонда НГК-60 аппаратуры ДРСТ-3-90 
OGZ3               .Ohmm                                   : 141.70 - 1378.10- 190.70 - 1148.30 
PHIE               .v/v                                    : Описание 
PHIEN              .v/v                                    :  
PHIT               .v/v                                    : Описание 
PRMB               .mD                                     :  
PRMB_DGR           .mD                                     :  
RT                 .ohmm                                   : УЭС пласта 
SOIL_ARCHIE        .v/v                                    :  
SOIL_DW            .v/v                                    :  
SP                 .мВ                                     : Потенциал самополяризации 
VSH_FIN            .v/v                                    : Описание 
VSH_GR             .v/v                                    : Shale volume 
VSH_SP             .v/v                                    : Shale Volume 
~Ascii
# ...
1109.6     0.207      0.234      1          2          3.588624   3.124      4.458      4.1362     4.058      3.068      3.373      2.568      2.971      0.895      6.327301   0.1429319  0.1674465  0.27775    1.24338    1.848536   3.113      0.2856258  0.5051182  25.1       0.334253   0.5048466  0.1636595 
1109.8     0.207      0.234      1          2          3.501749   3.137      4.496      3.9356     4.071      3.106      3.386      2.585      3.02       0.919      6.2874     0.1452703  0.1658913  0.26455    1.373779   2.642758   3.117      0.2960759  0.4937305  24.9       0.2989655  0.4362887  0.1616423 
1110       0.207      0.228      1          2          3.405284   3.099      4.407      3.795      4.071      3.131      3.156      2.651      2.715      0.918      6.2874     0.1530326  0.1715355  0.2651     1.912907   3.930275   3.202      0.3357173  0.511265   27.4       0.2835289  0.371015   0.1960427 
1110.2     0.207      0.218      1          2          3.324123   3.035      4.28       3.735      4.134      3.233      3.469      2.993      3.301      0.924      6.3673     0.1649346  0.1800795  0.2618     3.177952   5.488355   3.344      0.390211   0.5323747  25.7       0.2476379  0.3237242  0.1715516 
1110.4     0.208      0.209      1          2          3.270871   3.124      4.394      3.8756     4.312      3.411      3.422      3.032      3.037      0.925      6.4271     0.1733588  0.1865061  0.26125    4.551798   6.832736   3.486      0.427386   0.5505977  24.4       0.2264965  0.2960202  0.1569729 
1110.6     0.208      0.196      1          2          3.240532   3.137      4.496      4.0564     4.541      3.665      3.541      2.877      3.367      0.899      6.586801   0.1932496  0.2051355  0.27555    10.63189   7.741117   3.716      0.4944602  0.596565   23.1       0.2133772  0.2813105  0.1454439 
1110.8     0.208      0.182      1          2          3.210959   3.099      4.547      4.3176     4.769      3.957      3.843      3.424      3.375      0.85       6.7665     0.223068   0.2343101  0.3025     37.92439   8.742699   4.005      0.56926    0.6532841  23.1       0.2066359  0.2676756  0.1455962 
1111       0.207      0.171      1          2          3.158061   3.15       4.712      4.659      4.985      4.16       4.454      2.325      3.136      0.828      6.6467     0.2410837  0.2510002  0.3146     81.77343   10.86838   4.268      0.609271   0.682186   22.4       0.1927266  0.2449139  0.1405393 
1111.2     0.209      0.16       1          2          3.07871    3.378      5.156      4.94       5.112      4.35       4.61       2.507      3.045      0.84       6.3673     0.242256   0.250453   0.308      85.96599   15.06439   4.559      0.6227766  0.6893156  21.4       0.1743848  0.214347   0.1344227 
1111.4     0.209      0.151      1          2          2.998614   3.658      5.639      5.301499   5.227001   4.503      4.738      2.899      3.557      0.88       6.2475     0.2273672  0.2339975  0.286      45.55644   20.94438   4.825      0.6118196  0.676226   20         0.1575832  0.1873606  0.1278059 
1111.6     0.208      0.145      1          2          2.946755   4.026      6.058      5.7838     5.29       4.693      4.902      2.761      3.697      0.911      6.327301   0.2124963  0.2187555  0.26895    24.1604    25.9257    5.021      0.5958857  0.6616104  21         0.1521047  0.1717279  0.1324815 
1111.8     0.207      0.144      1          2          2.931261   4.318      7.112      6.3057     5.43       4.896      5.007      2.739      3.507      0.913      6.1277     0.2109999  0.2174106  0.26785    22.66673   27.63219   5.056      0.5947142  0.6609765  22         0.1528468  0.1673155  0.138378  
1112       0.207      0.143      1          2          2.937203   4.61       7.81       6.7676     5.594999   5.061      4.986      3.004      3.796      0.922      5.9281     0.2037619  0.2107042  0.2629     16.64651   26.96484   5.084      0.5832852  0.6531905  23.2       0.1581691  0.1689942  0.147344  
1112.2     0.209      0.147      1          2          2.953119   4.801      8.762999   7.0886     5.633      4.884      4.995      2.922      3.516      0.933      5.6886     0.1954199  0.2028537  0.25685    11.66297   25.25566   4.973      0.5633341  0.6382918  23.892     0.1636251  0.1735739  0.1536764 
1112.4     0.203      0.148      1          2          2.980458   4.877      9.398001   7.0379     5.404      4.515      4.869      3.142      4.267      0.974      5.2695     0.1696263  0.1777348  0.2343     3.881933   22.5688    4.919      0.5035028  0.592992   24.6       0.1714098  0.181732   0.1610876 
1112.6     0.204      0.163      1          2          3.018939   4.813001   9.461      6.636      4.96       4.122      4.696      2.899      3.491      0.977      4.7705     0.1658631  0.1744016  0.23265    3.306319   19.26417   4.467      0.4702798  0.5671256  24.4       0.1765103  0.1938687  0.1591519 
1112.8     0.204      0.171      1          2          3.064925   4.381      8.445      6.1441     4.515      3.703      4.524      2.656      2.715      0.942      4.5509     0.1801847  0.1897493  0.2519     6.089989   15.94342   4.283      0.4973191  0.5922681  25.1       0.1883355  0.2094402  0.1672308 
1113       0.207      0.185      1          2          3.122358   3.772      7.366      5.742599   4.109      3.334      3.652      2.618      2.624      0.904      4.5509     0.1960847  0.2067083  0.2728     11.99839   12.58811   3.934      0.514009   0.6079482  25.3       0.2002779  0.2306554  0.1699004 
1113.2     0.208      0.193      1          2          3.197859   3.365      6.663      5.4918     3.753      3.08       3.136      2.585      2.88       0.882      4.5509     0.2012875  0.2134149  0.2849     14.9793    9.226864   3.777      0.5158022  0.6141441  25.4       0.2166214  0.2618487  0.1713941 
1113.4     0.208      0.203      1          2          3.281969   3.213      5.893      5.2307     3.525      3.068      3.204      2.408      2.847      0.87       4.5509     0.2024431  0.2158576  0.2915     15.73602   6.527748   3.593      0.5067856  0.6106014  24.1       0.2292193  0.3015915  0.1568471 
1113.6     0.208      0.216      0          0          3.349505   3.048      5.118001   4.9797     3.398      3.207      3.294      2.585      2.806      0.867      4.5509     0.1951525  0.2106205  0.29315    11.53069   4.944132   3.377      0.4757427  0.5936211  24.6       0.2500893  0.3378267  0.1623519 
1113.8     0.208      0.236      0          0          3.382052   2.794      4.407      4.9298     3.652      3.449      2.839      2.618      2.707      0.868      4.6906     0.1892463  0.2059421  0.2926     8.963114   4.32448    3.091      0.438689   0.5694142  25.1       0.2625998  0.3568134  0.1683862 
1114       0.209      0.25       0          0          3.376165   2.68       4.14       5.1812     3.855      3.715      2.75       2.253      2.855      0.894      4.9501     0.1726425  0.1897554  0.2783     4.41485    4.430502   2.911      0.3745906  0.5255726  26.2       0.2683171  0.3533018  0.1833324 
1114.2     0.209      0.245      0          0          3.334909   2.908      4.42       5.3815     4.071      4.122      2.908      3.413      3.54       0.889      4.8902     0.1698639  0.187613   0.28105    3.921478   5.25013    2.971      0.3717337  0.5300933  29.1       0.2831426  0.3296436  0.2366416 
1114.4     0.209      0.237      0          0          3.256822   3.175      4.445      5.2911     4.236001   4.604001   3.616      2.839      3.342      0.876      4.8303     0.1856219  0.2013798  0.2882     7.679383   7.239321   3.082      0.4283737  0.5614589  29.1       0.2630916  0.2891152  0.2370681 
1114.6     0.213      0.227      0          0          3.136351   3.048      4.242      5.4021     4.541      5.176      3.461      2.728      3.012      0.854      5.2295     0.2166337  0.2286004  0.3003     28.82299   11.88382   3.206      0.5095042  0.6060709  27.1       0.2172715  0.2361423  0.1984006 
