~Version
 VERS              .         2.0                           : CWLS LOG ASCII STANDARD - VERSION 2.0
 WRAP              .         NO                            : ONE LINE PER DEPTH STEP
 DLM               .         SPACE                         : DELIMITING CHARACTER(SPACE TAB OR COMMA)
~Well Information
#_______________________________________________________________________________
#
#PARAMETER_NAME    .UNIT     VALUE                         : DESCRIPTION
#_______________________________________________________________________________
STRT               .м        860                           : First reference value
STOP               .м        1150                          : Last reference value
STEP               .м        0.2                           : Step increment
NULL               .         -9999                         : Missing value
COMP               .                                       : Company
WELL               .         8414                          : Well name
FLD                .         Узень                         : Field
LOC                .                                       : Location
CNTY               .                                       : County
STAT               .                                       : State
CTRY               .                                       : Country
SRVC               .                                       : Service Company
DATE               .                                       : Date
UWI                .                                       : Unique Well ID
Block              .         7                             : 
Category           .         Нефтяная                      : 
Condition          .         В простое                     : 
Date               .         14.09.1993                    : 
EREF               .m        83.1                          : 100.8
GRP                .                                       : Group name
Gor                .         14                            : 
Gorizont           .         14                            : 14
ISS                .         БКЗ, магнитная лента          : Well surveys
Interpretator      .         Кайсанов Е.К                  : 
Kupol              .         Основной                      : osnovnoi
Mud                .                                       : 
Mud_density        .                                       : 
Mud_resistivity    .                                       : 
NGDU               .         НГДУ-2                        : 
ORIGINALWELLNAME   .         8414                          : 
Spud_date          .         1993                          : 1961
TIME               .         14_33                         : LOG TIME
Viscosity          .                                       : 
X                  .m        42913.2                       : 46154
Y                  .m        84318.83                      : 85761.93
YEAR               .         2019                          : 
Сдали_за_3_кв_2019 .         3                             : 
~Parameter Information Block
#_______________________________________________________________________________
#
#PARAMETER_NAME    .UNIT     VALUE                         : DESCRIPTION
#_______________________________________________________________________________
SET                .         LQC_KAZNIPI_Petrel            : 
TLFamily_CALI      .         Caliper                       : 
TLFamily_CILD      .         Conductivity                  : 
TLFamily_COLL      .         Net Reservoir Flag            : 
TLFamily_CSAT      .         Fluid Code                    : 
TLFamily_DEPT      .         Measured Depth                : 
TLFamily_GR        .         Russian Gamma Ray             : 
TLFamily_GZ1       .         Gradient 045                  : 
TLFamily_GZ2       .         Gradient 105                  : 
TLFamily_GZ3       .         Gradient 225                  : 
TLFamily_GZ4       .         Gradient 425                  : 
TLFamily_GZ5       .         Gradient 850                  : 
TLFamily_LLS       .         Lateral Log Resistivity       : 
TLFamily_MINV      .         Micro Gradient Resistivity    : 
TLFamily_MNOR      .         Micro Resistivity             : 
TLFamily_NGLD      .         Neutron Far                   : 
TLFamily_OGZ3      .         Gradient Inverted 225         : 
TLFamily_PHIE      .         Effective Porosity            : 
TLFamily_PHIEN     .         Effective Porosity            : 
TLFamily_PHIT      .         Porosity                      : 
TLFamily_PRMB      .         Permeability                  : 
TLFamily_PRMB_DGR  .         Permeability                  : 
TLFamily_RT        .         Formation Resistivity         : 
TLFamily_SOIL_ARCHIE .         Oil Saturation                : 
TLFamily_SOIL_DW   .         Oil Saturation                : 
TLFamily_SP        .         Spontaneous Potential         : 
TLFamily_VSH_FIN   .         Shale Volume                  : 
TLFamily_VSH_GR    .         Shale Volume                  : 
TLFamily_VSH_SP    .         Shale Volume                  : 
~Curve Information
#_______________________________________________________________________________
#
#LOGNAME           .UNIT     LOG_ID                        : DESCRIPTION
#_______________________________________________________________________________
DEPT               .м                                      : Колонка глубины 
CALI               .м                                      : Каверномер 
CILD               .мСм/м                                  : Индукционный каротаж 
COLL               .unitless                               :  
CSAT               .unitless                               :  
GR                 .uR/h                                   : Гамма каротаж 
GZ1                .Ohmm                                   : А0.4М0.1N 
GZ2                .Ohmm                                   : A1.0M0.1N 
GZ3                .Ohmm                                   : 146.20 - 1382.60- 195.20 - 1152.80 
GZ4                .Ohmm                                   : A4M0.5N 
GZ5                .Ohmm                                   : A8M1N 
LLS                .Ohmm                                   : Боковой каротаж 
MINV               .Ohmm                                   : Микро-градиент зонд 
MNOR               .Ohmm                                   : Микро-потенциал зонд 
NGLD               .у.е.                                   : Показания зонда НГК-60 аппаратуры ДРСТ-3-90 
OGZ3               .Ohmm                                   : 141.70 - 1378.10- 190.70 - 1148.30 
PHIE               .v/v                                    : Описание 
PHIEN              .v/v                                    :  
PHIT               .v/v                                    : Описание 
PRMB               .mD                                     :  
PRMB_DGR           .mD                                     :  
RT                 .ohmm                                   : УЭС пласта 
SOIL_ARCHIE        .v/v                                    :  
SOIL_DW            .v/v                                    :  
SP                 .мВ                                     : Потенциал самополяризации 
VSH_FIN            .v/v                                    : Описание 
VSH_GR             .v/v                                    : Shale volume 
VSH_SP             .v/v                                    : Shale Volume 
~Ascii
# ...
1088.8     0.209      0.255      -9999      -9999      3.397116   2.781      4.242      3.4741     2.814      4.02       2.888      2.364      2.55       0.879      4.0319     0.1398566  0.1633685  0.28655    1.090539   4.064598   2.864      0.2429175  0.4896123  41.8       0.3732773  0.3659586  0.3805961 
1089       0.209      0.26       -9999      -9999      3.412627   2.845      4.432      3.6548     2.89       4.109      3.587      2.568      2.971      0.876      3.992      0.1236693  0.1496031  0.2882     0.5467803  3.813303   2.8        0.1483203  0.4612927  43.5       0.4199907  0.3756206  0.4643609 
1089.2     0.21       0.269      -9999      -9999      3.444841   3.188      4.737      3.6143     2.801      4.084001   3.158      2.651      2.344      0.877      3.6926     0.111648   0.1394801  0.28765    0.3274531  3.339962   2.714      0.05525663 0.4313079  44         0.4489997  0.396509   0.5014905 
1089.4     0.211      0.27       -9999      -9999      3.471351   3.061      4.483      3.4437     2.623      3.957      2.501      2.154      2.146      0.897      3.7725     0.1124949  0.1394309  0.27665    0.3394969  2.994832   2.699      0.05901009 0.4169806  41.9       0.4158155  0.4145676  0.4170635 
1089.6     0.208      0.272      8          2          3.484014   2.819      4.14       3.4238     2.471      3.677      3.084      2.872      3.301      0.894      3.6926     0.1228341  0.1489076  0.2783     0.5276479  2.842807   2.676      0.124874   0.435294   40.2       0.3920982  0.423481   0.3607155 
1089.8     0.209      0.277      8          2          3.489135   2.883      4.267      3.494      2.445      3.499      2.974      2.48       2.641      0.894      3.6527     0.1269313  0.1525539  0.2783     0.6283959  2.783534   2.633      0.1430386  0.437653   39.2       0.3810487  0.4271404  0.3349571 
1090       0.209      0.278      8          2          3.490206   2.832      4.127      3.5141     2.445      3.372      2.652      2.922      2.55       0.91       3.6527     0.1213041  0.146513   0.2695     0.4943165  2.771298   2.622      0.1067642  0.4151803  38.4       0.3726878  0.4279094  0.3174662 
1090.2     0.209      0.281      8          2          3.485153   2.845      4.077      3.5141     2.458      3.182      3.034      2.436      2.806      0.928      3.4132     0.1176209  0.1418691  0.2596     0.4224575  2.829513   2.594      0.07781699 0.3911173  37.2       0.3567605  0.4242924  0.2892286 
1090.4     0.209      0.288      -9999      -9999      3.483556   2.883      4.166      3.4135     2.433      3.004      3.289      3.258      3.177      0.898      2.9541     0.1229519  0.148713   0.2761     0.5303059  2.848166   2.533      0.1027771  0.4168873  38.8       0.3860211  0.4231554  0.3488867 
1090.6     0.209      0.291      -9999      -9999      3.508794   3.061      4.152999   3.1321     2.306      2.877      2.334      3.314      2.179      0.841      2.8543     0.1396975  0.1678073  0.30745    1.083164   2.567255   2.508      0.1934623  0.4776981  40         0.4231596  0.4414834  0.4048358 
1090.8     0.211      0.285      -9999      -9999      3.57206    2.743      3.696      2.8814     2.217      2.814      2.147      3.203      2.055      0.824      3.0539     0.1428792  0.1731353  0.3168     1.240588   1.978903   2.557      0.2162761  0.4965903  39.1       0.4353476  0.4909917  0.3797035 
1091       0.209      0.275      -9999      -9999      3.648988   2.476      3.365      2.9622     2.356      2.826      2.624      1.778      2.443      0.856      3.4531     0.128204   0.1598944  0.2992     0.6634493  1.442013   2.65       0.1530149  0.4663289  36         0.4221382  0.5587296  0.2855467 
1091.2     0.209      0.267      -9999      -9999      3.695668   2.362      3.391      3.2633     2.661      2.991      3.094      2.336      2.806      0.895      3.9721     0.1085629  0.1410728  0.27775    0.2870825  1.190033   2.731      0.03474926 0.4143546  33.2       0.4141732  0.6043115  0.224035  
1091.4     0.209      0.26       8          2          3.685763   2.54       3.734      3.5644     3.055      3.423      3.418      2.739      3.053      0.914      4.2116     0.1072863  0.1379977  0.2673     0.2718691  1.239535   2.803      0.0365898  0.4050704  31         0.3918251  0.5943379  0.1893122 
1091.6     0.207      0.254      8          2          3.628984   2.87       4.039      3.8558     3.385      3.626      3.763      2.43       3.004      0.901      4.5309     0.1286947  0.1558433  0.27445    0.6774807  1.565714   2.875      0.1875014  0.4599701  30         0.3594143  0.5402647  0.178564  
1091.8     0.207      0.25       8          2          3.549739   3.238      4.293      4.1167     3.601      3.69       3.979      2.364      3.086      0.888      4.4711     0.1499961  0.1734805  0.2816     1.680546   2.169247   2.922      0.2943607  0.5028845  30         0.3276349  0.4729204  0.1823495 
1092       0.209      0.248      8          2          3.469832   3.543      4.534      4.2772     3.753      3.69       3.725      2.557      2.971      0.871      4.4112     0.1653531  0.1868458  0.29095    3.235186   3.013607   2.943      0.3539683  0.5326252  31.8       0.3154672  0.413511   0.2174234 
1092.2     0.207      0.249      8          2          3.409542   3.746      4.889      4.3776     3.982      3.626      3.549      2.099      2.69       0.869      4.3713     0.1748687  0.1942979  0.29205    4.854578   3.862022   2.925      0.3829218  0.5425419  31.6       0.2962183  0.3736785  0.2187582 
1092.4     0.207      0.256      8          2          3.390085   3.797      5.244999   4.4176     4.058      3.411      3.85       2.32       3.524      0.891      4.3713     0.153012   0.1737451  0.27995    1.911221   4.183901   2.845      0.2977438  0.4983159  34         0.3218332  0.361661   0.2820054 
1092.6     0.211      0.267      -9999      -9999      3.418745   3.912      5.791      4.1963     3.83       3.106      3.253      2.43       3.037      0.9        4.0319     0.1178305  0.1429869  0.275      0.4262496  3.718526   2.734      0.1016794  0.4283478  37.7       0.4000397  0.3795008  0.4205785 
1092.8     0.212      0.275      -9999      -9999      3.473948   3.67       5.613      3.5936     3.398      2.75       2.563      2.54       2.55       0.907      3.493      0.09430827 0.1228008  0.27115    0.1563061  2.963008   2.653      0          0.3655906  38.8       0.4495431  0.41638    0.4827061 
1093       0.21       0.279      -9999      -9999      3.517676   3.15       5.041999   3.0317     2.877      2.458      2.538      2.209      2.426      0.897      3.2335     0.07977123 0.1114543  0.27665    0.08408426 2.475137   2.611      0          0.3321027  39.9       0.5005931  0.4481202  0.5530661 
1093.2     0.209      0.283      -9999      -9999      3.532413   2.845      4.508      2.8313     2.56       2.191      2.525      3.474      2.476      0.917      3.1936     0.06662639 0.09889149 0.26565    0.04799991 2.329523   2.573      0          0.2672835  39.6       0.5053288  0.4593532  0.5513045 
1093.4     0.211      0.288      -9999      -9999      3.541141   2.667      4.178      2.8113     2.369      2.039      2.695      2.48       2.608      0.935      3.2335     0.05604417 0.0885953  0.25575    0.03056554 2.247353   2.53       0          0.2002719  39.5       0.5065294  0.4661386  0.5469202 
1093.6     0.209      0.29       -9999      -9999      3.585227   2.629      4.039      2.8615     2.268      1.988      2.61       2.54       2.509      0.949      3.2136     0.04706074 0.08087842 0.24805    0.02083709 1.874553   2.513      0          0.1376343  38.8       0.5065805  0.5019737  0.5111874 
1093.8     0.209      0.292      -9999      -9999      3.684905   2.578      3.95       2.9318     2.229      1.899      2.805      2.761      2.806      0.92       3.1936     0.04799585 0.08648568 0.264      0.02168491 1.243916   2.5        0          0.1780057  38.2       0.5379221  0.5934822  0.4823621 
