~Version
 VERS              .         2.0                           : CWLS LOG ASCII STANDARD - VERSION 2.0
 WRAP              .         NO                            : ONE LINE PER DEPTH STEP
 DLM               .         SPACE                         : DELIMITING CHARACTER(SPACE TAB OR COMMA)
~Well Information
#_______________________________________________________________________________
#
#PARAMETER_NAME    .UNIT     VALUE                         : DESCRIPTION
#_______________________________________________________________________________
STRT               .м        860                           : First reference value
STOP               .м        1150                          : Last reference value
STEP               .м        0.2                           : Step increment
NULL               .         -9999                         : Missing value
COMP               .                                       : Company
WELL               .         8414                          : Well name
FLD                .         Узень                         : Field
LOC                .                                       : Location
CNTY               .                                       : County
STAT               .                                       : State
CTRY               .                                       : Country
SRVC               .                                       : Service Company
DATE               .                                       : Date
UWI                .                                       : Unique Well ID
Block              .         7                             : 
Category           .         Нефтяная                      : 
Condition          .         В простое                     : 
Date               .         14.09.1993                    : 
EREF               .m        83.1                          : 100.8
GRP                .                                       : Group name
Gor                .         14                            : 
Gorizont           .         14                            : 14
ISS                .         БКЗ, магнитная лента          : Well surveys
Interpretator      .         Кайсанов Е.К                  : 
Kupol              .         Основной                      : osnovnoi
Mud                .                                       : 
Mud_density        .                                       : 
Mud_resistivity    .                                       : 
NGDU               .         НГДУ-2                        : 
ORIGINALWELLNAME   .         8414                          : 
Spud_date          .         1993                          : 1961
TIME               .         14_33                         : LOG TIME
Viscosity          .                                       : 
X                  .m        42913.2                       : 46154
Y                  .m        84318.83                      : 85761.93
YEAR               .         2019                          : 
Сдали_за_3_кв_2019 .         3                             : 
~Parameter Information Block
#_______________________________________________________________________________
#
#PARAMETER_NAME    .UNIT     VALUE                         : DESCRIPTION
#_______________________________________________________________________________
SET                .         LQC_KAZNIPI_Petrel            : 
TLFamily_CALI      .         Caliper                       : 
TLFamily_CILD      .         Conductivity                  : 
TLFamily_COLL      .         Net Reservoir Flag            : 
TLFamily_CSAT      .         Fluid Code                    : 
TLFamily_DEPT      .         Measured Depth                : 
TLFamily_GR        .         Russian Gamma Ray             : 
TLFamily_GZ1       .         Gradient 045                  : 
TLFamily_GZ2       .         Gradient 105                  : 
TLFamily_GZ3       .         Gradient 225                  : 
TLFamily_GZ4       .         Gradient 425                  : 
TLFamily_GZ5       .         Gradient 850                  : 
TLFamily_LLS       .         Lateral Log Resistivity       : 
TLFamily_MINV      .         Micro Gradient Resistivity    : 
TLFamily_MNOR      .         Micro Resistivity             : 
TLFamily_NGLD      .         Neutron Far                   : 
TLFamily_OGZ3      .         Gradient Inverted 225         : 
TLFamily_PHIE      .         Effective Porosity            : 
TLFamily_PHIEN     .         Effective Porosity            : 
TLFamily_PHIT      .         Porosity                      : 
TLFamily_PRMB      .         Permeability                  : 
TLFamily_PRMB_DGR  .         Permeability                  : 
TLFamily_RT        .         Formation Resistivity         : 
TLFamily_SOIL_ARCHIE .         Oil Saturation                : 
TLFamily_SOIL_DW   .         Oil Saturation                : 
TLFamily_SP        .         Spontaneous Potential         : 
TLFamily_VSH_FIN   .         Shale Volume                  : 
TLFamily_VSH_GR    .         Shale Volume                  : 
TLFamily_VSH_SP    .         Shale Volume                  : 
~Curve Information
#_______________________________________________________________________________
#
#LOGNAME           .UNIT     LOG_ID                        : DESCRIPTION
#_______________________________________________________________________________
DEPT               .м                                      : Колонка глубины 
CALI               .м                                      : Каверномер 
CILD               .мСм/м                                  : Индукционный каротаж 
COLL               .unitless                               :  
CSAT               .unitless                               :  
GR                 .uR/h                                   : Гамма каротаж 
GZ1                .Ohmm                                   : А0.4М0.1N 
GZ2                .Ohmm                                   : A1.0M0.1N 
GZ3                .Ohmm                                   : 146.20 - 1382.60- 195.20 - 1152.80 
GZ4                .Ohmm                                   : A4M0.5N 
GZ5                .Ohmm                                   : A8M1N 
LLS                .Ohmm                                   : Боковой каротаж 
MINV               .Ohmm                                   : Микро-градиент зонд 
MNOR               .Ohmm                                   : Микро-потенциал зонд 
NGLD               .у.е.                                   : Показания зонда НГК-60 аппаратуры ДРСТ-3-90 
OGZ3               .Ohmm                                   : 141.70 - 1378.10- 190.70 - 1148.30 
PHIE               .v/v                                    : Описание 
PHIEN              .v/v                                    :  
PHIT               .v/v                                    : Описание 
PRMB               .mD                                     :  
PRMB_DGR           .mD                                     :  
RT                 .ohmm                                   : УЭС пласта 
SOIL_ARCHIE        .v/v                                    :  
SOIL_DW            .v/v                                    :  
SP                 .мВ                                     : Потенциал самополяризации 
VSH_FIN            .v/v                                    : Описание 
VSH_GR             .v/v                                    : Shale volume 
VSH_SP             .v/v                                    : Shale Volume 
~Ascii
# ...
880.8      0.287      0.68       -9999      -9999      2.788065   -9999      -9999      5.1305     -9999      -9999      3.668      0.641      0.825      0.808      3.9721     0.1178649  0.1178649  0.3256     0.4268758  2.174708   1.073      0          0.1808411  60.6       0.6295003  0.4724351  0.7865656 
881        0.306      0.662      -9999      -9999      2.83387    -9999      -9999      4.809      -9999      -9999      2.957      0.679      0.809      0.776      3.5928     0.1302428  0.1302428  0.3432     0.7237214  1.855394   1.102      0          0.2459132  60.6       0.6453247  0.5040838  0.7865656 
881.2      0.359      0.437      -9999      -9999      2.878051   -9999      -9999      4.6487     -9999      -9999      2.449      0.58       0.495      0.762      3.9721     0.1695713  0.1695713  0.3509     3.872848   1.591902   1.667      0.1747881  0.4516188  57.1       0.5494808  0.5366176  0.5623439 
881.4      0.285      0.244      -9999      -9999      2.943526   -9999      -9999      4.8395     -9999      -9999      2.589      0.58       0.743      0.771      4.4511     0.1464898  0.1464898  0.34595    1.447119   1.268632   2.993      0.2877425  0.5637926  58.1       0.6044248  0.5887334  0.6201163 
881.6      0.212      0.258      -9999      -9999      3.025065   -9999      -9999      4.9699     -9999      -9999      3.57       0.652      0.792      0.764      4.870299   0.1442692  0.1442692  0.3498     1.316356   0.9562467  2.829      0.2588615  0.5519471  57.5       0.6228207  0.6607666  0.5848748 
881.8      0.236      0.261      -9999      -9999      3.09693    -9999      -9999      4.5781     -9999      -9999      2.719      0.596      0.66       0.764      4.4311     0.1458988  0.1458988  0.3498     1.4111     0.7453657  2.79       0.2612801  0.5506819  56         0.6178824  0.7315263  0.5042387 
882        0.271      0.265      -9999      -9999      3.134946   -9999      -9999      4.1365     -9999      -9999      2.495      0.58       0.611      0.78       4.9501     0.09106247 0.09106247 0.341      0.1360993  0.6533272  2.756      0          0.4593005  60         0.7573865  0.7719735  0.7427996 
882.2      0.288      0.263      -9999      -9999      3.128813   -9999      -9999      4.2069     -9999      -9999      2.662      0.619      0.776      0.811      5.6287     0.1051067  0.1051067  0.32395    0.2477364  0.6673672  2.772      0.01408158 0.4678942  57.1       0.6631614  0.7653002  0.5610226 
882.4      0.298      0.26       -9999      -9999      3.092336   -9999      -9999      4.337399   -9999      -9999      2.63       0.602      0.743      0.83       5.987999   0.1029268  0.1029268  0.3135     0.2257423  0.7573297  2.806      0.00164766 0.4557072  56.9       0.6381005  0.7267852  0.5494158 
882.6      0.282      0.26       -9999      -9999      3.058912   -9999      -9999      4.1967     -9999      -9999      2.634      0.795      0.941      0.817      6.1477     0.1242915  0.1242915  0.32065    0.5614847  0.8503721  2.806      0.1528862  0.4980285  55.9       0.5950258  0.6931978  0.4968539 
882.8      0.281      0.261      -9999      -9999      3.045784   -9999      -9999      4.0161     -9999      -9999      2.739      0.884      0.809      0.807      6.7665     0.1018545  0.1018545  0.32615    0.2156505  0.8899686  2.79       0          0.466314   59.1       0.6796834  0.6804342  0.6789325 
883        0.276      0.255      -9999      -9999      3.027343   -9999      -9999      3.8151     -9999      -9999      2.616      1.403      0.982      0.782      6.9461     0.1164678  0.1164678  0.3399     0.4021834  0.948725   2.854      0.1106416  0.5095122  59.3       0.6770673  0.6629007  0.6912339 
883.2      0.27       0.24       -9999      -9999      2.961423   -9999      -9999      3.5742     -9999      -9999      2.45       1.049      1.155      0.786      7.7645     0.1335783  0.1335783  0.3377     0.8343561  1.192312   3.044      0.2342375  0.5457196  58.4       0.6185507  0.6038395  0.6332619 
883.4      0.255      0.228      -9999      -9999      2.828233   -9999      -9999      3.494      -9999      -9999      2.881      1.325      1.436      0.787      8.3633     0.1722273  0.1722273  0.33715    4.337356   1.892008   3.197      0.4002421  0.5965532  56         0.4997658  0.5000775  0.4994542 
883.6      0.238      0.216      -9999      -9999      2.635452   -9999      -9999      3.5342     -9999      -9999      3.206      0.685      1.065      0.811      9.0818     0.1754842  0.1754842  0.32395    4.9837     3.691282   3.372      0.424522   0.6003757  56.4       0.4498962  0.3806421  0.5191504 
883.8      0.236      0.196      -9999      -9999      2.404924   -9999      -9999      3.7953     -9999      -9999      3.007      0.862      1.783      0.838      10.1996    0.1665128  0.1665128  0.3091     3.399212   8.208489   3.721      0.4248159  0.6004345  57.7       0.4320826  0.2746566  0.5895085 
884        0.216      0.181      -9999      -9999      2.162472   -9999      -9999      4.1166     -9999      -9999      4.264      5.501      3.961      0.869      11.1577    0.1700954  0.1700954  0.29205    3.960391   19.02407   4.032      0.4562542  0.6060478  56.9       0.3695593  0.1948641  0.5442544 
884.2      0.218      0.164      -9999      -9999      1.93142    -9999      -9999      4.5183     -9999      -9999      4.587      3.347      1.725      0.93       11.6168    0.1603813  0.1603813  0.2585     2.617028   42.38171   4.437      0.4528173  0.5863098  55.1       0.2973295  0.1405021  0.4541568 
884.4      0.223      0.14       -9999      -9999      1.730144   -9999      -9999      5.2012     -9999      -9999      4.324      8.334      6.445      1.007      11.7964    0.116795   0.116795   0.21615    0.407835   85.15766   5.222      0.3318268  0.5182443  56         0.3010759  0.105667   0.4964847 
884.6      0.21       0.126      6          6          1.568636   -9999      -9999      6.0343     -9999      -9999      6.903      9.416      6.107      1.096      10.8184    0.07628158 0.07628158 0.1672     0.07245662 149.0705   5.767      0.07575357 0.367612   55.4       0.2755104  0.08407092 0.46695   
884.8      0.213      0.12       6          6          1.439154   -9999      -9999      6.5764     -9999      -9999      5.765      7.467      5.702      1.158      9.1816     0.05474074 0.05474074 0.1331     0.02891275 233.5294   6.095      0          0.1969401  54         0.2374523  0.06999085 0.4049138 
885        0.209      0.109      6          6          1.320351   -9999      -9999      6.988201   -9999      -9999      6.228      3.203      5.158      1.209      7.984      0.03375688 0.03375688 0.10505    0.01181456 352.5446   6.67       0          0          53.2       0.2160398  0.0591564  0.3729231 
885.2      0.207      0.104      6          6          1.20649    -9999      -9999      7.671      -9999      -9999      7.703      4.556      5.496      1.245      6.5469     0.02465983 0.02465983 0.08525    0.008015266 523.1724   6.989      0          0          51.6       0.1836066  0.05035016 0.316863  
885.4      0.207      0.109      6          6          1.120875   -9999      -9999      8.3939     -9999      -9999      7.764      3.844      4.952      1.23       5.3493     0.0489602  0.0489602  0.09349999 0.02259539 703.9598   6.67       0          0.002434608 48.1       0.1349691  0.04460314 0.225335  
885.6      0.207      0.121      6          6          1.088656   -9999      -9999      8.8655     -9999      -9999      6.37       3.49       3.796      1.164      4.1517     0.09024644 0.09024644 0.1298     0.1314441  787.1501   6.035      0.2184767  0.3255551  46.6       0.1198592  0.04261449 0.1971039 
885.8      0.207      0.132      6          6          1.104536   -9999      -9999      8.9056     -9999      -9999      5.068      2.899      3.681      1.111      3.3333     0.1169333  0.1169333  0.15895    0.4102483  744.9856   5.523      0.3498399  0.437553   47.4       0.1273234  0.04358333 0.2110634 
