~Version
 VERS              .         2.0                           : CWLS LOG ASCII STANDARD - VERSION 2.0
 WRAP              .         NO                            : ONE LINE PER DEPTH STEP
 DLM               .         SPACE                         : DELIMITING CHARACTER(SPACE TAB OR COMMA)
~Well Information
#_______________________________________________________________________________
#
#PARAMETER_NAME    .UNIT     VALUE                         : DESCRIPTION
#_______________________________________________________________________________
STRT               .м        860                           : First reference value
STOP               .м        1150                          : Last reference value
STEP               .м        0.2                           : Step increment
NULL               .         -9999                         : Missing value
COMP               .                                       : Company
WELL               .         8414                          : Well name
FLD                .         Узень                         : Field
LOC                .                                       : Location
CNTY               .                                       : County
STAT               .                                       : State
CTRY               .                                       : Country
SRVC               .                                       : Service Company
DATE               .                                       : Date
UWI                .                                       : Unique Well ID
Block              .         7                             : 
Category           .         Нефтяная                      : 
Condition          .         В простое                     : 
Date               .         14.09.1993                    : 
EREF               .m        83.1                          : 100.8
GRP                .                                       : Group name
Gor                .         14                            : 
Gorizont           .         14                            : 14
ISS                .         БКЗ, магнитная лента          : Well surveys
Interpretator      .         Кайсанов Е.К                  : 
Kupol              .         Основной                      : osnovnoi
Mud                .                                       : 
Mud_density        .                                       : 
Mud_resistivity    .                                       : 
NGDU               .         НГДУ-2                        : 
ORIGINALWELLNAME   .         8414                          : 
Spud_date          .         1993                          : 1961
TIME               .         14_33                         : LOG TIME
Viscosity          .                                       : 
X                  .m        42913.2                       : 46154
Y                  .m        84318.83                      : 85761.93
YEAR               .         2019                          : 
Сдали_за_3_кв_2019 .         3                             : 
~Parameter Information Block
#_______________________________________________________________________________
#
#PARAMETER_NAME    .UNIT     VALUE                         : DESCRIPTION
#_______________________________________________________________________________
SET                .         LQC_KAZNIPI_Petrel            : 
TLFamily_CALI      .         Caliper                       : 
TLFamily_CILD      .         Conductivity                  : 
TLFamily_COLL      .         Net Reservoir Flag            : 
TLFamily_CSAT      .         Fluid Code                    : 
TLFamily_DEPT      .         Measured Depth                : 
TLFamily_GR        .         Russian Gamma Ray             : 
TLFamily_GZ1       .         Gradient 045                  : 
TLFamily_GZ2       .         Gradient 105                  : 
TLFamily_GZ3       .         Gradient 225                  : 
TLFamily_GZ4       .         Gradient 425                  : 
TLFamily_GZ5       .         Gradient 850                  : 
TLFamily_LLS       .         Lateral Log Resistivity       : 
TLFamily_MINV      .         Micro Gradient Resistivity    : 
TLFamily_MNOR      .         Micro Resistivity             : 
TLFamily_NGLD      .         Neutron Far                   : 
TLFamily_OGZ3      .         Gradient Inverted 225         : 
TLFamily_PHIE      .         Effective Porosity            : 
TLFamily_PHIEN     .         Effective Porosity            : 
TLFamily_PHIT      .         Porosity                      : 
TLFamily_PRMB      .         Permeability                  : 
TLFamily_PRMB_DGR  .         Permeability                  : 
TLFamily_RT        .         Formation Resistivity         : 
TLFamily_SOIL_ARCHIE .         Oil Saturation                : 
TLFamily_SOIL_DW   .         Oil Saturation                : 
TLFamily_SP        .         Spontaneous Potential         : 
TLFamily_VSH_FIN   .         Shale Volume                  : 
TLFamily_VSH_GR    .         Shale Volume                  : 
TLFamily_VSH_SP    .         Shale Volume                  : 
~Curve Information
#_______________________________________________________________________________
#
#LOGNAME           .UNIT     LOG_ID                        : DESCRIPTION
#_______________________________________________________________________________
DEPT               .м                                      : Колонка глубины 
CALI               .м                                      : Каверномер 
CILD               .мСм/м                                  : Индукционный каротаж 
COLL               .unitless                               :  
CSAT               .unitless                               :  
GR                 .uR/h                                   : Гамма каротаж 
GZ1                .Ohmm                                   : А0.4М0.1N 
GZ2                .Ohmm                                   : A1.0M0.1N 
GZ3                .Ohmm                                   : 146.20 - 1382.60- 195.20 - 1152.80 
GZ4                .Ohmm                                   : A4M0.5N 
GZ5                .Ohmm                                   : A8M1N 
LLS                .Ohmm                                   : Боковой каротаж 
MINV               .Ohmm                                   : Микро-градиент зонд 
MNOR               .Ohmm                                   : Микро-потенциал зонд 
NGLD               .у.е.                                   : Показания зонда НГК-60 аппаратуры ДРСТ-3-90 
OGZ3               .Ohmm                                   : 141.70 - 1378.10- 190.70 - 1148.30 
PHIE               .v/v                                    : Описание 
PHIEN              .v/v                                    :  
PHIT               .v/v                                    : Описание 
PRMB               .mD                                     :  
PRMB_DGR           .mD                                     :  
RT                 .ohmm                                   : УЭС пласта 
SOIL_ARCHIE        .v/v                                    :  
SOIL_DW            .v/v                                    :  
SP                 .мВ                                     : Потенциал самополяризации 
VSH_FIN            .v/v                                    : Описание 
VSH_GR             .v/v                                    : Shale volume 
VSH_SP             .v/v                                    : Shale Volume 
~Ascii
# ...
953.6      0.259      0.831      -9999      -9999      2.106338   2.057      3.213      2.8814     2.585      2.268      2.057      0.884      1.23       0.801      2.3952     0.1686378  0.1686378  0.32945    3.721681   4.048625   0.877      0          0.2123216  57.5       0.4873097  0.3665475  0.6080719 
953.8      0.239      0.832      -9999      -9999      2.226048   2.07       2.972      2.6706     2.445      2.229      1.331      0.9        0.99       0.762      2.3553     0.1874244  0.1874244  0.3509     8.293027   2.59128    0.876      0          0.2721726  56.5       0.4953805  0.4398074  0.5509537 
954        0.248      0.812      -9999      -9999      2.334548   1.88       2.578      2.4598     2.255      2.179      1.125      0.823      0.776      0.73       2.475      0.1855744  0.1855744  0.3685     7.663835   1.729299   0.897      0          0.2992918  57.2       0.55432    0.5187807  0.5898592 
954.2      0.26       0.791      -9999      -9999      2.375061   1.702      2.337      2.4197     2.242      2.166      1.288      0.707      0.792      0.738      2.7745     0.1689271  0.1689271  0.3641     3.767884   1.486914   0.922      0          0.2782945  57.9       0.5914331  0.5517776  0.6310886 
954.4      0.248      0.784      -9999      -9999      2.347413   1.638      2.273      2.5704     2.306      2.217      2.195      0.712      1.056      0.774      3.1737     0.1588368  0.1588368  0.3443     2.450201   1.648329   0.93       0          0.2384516  57.3       0.5620096  0.5290392  0.5949799 
954.6      0.247      0.785      -9999      -9999      2.299884   1.88       2.515      2.6204     2.433      2.293      2.563      0.911      1.502      0.784      3.2934     0.1613856  0.1613856  0.3388     2.731555   1.967821   0.929      0          0.2350014  57.1       0.5376196  0.4921189  0.5831203 
954.8      0.257      0.781      -9999      -9999      2.280325   2.121      2.642      2.5602     2.534      2.407      2.384      0.933      1.395      0.772      3.2735     0.1665891  0.1665891  0.3454     3.410293   2.116652   0.933      0          0.2547661  57.5       0.5418513  0.4776839  0.6060187 
955        0.26       0.771      -9999      -9999      2.29436    2.235      2.591      2.4598     2.471      2.509      2.39       0.884      1.197      0.758      3.2934     0.1745749  0.1745749  0.3531     4.794124   2.008759   0.946      0          0.2828671  57.3       0.540985   0.4879986  0.5939716 
955.2      0.263      0.759      -9999      -9999      2.310091   2.248      2.578      2.3192     2.395      2.445      2.205      1.193      1.32       0.78       3.2535     0.1615325  0.1615325  0.341      2.748729   1.894362   0.961      0          0.2511185  57.2       0.5438409  0.4998236  0.5878583 
955.4      0.252      0.754      -9999      -9999      2.301977   2.197      2.654      2.3294     2.369      2.369      2.344      0.933      1.32       0.802      3.3533     0.142652   0.142652   0.3289     1.228622   1.952528   0.966      0          0.1995191  58         0.564388   0.4936892  0.635087  
955.6      0.235      0.761      -9999      -9999      2.27815    2.299      2.997      2.3896     2.369      2.268      2.661      1.049      1.32       0.823      3.4531     0.1370641  0.1370641  0.31735    0.9680932  2.133883   0.958      0          0.1656261  57.7       0.546321   0.476105   0.6165369 
955.8      0.231      0.763      -9999      -9999      2.260384   2.388      3.251      2.3293     2.293      2.268      2.299      1.734      1.675      0.798      3.3932     0.1539511  0.1539511  0.3311     1.989327   2.279981   0.955      0          0.2208369  57.6       0.5368149  0.4634031  0.6102266 
956        0.243      0.751      -9999      -9999      2.250835   2.184      3.061      2.1284     2.191      2.28       1.728      0.69       0.891      0.77       3.3333     0.1724539  0.1724539  0.3465     4.379472   2.362595   0.971      0          0.2805129  57.4       0.5274126  0.4567167  0.5981085 
956.2      0.257      0.733      -9999      -9999      2.227595   1.968      2.934      2.0683     2.141      2.28       2.055      0.641      0.9        0.746      3.5729     0.1824058  0.1824058  0.3597     6.695084   2.57638    0.994      0.01294588 0.3198971  58         0.5372552  0.4408441  0.6336663 
956.4      0.243      0.723      -9999      -9999      2.168704   2.07       3.099      2.229      2.128      2.28       2.162      1.121      1.32       0.771      3.7725     0.1729121  0.1729121  0.34595    4.465908   3.208825   1.008      0          0.2938701  58.2       0.5243572  0.4030475  0.645667  
956.6      0.229      0.724      -9999      -9999      2.074351   2.045      3.111      2.3494     2.166      2.28       2.721      0.712      1.395      0.802      3.992      0.1668558  0.1668558  0.3289     3.449303   4.561298   1.007      0          0.2611427  58         0.4910432  0.3491293  0.632957  
956.8      0.231      0.721      -9999      -9999      1.969148   2.337      3.302      2.48       2.229      2.28       2.655      1.027      1.981      0.798      3.8523     0.1825867  0.1825867  0.3311     6.746942   6.751422   1.011      0.02161458 0.2909117  57.5       0.4500403  0.2974708  0.6026097 
957        0.234      0.712      -9999      -9999      1.885234   2.324      3.162      2.5602     2.229      2.28       2.167      0.79       1.155      0.816      3.6327     0.1716458  0.1716458  0.3212     4.231107   9.230797   1.024      0          0.264717   58.2       0.4531947  0.2618031  0.6445863 
957.2      0.226      0.708      -9999      -9999      1.834143   2.349      2.959      2.5603     2.141      2.293      2.493      0.641      0.99       0.834      3.992      0.172016   0.172016   0.3113     4.29845    11.16728   1.03       0          0.2533936  57.5       0.4220727  0.2422157  0.6019297 
957.4      0.215      0.699      -9999      -9999      1.79733    2.515      3.289      2.6808     2.141      2.306      3.106      1.878      3.136      0.889      4.1317     0.1420474  0.1420474  0.28105    1.197348   12.80977   1.043      0          0.1491738  57.7       0.42122    0.2290172  0.6134229 
957.6      0.222      0.683      -9999      -9999      1.749557   2.54       3.556      2.8213     2.217      2.356      2.805      2.237      2.682      0.92       4.0918     0.129656   0.129656   0.264      0.7058322  15.30659   1.068      0          0.09497099 57.5       0.407103   0.2129554  0.6012506 
957.8      0.214      0.669      -9999      -9999      1.688122   2.591      3.594      2.8815     2.255      2.42       2.865      1.348      2.055      0.964      4.0719     0.1047153  0.1047153  0.2398     0.2436353  19.24568   1.089      0          0          57.9       0.4093475  0.1939448  0.6247502 
958        0.207      0.662      -9999      -9999      1.632168   2.743      3.708      2.9619     2.331      2.496      3.391      3.894      3.375      1.014      4.0918     0.08381724 0.08381724 0.2123     0.099921   23.70899   1.102      0          0          57.5       0.3893416  0.1781112  0.6005719 
958.2      0.209      0.662      -9999      -9999      1.601731   2.908      3.899      3.1125     2.407      2.56       3.946      5.02       3.796      1.054      4.0319     0.06700506 0.06700506 0.1903     0.04878141 26.55745   1.102      0          0          57.1       0.373621   0.1700479  0.577194  
958.4      0.209      0.665      -9999      -9999      1.606572   3.365      4.343      3.243      2.496      2.585      3.668      5.832      4.044      1.052      3.8523     0.06415203 0.06415203 0.1914     0.0431926  26.08255   1.096      0          0          57.5       0.3855998  0.1713055  0.5998942 
958.6      0.209      0.667      -9999      -9999      1.646428   3.607      4.686      3.3133     2.56       2.585      3.237      4.446      2.971      1.024      3.5729     0.07190246 0.07190246 0.2068     0.06011268 22.48169   1.093      0          0          58.1       0.4087803  0.1820193  0.6355414 
