~Version
 VERS              .         2.0                           : CWLS LOG ASCII STANDARD - VERSION 2.0
 WRAP              .         NO                            : ONE LINE PER DEPTH STEP
 DLM               .         SPACE                         : DELIMITING CHARACTER(SPACE TAB OR COMMA)
~Well Information
#_______________________________________________________________________________
#
#PARAMETER_NAME    .UNIT     VALUE                         : DESCRIPTION
#_______________________________________________________________________________
STRT               .м        860                           : First reference value
STOP               .м        1150                          : Last reference value
STEP               .м        0.2                           : Step increment
NULL               .         -9999                         : Missing value
COMP               .                                       : Company
WELL               .         8414                          : Well name
FLD                .         Узень                         : Field
LOC                .                                       : Location
CNTY               .                                       : County
STAT               .                                       : State
CTRY               .                                       : Country
SRVC               .                                       : Service Company
DATE               .                                       : Date
UWI                .                                       : Unique Well ID
Block              .         7                             : 
Category           .         Нефтяная                      : 
Condition          .         В простое                     : 
Date               .         14.09.1993                    : 
EREF               .m        83.1                          : 100.8
GRP                .                                       : Group name
Gor                .         14                            : 
Gorizont           .         14                            : 14
ISS                .         БКЗ, магнитная лента          : Well surveys
Interpretator      .         Кайсанов Е.К                  : 
Kupol              .         Основной                      : osnovnoi
Mud                .                                       : 
Mud_density        .                                       : 
Mud_resistivity    .                                       : 
NGDU               .         НГДУ-2                        : 
ORIGINALWELLNAME   .         8414                          : 
Spud_date          .         1993                          : 1961
TIME               .         14_33                         : LOG TIME
Viscosity          .                                       : 
X                  .m        42913.2                       : 46154
Y                  .m        84318.83                      : 85761.93
YEAR               .         2019                          : 
Сдали_за_3_кв_2019 .         3                             : 
~Parameter Information Block
#_______________________________________________________________________________
#
#PARAMETER_NAME    .UNIT     VALUE                         : DESCRIPTION
#_______________________________________________________________________________
SET                .         LQC_KAZNIPI_Petrel            : 
TLFamily_CALI      .         Caliper                       : 
TLFamily_CILD      .         Conductivity                  : 
TLFamily_COLL      .         Net Reservoir Flag            : 
TLFamily_CSAT      .         Fluid Code                    : 
TLFamily_DEPT      .         Measured Depth                : 
TLFamily_GR        .         Russian Gamma Ray             : 
TLFamily_GZ1       .         Gradient 045                  : 
TLFamily_GZ2       .         Gradient 105                  : 
TLFamily_GZ3       .         Gradient 225                  : 
TLFamily_GZ4       .         Gradient 425                  : 
TLFamily_GZ5       .         Gradient 850                  : 
TLFamily_LLS       .         Lateral Log Resistivity       : 
TLFamily_MINV      .         Micro Gradient Resistivity    : 
TLFamily_MNOR      .         Micro Resistivity             : 
TLFamily_NGLD      .         Neutron Far                   : 
TLFamily_OGZ3      .         Gradient Inverted 225         : 
TLFamily_PHIE      .         Effective Porosity            : 
TLFamily_PHIEN     .         Effective Porosity            : 
TLFamily_PHIT      .         Porosity                      : 
TLFamily_PRMB      .         Permeability                  : 
TLFamily_PRMB_DGR  .         Permeability                  : 
TLFamily_RT        .         Formation Resistivity         : 
TLFamily_SOIL_ARCHIE .         Oil Saturation                : 
TLFamily_SOIL_DW   .         Oil Saturation                : 
TLFamily_SP        .         Spontaneous Potential         : 
TLFamily_VSH_FIN   .         Shale Volume                  : 
TLFamily_VSH_GR    .         Shale Volume                  : 
TLFamily_VSH_SP    .         Shale Volume                  : 
~Curve Information
#_______________________________________________________________________________
#
#LOGNAME           .UNIT     LOG_ID                        : DESCRIPTION
#_______________________________________________________________________________
DEPT               .м                                      : Колонка глубины 
CALI               .м                                      : Каверномер 
CILD               .мСм/м                                  : Индукционный каротаж 
COLL               .unitless                               :  
CSAT               .unitless                               :  
GR                 .uR/h                                   : Гамма каротаж 
GZ1                .Ohmm                                   : А0.4М0.1N 
GZ2                .Ohmm                                   : A1.0M0.1N 
GZ3                .Ohmm                                   : 146.20 - 1382.60- 195.20 - 1152.80 
GZ4                .Ohmm                                   : A4M0.5N 
GZ5                .Ohmm                                   : A8M1N 
LLS                .Ohmm                                   : Боковой каротаж 
MINV               .Ohmm                                   : Микро-градиент зонд 
MNOR               .Ohmm                                   : Микро-потенциал зонд 
NGLD               .у.е.                                   : Показания зонда НГК-60 аппаратуры ДРСТ-3-90 
OGZ3               .Ohmm                                   : 141.70 - 1378.10- 190.70 - 1148.30 
PHIE               .v/v                                    : Описание 
PHIEN              .v/v                                    :  
PHIT               .v/v                                    : Описание 
PRMB               .mD                                     :  
PRMB_DGR           .mD                                     :  
RT                 .ohmm                                   : УЭС пласта 
SOIL_ARCHIE        .v/v                                    :  
SOIL_DW            .v/v                                    :  
SP                 .мВ                                     : Потенциал самополяризации 
VSH_FIN            .v/v                                    : Описание 
VSH_GR             .v/v                                    : Shale volume 
VSH_SP             .v/v                                    : Shale Volume 
~Ascii
# ...
974.4      0.207      0.751      -9999      -9999      1.789055   2.337      2.718      2.2691     2.001      1.785      2.73       4.286      3.152      0.939      3.2735     0.1059991  0.1059991  0.25355    0.257347   13.21108   0.971      0          0          59.9       0.4471238  0.2261506  0.6680971 
974.6      0.207      0.74       -9999      -9999      1.787693   2.489      2.934      2.3193     2.052      1.823      2.355      3.137      2.36       0.96       3.2735     0.09899534 0.09899534 0.242      0.1908938  13.27833   0.985      0          0          59.5       0.4333475  0.2256822  0.6410128 
974.8      0.207      0.732      -9999      -9999      1.817865   2.591      2.959      2.3896     2.102      1.861      3.156      2.452      2.311      0.968      3.3533     0.08143765 0.08143765 0.2376     0.09027781 11.86586   0.996      0          0          60.6       0.4732192  0.2362882  0.7101504 
975        0.207      0.727      -9999      -9999      1.874611   2.832      3.289      2.4096     2.102      1.899      2.943      5.02       3.598      0.993      3.2934     0.06670475 0.06670475 0.22385    0.04816059 9.603636   1.002      0          0          60.4       0.4761978  0.2576042  0.6947914 
975.2      0.207      0.727      -9999      -9999      1.932196   2.934      3.531      2.4498     2.102      1.887      2.907      3.06       2.393      1.017      3.014      0.05940127 0.05940127 0.21065    0.03527066 7.748458   1.002      0          0          59.5       0.4583296  0.2812017  0.6354575 
975.4      0.207      0.73       -9999      -9999      1.963064   3.111      3.937      2.5302     2.064      1.861      2.882      3.695      3.837      0.992      2.8343     0.0481191  0.0481191  0.2244     0.0217992  6.9063     0.999      0          0          61.6       0.5341846  0.2947286  0.7736405 
975.6      0.209      0.728      -9999      -9999      1.964925   2.984      4          2.5703     2.014      1.887      2.444      3.468      2.459      0.947      2.7745     0.08006165 0.08006165 0.24915    0.08513224 6.858541   1.001      0          0          61         0.5123889  0.2955649  0.7292128 
975.8      0.21       0.727      -9999      -9999      1.960891   2.819      3.975      2.6808     2.014      1.912      2.31       2.861      2.311      0.906      2.7745     0.1009669  0.1009669  0.2717     0.2076396  6.96246    1.002      0          0          61.2       0.517373   0.2937555  0.7409904 
976        0.214      0.735      -9999      -9999      1.96945    2.616      3.785      2.8916     2.09       1.887      2.726      2.43       1.898      0.898      3.0938     0.1139837  0.1139837  0.2761     0.3617538  6.743841   0.992      0          0.04172865 60.4       0.4912615  0.2976074  0.6849155 
976.2      0.216      0.742      -9999      -9999      1.982757   2.794      4.152999   2.9417     2.217      1.925      2.771      4.468      3.474      0.908      3.1737     0.1011895  0.1011895  0.2706     0.2096204  6.417494   0.983      0          0          61         0.5133651  0.3036966  0.7230336 
976.4      0.227      0.734      -9999      -9999      1.977252   2.692      3.861      2.8413     2.242      2.014      1.991      1.707      1.799      0.899      3.0938     0.1177222  0.1177222  0.27555    0.4242866  6.55053    0.993      0          0.05232942 60         0.478266   0.3011627  0.6553693 
976.6      0.219      0.727      -9999      -9999      1.93912    2.476      3.365      2.8113     2.229      2.09       2.284      0.806      1.155      0.895      3.2735     0.1122354  0.1122354  0.27775    0.335761   7.551042   1.003      0          0.04521699 61         0.5015594  0.2841808  0.7189379 
976.8      0.21       0.728      -9999      -9999      1.88007    2.489      3.48       2.9518     2.242      2.242      3.012      1.646      2.608      0.882      3.5729     0.1192022  0.1192022  0.2849     0.4519309  9.410218   1.002      0          0.0805046  61.4       0.5021145  0.2597532  0.7444758 
977        0.217      0.73       -9999      -9999      1.828573   2.553      3.708      3.1326     2.356      2.28       2.782      1.303      1.518      0.88       3.7325     0.1316883  0.1316883  0.286      0.7697403  11.40159   0.999      0          0.1148003  60.6       0.4676113  0.2401707  0.695052  
977.2      0.217      0.733      -9999      -9999      1.806014   2.807      3.899      3.243      2.458      2.331      2.905      4.197      1.362      0.863      3.7725     0.1371004  0.1371004  0.29535    0.9695956  12.40177   0.994      0          0.1432942  61         0.4795442  0.2320643  0.7270241 
977.4      0.225      0.739      -9999      -9999      1.809092   3.048      4.013      3.253      2.445      2.306      2.515      4.043      2.096      0.847      3.5928     0.144878   0.144878   0.30415    1.350982   12.26031   0.987      0          0.1732617  61         0.4826425  0.2331539  0.7321312 
977.6      0.232      0.746      -9999      -9999      1.813286   2.896      3.746      3.0923     2.356      2.191      2.805      1.276      2.022      0.828      3.3333     0.1609541  0.1609541  0.3146     2.681746   12.07015   0.977      0          0.2183396  60.4       0.4655938  0.2346469  0.6965406 
977.8      0.248      0.745      -9999      -9999      1.795876   2.769      3.67       2.8815     2.242      2.09       2.109      2.259      1.485      0.824      3.0938     0.1611347  0.1611347  0.3168     2.702486   12.87943   0.979      0          0.2228084  60.6       0.471713   0.2285106  0.7149155 
978        0.257      0.736      -9999      -9999      1.758556   2.464      3.404      2.6706     2.128      1.963      1.955      0.994      1.271      0.816      3.1737     0.163374   0.163374   0.3212     2.973314   14.80167   0.991      0          0.2381125  60.9       0.4782606  0.2158923  0.740629  
978.2      0.231      0.73       -9999      -9999      1.722309   2.286      3.365      2.5301     2.001      1.937      2.281      0.933      1.395      0.823      3.3533     0.1684646  0.1684646  0.31735    3.694294   16.94298   0.999      0          0.2445869  60.2       0.4511678  0.2043038  0.6980318 
978.4      0.233      0.728      -9999      -9999      1.701242   2.235      3.391      2.5402     1.95       1.899      2.612      0.994      1.651      0.873      3.4531     0.1367346  0.1367346  0.28985    0.9545857  18.32709   1.002      0          0.1358186  60.6       0.4639859  0.1978568  0.7301151 
978.6      0.226      0.723      -9999      -9999      1.689911   2.337      3.429      2.5703     2.052      1.887      2.607      0.773      1.23       0.924      3.5729     0.1172682  0.1172682  0.2618     0.4161505  19.11774   1.008      0          0.0272842  59.8       0.437975   0.1944737  0.6814764 
978.8      0.22       0.713      -9999      -9999      1.67714    2.515      3.531      2.6808     2.153      1.95       2.782      1.016      1.651      0.955      3.6926     0.09785786 0.09785786 0.24475    0.1818541  20.04981   1.022      0          0          60         0.4451277  0.1907301  0.6995254 
979        0.22       0.708      -9999      -9999      1.661678   2.527      3.48       2.8313     2.229      2.052      2.606      0.917      1.436      0.949      3.9721     0.1043478  0.1043478  0.24805    0.2398459  21.2394    1.03       0          0          59.7       0.4354612  0.1862935  0.6846289 
979.2      0.209      0.706      -9999      -9999      1.6501     2.654      3.607      2.9217     2.356      2.077      3.481      2.259      1.882      0.951      4.0519     0.1007954  0.1007954  0.24695    0.206126   22.17609   1.033      0          0          59.9       0.4428929  0.1830393  0.7027464 
979.4      0.209      0.708      -9999      -9999      1.651244   3.035      4.013      3.1327     2.458      2.09       3.358      5.528      3.961      0.966      4.0719     0.09603852 0.09603852 0.2387     0.1682769  22.08168   1.03       0          0          59.5       0.4323075  0.1833585  0.6812565 
