~Version
 VERS              .         2.0                           : CWLS LOG ASCII STANDARD - VERSION 2.0
 WRAP              .         NO                            : ONE LINE PER DEPTH STEP
 DLM               .         SPACE                         : DELIMITING CHARACTER(SPACE TAB OR COMMA)
~Well Information
#_______________________________________________________________________________
#
#PARAMETER_NAME    .UNIT     VALUE                         : DESCRIPTION
#_______________________________________________________________________________
STRT               .м        860                           : First reference value
STOP               .м        1150                          : Last reference value
STEP               .м        0.2                           : Step increment
NULL               .         -9999                         : Missing value
COMP               .                                       : Company
WELL               .         8414                          : Well name
FLD                .         Узень                         : Field
LOC                .                                       : Location
CNTY               .                                       : County
STAT               .                                       : State
CTRY               .                                       : Country
SRVC               .                                       : Service Company
DATE               .                                       : Date
UWI                .                                       : Unique Well ID
Block              .         7                             : 
Category           .         Нефтяная                      : 
Condition          .         В простое                     : 
Date               .         14.09.1993                    : 
EREF               .m        83.1                          : 100.8
GRP                .                                       : Group name
Gor                .         14                            : 
Gorizont           .         14                            : 14
ISS                .         БКЗ, магнитная лента          : Well surveys
Interpretator      .         Кайсанов Е.К                  : 
Kupol              .         Основной                      : osnovnoi
Mud                .                                       : 
Mud_density        .                                       : 
Mud_resistivity    .                                       : 
NGDU               .         НГДУ-2                        : 
ORIGINALWELLNAME   .         8414                          : 
Spud_date          .         1993                          : 1961
TIME               .         14_33                         : LOG TIME
Viscosity          .                                       : 
X                  .m        42913.2                       : 46154
Y                  .m        84318.83                      : 85761.93
YEAR               .         2019                          : 
Сдали_за_3_кв_2019 .         3                             : 
~Parameter Information Block
#_______________________________________________________________________________
#
#PARAMETER_NAME    .UNIT     VALUE                         : DESCRIPTION
#_______________________________________________________________________________
SET                .         LQC_KAZNIPI_Petrel            : 
TLFamily_CALI      .         Caliper                       : 
TLFamily_CILD      .         Conductivity                  : 
TLFamily_COLL      .         Net Reservoir Flag            : 
TLFamily_CSAT      .         Fluid Code                    : 
TLFamily_DEPT      .         Measured Depth                : 
TLFamily_GR        .         Russian Gamma Ray             : 
TLFamily_GZ1       .         Gradient 045                  : 
TLFamily_GZ2       .         Gradient 105                  : 
TLFamily_GZ3       .         Gradient 225                  : 
TLFamily_GZ4       .         Gradient 425                  : 
TLFamily_GZ5       .         Gradient 850                  : 
TLFamily_LLS       .         Lateral Log Resistivity       : 
TLFamily_MINV      .         Micro Gradient Resistivity    : 
TLFamily_MNOR      .         Micro Resistivity             : 
TLFamily_NGLD      .         Neutron Far                   : 
TLFamily_OGZ3      .         Gradient Inverted 225         : 
TLFamily_PHIE      .         Effective Porosity            : 
TLFamily_PHIEN     .         Effective Porosity            : 
TLFamily_PHIT      .         Porosity                      : 
TLFamily_PRMB      .         Permeability                  : 
TLFamily_PRMB_DGR  .         Permeability                  : 
TLFamily_RT        .         Formation Resistivity         : 
TLFamily_SOIL_ARCHIE .         Oil Saturation                : 
TLFamily_SOIL_DW   .         Oil Saturation                : 
TLFamily_SP        .         Spontaneous Potential         : 
TLFamily_VSH_FIN   .         Shale Volume                  : 
TLFamily_VSH_GR    .         Shale Volume                  : 
TLFamily_VSH_SP    .         Shale Volume                  : 
~Curve Information
#_______________________________________________________________________________
#
#LOGNAME           .UNIT     LOG_ID                        : DESCRIPTION
#_______________________________________________________________________________
DEPT               .м                                      : Колонка глубины 
CALI               .м                                      : Каверномер 
CILD               .мСм/м                                  : Индукционный каротаж 
COLL               .unitless                               :  
CSAT               .unitless                               :  
GR                 .uR/h                                   : Гамма каротаж 
GZ1                .Ohmm                                   : А0.4М0.1N 
GZ2                .Ohmm                                   : A1.0M0.1N 
GZ3                .Ohmm                                   : 146.20 - 1382.60- 195.20 - 1152.80 
GZ4                .Ohmm                                   : A4M0.5N 
GZ5                .Ohmm                                   : A8M1N 
LLS                .Ohmm                                   : Боковой каротаж 
MINV               .Ohmm                                   : Микро-градиент зонд 
MNOR               .Ohmm                                   : Микро-потенциал зонд 
NGLD               .у.е.                                   : Показания зонда НГК-60 аппаратуры ДРСТ-3-90 
OGZ3               .Ohmm                                   : 141.70 - 1378.10- 190.70 - 1148.30 
PHIE               .v/v                                    : Описание 
PHIEN              .v/v                                    :  
PHIT               .v/v                                    : Описание 
PRMB               .mD                                     :  
PRMB_DGR           .mD                                     :  
RT                 .ohmm                                   : УЭС пласта 
SOIL_ARCHIE        .v/v                                    :  
SOIL_DW            .v/v                                    :  
SP                 .мВ                                     : Потенциал самополяризации 
VSH_FIN            .v/v                                    : Описание 
VSH_GR             .v/v                                    : Shale volume 
VSH_SP             .v/v                                    : Shale Volume 
~Ascii
# ...
917.2      0.212      0.194      -9999      -9999      1.841468   -9999      -9999      5.431701   -9999      -9999      3.278      4.313      3.136      0.913      7.6447     0.1174864  0.1174864  0.26785    0.4200413  10.86651   3.767      0.2251508  0.5043228  61.5       0.4556472  0.2449311  0.6663632 
917.4      0.212      0.182      -9999      -9999      1.776986   -9999      -9999      5.2911     -9999      -9999      3.15       3.032      2.492      0.92       8.3633     0.1263172  0.1263172  0.264      0.6121514  13.81898   3.999      0.2926667  0.5276154  60.6       0.4172206  0.2220342  0.6124071 
917.6      0.212      0.171      -9999      -9999      1.734536   -9999      -9999      5.2008     -9999      -9999      3.624      2.347      2.443      0.92       9.560901   0.1387059  0.1387059  0.264      1.038312   16.18812   4.261      0.367148   0.5585423  59.5       0.379679   0.2081416  0.5512164 
917.8      0.212      0.16       -9999      -9999      1.689581   -9999      -9999      5.251      -9999      -9999      3.981      4.799      3.928      0.974      10.479     0.1064457  0.1064457  0.2343     0.2622951  19.14131   4.568      0.2286449  0.4921372  60         0.3874374  0.1943759  0.5804989 
918        0.212      0.145      -9999      -9999      1.629674   -9999      -9999      5.251      -9999      -9999      4.398      4.634      5.727      1.052      10.8583    0.06888388 0.06888388 0.1914     0.05285117 23.93046   5.031      0          0.355127   59.7       0.3712609  0.1774363  0.5650855 
918.2      0.212      0.131      -9999      -9999      1.560476   -9999      -9999      5.321401   -9999      -9999      4.618      2.839      3.639      1.153      11.6766    0.0113249  0.0113249  0.13585    0.004538609 30.97212   5.561      0          0          60.2       0.3773488  0.1596986  0.594999  
918.4      0.212      0.125      -9999      -9999      1.497416   -9999      -9999      5.6629     -9999      -9999      6.518      5.307      5.612      1.245      11.7565    0.01       0          0.08525    0.004289259 39.17927   5.823      0          0          60         0.3650216  0.1450828  0.5849604 
918.6      0.212      0.125      -9999      -9999      1.458434   -9999      -9999      6.2652     -9999      -9999      7.224      12.802     10.596     1.298      10.3593    0.01       0          0.05610001 0.004289259 45.30663   5.837      0          0          59.9       0.3587309  0.1367251  0.5807369 
918.8      0.212      0.125      -9999      -9999      1.460676   -9999      -9999      6.9279     -9999      -9999      5.45       8.947      7.667      1.286      9.161699   0.01       0          0.0627     0.004289259 44.92963   5.837      0          0          59.4       0.3457392  0.1371924  0.5542862 
919        0.212      0.122      -9999      -9999      1.504365   -9999      -9999      7.0983     -9999      -9999      4.787      4.114      4.027      1.212      8.4431     0.01       0          0.1034     0.004289259 38.17739   5.995      0          0          59.2       0.3457347  0.1466256  0.5448437 
919.2      0.212      0.116      -9999      -9999      1.561265   -9999      -9999      6.9578     -9999      -9999      4.394      4.799      4.159      1.123      8.3633     0.03672422 0.03672422 0.15235    0.01340848 30.88127   6.295      0          0.1730695  59.1       0.3503811  0.1598902  0.540872  
919.4      0.212      0.113      -9999      -9999      1.59039    -9999      -9999      6.8272     -9999      -9999      4.424      3.446      3.747      1.07       8.4631     0.06175753 0.06175753 0.1815     0.03899935 27.70416   6.446      0          0.3873108  59.4       0.3628559  0.1671379  0.5585739 
919.6      0.212      0.117      -9999      -9999      1.573554   -9999      -9999      6.9278     -9999      -9999      5.749      2.48       4.135      1.06       8.5429     0.07041498 0.07041498 0.187      0.05641755 29.49856   6.22       0.04358437 0.415839   59.1       0.3532881  0.1629091  0.543667  
919.8      0.212      0.125      -9999      -9999      1.529826   -9999      -9999      7.5906     -9999      -9999      6.602      9.035      8.087      1.093      8.1437     0.05376443 0.05376443 0.16885    0.02773356 34.72076   5.851      0          0.2928114  59.1       0.3487441  0.1524194  0.5450687 
920        0.212      0.126      -9999      -9999      1.489998   -9999      -9999      8.4743     -9999      -9999      4.275      7.124      5.331      1.092      7.3253     0.04818266 0.04818266 0.1694     0.02185837 40.27769   5.795      0          0.264555   59.9       0.3673253  0.143454   0.5911965 
920.2      0.212      0.124      -9999      -9999      1.470748   -9999      -9999      9.096599   -9999      -9999      4.483      3.568      3.07       1.101      6.9461     0.05106293 0.05106293 0.16445    0.02471539 43.274     5.893      0          0.2703023  59.1       0.3435973  0.1393119  0.5478827 
920.4      0.212      0.129      -9999      -9999      1.473926   -9999      -9999      9.5685     -9999      -9999      4.69       3.452      3.664      1.083      7.1657     0.05697539 0.05697539 0.17435    0.03180391 42.76444   5.651      0          0.3092459  59.5       0.3556807  0.1399873  0.5713742 
920.6      0.212      0.14       -9999      -9999      1.493677   -9999      -9999      10.4219    -9999      -9999      6.09       8.063      7.411      1.08       7.0858     0.06042897 0.06042897 0.176      0.03685099 39.72908   5.222      0          0.300206   59.2       0.3502152  0.1442596  0.5561707 
920.8      0.212      0.143      -9999      -9999      1.514023   -9999      -9999      11.004     -9999      -9999      5.245      6.02       4.316      1.05       6.1477     0.07594442 0.07594442 0.1925     0.07142217 36.82749   5.084      0.01564245 0.3827566  59.2       0.3531988  0.1487969  0.5576007 
921        0.213      0.142      -9999      -9999      1.513375   -9999      -9999      10.1699    -9999      -9999      3.74       2.982      2.715      1.034      5.768499   0.08543727 0.08543727 0.2013     0.1070689  36.91656   5.134      0.1156832  0.4281062  59.1       0.3510991  0.1486502  0.5535481 
921.2      0.212      0.146      -9999      -9999      1.485358   -9999      -9999      9.0761     -9999      -9999      4.19       3.651      3.326      1.012      5.4491     0.09558123 0.09558123 0.2134     0.1650267  40.98035   4.99       0.1872286  0.4636437  59.4       0.3570266  0.1424445  0.5716087 
921.4      0.212      0.157      -9999      -9999      1.454403   -9999      -9999      8.8153     -9999      -9999      4.785      4.087      4.11       1.021      5.409201   0.1020607  0.1020607  0.20845    0.2175552  45.99246   4.643      0.2059509  0.4496227  58.2       0.3223918  0.1358888  0.5088948 
921.6      0.212      0.165      -9999      -9999      1.45787    -9999      -9999      8.775101   -9999      -9999      4.457      3.358      2.971      0.999      5.488999   0.108655   0.108655   0.22055    0.2882126  45.40203   4.421      0.2306039  0.4681781  58.8       0.3390756  0.1366076  0.5415436 
921.8      0.212      0.17       -9999      -9999      1.511344   -9999      -9999      8.6043     -9999      -9999      4.03       2.259      2.55       0.994      5.5689     0.1092631  0.1092631  0.2233     0.2957852  37.19709   4.288      0.2232807  0.4652516  58.8       0.3455662  0.1481914  0.542941  
922        0.212      0.179      -9999      -9999      1.594504   -9999      -9999      8.504      -9999      -9999      3.869      4.225      3.375      0.964      5.768499   0.1222327  0.1222327  0.2398     0.5142852  27.28254   4.077      0.2786928  0.497282   58.8       0.3562646  0.1681878  0.5443414 
922.2      0.211      0.181      -9999      -9999      1.66667    -9999      -9999      8.3633     -9999      -9999      4.512      6.108      4.291      0.953      5.5689     0.1221237  0.1221237  0.24585    0.5119009  20.84782   4.019      0.2732624  0.501197   59.1       0.3749281  0.1877144  0.5621417 
