~Version
 VERS              .         2.0                           : CWLS LOG ASCII STANDARD - VERSION 2.0
 WRAP              .         NO                            : ONE LINE PER DEPTH STEP
 DLM               .         SPACE                         : DELIMITING CHARACTER(SPACE TAB OR COMMA)
~Well Information
#_______________________________________________________________________________
#
#PARAMETER_NAME    .UNIT     VALUE                         : DESCRIPTION
#_______________________________________________________________________________
STRT               .м        860                           : First reference value
STOP               .м        1150                          : Last reference value
STEP               .м        0.2                           : Step increment
NULL               .         -9999                         : Missing value
COMP               .                                       : Company
WELL               .         8414                          : Well name
FLD                .         Узень                         : Field
LOC                .                                       : Location
CNTY               .                                       : County
STAT               .                                       : State
CTRY               .                                       : Country
SRVC               .                                       : Service Company
DATE               .                                       : Date
UWI                .                                       : Unique Well ID
Block              .         7                             : 
Category           .         Нефтяная                      : 
Condition          .         В простое                     : 
Date               .         14.09.1993                    : 
EREF               .m        83.1                          : 100.8
GRP                .                                       : Group name
Gor                .         14                            : 
Gorizont           .         14                            : 14
ISS                .         БКЗ, магнитная лента          : Well surveys
Interpretator      .         Кайсанов Е.К                  : 
Kupol              .         Основной                      : osnovnoi
Mud                .                                       : 
Mud_density        .                                       : 
Mud_resistivity    .                                       : 
NGDU               .         НГДУ-2                        : 
ORIGINALWELLNAME   .         8414                          : 
Spud_date          .         1993                          : 1961
TIME               .         14_33                         : LOG TIME
Viscosity          .                                       : 
X                  .m        42913.2                       : 46154
Y                  .m        84318.83                      : 85761.93
YEAR               .         2019                          : 
Сдали_за_3_кв_2019 .         3                             : 
~Parameter Information Block
#_______________________________________________________________________________
#
#PARAMETER_NAME    .UNIT     VALUE                         : DESCRIPTION
#_______________________________________________________________________________
SET                .         LQC_KAZNIPI_Petrel            : 
TLFamily_CALI      .         Caliper                       : 
TLFamily_CILD      .         Conductivity                  : 
TLFamily_COLL      .         Net Reservoir Flag            : 
TLFamily_CSAT      .         Fluid Code                    : 
TLFamily_DEPT      .         Measured Depth                : 
TLFamily_GR        .         Russian Gamma Ray             : 
TLFamily_GZ1       .         Gradient 045                  : 
TLFamily_GZ2       .         Gradient 105                  : 
TLFamily_GZ3       .         Gradient 225                  : 
TLFamily_GZ4       .         Gradient 425                  : 
TLFamily_GZ5       .         Gradient 850                  : 
TLFamily_LLS       .         Lateral Log Resistivity       : 
TLFamily_MINV      .         Micro Gradient Resistivity    : 
TLFamily_MNOR      .         Micro Resistivity             : 
TLFamily_NGLD      .         Neutron Far                   : 
TLFamily_OGZ3      .         Gradient Inverted 225         : 
TLFamily_PHIE      .         Effective Porosity            : 
TLFamily_PHIEN     .         Effective Porosity            : 
TLFamily_PHIT      .         Porosity                      : 
TLFamily_PRMB      .         Permeability                  : 
TLFamily_PRMB_DGR  .         Permeability                  : 
TLFamily_RT        .         Formation Resistivity         : 
TLFamily_SOIL_ARCHIE .         Oil Saturation                : 
TLFamily_SOIL_DW   .         Oil Saturation                : 
TLFamily_SP        .         Spontaneous Potential         : 
TLFamily_VSH_FIN   .         Shale Volume                  : 
TLFamily_VSH_GR    .         Shale Volume                  : 
TLFamily_VSH_SP    .         Shale Volume                  : 
~Curve Information
#_______________________________________________________________________________
#
#LOGNAME           .UNIT     LOG_ID                        : DESCRIPTION
#_______________________________________________________________________________
DEPT               .м                                      : Колонка глубины 
CALI               .м                                      : Каверномер 
CILD               .мСм/м                                  : Индукционный каротаж 
COLL               .unitless                               :  
CSAT               .unitless                               :  
GR                 .uR/h                                   : Гамма каротаж 
GZ1                .Ohmm                                   : А0.4М0.1N 
GZ2                .Ohmm                                   : A1.0M0.1N 
GZ3                .Ohmm                                   : 146.20 - 1382.60- 195.20 - 1152.80 
GZ4                .Ohmm                                   : A4M0.5N 
GZ5                .Ohmm                                   : A8M1N 
LLS                .Ohmm                                   : Боковой каротаж 
MINV               .Ohmm                                   : Микро-градиент зонд 
MNOR               .Ohmm                                   : Микро-потенциал зонд 
NGLD               .у.е.                                   : Показания зонда НГК-60 аппаратуры ДРСТ-3-90 
OGZ3               .Ohmm                                   : 141.70 - 1378.10- 190.70 - 1148.30 
PHIE               .v/v                                    : Описание 
PHIEN              .v/v                                    :  
PHIT               .v/v                                    : Описание 
PRMB               .mD                                     :  
PRMB_DGR           .mD                                     :  
RT                 .ohmm                                   : УЭС пласта 
SOIL_ARCHIE        .v/v                                    :  
SOIL_DW            .v/v                                    :  
SP                 .мВ                                     : Потенциал самополяризации 
VSH_FIN            .v/v                                    : Описание 
VSH_GR             .v/v                                    : Shale volume 
VSH_SP             .v/v                                    : Shale Volume 
~Ascii
# ...
1031.6     0.258      0.366      -9999      -9999      3.1382     1.854      2.54       2.219      1.823      1.594      1.927      1.723      1.651      0.737      2.7545     0.1757738  0.1757738  0.36465    5.045638   0.9820245  1.993      0.2645122  0.5169193  49.5       0.572352   0.6536283  0.4910756 
1031.8     0.246      0.366      -9999      -9999      3.14719    1.956      2.54       2.2691     1.823      1.594      1.952      1.988      1.436      0.755      2.6547     0.1678472  0.1678472  0.35475    3.598289   0.955536   1.993      0.2343515  0.4999101  49.1       0.566372   0.6609673  0.4717768 
1032       0.235      0.364      -9999      -9999      3.168976   2.007      2.54       2.2087     1.823      1.556      2.04       2.546      1.395      0.769      2.5549     0.1563711  0.1563711  0.34705    2.205619   0.8942764  2.006      0.1881181  0.4809947  49.2       0.5778148  0.6790939  0.4765357 
1032.2     0.226      0.355      -9999      -9999      3.191069   2.032      2.527      2.1486     1.785      1.607      1.862      2.286      1.527      0.778      2.495      0.1459052  0.1459052  0.3421     1.411484   0.8361625  2.054      0.1471413  0.4689286  49.5       0.5945297  0.6979839  0.4910756 
1032.4     0.226      0.341      -9999      -9999      3.187929   2.057      2.489      2.1486     1.747      1.62       1.771      0.978      1.708      0.776      2.5349     0.1544567  0.1544567  0.3432     2.032685   0.8441852  2.137      0.2033639  0.4912914  48.6       0.5719495  0.6952677  0.4486313 
1032.6     0.236      0.332      -9999      -9999      3.141006   1.968      2.489      2.2291     1.721      1.62       2.065      1.707      1.807      0.78       2.5549     0.1549317  0.1549317  0.341      2.074289   0.9736797  2.198      0.2159161  0.4969603  49.1       0.5638434  0.65591    0.4717768 
1032.8     0.216      0.333      -9999      -9999      3.063901   2.057      2.603      2.3998     1.861      1.671      2.505      2.436      1.906      0.8        2.6547     0.1538141  0.1538141  0.33       1.977737   1.231003   2.187      0.2090966  0.4838797  49.1       0.5338966  0.5960165  0.4717768 
1033       0.223      0.343      -9999      -9999      2.998123   2.197      2.946      2.4598     2.014      1.721      2.953      3.767      3.557      0.82       2.5948     0.149743   0.149743   0.319      1.662497   1.50363    2.127      0.1797635  0.4600519  49.2       0.5129001  0.5492645  0.4765357 
1033.2     0.239      0.345      -9999      -9999      2.977104   2.515      3.175      2.3895     2.077      1.785      2.156      2.772      2.393      0.8        2.4351     0.1565336  0.1565336  0.33       2.220952   1.602888   2.115      0.2087446  0.4786409  50         0.5256559  0.5351128  0.5161989 
1033.4     0.259      0.338      -9999      -9999      2.994294   2.464      3.111      2.3494     2.001      1.772      1.777      1.414      1.485      0.771      2.3752     0.1705784  0.1705784  0.34595    4.042824   1.521243   2.16       0.2730158  0.5150998  50         0.5314289  0.5466589  0.5161989 
1033.6     0.251      0.336      -9999      -9999      3.009063   2.299      2.997      2.3695     1.975      1.709      2.081      2.209      1.32       0.754      2.3952     0.1855885  0.1855885  0.3553     7.668448   1.454425   2.171      0.3261093  0.5394164  49.1       0.5142772  0.5567777  0.4717768 
1033.8     0.248      0.338      -9999      -9999      2.99019    2.134      3.023      2.3896     1.988      1.696      2.215      1.662      1.816      0.776      2.3353     0.1724323  0.1724323  0.3432     4.375455   1.540349   2.158      0.2795148  0.5145032  49.5       0.5174778  0.5438799  0.4910756 
1034       0.268      0.34       -9999      -9999      2.947971   2.222      3.124      2.4198     2.039      1.696      1.96       1.823      1.651      0.792      2.2954     0.1682163  0.1682163  0.3344     3.655372   1.751391   2.147      0.262045   0.5006869  49.5       0.5035871  0.5160986  0.4910756 
1034.2     0.241      0.346      -9999      -9999      2.919294   2.121      3.073      2.4699     2.077      1.696      2.217      1.773      1.287      0.799      2.3353     0.1673456  0.1673456  0.33055    3.522121   1.911001   2.106      0.2519644  0.4912319  49.5       0.4945588  0.4980419  0.4910756 
1034.4     0.242      0.352      -9999      -9999      2.934581   2.197      3.137      2.5302     2.077      1.696      2.334      1.778      1.766      0.794      2.3752     0.1693275  0.1693275  0.3333     3.832789   1.824187   2.073      0.2540882  0.4921131  49.4       0.4968862  0.5075874  0.486185  
1034.6     0.255      0.358      -9999      -9999      3.001872   2.235      3.111      2.5401     2.077      1.721      2.213      2.43       1.23       0.8        2.2954     0.1546195  0.1546195  0.33       2.046853   1.486583   2.039      0.1863673  0.4665315  49.9       0.531456   0.5518277  0.5110843 
1034.8     0.253      0.376      -9999      -9999      3.107291   2.337      3.175      2.5402     2.052      1.671      2.322      1.132      1.485      0.773      2.2555     0.1632194  0.1632194  0.34485    2.953777   1.078816   1.94       0.2054928  0.4786418  49.1       0.5503957  0.6290145  0.4717768 
1035       0.274      0.397      -9999      -9999      3.225768   2.464      3.226      2.53       1.95       1.62       1.927      1.265      1.386      0.741      2.1357     0.1611839  0.1611839  0.36245    2.708165   0.7524177  1.837      0.1759327  0.4781372  49.5       0.6098973  0.7287189  0.4910756 
1035.2     0.298      0.405      -9999      -9999      3.331246   2.184      2.997      2.3793     1.848      1.556      1.308      0.884      0.9        0.708      1.976      0.1782196  0.1782196  0.3806     5.600372   0.5459325  1.801      0.2379327  0.5077276  48.1       0.613274   0.8        0.4265481 
1035.4     0.312      0.402      -9999      -9999      3.404023   1.841      2.578      2.249      1.76       1.493      1.023      0.994      0.743      0.722      1.9361     0.1683541  0.1683541  0.3729     3.676924   0.4375344  1.813      0.2016744  0.4922931  48.4       0.619836   0.8        0.4396721 
1035.6     0.294      0.403      -9999      -9999      3.438022   1.702      2.4        2.1987     1.709      1.506      1.345      0.619      0.743      0.745      2.0758     0.1504068  0.1504068  0.36025    1.710241   0.3945531  1.808      0.1181771  0.4582313  49.1       0.6358884  0.8        0.4717768 
1035.8     0.286      0.409      -9999      -9999      3.447977   1.676      2.54       2.1888     1.696      1.531      1.567      0.79       0.974      0.754      2.1357     0.1454568  0.1454568  0.3553     1.38475    0.3827866  1.785      0.08662624 0.4431632  49.1       0.6358884  0.8        0.4717768 
1036       0.266      0.412      -9999      -9999      3.459234   1.6        2.502      2.2189     1.823      1.544      1.571      2.121      1.452      0.769      2.2555     0.1395195  0.1395195  0.34705    1.074974   0.3699032  1.77       0.04910656 0.4237067  48.8       0.6288803  0.8        0.4577605 
1036.2     0.273      0.412      -9999      -9999      3.480228   1.702      2.4        2.249      1.874      1.594      1.651      1.745      1.659      0.753      2.2954     0.1420082  0.1420082  0.35585    1.19535    0.347022   1.769      0.06338879 0.4362933  49.6       0.6480053  0.8        0.4960106 
1036.4     0.277      0.409      -9999      -9999      3.495452   1.74       2.273      2.2892     1.899      1.594      1.558      0.961      1.32       0.753      2.3553     0.1403576  0.1403576  0.35585    1.114091   0.3313213  1.781      0.05679952 0.4358093  49.8       0.6530074  0.8        0.5060148 
1036.6     0.28       0.404      -9999      -9999      3.488883   1.778      2.248      2.3092     1.899      1.594      1.626      1.602      1.155      0.732      2.3553     0.1510711  0.1510711  0.3674     1.759386   0.3380068  1.805      0.1208702  0.4653517  49.9       0.6555422  0.8        0.5110843 
