~Version
 VERS              .         2.0                           : CWLS LOG ASCII STANDARD - VERSION 2.0
 WRAP              .         NO                            : ONE LINE PER DEPTH STEP
 DLM               .         SPACE                         : DELIMITING CHARACTER(SPACE TAB OR COMMA)
~Well Information
#_______________________________________________________________________________
#
#PARAMETER_NAME    .UNIT     VALUE                         : DESCRIPTION
#_______________________________________________________________________________
STRT               .м        860                           : First reference value
STOP               .м        1150                          : Last reference value
STEP               .м        0.2                           : Step increment
NULL               .         -9999                         : Missing value
COMP               .                                       : Company
WELL               .         8414                          : Well name
FLD                .         Узень                         : Field
LOC                .                                       : Location
CNTY               .                                       : County
STAT               .                                       : State
CTRY               .                                       : Country
SRVC               .                                       : Service Company
DATE               .                                       : Date
UWI                .                                       : Unique Well ID
Block              .         7                             : 
Category           .         Нефтяная                      : 
Condition          .         В простое                     : 
Date               .         14.09.1993                    : 
EREF               .m        83.1                          : 100.8
GRP                .                                       : Group name
Gor                .         14                            : 
Gorizont           .         14                            : 14
ISS                .         БКЗ, магнитная лента          : Well surveys
Interpretator      .         Кайсанов Е.К                  : 
Kupol              .         Основной                      : osnovnoi
Mud                .                                       : 
Mud_density        .                                       : 
Mud_resistivity    .                                       : 
NGDU               .         НГДУ-2                        : 
ORIGINALWELLNAME   .         8414                          : 
Spud_date          .         1993                          : 1961
TIME               .         14_33                         : LOG TIME
Viscosity          .                                       : 
X                  .m        42913.2                       : 46154
Y                  .m        84318.83                      : 85761.93
YEAR               .         2019                          : 
Сдали_за_3_кв_2019 .         3                             : 
~Parameter Information Block
#_______________________________________________________________________________
#
#PARAMETER_NAME    .UNIT     VALUE                         : DESCRIPTION
#_______________________________________________________________________________
SET                .         LQC_KAZNIPI_Petrel            : 
TLFamily_CALI      .         Caliper                       : 
TLFamily_CILD      .         Conductivity                  : 
TLFamily_COLL      .         Net Reservoir Flag            : 
TLFamily_CSAT      .         Fluid Code                    : 
TLFamily_DEPT      .         Measured Depth                : 
TLFamily_GR        .         Russian Gamma Ray             : 
TLFamily_GZ1       .         Gradient 045                  : 
TLFamily_GZ2       .         Gradient 105                  : 
TLFamily_GZ3       .         Gradient 225                  : 
TLFamily_GZ4       .         Gradient 425                  : 
TLFamily_GZ5       .         Gradient 850                  : 
TLFamily_LLS       .         Lateral Log Resistivity       : 
TLFamily_MINV      .         Micro Gradient Resistivity    : 
TLFamily_MNOR      .         Micro Resistivity             : 
TLFamily_NGLD      .         Neutron Far                   : 
TLFamily_OGZ3      .         Gradient Inverted 225         : 
TLFamily_PHIE      .         Effective Porosity            : 
TLFamily_PHIEN     .         Effective Porosity            : 
TLFamily_PHIT      .         Porosity                      : 
TLFamily_PRMB      .         Permeability                  : 
TLFamily_PRMB_DGR  .         Permeability                  : 
TLFamily_RT        .         Formation Resistivity         : 
TLFamily_SOIL_ARCHIE .         Oil Saturation                : 
TLFamily_SOIL_DW   .         Oil Saturation                : 
TLFamily_SP        .         Spontaneous Potential         : 
TLFamily_VSH_FIN   .         Shale Volume                  : 
TLFamily_VSH_GR    .         Shale Volume                  : 
TLFamily_VSH_SP    .         Shale Volume                  : 
~Curve Information
#_______________________________________________________________________________
#
#LOGNAME           .UNIT     LOG_ID                        : DESCRIPTION
#_______________________________________________________________________________
DEPT               .м                                      : Колонка глубины 
CALI               .м                                      : Каверномер 
CILD               .мСм/м                                  : Индукционный каротаж 
COLL               .unitless                               :  
CSAT               .unitless                               :  
GR                 .uR/h                                   : Гамма каротаж 
GZ1                .Ohmm                                   : А0.4М0.1N 
GZ2                .Ohmm                                   : A1.0M0.1N 
GZ3                .Ohmm                                   : 146.20 - 1382.60- 195.20 - 1152.80 
GZ4                .Ohmm                                   : A4M0.5N 
GZ5                .Ohmm                                   : A8M1N 
LLS                .Ohmm                                   : Боковой каротаж 
MINV               .Ohmm                                   : Микро-градиент зонд 
MNOR               .Ohmm                                   : Микро-потенциал зонд 
NGLD               .у.е.                                   : Показания зонда НГК-60 аппаратуры ДРСТ-3-90 
OGZ3               .Ohmm                                   : 141.70 - 1378.10- 190.70 - 1148.30 
PHIE               .v/v                                    : Описание 
PHIEN              .v/v                                    :  
PHIT               .v/v                                    : Описание 
PRMB               .mD                                     :  
PRMB_DGR           .mD                                     :  
RT                 .ohmm                                   : УЭС пласта 
SOIL_ARCHIE        .v/v                                    :  
SOIL_DW            .v/v                                    :  
SP                 .мВ                                     : Потенциал самополяризации 
VSH_FIN            .v/v                                    : Описание 
VSH_GR             .v/v                                    : Shale volume 
VSH_SP             .v/v                                    : Shale Volume 
~Ascii
# ...
995.2      0.21       0.641      -9999      -9999      1.329921   3.543      4.623      2.8917     1.975      1.429      4.3        -9999      4.39       1.243      4.5509     0.01673313 0.01673313 0.08634999 0.005716052 73.14821   1.137      0          0          46         0.2109602  0.112434   0.3094863 
995.4      0.212      0.629      -9999      -9999      1.310916   3.848      4.712      3.0221     1.975      1.429      3.416      -9999      3.342      1.211      4.6507     0.03146674 0.03146674 0.10395    0.01071516 78.51821   1.158      0          0          46.6       0.2196463  0.1092281  0.3300644 
995.6      0.211      0.619      -9999      -9999      1.277045   3.581      4.559      3.2231     2.001      1.518      3.586      -9999      3.375      1.184      4.8503     0.05462258 0.05462258 0.1188     0.0287674  89.08463   1.178      0          0          45.1       0.194477   0.1037396  0.2852144 
995.8      0.209      0.614      -9999      -9999      1.224451   3.48       5.131      3.695      2.102      1.607      4.269      -9999      4.621      1.179      4.870299   0.06857748 0.06857748 0.12155    0.05216501 108.3785   1.187      0          0          42.6       0.1605228  0.09575889 0.2252867 
996        0.21       0.612      -9999      -9999      1.187183   3.518      5.778      4.2471     2.166      1.683      4.521      -9999      5.356      1.216      4.3713     0.04896127 0.04896127 0.1012     0.02259641 124.53     1.192      0          0          42.6       0.1582993  0.09047819 0.2261203 
996.2      0.209      0.614      -9999      -9999      1.192786   3.835      6.915      4.729199   2.598      1.874      4.487      -9999      4.192      1.256      4.1517     0.02138836 0.02138836 0.07919998 0.006971438 121.9563   1.188      0          0          44         0.1751867  0.09125306 0.2591203 
996.4      0.21       0.62       -9999      -9999      1.240261   4.547      7.683      5.2312     2.953      2.014      5.075      -9999      9.589      1.287      3.9721     0.01       0          0.06215003 0.004289259 102.1763   1.176      0          0          46.4       0.2140905  0.09809109 0.33009   
996.6      0.212      0.626      -9999      -9999      1.31781    4.674      7.874      5.4819     3.258      2.09       3.752      -9999      4.077      1.229      3.4531     0.01346073 0.01346073 0.09405001 0.004971454 76.52618   1.164      0          0          47.7       0.2442099  0.1103803  0.3780396 
996.8      0.212      0.643      -9999      -9999      1.422315   4.483      7.556      5.4819     3.36       2.102      4.071      -9999      3.351      1.142      3.1936     0.05727793 0.05727793 0.1419     0.03221693 51.83609   1.133      0          0          47.8       0.2564306  0.1294114  0.3834498 
997        0.214      0.674      -9999      -9999      1.557315   4.623      7.81       5.8034     3.334      2.026      4.193      -9999      4.687      1.015      3.1737     0.1206977  0.1206977  0.21175    0.4816959  31.33921   1.082      0          0          48         0.275916   0.1589321  0.3928999 
997.2      0.223      0.689      -9999      -9999      1.71576    4.204      7.042      5.8631     3.182      1.95       2.841      -9999      4.456      0.956      2.7745     0.1335372  0.1335372  0.2442     0.832897   17.36169   1.058      0          0.05706785 49.7       0.3353418  0.2022774  0.4684062 
997.4      0.252      0.669      -9999      -9999      1.86664    2.692      5.448      5.0596     2.864      2.014      1.553      -9999      0.66       0.891      2.495      0.157988   0.157988   0.27995    2.363079   9.893265   1.089      0          0.1992638  50         0.369582   0.2544976  0.4846663 
997.6      0.257      0.648      -9999      -9999      1.964062   2.108      4.318      4.3371     2.737      2.141      1.942      -9999      0.627      0.884      2.8942     0.1463938  0.1463938  0.2838     1.441205   6.880633   1.126      0          0.1954316  51         0.4163825  0.295177   0.5375881 
997.8      0.212      0.665      -9999      -9999      1.987538   2.438      5.016      4.7594     2.814      2.28       4.016      0.246      2.03       0.92       3.9721     0.1435051  0.1435051  0.264      1.274152   6.304136   1.097      0          0.1414257  48.6       0.3651359  0.3059147  0.4243572 
998        0.212      0.71       -9999      -9999      1.972774   3.162      6.058      6.0446     4.338      2.395      5.825      -9999      7.105      0.962      4.391201   0.1176019  0.1176019  0.2409     0.4221147  6.660784   1.027      0          0          49.1       0.3736306  0.2991171  0.4481441 
998.2      0.226      0.743      -9999      -9999      1.99367    3.658      6.147      6.556      4.642      2.458      3.295      -9999      3.086      0.927      3.5729     0.1414106  0.1414106  0.26015    1.165269   6.16168    0.981      0          0.07864112 48.2       0.3598163  0.3087832  0.4108493 
998.4      0.252      0.751      -9999      -9999      2.096681   3.086      5.321      5.641699   3.893      2.331      1.811      -9999      0.792      0.815      2.9541     0.1805593  0.1805593  0.32175    6.188052   4.197011   0.971      0          0.2605322  50         0.4278507  0.3611993  0.494502  
998.6      0.277      0.753      -9999      -9999      2.250263   2.642      3.835      4.5277     3.245      2.077      1.693      -9999      0.85       0.733      2.8343     0.2120594  0.2120594  0.36685    23.71441   2.367632   0.969      0.1238963  0.3583362  49.7       0.4690625  0.4563196  0.4818055 
998.8      0.287      0.762      -9999      -9999      2.371192   2.311      3.746      3.9758     2.903      1.848      1.707      -9999      0.842      0.733      3.1737     0.1981077  0.1981077  0.36685    13.07958   1.508514   0.956      0.06448634 0.3364354  49.5       0.5113403  0.5485377  0.4741428 
999        0.272      0.762      -9999      -9999      2.402103   2.057      4.089      3.5842     2.712      1.709      1.689      -9999      0.974      0.765      3.2136     0.1789269  0.1789269  0.34925    5.77189    1.344343   0.956      0          0.2885762  49.1       0.5161307  0.5749621  0.4572993 
999.2      0.271      0.741      -9999      -9999      2.35231    1.74       3.505      3.1724     2.623      1.785      1.274      -9999      0.875      0.802      3.5729     0.158043   0.158043   0.3289     2.368633   1.618515   0.984      0          0.236852   50         0.5177485  0.5329971  0.5024999 
999.4      0.232      0.721      -9999      -9999      2.268706   1.626      2.87       2.9216     2.56       1.874      2.326      -9999      0.9        0.833      3.992      0.1536268  0.1536268  0.31185    1.961999   2.210335   1.011      0          0.2134606  49.7       0.4794643  0.4693106  0.4896179 
999.6      0.217      0.717      -9999      -9999      2.191941   1.892      2.972      2.9217     2.636      1.975      3.356      -9999      3.309      0.892      4.4711     0.1277533  0.1277533  0.2794     0.6508178  2.942584   1.017      0          0.09957799 49.9       0.4595354  0.4175577  0.501513  
999.8      0.218      0.723      -9999      -9999      2.148582   2.388      3.34       3.0824     2.852      2.052      4.043      -9999      3.185      0.935      4.5509     0.1098145  0.1098145  0.25575    0.302823   3.458757   1.009      0          0          49.7       0.4422288  0.3908905  0.493567  
1000       0.218      0.729      -9999      -9999      2.1567     3.035      3.835      3.253      2.991      2.052      3.973      -9999      2.393      0.973      4.3513     0.07652665 0.07652665 0.23485    0.0732179  3.355665   1          0          0          51         0.4797677  0.3957502  0.5637853 
1000.2     0.227      0.719      -9999      -9999      2.209959   3.023      3.848      3.3032     2.852      2.064      3.083      -9999      2.393      0.957      3.8523     0.09074252 0.09074252 0.24365    0.1342548  2.751448   1.013      0          0          49.7       0.463356   0.4291673  0.4975446 
