~Version
 VERS              .         2.0                           : CWLS LOG ASCII STANDARD - VERSION 2.0
 WRAP              .         NO                            : ONE LINE PER DEPTH STEP
 DLM               .         SPACE                         : DELIMITING CHARACTER(SPACE TAB OR COMMA)
~Well Information
#_______________________________________________________________________________
#
#PARAMETER_NAME    .UNIT     VALUE                         : DESCRIPTION
#_______________________________________________________________________________
STRT               .M        850                           : First reference value
STOP               .M        1170                          : Last reference value
STEP               .M        0.2                           : Step increment
NULL               .         -9999                         : Missing value
COMP               .                                       : Company
WELL               .         8416                          : Well name
FLD                .         УЗЕНЬ                         : Field
LOC                .                                       : Location
CNTY               .                                       : County
STAT               .                                       : State
CTRY               .                                       : Country
SRVC               .                                       : Service Company
DATE               .                                       : Date
UWI                .                                       : Unique Well ID
4_кв_для_Заказчика .         1                             : 
Block              .         7                             : 
Category           .         Нефтяная                      : 
Condition          .         В работе                      : 
Date               .         28.05.1993                    : 
EREF               .m        82.3                          : 100.8
GRP                .                                       : Group name
Gor                .         15                            : 
Gorizont           .         15                            : 14
ISS                .         БКЗ, магнитная лента          : Well surveys
Interpretator      .         Кайсанов Е.К                  : 
Kupol              .         Основной                      : osnovnoi
METD               .         БКЗ                           : Method
Mud                .                                       : 
Mud_density        .                                       : 
Mud_resistivity    .                                       : 
NGDU               .         НГДУ-2                        : 
ORIGINALWELLNAME   .         8416                          : 
Otmetka            .                                       : 
Spud_date          .         1993                          : 1961
TIME               .         14_34                         : LOG TIME
Viscosity          .                                       : 
X                  .m        42949.6                       : 46154
Y                  .m        83762.13                      : 85761.93
YEAR               .         2018                          : 
~Parameter Information Block
#_______________________________________________________________________________
#
#PARAMETER_NAME    .UNIT     VALUE                         : DESCRIPTION
#_______________________________________________________________________________
SET                .         LQC_KAZNIPI_Petrel            : 
TLFamily_CALI      .         Caliper                       : 
TLFamily_CILD      .         Conductivity                  : 
TLFamily_DEPT      .         Measured Depth                : 
TLFamily_GR        .         Russian Gamma Ray             : 
TLFamily_GZ1       .         Gradient 045                  : 
TLFamily_GZ2       .         Gradient 105                  : 
TLFamily_GZ3       .         Gradient 225                  : 
TLFamily_GZ4       .         Gradient 425                  : 
TLFamily_GZ5       .         Gradient 850                  : 
TLFamily_LLS       .         Lateral Log Resistivity       : 
TLFamily_MINV      .         Micro Gradient Resistivity    : 
TLFamily_MNOR      .         Micro Resistivity             : 
TLFamily_NGLD      .         Neutron Far                   : 
TLFamily_OGZ3      .         Gradient Inverted 225         : 
TLFamily_PHIE      .         Effective Porosity            : 
TLFamily_PHIEN     .         Effective Porosity            : 
TLFamily_PHIT      .         Porosity                      : 
TLFamily_PRMB      .         Permeability                  : 
TLFamily_PRMB_DGR  .         Permeability                  : 
TLFamily_RT        .         Formation Resistivity         : 
TLFamily_SOIL_ARCHIE .         Oil Saturation                : 
TLFamily_SOIL_DW   .         Oil Saturation                : 
TLFamily_SP        .         Spontaneous Potential         : 
TLFamily_VSH_FIN   .         Shale Volume                  : 
TLFamily_VSH_GR    .         Shale Volume                  : 
TLFamily_VSH_SP    .         Shale Volume                  : 
~Curve Information
#_______________________________________________________________________________
#
#LOGNAME           .UNIT     LOG_ID                        : DESCRIPTION
#_______________________________________________________________________________
DEPT               .M                                      : Колонка глубины 
CALI               .м                                      : Каверномер 
CILD               .мСм/м                                  : Индукционный каротаж 
GR                 .uR/h                                   : Гамма каротаж 
GZ1                .Ohmm                                   : А0.4М0.1N 
GZ2                .Ohmm                                   : A1.0M0.1N 
GZ3                .Ohmm                                   : 216.20 - 1352.60- 285.20 - 1164.30 
GZ4                .Ohmm                                   : A4M0.5N 
GZ5                .Ohmm                                   : A8M1N 
LLS                .Ohmm                                   : Боковой каротаж 
MINV               .Ohmm                                   : Микро-градиент зонд 
MNOR               .Ohmm                                   : Микро-потенциал зонд 
NGLD               .у.е.                                   : Показания зонда НГК-60 аппаратуры ДРСТ-3-90 
OGZ3               .Ohmm                                   : 211.70 - 1348.10- 280.70 - 1159.80 
PHIE               .v/v                                    : Описание 
PHIEN              .v/v                                    :  
PHIT               .v/v                                    : Описание 
PRMB               .mD                                     :  
PRMB_DGR           .mD                                     :  
RT                 .ohmm                                   : УЭС пласта 
SOIL_ARCHIE        .v/v                                    :  
SOIL_DW            .v/v                                    :  
SP                 .мВ                                     : Потенциал самополяризации 
VSH_FIN            .v/v                                    : Описание 
VSH_GR             .v/v                                    : Shale volume 
VSH_SP             .v/v                                    : Shale Volume 
~Ascii
# ...
1158       0.214      170.5      -9999      4.369      9.842      5.737401   4.084001   2.864      4.63       2.264      2.666      -9999      1.7747     -9999      -9999      -9999      -9999      -9999      4.63       -9999      -9999      1285.871   0.1160895  -9999      0.1160895 
1158.2     0.214      188.4      -9999      3.912      8.509      5.4747     4.046      2.483      4.148      1.115      1.763      -9999      1.7149     -9999      -9999      -9999      -9999      -9999      4.148      -9999      -9999      1294.624   0.1209412  -9999      0.1209412 
1158.4     0.213      211        -9999      3.581      7.556      5.535399   4.033      2.039      3.808      1.006      1.756      -9999      1.8345     -9999      -9999      -9999      -9999      -9999      3.808      -9999      -9999      1308.917   0.123252   -9999      0.123252  
1158.6     0.215      237.4      -9999      3.454      6.731      5.535399   4.02       1.709      3.505      1.316      1.713      -9999      1.675      -9999      -9999      -9999      -9999      -9999      3.505      -9999      -9999      1329.964   0.1304213  -9999      0.1304213 
1158.8     0.215      270.1      -9999      3.302      6.172      5.4343     4.033      1.493      2.958      1.652      1.67       -9999      1.8345     -9999      -9999      -9999      -9999      -9999      2.958      -9999      -9999      1358.037   0.1547569  -9999      0.1547569 
1159       0.216      311.7      -9999      2.654      5.931      5.6566     4.058      1.404      2.549      1.09       1.677      -9999      1.675      -9999      -9999      -9999      -9999      -9999      2.549      -9999      -9999      1389.29    0.3068031  -9999      0.3068031 
1159.2     0.223      356.2      -9999      1.981      4.102      5.3737     4.058      1.798      1.667      0.813      1.62       -9999      1.7747     -9999      -9999      -9999      -9999      -9999      1.667      -9999      -9999      1415.732   0.5110325  -9999      0.5110325 
1159.4     0.224      385.6      -9999      1.702      3.086      4.7273     4.046      2.242      1.237      1.216      1.498      -9999      -9999      -9999      -9999      -9999      -9999      -9999      1.237      -9999      -9999      1429.877   0.7676241  -9999      0.7676241 
1159.6     0.221      390.7      -9999      1.867      3.937      4.4242     4.007      2.458      1.534      1.128      1.813      -9999      -9999      -9999      -9999      -9999      -9999      -9999      1.534      -9999      -9999      1430.209   0.5274776  -9999      0.5274776 
1159.8     0.218      391.15     -9999      2.273      4.14       5.2929     3.995      2.471      2.457      1.87       2.05       -9999      -9999      -9999      -9999      -9999      -9999      -9999      2.457      -9999      -9999      1422.059   0.3840028  -9999      0.3840028 
1160       0.214      404.1      -9999      2.299      3.264      7.252501   3.995      2.331      1.838      1.844      2.279      -9999      -9999      -9999      -9999      -9999      -9999      -9999      1.838      -9999      -9999      1412.986   0.3104853  -9999      0.3104853 
1160.2     0.216      408.8      -9999      1.778      2.591      7.596      4.033      1.912      1.999      1.911      2.752      -9999      -9999      -9999      -9999      -9999      -9999      -9999      1.999      -9999      -9999      1407.485   0.3104853  -9999      0.3104853 
1160.4     0.216      407.6      -9999      1.867      1.93       4.040401   4.071      1.493      1.905      1.652      2.451      -9999      -9999      -9999      -9999      -9999      -9999      -9999      1.905      -9999      -9999      1405.703   0.3451922  -9999      0.3451922 
1160.6     0.217      399.3      -9999      1.74       1.6        2.8283     4.071      1.213      2.552      1.798      2.824      -9999      -9999      -9999      -9999      -9999      -9999      -9999      2.552      -9999      -9999      1405.706   0.3361402  -9999      0.3361402 
1160.8     0.219      390.4      -9999      1.765      2.299      2.0404     4.071      1.137      3.052      1.928      2.903      -9999      -9999      -9999      -9999      -9999      -9999      -9999      3.052      -9999      -9999      1402.258   0.3361402  -9999      0.3361402 
1161       0.224      389.2      -9999      1.765      2.603      1.9192     -9999      1.112      2.912      1.819      2.903      -9999      -9999      -9999      -9999      -9999      -9999      -9999      2.912      -9999      -9999      -9999      0.3361402  -9999      0.3361402 
1161.2     0.221      392.8      -9999      1.676      2.743      1.8182     -9999      1.112      2.811      1.702      2.781      -9999      -9999      -9999      -9999      -9999      -9999      -9999      2.811      -9999      -9999      -9999      0.3451922  -9999      0.3451922 
1161.4     0.219      395.7      -9999      1.727      2.781      1.7172     -9999      1.099      2.206      1.928      2.852      -9999      -9999      -9999      -9999      -9999      -9999      -9999      2.206      -9999      -9999      -9999      0.3317091  -9999      0.3317091 
1161.6     0.222      394.8      -9999      1.74       2.756      1.5354     -9999      1.086      2.075      2.121      2.379      -9999      -9999      -9999      -9999      -9999      -9999      -9999      2.075      -9999      -9999      -9999      0.3104853  -9999      0.3104853 
1161.8     0.225      394        -9999      1.803      2.807      1.3939     -9999      1.036      2.076      1.966      2.15       -9999      -9999      -9999      -9999      -9999      -9999      -9999      2.076      -9999      -9999      -9999      -9999      -9999      -9999     
1162       0.22       396.6      -9999      1.778      2.781      1.7778     -9999      1.01       2.149      1.87       1.914      -9999      -9999      -9999      -9999      -9999      -9999      -9999      2.074      -9999      -9999      -9999      -9999      -9999      -9999     
1162.2     0.217      400.5      -9999      1.803      2.807      2.3434     -9999      1.023      1.926      2.414      2.093      -9999      -9999      -9999      -9999      -9999      -9999      -9999      2.054      -9999      -9999      -9999      -9999      -9999      -9999     
1162.4     0.214      405.8      -9999      1.791      2.781      2.5253     -9999      1.074      1.791      1.836      2.193      -9999      -9999      -9999      -9999      -9999      -9999      -9999      2.027      -9999      -9999      -9999      -9999      -9999      -9999     
1162.6     0.214      411.8      -9999      1.753      2.819      2.5859     -9999      1.074      1.859      3.236      3.197      -9999      -9999      -9999      -9999      -9999      -9999      -9999      1.998      -9999      -9999      -9999      -9999      -9999      -9999     
1162.8     0.214      417.1      -9999      1.765      2.794      2.4444     -9999      1.061      1.72       2.134      1.892      -9999      -9999      -9999      -9999      -9999      -9999      -9999      1.972      -9999      -9999      -9999      -9999      -9999      -9999     
1163       0.214      419.2      -9999      1.841      2.743      2.5859     -9999      1.086      1.649      1.857      2.021      -9999      -9999      -9999      -9999      -9999      -9999      -9999      1.963      -9999      -9999      -9999      -9999      -9999      -9999     
1163.2     -9999      413.3      -9999      1.829      2.705      2.5253     -9999      1.099      1.797      2.054      1.949      -9999      -9999      -9999      -9999      -9999      -9999      -9999      1.991      -9999      -9999      -9999      -9999      -9999      -9999     
1163.4     -9999      401.7      -9999      1.803      2.718      2.4242     -9999      1.061      2.2        1.635      3.103      -9999      -9999      -9999      -9999      -9999      -9999      -9999      2.048      -9999      -9999      -9999      -9999      -9999      -9999     
