~Version
 VERS              .         2.0                           : CWLS LOG ASCII STANDARD - VERSION 2.0
 WRAP              .         NO                            : ONE LINE PER DEPTH STEP
 DLM               .         SPACE                         : DELIMITING CHARACTER(SPACE TAB OR COMMA)
~Well Information
#_______________________________________________________________________________
#
#PARAMETER_NAME    .UNIT     VALUE                         : DESCRIPTION
#_______________________________________________________________________________
STRT               .M        850                           : First reference value
STOP               .M        1170                          : Last reference value
STEP               .M        0.2                           : Step increment
NULL               .         -9999                         : Missing value
COMP               .                                       : Company
WELL               .         8416                          : Well name
FLD                .         УЗЕНЬ                         : Field
LOC                .                                       : Location
CNTY               .                                       : County
STAT               .                                       : State
CTRY               .                                       : Country
SRVC               .                                       : Service Company
DATE               .                                       : Date
UWI                .                                       : Unique Well ID
4_кв_для_Заказчика .         1                             : 
Block              .         7                             : 
Category           .         Нефтяная                      : 
Condition          .         В работе                      : 
Date               .         28.05.1993                    : 
EREF               .m        82.3                          : 100.8
GRP                .                                       : Group name
Gor                .         15                            : 
Gorizont           .         15                            : 14
ISS                .         БКЗ, магнитная лента          : Well surveys
Interpretator      .         Кайсанов Е.К                  : 
Kupol              .         Основной                      : osnovnoi
METD               .         БКЗ                           : Method
Mud                .                                       : 
Mud_density        .                                       : 
Mud_resistivity    .                                       : 
NGDU               .         НГДУ-2                        : 
ORIGINALWELLNAME   .         8416                          : 
Otmetka            .                                       : 
Spud_date          .         1993                          : 1961
TIME               .         14_34                         : LOG TIME
Viscosity          .                                       : 
X                  .m        42949.6                       : 46154
Y                  .m        83762.13                      : 85761.93
YEAR               .         2018                          : 
~Parameter Information Block
#_______________________________________________________________________________
#
#PARAMETER_NAME    .UNIT     VALUE                         : DESCRIPTION
#_______________________________________________________________________________
SET                .         LQC_KAZNIPI_Petrel            : 
TLFamily_CALI      .         Caliper                       : 
TLFamily_CILD      .         Conductivity                  : 
TLFamily_DEPT      .         Measured Depth                : 
TLFamily_GR        .         Russian Gamma Ray             : 
TLFamily_GZ1       .         Gradient 045                  : 
TLFamily_GZ2       .         Gradient 105                  : 
TLFamily_GZ3       .         Gradient 225                  : 
TLFamily_GZ4       .         Gradient 425                  : 
TLFamily_GZ5       .         Gradient 850                  : 
TLFamily_LLS       .         Lateral Log Resistivity       : 
TLFamily_MINV      .         Micro Gradient Resistivity    : 
TLFamily_MNOR      .         Micro Resistivity             : 
TLFamily_NGLD      .         Neutron Far                   : 
TLFamily_OGZ3      .         Gradient Inverted 225         : 
TLFamily_PHIE      .         Effective Porosity            : 
TLFamily_PHIEN     .         Effective Porosity            : 
TLFamily_PHIT      .         Porosity                      : 
TLFamily_PRMB      .         Permeability                  : 
TLFamily_PRMB_DGR  .         Permeability                  : 
TLFamily_RT        .         Formation Resistivity         : 
TLFamily_SOIL_ARCHIE .         Oil Saturation                : 
TLFamily_SOIL_DW   .         Oil Saturation                : 
TLFamily_SP        .         Spontaneous Potential         : 
TLFamily_VSH_FIN   .         Shale Volume                  : 
TLFamily_VSH_GR    .         Shale Volume                  : 
TLFamily_VSH_SP    .         Shale Volume                  : 
~Curve Information
#_______________________________________________________________________________
#
#LOGNAME           .UNIT     LOG_ID                        : DESCRIPTION
#_______________________________________________________________________________
DEPT               .M                                      : Колонка глубины 
CALI               .м                                      : Каверномер 
CILD               .мСм/м                                  : Индукционный каротаж 
GR                 .uR/h                                   : Гамма каротаж 
GZ1                .Ohmm                                   : А0.4М0.1N 
GZ2                .Ohmm                                   : A1.0M0.1N 
GZ3                .Ohmm                                   : 216.20 - 1352.60- 285.20 - 1164.30 
GZ4                .Ohmm                                   : A4M0.5N 
GZ5                .Ohmm                                   : A8M1N 
LLS                .Ohmm                                   : Боковой каротаж 
MINV               .Ohmm                                   : Микро-градиент зонд 
MNOR               .Ohmm                                   : Микро-потенциал зонд 
NGLD               .у.е.                                   : Показания зонда НГК-60 аппаратуры ДРСТ-3-90 
OGZ3               .Ohmm                                   : 211.70 - 1348.10- 280.70 - 1159.80 
PHIE               .v/v                                    : Описание 
PHIEN              .v/v                                    :  
PHIT               .v/v                                    : Описание 
PRMB               .mD                                     :  
PRMB_DGR           .mD                                     :  
RT                 .ohmm                                   : УЭС пласта 
SOIL_ARCHIE        .v/v                                    :  
SOIL_DW            .v/v                                    :  
SP                 .мВ                                     : Потенциал самополяризации 
VSH_FIN            .v/v                                    : Описание 
VSH_GR             .v/v                                    : Shale volume 
VSH_SP             .v/v                                    : Shale Volume 
~Ascii
# ...
911.6      0.214      141.4      2.347636   -9999      -9999      2.8687     -9999      -9999      6.263      1.911      3.541      1.303      7.537399   0.07187199 0.07187199 0.10335    0.0600346  725.3531   5.818      0.03057031 0.1373714  1456.393   0.09538797 0.04406121 0.1467147 
911.8      0.217      128.6      2.462437   -9999      -9999      3.4141     -9999      -9999      6.434      2.129      3.526      1.3        8.4945     0.07055258 0.07055258 0.105      0.05674962 601.0817   6.397      0.05769872 0.1787786  1468.354   0.1043862  0.04757546 0.1611969 
912        0.219      117.4      2.494698   -9999      -9999      4.1414     -9999      -9999      4.961      1.735      3.189      1.313      9.5513     0.06009673 0.06009673 0.09785002 0.03633249 570.1616   7.008      0          0.1268422  1483.483   0.1144039  0.04861254 0.1801953 
912.2      0.218      112.3      2.450049   -9999      -9999      4.949501   -9999      -9999      5.296      2.972      5.777      1.315      9.930199   0.05004897 0.05004897 0.09674997 0.02366935 613.395    7.326      0          0.07576498 1501.035   0.1415182  0.04718314 0.2358532 
912.4      0.217      115        2.405296   -9999      -9999      6.222199   -9999      -9999      7.92       3.001      5.82       1.368      9.1326     0.01       0.007331364 0.06759998 0.004289259 660.0194   7.154      0          0          1519.025   0.1826322  0.04579259 0.3194718 
912.6      0.216      125.1      2.459544   -9999      -9999      8.0808     -9999      -9999      8.295      3.043      5.289      1.427      7.996      0.01       0          0.03514998 0.004289259 603.9343   6.576      0          0          1535.154   0.2256083  0.04748357 0.403733  
912.8      0.213      133.4      2.665029   -9999      -9999      9.3737     -9999      -9999      7.317      3.085      4.759      1.441      7.138599   0.01       0          0.02745001 0.004289259 431.4236   6.167      0          0          1548.134   0.2626902  0.05447472 0.4709056 
913        0.211      144.4      3.000035   -9999      -9999      9.899      -9999      -9999      5.668      2.1        3.655      1.377      6.400801   0.01       0          0.06265002 0.004289259 249.3082   5.697      0          0          1558.081   0.2809579  0.068147   0.4937688 
913.2      0.212      161.3      3.389236   -9999      -9999      10.3232    -9999      -9999      6.406      1.87       4.329      1.262      5.663      0.01776494 0.01776494 0.1259     0.005973211 131.8381   5.1        0          0          1565.769   0.327682   0.08839563 0.5669684 
913.4      0.214      178.3      3.744824   -9999      -9999      10.3838    -9999      -9999      4.671      1.828      3.075      1.153      5.2243     0.06809407 0.06809407 0.18585    0.05110053 73.66165   4.614      0          0.3108805  1571.797   0.3568362  0.1121133  0.601559  
913.6      0.214      190.1      4.001614   -9999      -9999      9.899      -9999      -9999      4.222      1.966      2.831      1.084      5.3838     0.09922553 0.09922553 0.2238     0.1927772  48.38163   4.328      0.1589508  0.448755   1576.517   0.3774984  0.1331076  0.6218892 
913.8      0.214      196.1      4.133451   -9999      -9999      8.5051     -9999      -9999      3.527      1.513      2.336      1.046      5.942201   0.1119325  0.1119325  0.2447     0.3314515  38.99002   4.195      0.2315724  0.4938647  1580.211   0.4023257  0.14537    0.6592814 
914        0.214      200.2      4.157233   -9999      -9999      7.3131     -9999      -9999      3.598      1.689      2.673      1.035      6.1216     0.1167725  0.1167725  0.25075    0.4074436  37.50127   4.109      0.2521533  0.5042933  1583.134   0.4059926  0.1476994  0.6642858 
914.2      0.214      206.2      4.13019    -9999      -9999      6.4242     -9999      -9999      3.854      2.238      3.003      1.018      6.341      0.1200437  0.1200437  0.2601     0.4684443  39.1987    3.99       0.2597958  0.5133917  1585.586   0.4244131  0.1450535  0.7037728 
914.4      0.213      208.6      4.117901   -9999      -9999      5.939401   -9999      -9999      3.902      2.087      2.982      1.002      6.66       0.1352809  0.1352809  0.2689     0.897197   39.99521   3.944      0.3293208  0.5418801  1587.845   0.4049065  0.1438669  0.6659462 
914.6      0.212      208.6      4.141413   -9999      -9999      5.899      -9999      -9999      3.878      1.953      2.996      0.985      7.3579     0.1347896  0.1347896  0.27825    0.8785934  38.48512   3.944      0.3271922  0.5508113  1589.837   0.4347286  0.1461458  0.7233114 
914.8      0.212      208        4.160289   -9999      -9999      6.0404     -9999      -9999      4.328      2.163      3.247      0.988      8.2154     0.1227147  0.1227147  0.2766     0.5249673  37.3141    3.955      0.2708395  0.5335361  1591.039   0.4663191  0.1480014  0.7846367 
915        0.212      199.6      4.112562   -9999      -9999      6.0808     -9999      -9999      3.682      1.844      2.723      1.003      9.4516     0.1283509  0.1283509  0.26835    0.6676185  40.34634   4.122      0.3122845  0.5421944  1591.222   0.4242396  0.1433543  0.7051249 
915.2      0.214      189.5      3.965168   -9999      -9999      6.0202     -9999      -9999      4.224      2.163      3.326      1.038      9.5513     0.1122513  0.1122513  0.2491     0.3359878  51.35606   4.341      0.2456808  0.5084804  1590.878   0.4146932  0.129904   0.6994824 
915.4      0.214      179.7      3.734041   -9999      -9999      5.697      -9999      -9999      4.391      1.844      3.326      1.101      10.329     0.07942718 0.07942718 0.21445    0.08285945 74.97338   4.578      0.005606992 0.4027383  1590.492   0.4091602  0.1113082  0.7070122 
915.6      0.214      164.3      3.469018   -9999      -9999      5.6162     -9999      -9999      4.369      2.104      3.118      1.176      10.7278    0.03543164 0.03543164 0.1732     0.01268931 115.6966   5.007      0          0.1435283  1589.955   0.4174799  0.09323769 0.7417221 
915.8      0.212      149.1      3.225991   -9999      -9999      5.4141     -9999      -9999      5.279      1.375      3.383      1.296      10.8076    0.01       0          0.1072     0.004289259 172.2253   5.518      0          0          1588.985   0.3831666  0.07925766 0.6870755 
916        0.212      140.2      3.042861   -9999      -9999      5.4141     -9999      -9999      6.004      2.54       3.906      1.422      10.1097    0.01       0          0.03789997 0.004289259 232.429    5.868      0          0          1587.588   0.373704   0.07012597 0.6772819 
916.2      0.212      139.3      2.933033   -9999      -9999      5.9798     -9999      -9999      7.665      2.373      4.974      1.513      9.1326     0.01       0          0.01       0.004289259 54.70962   5.906      0          0          1585.816   0.4013279  0.1265915  0.6760642 
916.4      0.212      140.5      2.891412   -9999      -9999      6.7273     -9999      -9999      7.399      2.331      4.565      1.509      8.4148     0.01       0          0.01       0.004289259 58.92438   5.856      0          0          1583.471   0.3946067  0.1228128  0.6664006 
916.6      0.212      135.5      2.894203   -9999      -9999      6.848499   -9999      -9999      5.439      2.255      3.576      1.417      8.2951     0.01       0          0.04064997 0.004289259 58.63186   6.072      0          0          1580.441   0.3697364  0.1230626  0.6164103 
916.8      0.212      127.8      2.902365   -9999      -9999      6.9697     -9999      -9999      5.067      2.691      3.999      1.291      8.4148     0.01       0          0.10995    0.004289259 57.78475   6.437      0          0          1577.054   0.3656311  0.1237961  0.6074661 
917        0.214      120.9      2.882548   -9999      -9999      6.5859     -9999      -9999      5.332      2.171      3.713      1.226      8.8933     0.03764728 0.03764728 0.1457     0.01394688 59.86315   6.805      0          0.1861842  1574.027   0.3274326  0.1220227  0.5328425 
