~Version
 VERS              .         2.0                           : CWLS LOG ASCII STANDARD - VERSION 2.0
 WRAP              .         NO                            : ONE LINE PER DEPTH STEP
 DLM               .         SPACE                         : DELIMITING CHARACTER(SPACE TAB OR COMMA)
~Well Information
#_______________________________________________________________________________
#
#PARAMETER_NAME    .UNIT     VALUE                         : DESCRIPTION
#_______________________________________________________________________________
STRT               .M        850                           : First reference value
STOP               .M        1170                          : Last reference value
STEP               .M        0.2                           : Step increment
NULL               .         -9999                         : Missing value
COMP               .                                       : Company
WELL               .         8416                          : Well name
FLD                .         УЗЕНЬ                         : Field
LOC                .                                       : Location
CNTY               .                                       : County
STAT               .                                       : State
CTRY               .                                       : Country
SRVC               .                                       : Service Company
DATE               .                                       : Date
UWI                .                                       : Unique Well ID
4_кв_для_Заказчика .         1                             : 
Block              .         7                             : 
Category           .         Нефтяная                      : 
Condition          .         В работе                      : 
Date               .         28.05.1993                    : 
EREF               .m        82.3                          : 100.8
GRP                .                                       : Group name
Gor                .         15                            : 
Gorizont           .         15                            : 14
ISS                .         БКЗ, магнитная лента          : Well surveys
Interpretator      .         Кайсанов Е.К                  : 
Kupol              .         Основной                      : osnovnoi
METD               .         БКЗ                           : Method
Mud                .                                       : 
Mud_density        .                                       : 
Mud_resistivity    .                                       : 
NGDU               .         НГДУ-2                        : 
ORIGINALWELLNAME   .         8416                          : 
Otmetka            .                                       : 
Spud_date          .         1993                          : 1961
TIME               .         14_34                         : LOG TIME
Viscosity          .                                       : 
X                  .m        42949.6                       : 46154
Y                  .m        83762.13                      : 85761.93
YEAR               .         2018                          : 
~Parameter Information Block
#_______________________________________________________________________________
#
#PARAMETER_NAME    .UNIT     VALUE                         : DESCRIPTION
#_______________________________________________________________________________
SET                .         LQC_KAZNIPI_Petrel            : 
TLFamily_CALI      .         Caliper                       : 
TLFamily_CILD      .         Conductivity                  : 
TLFamily_DEPT      .         Measured Depth                : 
TLFamily_GR        .         Russian Gamma Ray             : 
TLFamily_GZ1       .         Gradient 045                  : 
TLFamily_GZ2       .         Gradient 105                  : 
TLFamily_GZ3       .         Gradient 225                  : 
TLFamily_GZ4       .         Gradient 425                  : 
TLFamily_GZ5       .         Gradient 850                  : 
TLFamily_LLS       .         Lateral Log Resistivity       : 
TLFamily_MINV      .         Micro Gradient Resistivity    : 
TLFamily_MNOR      .         Micro Resistivity             : 
TLFamily_NGLD      .         Neutron Far                   : 
TLFamily_OGZ3      .         Gradient Inverted 225         : 
TLFamily_PHIE      .         Effective Porosity            : 
TLFamily_PHIEN     .         Effective Porosity            : 
TLFamily_PHIT      .         Porosity                      : 
TLFamily_PRMB      .         Permeability                  : 
TLFamily_PRMB_DGR  .         Permeability                  : 
TLFamily_RT        .         Formation Resistivity         : 
TLFamily_SOIL_ARCHIE .         Oil Saturation                : 
TLFamily_SOIL_DW   .         Oil Saturation                : 
TLFamily_SP        .         Spontaneous Potential         : 
TLFamily_VSH_FIN   .         Shale Volume                  : 
TLFamily_VSH_GR    .         Shale Volume                  : 
TLFamily_VSH_SP    .         Shale Volume                  : 
~Curve Information
#_______________________________________________________________________________
#
#LOGNAME           .UNIT     LOG_ID                        : DESCRIPTION
#_______________________________________________________________________________
DEPT               .M                                      : Колонка глубины 
CALI               .м                                      : Каверномер 
CILD               .мСм/м                                  : Индукционный каротаж 
GR                 .uR/h                                   : Гамма каротаж 
GZ1                .Ohmm                                   : А0.4М0.1N 
GZ2                .Ohmm                                   : A1.0M0.1N 
GZ3                .Ohmm                                   : 216.20 - 1352.60- 285.20 - 1164.30 
GZ4                .Ohmm                                   : A4M0.5N 
GZ5                .Ohmm                                   : A8M1N 
LLS                .Ohmm                                   : Боковой каротаж 
MINV               .Ohmm                                   : Микро-градиент зонд 
MNOR               .Ohmm                                   : Микро-потенциал зонд 
NGLD               .у.е.                                   : Показания зонда НГК-60 аппаратуры ДРСТ-3-90 
OGZ3               .Ohmm                                   : 211.70 - 1348.10- 280.70 - 1159.80 
PHIE               .v/v                                    : Описание 
PHIEN              .v/v                                    :  
PHIT               .v/v                                    : Описание 
PRMB               .mD                                     :  
PRMB_DGR           .mD                                     :  
RT                 .ohmm                                   : УЭС пласта 
SOIL_ARCHIE        .v/v                                    :  
SOIL_DW            .v/v                                    :  
SP                 .мВ                                     : Потенциал самополяризации 
VSH_FIN            .v/v                                    : Описание 
VSH_GR             .v/v                                    : Shale volume 
VSH_SP             .v/v                                    : Shale Volume 
~Ascii
850.0      0.217      218.1      -9999      -9999      -9999      5.1717     -9999      -9999      6.459      1.283      3.39       0.928      3.8285     -9999      -9999      -9999      -9999      -9999      3.772      -9999      -9999      -9999      -9999      0.05688725 0.8       
850.2      0.228      221.6      -9999      -9999      -9999      5.7778     -9999      -9999      4.933      0.771      1.527      0.928      3.5494     -9999      -9999      -9999      -9999      -9999      3.713      -9999      -9999      -9999      -9999      0.07537559 0.8       
850.4      0.244      220.5      -9999      -9999      -9999      5.3737     -9999      -9999      3.407      0.587      1.469      0.94       3.7488     -9999      -9999      -9999      -9999      -9999      3.731      -9999      -9999      -9999      -9999      0.06818454 0.8       
850.6      0.247      223.4      -9999      -9999      -9999      4.6263     -9999      -9999      3.478      0.947      2.207      0.958      3.6491     -9999      -9999      -9999      -9999      -9999      3.683      -9999      -9999      -9999      -9999      0.09697802 0.8       
850.8      0.242      226.4      -9999      -9999      -9999      4.3636     -9999      -9999      3.685      0.671      1.706      0.948      3.9482     -9999      -9999      -9999      -9999      -9999      3.634      -9999      -9999      -9999      -9999      0.08091003 0.8       
851        0.242      224.6      6.341748   -9999      -9999      4.6263     -9999      -9999      3.747      1.492      1.914      0.932      3.7488     -9999      -9999      -9999      -9999      -9999      3.663      -9999      -9999      1514.735   -9999      0.0675043  0.8       
851.2      0.253      216        6.321801   -9999      -9999      4.767701   -9999      -9999      3.388      0.717      1.347      0.932      4.5065     -9999      -9999      -9999      -9999      -9999      3.809      -9999      -9999      1514.495   -9999      0.06616411 0.8       
851.4      0.259      204.1      6.326624   -9999      -9999      4.5051     -9999      -9999      3.723      0.553      0.903      0.981      5.6231     0.08010799 0.08010799 0.28045    0.08530067 1.075853   4.031      0          0.4681057  1515.168   0.607097   0.6297212  0.5844728 
851.6      0.264      202        6.338848   -9999      -9999      4.4242     -9999      -9999      3.266      0.52       1.147      1.01       4.8255     0.05951836 0.05951836 0.2645     0.03544724 1.054539   4.073      0          0.3953493  1516.17    0.6211565  0.6348878  0.6074253 
851.8      0.239      215.4      6.344471   -9999      -9999      5.0909     -9999      -9999      4.801      2.217      3.139      1.025      4.0279     0.04696139 0.04696139 0.25625    0.02074898 1.044877   3.819      0          0.3163231  1516.852   0.634208   0.6372785  0.6311374 
852        0.22       223.1      6.339621   -9999      -9999      6.242401   -9999      -9999      4.864      1.216      1.957      1.018      3.2702     0.05634046 0.05634046 0.2601     0.03095423 1.053206   3.688      0          0.3464609  1516.948   0.6174532  0.6352156  0.5996907 
852.2      0.229      218.4      6.318718   -9999      -9999      6.060599   -9999      -9999      3.715      0.578      1.032      1.056      3.3699     0.03689469 0.03689469 0.2392     0.01350633 1.089868   3.767      0          0.2282302  1516.496   0.6130464  0.6264021  0.5996907 
852.4      0.243      220.2      6.280306   -9999      -9999      5.2525     -9999      -9999      2.881      1.966      2.953      1.078      3.5294     0.02354422 0.02354422 0.2271     0.007642829 1.160599   3.736      0          0.1062101  1515.451   0.6168358  0.6105233  0.6231482 
852.6      0.226      232        6.233385   -9999      -9999      5.0909     -9999      -9999      3.992      1.517      2.673      1.064      3.3101     0.04073608 0.04073608 0.2348     0.01591069 1.253257   3.546      0          0.2140853  1513.713   0.5880725  0.5916721  0.5844728 
852.8      0.217      240.9      6.192626   -9999      -9999      5.0707     -9999      -9999      3.853      1.761      2.107      1.011      3.1505     0.07617382 0.07617382 0.26395    0.07212436 1.339727   3.415      0          0.3880645  1511.385   0.5690187  0.5757701  0.5622672 
853        0.219      243        6.17051    -9999      -9999      4.6263     -9999      -9999      3.477      0.859      2.035      0.969      3.1505     0.1030432  0.1030432  0.28705    0.2268652  1.38912    3.386      0.08680191 0.4753921  1508.707   0.5575964  0.5673208  0.5478721 
853.2      0.224      240.9      6.170068   -9999      -9999      4.0606     -9999      -9999      3.273      1.006      1.892      0.936      3.5494     0.1223884  0.1223884  0.3052     0.5177119  1.390125   3.415      0.2170239  0.5277871  1506.037   0.5539746  0.5671534  0.5407957 
853.4      0.226      240.4      6.178674   -9999      -9999      3.8384     -9999      -9999      3.301      0.57       1.276      0.932      4.0279     0.1329198  0.1329198  0.3074     0.8112521  1.370679   3.422      0.2720393  0.5444329  1504.029   0.5287278  0.5704252  0.4870305 
853.6      0.233      243.9      6.166924   -9999      -9999      4.040401   -9999      -9999      3.54       1.4        2.422      0.945      4.1874     0.1306369  0.1306369  0.30025    0.7359865  1.397299   3.373      0.2559531  0.5312904  1503.275   0.5139792  0.5659624  0.4619959 
853.8      0.215      250.5      6.107565   -9999      -9999      4.5253     -9999      -9999      3.694      1.819      2.931      1.003      3.9681     0.08701903 0.08701903 0.26835    0.1145412  1.539888   3.284      0          0.409729   1503.555   0.5494878  0.5439463  0.5550292 
854        0.214      256.1      6.009596   -9999      -9999      4.8485     -9999      -9999      4.067      1.258      2.243      1.029      3.4696     0.08418045 0.08418045 0.25405    0.1014809  1.807752   3.212      0          0.3742034  1504.135   0.5147561  0.5094666  0.5200456 
854.2      0.214      259.7      5.918696   -9999      -9999      4.9697     -9999      -9999      3.358      1.429      2.365      1.033      3.3101     0.09238355 0.09238355 0.25185    0.1439877  2.097792   3.168      0          0.386546   1504.828   0.4832317  0.4794329  0.4870305 
854.4      0.215      265.6      5.874193   -9999      -9999      4.5657     -9999      -9999      3.435      1.475      2.336      1.019      3.0309     0.09582642 0.09582642 0.25955    0.1667615  2.256322   3.098      0          0.3994392  1505.9     0.496132   0.465381   0.526883  
854.6      0.215      270.7      5.880909   -9999      -9999      4.1414     -9999      -9999      3.474      1.111      2.387      1.019      2.991      0.0920177  0.0920177  0.25955    0.1417585  2.231651   3.039      0          0.3848902  1507.244   0.5076736  0.4674749  0.5478721 
854.8      0.216      273.3      5.925682   -9999      -9999      3.7576     -9999      -9999      3.192      1.333      2.279      0.995      3.2502     0.1028745  0.1028745  0.27275    0.2252384  2.073941   3.01       0.03356236 0.4246073  1508.308   0.5147744  0.4816766  0.5478721 
855        0.216      274.5      5.994065   -9999      -9999      3.5152     -9999      -9999      3.014      1.442      2.344      0.971      3.33       0.1123573  0.1123573  0.28595    0.3375103  1.854301   2.997      0.1031826  0.4580102  1508.531   0.5260386  0.5042051  0.5478721 
855.2      0.217      276.6      6.067946   -9999      -9999      3.3535     -9999      -9999      3.273      1.605      1.892      0.939      3.4297     0.1221627  0.1221627  0.30355    0.5127523  1.64307    2.974      0.163192   0.4918965  1507.481   0.5496585  0.5297301  0.5695869 
855.4      0.217      280.2      6.131524   -9999      -9999      3.3131     -9999      -9999      3.09       1.484      2.48       0.925      3.33       0.1308187  0.1308187  0.31125    0.7417146  1.480663   2.936      0.2068555  0.5091327  1505.186   0.5467616  0.5527275  0.5407957 
