~Version
 VERS              .         2.0                           : CWLS LOG ASCII STANDARD - VERSION 2.0
 WRAP              .         NO                            : ONE LINE PER DEPTH STEP
 DLM               .         SPACE                         : DELIMITING CHARACTER(SPACE TAB OR COMMA)
~Well Information
#_______________________________________________________________________________
#
#PARAMETER_NAME    .UNIT     VALUE                         : DESCRIPTION
#_______________________________________________________________________________
STRT               .M        850                           : First reference value
STOP               .M        1170                          : Last reference value
STEP               .M        0.2                           : Step increment
NULL               .         -9999                         : Missing value
COMP               .                                       : Company
WELL               .         8416                          : Well name
FLD                .         УЗЕНЬ                         : Field
LOC                .                                       : Location
CNTY               .                                       : County
STAT               .                                       : State
CTRY               .                                       : Country
SRVC               .                                       : Service Company
DATE               .                                       : Date
UWI                .                                       : Unique Well ID
4_кв_для_Заказчика .         1                             : 
Block              .         7                             : 
Category           .         Нефтяная                      : 
Condition          .         В работе                      : 
Date               .         28.05.1993                    : 
EREF               .m        82.3                          : 100.8
GRP                .                                       : Group name
Gor                .         15                            : 
Gorizont           .         15                            : 14
ISS                .         БКЗ, магнитная лента          : Well surveys
Interpretator      .         Кайсанов Е.К                  : 
Kupol              .         Основной                      : osnovnoi
METD               .         БКЗ                           : Method
Mud                .                                       : 
Mud_density        .                                       : 
Mud_resistivity    .                                       : 
NGDU               .         НГДУ-2                        : 
ORIGINALWELLNAME   .         8416                          : 
Otmetka            .                                       : 
Spud_date          .         1993                          : 1961
TIME               .         14_34                         : LOG TIME
Viscosity          .                                       : 
X                  .m        42949.6                       : 46154
Y                  .m        83762.13                      : 85761.93
YEAR               .         2018                          : 
~Parameter Information Block
#_______________________________________________________________________________
#
#PARAMETER_NAME    .UNIT     VALUE                         : DESCRIPTION
#_______________________________________________________________________________
SET                .         LQC_KAZNIPI_Petrel            : 
TLFamily_CALI      .         Caliper                       : 
TLFamily_CILD      .         Conductivity                  : 
TLFamily_DEPT      .         Measured Depth                : 
TLFamily_GR        .         Russian Gamma Ray             : 
TLFamily_GZ1       .         Gradient 045                  : 
TLFamily_GZ2       .         Gradient 105                  : 
TLFamily_GZ3       .         Gradient 225                  : 
TLFamily_GZ4       .         Gradient 425                  : 
TLFamily_GZ5       .         Gradient 850                  : 
TLFamily_LLS       .         Lateral Log Resistivity       : 
TLFamily_MINV      .         Micro Gradient Resistivity    : 
TLFamily_MNOR      .         Micro Resistivity             : 
TLFamily_NGLD      .         Neutron Far                   : 
TLFamily_OGZ3      .         Gradient Inverted 225         : 
TLFamily_PHIE      .         Effective Porosity            : 
TLFamily_PHIEN     .         Effective Porosity            : 
TLFamily_PHIT      .         Porosity                      : 
TLFamily_PRMB      .         Permeability                  : 
TLFamily_PRMB_DGR  .         Permeability                  : 
TLFamily_RT        .         Formation Resistivity         : 
TLFamily_SOIL_ARCHIE .         Oil Saturation                : 
TLFamily_SOIL_DW   .         Oil Saturation                : 
TLFamily_SP        .         Spontaneous Potential         : 
TLFamily_VSH_FIN   .         Shale Volume                  : 
TLFamily_VSH_GR    .         Shale Volume                  : 
TLFamily_VSH_SP    .         Shale Volume                  : 
~Curve Information
#_______________________________________________________________________________
#
#LOGNAME           .UNIT     LOG_ID                        : DESCRIPTION
#_______________________________________________________________________________
DEPT               .M                                      : Колонка глубины 
CALI               .м                                      : Каверномер 
CILD               .мСм/м                                  : Индукционный каротаж 
GR                 .uR/h                                   : Гамма каротаж 
GZ1                .Ohmm                                   : А0.4М0.1N 
GZ2                .Ohmm                                   : A1.0M0.1N 
GZ3                .Ohmm                                   : 216.20 - 1352.60- 285.20 - 1164.30 
GZ4                .Ohmm                                   : A4M0.5N 
GZ5                .Ohmm                                   : A8M1N 
LLS                .Ohmm                                   : Боковой каротаж 
MINV               .Ohmm                                   : Микро-градиент зонд 
MNOR               .Ohmm                                   : Микро-потенциал зонд 
NGLD               .у.е.                                   : Показания зонда НГК-60 аппаратуры ДРСТ-3-90 
OGZ3               .Ohmm                                   : 211.70 - 1348.10- 280.70 - 1159.80 
PHIE               .v/v                                    : Описание 
PHIEN              .v/v                                    :  
PHIT               .v/v                                    : Описание 
PRMB               .mD                                     :  
PRMB_DGR           .mD                                     :  
RT                 .ohmm                                   : УЭС пласта 
SOIL_ARCHIE        .v/v                                    :  
SOIL_DW            .v/v                                    :  
SP                 .мВ                                     : Потенциал самополяризации 
VSH_FIN            .v/v                                    : Описание 
VSH_GR             .v/v                                    : Shale volume 
VSH_SP             .v/v                                    : Shale Volume 
~Ascii
# ...
1057.2     0.245      307.2      5.798586   2.4        2.959      2.4444     2.052      1.95       1.98       0.746      1.605      0.923      3.6491     0.1671316  0.1671316  0.31235    3.490126   2.551207   2.678      0.3309824  0.5326794  1545.409   0.4400557  0.4426152  0.4374962 
1057.4     0.238      290.6      5.712134   2.095      2.616      2.2626     2.001      2.039      2.185      1.174      1.469      0.945      3.988      0.1538202  0.1538202  0.30025    1.978252   2.893868   2.831      0.2993386  0.5191117  1545.521   0.4437266  0.4204139  0.4670394 
1057.6     0.232      280.8      5.526402   2.007      2.603      2.2424     2.28       2.115      2.738      1.195      2.021      0.988      3.9482     0.1385082  0.1385082  0.2766     1.029596   3.79373    2.93       0.2446219  0.4823571  1545.87    0.4184599  0.3764107  0.4605091 
1057.8     0.219      273.6      5.319207   2.07       3.01       2.5253     2.56       2.268      3.907      1.911      3.268      1.001      3.9482     0.1415878  0.1415878  0.26945    1.174109   5.131474   3.007      0.2679177  0.4851486  1546.744   0.387461   0.3327351  0.4421869 
1058       0.215      268.3      5.156875   2.527      3.454      2.8283     2.674      2.407      3.943      2.134      2.96       0.999      3.7886     0.1417875  0.1417875  0.27055    1.184151   6.50152    3.066      0.2754526  0.4916734  1548.353   0.3901893  0.3020877  0.4782909 
1058.2     0.216      269.2      5.064221   2.819      3.569      3.0101     2.699      2.471      3.997      2.054      2.788      0.993      3.33       0.1478302  0.1478302  0.27385    1.532261   7.441737   3.056      0.3002444  0.50275    1550.628   0.3818781  0.2858778  0.4778785 
1058.4     0.217      273.6      5.035762   3.226      3.797      3.1919     2.661      2.445      4.13       1.878      3.218      0.97       3.1505     0.1559888  0.1559888  0.2865     2.169948   7.756972   3.007      0.3271456  0.5224514  1553.252   0.3954884  0.2810756  0.5099013 
1058.6     0.222      277.2      5.053449   3.327      4.242      3.2323     2.522      2.42       3.688      1.044      1.849      0.962      3.0309     0.1577415  0.1577415  0.2909     2.338374   7.559526   2.968      0.3295673  0.52584    1555.801   0.4035105  0.2840505  0.5229706 
1058.8     0.226      278.1      5.09729    3.162      4.394      3.1515     2.28       2.166      3.063      1.308      1.871      0.94       3.0309     0.1640655  0.1640655  0.303      3.062313   7.091507   2.958      0.3511045  0.5437483  1557.929   0.4210136  0.2915609  0.5504663 
1059       0.233      278.1      5.150154   2.997      4.381      3.0101     2.191      2.115      2.766      0.813      1.763      0.919      3.1904     0.1741547  0.1741547  0.31455    4.708972   6.565538   2.958      0.3839706  0.5643234  1559.572   0.4254402  0.3008814  0.5499989 
1059.2     0.235      281.9      5.19378    2.565      4.178      3.0707     2.306      2.09       2.897      1.123      1.706      0.924      3.2502     0.1701757  0.1701757  0.3118     3.973968   6.160987   2.918      0.3674154  0.5549819  1560.987   0.4291646  0.3087973  0.5495319 
1059.4     0.228      284.3      5.209541   2.54       4.267      3.0101     2.395      2.09       3.069      1.425      1.928      0.965      3.1505     0.1460391  0.1460391  0.28925    1.419572   6.021047   2.894      0.2744664  0.5035006  1562.458   0.4339723  0.311708   0.5562366 
1059.6     0.228      282.2      5.189182   2.565      4.267      2.9899     2.445      2.09       3.047      1.199      1.928      1.014      3.33       0.1136727  0.1136727  0.2623     0.356987   6.202421   2.915      0.1005955  0.422013   1563.877   0.4503856  0.3079534  0.5928179 
1059.8     0.228      282.2      5.141843   2.515      3.962      2.9495     2.445      2.115      2.828      1.182      1.828      1.018      3.1904     0.1129668  0.1129668  0.2601     0.3463996  6.645566   2.915      0.09570257 0.4175988  1564.849   0.4458582  0.2993966  0.5923197 
1060       0.223      283.7      5.093381   2.413      3.721      3.2323     2.445      2.128      3.608      1.442      3.634      0.996      3.2104     0.1252917  0.1252917  0.2722     0.5859556  7.132034   2.9        0.1716867  0.4540432  1565.141   0.4451766  0.2908832  0.5994701 
1060.2     0.229      284.9      5.080489   2.73       3.937      3.2727     2.407      2.153      3.461      0.981      2.136      0.993      3.2502     0.1323535  0.1323535  0.27385    0.791891   7.267343   2.888      0.2087755  0.4661713  1564.879   0.4287774  0.2886595  0.5688954 
1060.4     0.237      289.4      5.130828   2.832      3.95       3.4141     2.369      2.166      3.107      1.484      1.921      0.999      3.1705     0.1239858  0.1239858  0.27055    0.5542111  6.753138   2.843      0.1562699  0.4443149  1564.263   0.444134   0.29744    0.5908281 
1060.6     0.233      294.4      5.240294   2.857      3.924      3.4141     2.356      2.204      3.41       1.09       2.243      1.012      3.1904     0.1160907  0.1160907  0.2634     0.3957669  5.757083   2.795      0.09934036 0.4158764  1563.388   0.4463919  0.3174666  0.5753171 
1060.8     0.242      295.9      5.373764   2.908      4.064      3.4747     2.395      2.217      3.087      1.316      1.863      1.012      3.5095     0.1142605  0.1142605  0.2634     0.3660492  4.739166   2.78       0.08447936 0.4108301  1562.449   0.451938   0.3437182  0.5601578 
1061       0.243      299.2      5.489739   2.756      4          3.4141     2.395      2.191      2.65       0.729      1.663      1.01       3.5892     0.1137508  0.1137508  0.2645     0.3581773  4.002003   2.75       0.07621575 0.4081958  1561.878   0.4568159  0.3682851  0.5453466 
1061.2     0.232      306        5.561274   2.578      3.912      3.3939     2.382      2.191      3.125      1.232      2.136      0.996      3.5892     0.1188838  0.1188838  0.2722     0.4458359  3.605694   2.689      0.1016466  0.4217742  1562.092   0.4645945  0.3843059  0.544883  
1061.4     0.232      311.4      5.587451   2.565      3.962      3.2323     2.344      2.191      3.042      1.295      1.749      0.98       3.2104     0.1232011  0.1232011  0.281      0.53597    3.47069    2.642      0.1218912  0.4357317  1563.157   0.4781786  0.3903411  0.566016  
1061.6     0.232      311.7      5.588218   2.527      3.81       3.1515     2.331      2.179      2.709      0.755      1.577      0.97       3.6092     0.1275369  0.1275369  0.2865     0.6448373  3.466813   2.639      0.1474948  0.4493809  1564.76    0.4817064  0.3905194  0.5728936 
1061.8     0.233      308.4      5.577896   2.464      3.632      3.0707     2.331      2.153      2.534      0.905      1.67       0.952      4.008      0.1329233  0.1329233  0.2964     0.8113707  3.519372   2.668      0.181869   0.4721347  1566.442   0.495384   0.3881273  0.6026407 
1062       0.238      304.5      5.545378   2.375      3.454      3.0101     2.344      2.141      2.508      1.006      1.613      0.916      3.9482     0.1540342  0.1540342  0.3162     1.996387   3.690223   2.702      0.2847019  0.5234608  1567.812   0.4914115  0.3806867  0.6021364 
1062.2     0.237      303        5.467638   2.299      3.289      3.0101     2.395      2.204      2.782      1.128      2.035      0.895      3.9482     0.1659346  0.1659346  0.32775    3.316418   4.13304    2.715      0.331102   0.5480899  1568.655   0.4903497  0.3634718  0.6172277 
1062.4     0.237      298.3      5.343519   2.349      3.416      2.9899     2.458      2.255      2.741      1.304      2.243      0.902      3.9482     0.1664409  0.1664409  0.3239     3.388811   4.952794   2.758      0.3377758  0.5488933  1568.98    0.4771487  0.3375854  0.6167121 
1062.6     0.233      287.6      5.200832   2.337      3.226      3.0101     2.509      2.318      2.864      0.755      2.035      0.95       4.0479     0.1472313  0.1472313  0.2975     1.493618   6.097972   2.861      0.2756984  0.5107481  1568.966   0.4553596  0.3100964  0.6006228 
