~Version
 VERS              .         2.0                           : CWLS LOG ASCII STANDARD - VERSION 2.0
 WRAP              .         NO                            : ONE LINE PER DEPTH STEP
 DLM               .         SPACE                         : DELIMITING CHARACTER(SPACE TAB OR COMMA)
~Well Information
#_______________________________________________________________________________
#
#PARAMETER_NAME    .UNIT     VALUE                         : DESCRIPTION
#_______________________________________________________________________________
STRT               .M        850                           : First reference value
STOP               .M        1170                          : Last reference value
STEP               .M        0.2                           : Step increment
NULL               .         -9999                         : Missing value
COMP               .                                       : Company
WELL               .         8416                          : Well name
FLD                .         УЗЕНЬ                         : Field
LOC                .                                       : Location
CNTY               .                                       : County
STAT               .                                       : State
CTRY               .                                       : Country
SRVC               .                                       : Service Company
DATE               .                                       : Date
UWI                .                                       : Unique Well ID
4_кв_для_Заказчика .         1                             : 
Block              .         7                             : 
Category           .         Нефтяная                      : 
Condition          .         В работе                      : 
Date               .         28.05.1993                    : 
EREF               .m        82.3                          : 100.8
GRP                .                                       : Group name
Gor                .         15                            : 
Gorizont           .         15                            : 14
ISS                .         БКЗ, магнитная лента          : Well surveys
Interpretator      .         Кайсанов Е.К                  : 
Kupol              .         Основной                      : osnovnoi
METD               .         БКЗ                           : Method
Mud                .                                       : 
Mud_density        .                                       : 
Mud_resistivity    .                                       : 
NGDU               .         НГДУ-2                        : 
ORIGINALWELLNAME   .         8416                          : 
Otmetka            .                                       : 
Spud_date          .         1993                          : 1961
TIME               .         14_34                         : LOG TIME
Viscosity          .                                       : 
X                  .m        42949.6                       : 46154
Y                  .m        83762.13                      : 85761.93
YEAR               .         2018                          : 
~Parameter Information Block
#_______________________________________________________________________________
#
#PARAMETER_NAME    .UNIT     VALUE                         : DESCRIPTION
#_______________________________________________________________________________
SET                .         LQC_KAZNIPI_Petrel            : 
TLFamily_CALI      .         Caliper                       : 
TLFamily_CILD      .         Conductivity                  : 
TLFamily_DEPT      .         Measured Depth                : 
TLFamily_GR        .         Russian Gamma Ray             : 
TLFamily_GZ1       .         Gradient 045                  : 
TLFamily_GZ2       .         Gradient 105                  : 
TLFamily_GZ3       .         Gradient 225                  : 
TLFamily_GZ4       .         Gradient 425                  : 
TLFamily_GZ5       .         Gradient 850                  : 
TLFamily_LLS       .         Lateral Log Resistivity       : 
TLFamily_MINV      .         Micro Gradient Resistivity    : 
TLFamily_MNOR      .         Micro Resistivity             : 
TLFamily_NGLD      .         Neutron Far                   : 
TLFamily_OGZ3      .         Gradient Inverted 225         : 
TLFamily_PHIE      .         Effective Porosity            : 
TLFamily_PHIEN     .         Effective Porosity            : 
TLFamily_PHIT      .         Porosity                      : 
TLFamily_PRMB      .         Permeability                  : 
TLFamily_PRMB_DGR  .         Permeability                  : 
TLFamily_RT        .         Formation Resistivity         : 
TLFamily_SOIL_ARCHIE .         Oil Saturation                : 
TLFamily_SOIL_DW   .         Oil Saturation                : 
TLFamily_SP        .         Spontaneous Potential         : 
TLFamily_VSH_FIN   .         Shale Volume                  : 
TLFamily_VSH_GR    .         Shale Volume                  : 
TLFamily_VSH_SP    .         Shale Volume                  : 
~Curve Information
#_______________________________________________________________________________
#
#LOGNAME           .UNIT     LOG_ID                        : DESCRIPTION
#_______________________________________________________________________________
DEPT               .M                                      : Колонка глубины 
CALI               .м                                      : Каверномер 
CILD               .мСм/м                                  : Индукционный каротаж 
GR                 .uR/h                                   : Гамма каротаж 
GZ1                .Ohmm                                   : А0.4М0.1N 
GZ2                .Ohmm                                   : A1.0M0.1N 
GZ3                .Ohmm                                   : 216.20 - 1352.60- 285.20 - 1164.30 
GZ4                .Ohmm                                   : A4M0.5N 
GZ5                .Ohmm                                   : A8M1N 
LLS                .Ohmm                                   : Боковой каротаж 
MINV               .Ohmm                                   : Микро-градиент зонд 
MNOR               .Ohmm                                   : Микро-потенциал зонд 
NGLD               .у.е.                                   : Показания зонда НГК-60 аппаратуры ДРСТ-3-90 
OGZ3               .Ohmm                                   : 211.70 - 1348.10- 280.70 - 1159.80 
PHIE               .v/v                                    : Описание 
PHIEN              .v/v                                    :  
PHIT               .v/v                                    : Описание 
PRMB               .mD                                     :  
PRMB_DGR           .mD                                     :  
RT                 .ohmm                                   : УЭС пласта 
SOIL_ARCHIE        .v/v                                    :  
SOIL_DW            .v/v                                    :  
SP                 .мВ                                     : Потенциал самополяризации 
VSH_FIN            .v/v                                    : Описание 
VSH_GR             .v/v                                    : Shale volume 
VSH_SP             .v/v                                    : Shale Volume 
~Ascii
# ...
973.2      0.246      418.9      4.941584   -9999      -9999      2.6061     -9999      -9999      2.277      0.813      1.333      0.857      2.3131     0.148461   0.148461   0.34865    1.574043   1.522812   1.964      0.1420936  0.4667848  1597.318   0.6066332  0.5464288  0.6668378 
973.4      0.256      440        4.983652   -9999      -9999      2.6061     -9999      -9999      1.754      0.729      0.975      0.822      2.3131     0.184182   0.184182   0.3679     7.221982   1.412762   1.87       0.2724151  0.512801   1595.183   0.556721   0.5634248  0.5500172 
973.6      0.248      444.5      5.002172   -9999      -9999      2.404      -9999      -9999      1.069      0.687      0.989      0.793      2.5324     0.2035247  0.2035247  0.38385    16.47896   1.36687    1.851      0.3298194  0.5409696  1594.807   0.5464402  0.5710738  0.5218067 
973.8      0.242      430.5      5.004309   -9999      -9999      2.1414     -9999      -9999      0.822      0.679      0.982      0.796      2.8514     0.1995004  0.1995004  0.3822     13.88001   1.36167    1.911      0.3281928  0.5435113  1597.12    0.5536351  0.5719633  0.535307  
974        0.246      415.9      4.986288   -9999      -9999      1.899      -9999      -9999      1.214      0.528      0.953      0.831      3.2303     0.1469504  0.1469504  0.36295    1.475827   1.406136   1.978      0.1372977  0.4800756  1600.754   0.6545444  0.5645074  0.7445815 
974.2      0.257      405.2      4.921003   -9999      -9999      2.0202     -9999      -9999      1.702      0.646      1.218      0.891      3.5095     0.1285967  0.1285967  0.32995    0.6746539  1.579734   2.03       0.04272621 0.4275954  1603.615   0.6101615  0.5383016  0.6820215 
974.4      0.265      392.2      4.78558    -9999      -9999      2.101      -9999      -9999      1.998      0.578      1.075      0.937      3.4297     0.121233   0.121233   0.30465    0.4928192  2.011201   2.098      0.007740112 0.3947631  1605.226   0.5558091  0.4877566  0.6238615 
974.6      0.263      379.1      4.590189   -9999      -9999      2.1212     -9999      -9999      2.549      0.721      1.527      0.977      3.33       0.1018335  0.1018335  0.28265    0.2154577  2.849481   2.17       0          0.3353393  1606.535   0.5479287  0.4230758  0.6727816 
974.8      0.258      360.7      4.368196   -9999      -9999      2.1212     -9999      -9999      2.4        0.851      1.362      0.989      3.2502     0.1000054  0.1000054  0.27605    0.1992965  4.233276   2.281      0          0.3375037  1608.101   0.5334686  0.3599326  0.7070047 
975        0.249      344.6      4.1444     -9999      -9999      2.0606     -9999      -9999      2.588      0.692      1.562      1.024      3.2502     0.09262785 0.09262785 0.2568     0.1454958  6.309342   2.387      0          0.3027644  1609.594   0.4974913  0.3058116  0.689171  
975.2      0.245      333.3      3.915629   -9999      -9999      2.1414     -9999      -9999      3.039      1.258      2.322      1.059      3.1306     0.07083953 0.07083953 0.23755    0.05744841 9.487323   2.468      0          0.2087936  1610.416   0.5051832  0.2588891  0.7514774 
975.4      0.246      312.2      3.662072   -9999      -9999      2.1818     -9999      -9999      2.57       0.738      1.562      1.1        3.0309     0.06155141 0.06155141 0.215      0.03865801 14.9107    2.635      0          0.1424932  1610.257   0.4649957  0.2152463  0.714745  
975.6      0.251      283.7      3.383497   -9999      -9999      2.0606     -9999      -9999      2.172      0.604      1.326      1.154      3.3898     0.04134052 0.04134052 0.1853     0.01632618 24.50337   2.9        0          0          1609.213   0.4362408  0.1757304  0.6967512 
975.8      0.245      265.9      3.120445   -9999      -9999      2.0202     -9999      -9999      3.277      0.708      2.215      1.215      3.2702     0.01290533 0.01290533 0.15175    0.004855075 39.1681    3.094      0          0          1607.622   0.4207414  0.1450998  0.696383  
976        0.242      262.6      2.932186   -9999      -9999      2.2626     -9999      -9999      4.852      2.155      3.935      1.289      2.8714     0.01       0          0.11105    0.004289259 54.79238   3.133      0          0          1605.852   0.3941965  0.1265135  0.6618796 
976.2      0.242      260        2.857083   2.667      3.683      2.5051     2.318      2.344      4.498      2.071      3.189      1.291      2.7916     0.01       0          0.10995    0.004289259 62.644     3.164      0          0          1603.984   0.3823875  0.1197811  0.6449938 
976.4      0.236      255.5      2.904198   3.315      3.95       2.3434     2.547      2.395      4.139      2.243      3.383      1.274      2.6321     0.01       0          0.1193     0.004289259 57.59626   3.22       0          0          1601.444   0.3802381  0.1239614  0.6365149 
976.6      0.242      254.3      3.064788   3.34       4.064      2.5859     2.699      2.395      4.243      2.217      3.426      1.246      2.672      0.01       0          0.1347     0.004289259 43.2547    3.235      0          0          1597.303   0.417124   0.1393372  0.6949108 
976.8      0.237      276.6      3.306131   3.467      4.737      2.8283     2.687      2.395      4.525      2.02       3.777      1.213      2.4327     0.03669472 0.03669472 0.15285    0.01339162 28.12792   2.974      0          0          1591.505   0.3519856  0.1661051  0.5378661 
977        0.246      319.4      3.570491   4.051      5.791      3.0505     2.445      2.318      5.076      2.238      3.168      1.105      1.9541     0.1001957  0.1001957  0.21225    0.2009208  17.5557    2.576      0          0.2641671  1585.52    0.3395585  0.2013617  0.4777555 
977.2      0.243      338.1      3.800624   4          5.169      3.6364     2.153      2.229      2.608      0.516      0.774      0.971      2.0538     0.1699316  0.1699316  0.28595    3.932814   11.64672   2.433      0.3102263  0.4861737  1581.301   0.3515709  0.2380936  0.4650482 
977.4      0.238      336.3      3.970904   2.934      4.178      3.8384     2.077      2.141      1.045      0.486      0.975      0.876      2.1735     0.2209952  0.2209952  0.3382     34.71559   8.596835   2.446      0.452685   0.5829651  1579.837   0.3551662  0.269521   0.4408115 
977.6      0.244      355.4      4.08221    2.388      3.975      3.4141     2.179      2.026      2.51       0.763      1.469      0.842      2.1336     0.2320276  0.2320276  0.3569     55.57411   7.049266   2.315      0.4616947  0.5929456  1580.859   0.3784012  0.292273   0.4645294 
977.8      0.238      377.6      4.135565   2.21       4.623      2.9899     2.052      1.975      1.797      0.541      0.932      0.855      2.1934     0.2122565  0.2122565  0.34975    23.91465   6.409523   2.179      0.4015132  0.5598052  1583.44    0.4166468  0.3038507  0.529443  
978        0.216      385.9      4.124011   1.905      3.48       3.1515     1.912      1.963      1.363      0.528      1.104      0.872      2.3729     0.2099758  0.2099758  0.3404     21.69802   6.542945   2.132      0.3896418  0.5457361  1586.997   0.3952248  0.3013052  0.4891443 
978.2      0.212      389.2      4.045698   1.829      3.035      3.2323     1.874      1.963      1.856      0.528      1.003      0.878      2.4526     0.2005752  0.2005752  0.3371     14.53106   7.523477   2.114      0.3622686  0.5326384  1591.539   0.4137115  0.2846054  0.5428175 
978.4      0.211      382.1      3.921389   1.664      2.667      3.0101     1.874      1.95       1.616      0.738      1.362      0.857      2.5125     0.2114744  0.2114744  0.34865    23.13011   9.390385   2.153      0.3961942  0.5556617  1596.899   0.4156835  0.2599771  0.57139   
978.6      0.211      372.3      3.797525   1.638      2.261      2.9293     1.925      1.912      1.971      0.62       1.376      0.846      2.652      0.201448   0.201448   0.3547     15.08216   11.71125   2.21       0.3777791  0.5574758  1602.167   0.4644     0.2375569  0.6912431 
