~Version
 VERS              .         2.0                           : CWLS LOG ASCII STANDARD - VERSION 2.0
 WRAP              .         NO                            : ONE LINE PER DEPTH STEP
 DLM               .         SPACE                         : DELIMITING CHARACTER(SPACE TAB OR COMMA)
~Well Information
#_______________________________________________________________________________
#
#PARAMETER_NAME    .UNIT     VALUE                         : DESCRIPTION
#_______________________________________________________________________________
STRT               .M        850                           : First reference value
STOP               .M        1170                          : Last reference value
STEP               .M        0.2                           : Step increment
NULL               .         -9999                         : Missing value
COMP               .                                       : Company
WELL               .         8416                          : Well name
FLD                .         УЗЕНЬ                         : Field
LOC                .                                       : Location
CNTY               .                                       : County
STAT               .                                       : State
CTRY               .                                       : Country
SRVC               .                                       : Service Company
DATE               .                                       : Date
UWI                .                                       : Unique Well ID
4_кв_для_Заказчика .         1                             : 
Block              .         7                             : 
Category           .         Нефтяная                      : 
Condition          .         В работе                      : 
Date               .         28.05.1993                    : 
EREF               .m        82.3                          : 100.8
GRP                .                                       : Group name
Gor                .         15                            : 
Gorizont           .         15                            : 14
ISS                .         БКЗ, магнитная лента          : Well surveys
Interpretator      .         Кайсанов Е.К                  : 
Kupol              .         Основной                      : osnovnoi
METD               .         БКЗ                           : Method
Mud                .                                       : 
Mud_density        .                                       : 
Mud_resistivity    .                                       : 
NGDU               .         НГДУ-2                        : 
ORIGINALWELLNAME   .         8416                          : 
Otmetka            .                                       : 
Spud_date          .         1993                          : 1961
TIME               .         14_34                         : LOG TIME
Viscosity          .                                       : 
X                  .m        42949.6                       : 46154
Y                  .m        83762.13                      : 85761.93
YEAR               .         2018                          : 
~Parameter Information Block
#_______________________________________________________________________________
#
#PARAMETER_NAME    .UNIT     VALUE                         : DESCRIPTION
#_______________________________________________________________________________
SET                .         LQC_KAZNIPI_Petrel            : 
TLFamily_CALI      .         Caliper                       : 
TLFamily_CILD      .         Conductivity                  : 
TLFamily_DEPT      .         Measured Depth                : 
TLFamily_GR        .         Russian Gamma Ray             : 
TLFamily_GZ1       .         Gradient 045                  : 
TLFamily_GZ2       .         Gradient 105                  : 
TLFamily_GZ3       .         Gradient 225                  : 
TLFamily_GZ4       .         Gradient 425                  : 
TLFamily_GZ5       .         Gradient 850                  : 
TLFamily_LLS       .         Lateral Log Resistivity       : 
TLFamily_MINV      .         Micro Gradient Resistivity    : 
TLFamily_MNOR      .         Micro Resistivity             : 
TLFamily_NGLD      .         Neutron Far                   : 
TLFamily_OGZ3      .         Gradient Inverted 225         : 
TLFamily_PHIE      .         Effective Porosity            : 
TLFamily_PHIEN     .         Effective Porosity            : 
TLFamily_PHIT      .         Porosity                      : 
TLFamily_PRMB      .         Permeability                  : 
TLFamily_PRMB_DGR  .         Permeability                  : 
TLFamily_RT        .         Formation Resistivity         : 
TLFamily_SOIL_ARCHIE .         Oil Saturation                : 
TLFamily_SOIL_DW   .         Oil Saturation                : 
TLFamily_SP        .         Spontaneous Potential         : 
TLFamily_VSH_FIN   .         Shale Volume                  : 
TLFamily_VSH_GR    .         Shale Volume                  : 
TLFamily_VSH_SP    .         Shale Volume                  : 
~Curve Information
#_______________________________________________________________________________
#
#LOGNAME           .UNIT     LOG_ID                        : DESCRIPTION
#_______________________________________________________________________________
DEPT               .M                                      : Колонка глубины 
CALI               .м                                      : Каверномер 
CILD               .мСм/м                                  : Индукционный каротаж 
GR                 .uR/h                                   : Гамма каротаж 
GZ1                .Ohmm                                   : А0.4М0.1N 
GZ2                .Ohmm                                   : A1.0M0.1N 
GZ3                .Ohmm                                   : 216.20 - 1352.60- 285.20 - 1164.30 
GZ4                .Ohmm                                   : A4M0.5N 
GZ5                .Ohmm                                   : A8M1N 
LLS                .Ohmm                                   : Боковой каротаж 
MINV               .Ohmm                                   : Микро-градиент зонд 
MNOR               .Ohmm                                   : Микро-потенциал зонд 
NGLD               .у.е.                                   : Показания зонда НГК-60 аппаратуры ДРСТ-3-90 
OGZ3               .Ohmm                                   : 211.70 - 1348.10- 280.70 - 1159.80 
PHIE               .v/v                                    : Описание 
PHIEN              .v/v                                    :  
PHIT               .v/v                                    : Описание 
PRMB               .mD                                     :  
PRMB_DGR           .mD                                     :  
RT                 .ohmm                                   : УЭС пласта 
SOIL_ARCHIE        .v/v                                    :  
SOIL_DW            .v/v                                    :  
SP                 .мВ                                     : Потенциал самополяризации 
VSH_FIN            .v/v                                    : Описание 
VSH_GR             .v/v                                    : Shale volume 
VSH_SP             .v/v                                    : Shale Volume 
~Ascii
# ...
950.8      0.253      344        4.689673   -9999      -9999      3.0707     -9999      -9999      1.868      0.637      1.484      0.917      2.5723     0.1489292  0.1489292  0.31565    1.605788   2.386303   2.392      0.2200428  0.4864301  1596.913   0.5052145  0.4548584  0.5555706 
951        0.254      359.5      4.542976   -9999      -9999      3.0101     -9999      -9999      2.368      1.09       1.863      0.909      2.4327     0.1510433  0.1510433  0.32005    1.757305   3.099752   2.288      0.2133197  0.4821565  1597.261   0.5121414  0.4087793  0.6155035 
951.2      0.257      383        4.308581   -9999      -9999      3.0101     -9999      -9999      2.763      1.165      1.978      0.905      2.3529     0.148749   0.148749   0.32225    1.593497   4.708064   2.148      0.1787869  0.4647301  1597.803   0.5257605  0.3446435  0.7068775 
951.4      -9999      393.4      4.077254   -9999      -9999      3.1111     -9999      -9999      2.442      0.671      1.19       0.906      2.2333     0.1556128  0.1556128  0.3217     2.135422   7.111837   2.091      0.2003975  0.4661201  1596.968   0.5032946  0.2912203  0.7153691 
951.6      -9999      381.8      3.93704    -9999      -9999      2.9899     -9999      -9999      1.637      0.708      1.147      0.911      2.6321     0.1779932  0.1779932  0.31895    5.546558   9.131945   2.155      0.2987017  0.4981718  1594.939   0.4271418  0.2629566  0.5913271 
951.8      -9999      360.1      3.917772   -9999      -9999      2.7475     -9999      -9999      1.394      0.637      1.097      0.936      3.0309     0.1756351  0.1756351  0.3052     5.015866   9.451146   2.285      0.3097446  0.4968465  1593.762   0.392621   0.2592933  0.5259486 
952        -9999      345.8      3.978844   -9999      -9999      2.4848     -9999      -9999      1.75       0.796      1.878      0.969      3.2502     0.1410369  0.1410369  0.28705    1.14684    8.475983   2.379      0.1800695  0.442396   1594.951   0.4424641  0.2710835  0.6138446 
952.2      -9999      343.4      4.052587   -9999      -9999      2.6061     -9999      -9999      2.892      1.044      2.322      0.982      3.3101     0.1234555  0.1234555  0.2799     0.541817   7.431627   2.396      0.0823302  0.4064686  1597.757   0.4740744  0.2860365  0.6621122 
952.4      -9999      342.3      4.103308   -9999      -9999      2.7475     -9999      -9999      3.032      0.21       1.097      0.966      3.2702     0.1249066  0.1249066  0.2887     0.5764108  6.788996   2.403      0.09286571 0.4212663  1600.33    0.4963435  0.2967975  0.6958895 
952.6      -9999      335.7      4.144681   -9999      -9999      2.6667     -9999      -9999      2.864      0.729      1.67       0.943      3.33       0.1346759  0.1346759  0.30135    0.8743428  6.306174   2.451      0.1583006  0.4576067  1601.556   0.5050731  0.3058743  0.7042719 
952.8      -9999      324.4      4.201041   -9999      -9999      2.6061     -9999      -9999      2.999      1.249      2.243      0.955      3.33       0.1330929  0.1330929  0.29475    0.8172626  5.703232   2.536      0.163085   0.4569376  1601.643   0.48987    0.3186873  0.6610526 
953        -9999      318.8      4.267682   -9999      -9999      2.4848     -9999      -9999      2.732      0.625      1.527      0.973      3.5494     0.1206367  0.1206367  0.28485    0.4804444  5.06424    2.581      0.0957991  0.4295418  1601.408   0.497616   0.3345318  0.6607001 
953.2      -9999      324.1      4.325478   -9999      -9999      2.404      -9999      -9999      2.88       0.729      1.77       0.992      3.4696     0.1050909  0.1050909  0.2744     0.2475692  4.568332   2.538      0          0.3805524  1601.501   0.5130579  0.3489097  0.677206  
953.4      0.242      325.3      4.372314   -9999      -9999      2.5253     -9999      -9999      3.291      1.19       2.387      0.991      3.5095     0.1051006  0.1051006  0.27495    0.2476714  4.202302   2.529      0          0.3802677  1602.211   0.5146952  0.3610135  0.668377  
953.6      0.242      315.8      4.41691    -9999      -9999      2.4444     -9999      -9999      2.312      0.625      1.24       0.973      3.5494     0.1144757  0.1144757  0.28485    0.3694243  3.881079   2.605      0.05766127 0.4211644  1603.588   0.5162858  0.3729282  0.6596434 
953.8      0.247      303.9      4.442407   -9999      -9999      2.3838     -9999      -9999      2.176      0.549      1.147      0.999      3.8285     0.08611649 0.08611649 0.27055    0.1102159  3.708584   2.707      0          0.3510483  1605.356   0.5588894  0.379916   0.7378628 
954        0.246      295.6      4.404232   -9999      -9999      2.303      -9999      -9999      2.827      0.771      1.892      1.024      3.9681     0.0800558  0.0800558  0.2568     0.08511101 3.969815   2.783      0          0.3209343  1606.825   0.5355884  0.3695015  0.7016752 
954.2      0.244      293.8      4.277768   -9999      -9999      2.2424     -9999      -9999      2.659      0.62       1.634      1.043      4.0479     0.06140367 0.06140367 0.24635    0.03841518 4.973977   2.8        0          0.2411162  1607.338   0.5604435  0.3369976  0.7838894 
954.4      0.239      293.2      4.090909   -9999      -9999      2.5051     -9999      -9999      3.345      1.547      2.852      1.019      3.9482     0.09244324 0.09244324 0.25955    0.1443548  6.94076    2.806      0          0.3608979  1606.903   0.506384   0.2941301  0.7186378 
954.6      0.239      284.6      3.895289   -9999      -9999      2.6667     -9999      -9999      3.296      1.04       2.523      1.01       4.0479     0.1138603  0.1138603  0.2645     0.3598551  9.837727   2.891      0.09839539 0.4230138  1606.262   0.4564839  0.2550834  0.6578844 
954.8      0.244      273.3      3.72164    -9999      -9999      2.7071     -9999      -9999      2.668      0.654      1.469      1.035      4.1276     0.09223092 0.09223092 0.25075    0.1430535  13.40812   3.01       0          0.3685009  1606.073   0.4803609  0.2247875  0.7359343 
955        0.237      265.6      3.570209   -9999      -9999      2.7475     -9999      -9999      2.918      1.216      2.465      1.071      4.2672     0.08226116 0.08226116 0.23095    0.09350488 17.56452   3.098      0          0.316453   1606.256   0.4505723  0.2013204  0.6998242 
955.2      0.235      256.1      3.429909   -9999      -9999      2.7475     -9999      -9999      3.591      1.928      3.01       1.091      4.2672     0.07015128 0.07015128 0.21995    0.05578662 22.55718   3.212      0          0.2676886  1606.335   0.4539356  0.1817703  0.7261009 
955.4      0.239      243.6      3.29855    -9999      -9999      2.8283     -9999      -9999      3.293      1.723      2.666      1.096      4.3071     0.07167957 0.07167957 0.2172     0.05954394 28.51073   3.377      0          0.2851443  1605.95    0.4409711  0.1651908  0.7167514 
955.6      0.235      236.2      3.190357   -9999      -9999      2.8485     -9999      -9999      3.643      2.071      3.182      1.097      4.3071     0.07617012 0.07617012 0.21665    0.07211299 34.57743   3.483      0          0.3096421  1605.067   0.4256966  0.152677   0.6987161 
955.8      0.233      235.9      3.129364   -9999      -9999      3.0101     -9999      -9999      4.098      2.155      3.347      1.112      3.9482     0.06907529 0.06907529 0.2084     0.0532844  38.5501    3.488      0          0.2680044  1603.874   0.4221961  0.1460451  0.698347  
956        0.235      235.6      3.133093   -9999      -9999      3.2323     -9999      -9999      4.566      2.096      3.684      1.124      3.7886     0.06811634 0.06811634 0.2018     0.0511491  38.29467   3.492      0          0.249225   1602.74    0.4051021  0.1464421  0.663762  
956.2      0.242      235        3.20418    -9999      -9999      3.3535     -9999      -9999      4.132      2.029      3.204      1.1        3.5494     0.08009107 0.08009107 0.215      0.08523913 33.73558   3.501      0          0.3201649  1602.064   0.4088149  0.1542214  0.6634083 
