~Version
 VERS              .         2.0                           : CWLS LOG ASCII STANDARD - VERSION 2.0
 WRAP              .         NO                            : ONE LINE PER DEPTH STEP
 DLM               .         SPACE                         : DELIMITING CHARACTER(SPACE TAB OR COMMA)
~Well Information
#_______________________________________________________________________________
#
#PARAMETER_NAME    .UNIT     VALUE                         : DESCRIPTION
#_______________________________________________________________________________
STRT               .M        850                           : First reference value
STOP               .M        1170                          : Last reference value
STEP               .M        0.2                           : Step increment
NULL               .         -9999                         : Missing value
COMP               .                                       : Company
WELL               .         8416                          : Well name
FLD                .         УЗЕНЬ                         : Field
LOC                .                                       : Location
CNTY               .                                       : County
STAT               .                                       : State
CTRY               .                                       : Country
SRVC               .                                       : Service Company
DATE               .                                       : Date
UWI                .                                       : Unique Well ID
4_кв_для_Заказчика .         1                             : 
Block              .         7                             : 
Category           .         Нефтяная                      : 
Condition          .         В работе                      : 
Date               .         28.05.1993                    : 
EREF               .m        82.3                          : 100.8
GRP                .                                       : Group name
Gor                .         15                            : 
Gorizont           .         15                            : 14
ISS                .         БКЗ, магнитная лента          : Well surveys
Interpretator      .         Кайсанов Е.К                  : 
Kupol              .         Основной                      : osnovnoi
METD               .         БКЗ                           : Method
Mud                .                                       : 
Mud_density        .                                       : 
Mud_resistivity    .                                       : 
NGDU               .         НГДУ-2                        : 
ORIGINALWELLNAME   .         8416                          : 
Otmetka            .                                       : 
Spud_date          .         1993                          : 1961
TIME               .         14_34                         : LOG TIME
Viscosity          .                                       : 
X                  .m        42949.6                       : 46154
Y                  .m        83762.13                      : 85761.93
YEAR               .         2018                          : 
~Parameter Information Block
#_______________________________________________________________________________
#
#PARAMETER_NAME    .UNIT     VALUE                         : DESCRIPTION
#_______________________________________________________________________________
SET                .         LQC_KAZNIPI_Petrel            : 
TLFamily_CALI      .         Caliper                       : 
TLFamily_CILD      .         Conductivity                  : 
TLFamily_DEPT      .         Measured Depth                : 
TLFamily_GR        .         Russian Gamma Ray             : 
TLFamily_GZ1       .         Gradient 045                  : 
TLFamily_GZ2       .         Gradient 105                  : 
TLFamily_GZ3       .         Gradient 225                  : 
TLFamily_GZ4       .         Gradient 425                  : 
TLFamily_GZ5       .         Gradient 850                  : 
TLFamily_LLS       .         Lateral Log Resistivity       : 
TLFamily_MINV      .         Micro Gradient Resistivity    : 
TLFamily_MNOR      .         Micro Resistivity             : 
TLFamily_NGLD      .         Neutron Far                   : 
TLFamily_OGZ3      .         Gradient Inverted 225         : 
TLFamily_PHIE      .         Effective Porosity            : 
TLFamily_PHIEN     .         Effective Porosity            : 
TLFamily_PHIT      .         Porosity                      : 
TLFamily_PRMB      .         Permeability                  : 
TLFamily_PRMB_DGR  .         Permeability                  : 
TLFamily_RT        .         Formation Resistivity         : 
TLFamily_SOIL_ARCHIE .         Oil Saturation                : 
TLFamily_SOIL_DW   .         Oil Saturation                : 
TLFamily_SP        .         Spontaneous Potential         : 
TLFamily_VSH_FIN   .         Shale Volume                  : 
TLFamily_VSH_GR    .         Shale Volume                  : 
TLFamily_VSH_SP    .         Shale Volume                  : 
~Curve Information
#_______________________________________________________________________________
#
#LOGNAME           .UNIT     LOG_ID                        : DESCRIPTION
#_______________________________________________________________________________
DEPT               .M                                      : Колонка глубины 
CALI               .м                                      : Каверномер 
CILD               .мСм/м                                  : Индукционный каротаж 
GR                 .uR/h                                   : Гамма каротаж 
GZ1                .Ohmm                                   : А0.4М0.1N 
GZ2                .Ohmm                                   : A1.0M0.1N 
GZ3                .Ohmm                                   : 216.20 - 1352.60- 285.20 - 1164.30 
GZ4                .Ohmm                                   : A4M0.5N 
GZ5                .Ohmm                                   : A8M1N 
LLS                .Ohmm                                   : Боковой каротаж 
MINV               .Ohmm                                   : Микро-градиент зонд 
MNOR               .Ohmm                                   : Микро-потенциал зонд 
NGLD               .у.е.                                   : Показания зонда НГК-60 аппаратуры ДРСТ-3-90 
OGZ3               .Ohmm                                   : 211.70 - 1348.10- 280.70 - 1159.80 
PHIE               .v/v                                    : Описание 
PHIEN              .v/v                                    :  
PHIT               .v/v                                    : Описание 
PRMB               .mD                                     :  
PRMB_DGR           .mD                                     :  
RT                 .ohmm                                   : УЭС пласта 
SOIL_ARCHIE        .v/v                                    :  
SOIL_DW            .v/v                                    :  
SP                 .мВ                                     : Потенциал самополяризации 
VSH_FIN            .v/v                                    : Описание 
VSH_GR             .v/v                                    : Shale volume 
VSH_SP             .v/v                                    : Shale Volume 
~Ascii
# ...
1135.6     0.242      395.1      6.704998   2.235      3.581      4.8485     4.147      4.96       1.959      1.304      1.419      0.922      1.9541     0.1435537  0.1435537  0.3129     1.276797   3.550372   1.959      0.1155495  0.4214253  1482.717   0.5131705  0.3867399  0.6396011 
1135.8     0.238      410        6.801661   2.032      3.137      4.0808     3.842      4.757      1.978      1.128      1.147      0.895      1.9342     0.1501074  0.1501074  0.32775    1.68854    2.909685   1.978      0.1531221  0.4499419  1491.316   0.5383109  0.4194791  0.6571427 
1136       0.238      423.1      6.867918   2.045      2.883      3.7576     3.639      4.642      1.898      0.968      1.419      0.887      2.1336     0.1475825  0.1475825  0.33215    1.516157   2.538661   1.898      0.1237033  0.439577   1495.607   0.5592954  0.4435071  0.6750836 
1136.2     0.238      428.7      6.903076   1.956      2.578      3.4141     3.322      4.503      1.794      1.199      1.39       0.887      2.1336     0.1451975  0.1451975  0.33215    1.369516   2.361398   1.794      0.08736183 0.4200501  1497.095   0.5665228  0.4568112  0.6762345 
1136.4     0.242      430.5      6.912728   1.854      2.426      3.4747     3.131      4.363      1.901      1.232      1.562      0.9        2.2732     0.1344024  0.1344024  0.325      0.8642055  2.314935   1.901      0.05002053 0.4122909  1496.412   0.5775685  0.460533   0.6946039 
1136.6     0.239      434.1      6.908846   1.867      2.286      3.1111     2.928      4.249      1.939      1.295      1.663      0.923      2.2931     0.1217273  0.1217273  0.31235    0.5033194  2.333511   1.939      0          0.3812981  1493.564   0.5776445  0.4590325  0.6962564 
1136.8     0.235      437.3      6.892775   1.867      2.248      2.7475     2.788      4.173      1.923      1.22       1.613      0.949      2.5324     0.1244161  0.1244161  0.29805    0.5644776  2.412013   1.923      0          0.3650109  1488.802   0.5261632  0.4528724  0.5994541 
1137       0.231      437        6.847436   1.829      2.172      2.5455     2.712      4.033      1.834      1.006      1.62       0.966      2.5922     0.1250017  0.1250017  0.2887     0.578752   2.647999   1.834      0          0.3377325  1482.892   0.4960555  0.435936   0.556175  
1137.2     0.225      431.4      6.759098   1.867      2.248      2.3636     2.585      3.944      1.789      1.53       1.792      0.957      2.8116     0.1383906  0.1383906  0.29365    1.024441   3.176161   1.789      0.04714032 0.3613846  1476.563   0.4704831  0.4047349  0.5362313 
1137.4     0.217      425.2      6.630483   1.829      2.121      2.3434     2.445      3.868      1.948      1.283      1.914      0.951      2.7517     0.1474109  0.1474109  0.29695    1.505098   3.376927   1.948      0.1455077  0.4144606  1469.836   0.453149   0.3947309  0.453149  
1137.6     0.216      419.5      6.469186   1.905      2.121      2.303      2.331      3.741      2.251      1.719      2.265      0.939      2.7318     0.149616   0.149616   0.30355    1.653521   4.748486   2.251      0.2118147  0.4656655  1461.9     0.4664666  0.3434426  0.4664666 
1137.8     0.216      408.8      6.277537   1.93       2.159      2.202      2.191      3.576      1.894      1.488      1.878      0.966      2.7916     0.1442659  0.1442659  0.2887     1.31617    7.119423   1.894      0.1177441  0.3907632  1451.885   0.4376791  0.2910935  0.4376791 
1138       0.214      395.1      6.073756   1.867      1.943      2.0606     2.052      3.423      2.223      1.693      2.487      0.987      2.7517     0.1811686  0.1811686  0.27715    6.350962   10.95139   2.223      0.328882   0.4736716  1440.094   0.2908528  0.2441542  0.2908528 
1138.2     0.212      382.4      5.892037   2.019      2.032      2.0202     1.899      3.271      2.71       1.769      2.566      1.018      2.5125     0.1710817  0.1710817  0.2601     4.130538   16.07848   2.71       0.3571689  0.4933439  1427.747   0.2697524  0.20872    0.2697524 
1138.4     0.211      369.6      5.751103   2.095      2.261      1.8384     1.861      3.131      2.511      1.593      2.351      1.038      2.5723     0.1664295  0.1664295  0.2491     3.387162   21.65661   2.511      0.3175539  0.453921   1415.667   0.2505167  0.1848196  0.2505167 
1138.6     0.211      355        5.649881   2.222      2.337      1.8182     1.81       3.042      2.555      1.681      2.315      1.059      2.5125     0.1676768  0.1676768  0.23755    3.572234   26.82185   2.555      0.3274822  0.4450474  1404.792   0.2117368  0.1693615  0.2117368 
1138.8     0.211      343.7      5.59739    2.121      2.426      1.7576     1.81       2.979      3.186      1.911      3.068      1.083      2.5723     0.1714291  0.1714291  0.22435    4.192186   29.9684    3.186      0.4052266  0.4909236  1397.385   0.1603665  0.1618614  0.1603665 
1139       0.211      343.4      5.613331   2.667      2.769      1.7778     1.823      2.915      3.553      1.882      3.01       1.082      2.4726     0.1714164  0.1714164  0.2249     4.189912   28.97565   3.553      0.4348545  0.5186011  1395.901   0.1620716  0.1641033  0.1620716 
1139.2     0.211      346.4      5.694401   2.692      3.073      1.9798     1.899      2.89       2.924      1.618      2.465      1.06       2.5125     0.16828    0.16828    0.237      3.665326   24.41349   2.924      0.3707068  0.4813137  1400.114   0.2082424  0.1759943  0.2082424 
1139.4     0.211      346.7      5.806602   2.743      3.213      2.101      1.925      2.864      2.739      1.693      2.652      1.024      2.6321     0.1887195  0.1887195  0.2568     8.763983   19.25996   2.739      0.4127629  0.5124341  1406.663   0.2063044  0.193886   0.2063044 
1139.6     0.211      344.6      5.914903   2.705      3.34       2.1212     1.912      2.826      2.608      1.689      1.921      1.003      2.8714     0.1729695  0.1729695  0.26835    4.476857   15.32004   2.608      0.3517169  0.4952481  1411.484   0.2890317  0.2128791  0.2890317 
1139.8     0.211      338.1      6.002445   2.337      3.277      2.1818     1.912      2.839      2.25       1.056      2.093      0.991      2.9711     0.1949997  0.1949997  0.27495    11.4558    12.73257   2.25       0.3740918  0.4900753  1412.447   0.2422736  0.2295832  0.2422736 
1140       0.213      333.9      6.070751   2.248      3.061      2.3838     1.988      2.839      2.675      1.643      2.473      0.99       3.2303     0.201946   0.201946   0.2755     15.40593   11.02114   2.675      0.4402295  0.5396339  1410.363   0.2228909  0.243522   0.2228909 
1140.2     0.212      331.3      6.13061    2.235      2.959      2.404      2.064      2.864      2.717      1.74       2.387      0.99       3.33       0.2076076  0.2076076  0.2755     19.61347   9.711573   2.717      0.4575289  0.5484574  1407.389   0.2057345  0.2564312  0.2057345 
1140.4     0.211      329.8      6.194911   2.311      3.035      2.5455     2.153      2.839      3.243      1.844      2.938      0.998      3.0309     0.1998087  0.1998087  0.2711     14.0637    8.47768    3.243      0.4838293  0.5760701  1404.84    0.2160342  0.2710614  0.2160342 
1140.6     0.212      332.744    6.256501   2.705      3.378      2.6061     2.077      2.687      3.249      2.188      2.938      1.011      2.5324     0.1916446  0.1916446  0.26395    9.928425   7.443057   3.249      0.4651939  0.5622604  1402.644   0.2191073  0.2858571  0.2191073 
1140.8     0.211      335.7      -9999      2.743      3.277      2.9091     1.899      2.496      2.807      2.155      2.752      1.03       2.2732     0.1910046  0.1910046  0.2535     9.661091   -9999      2.807      0.4255354  0.5171754  1400.456   0.1893801  -9999      0.1893801 
1141       0.211      339.3      -9999      2.629      3.15       2.8485     1.76       2.306      2.508      1.958      2.566      1.039      2.1336     0.1776202  0.1776202  0.24855    5.459036   -9999      2.508      0.3547961  0.4673966  1398.426   0.2149386  -9999      0.2149386 
