~Version
 VERS              .         2.0                           : CWLS LOG ASCII STANDARD - VERSION 2.0
 WRAP              .         NO                            : ONE LINE PER DEPTH STEP
 DLM               .         SPACE                         : DELIMITING CHARACTER(SPACE TAB OR COMMA)
~Well Information
#_______________________________________________________________________________
#
#PARAMETER_NAME    .UNIT     VALUE                         : DESCRIPTION
#_______________________________________________________________________________
STRT               .M        850                           : First reference value
STOP               .M        1170                          : Last reference value
STEP               .M        0.2                           : Step increment
NULL               .         -9999                         : Missing value
COMP               .                                       : Company
WELL               .         8416                          : Well name
FLD                .         УЗЕНЬ                         : Field
LOC                .                                       : Location
CNTY               .                                       : County
STAT               .                                       : State
CTRY               .                                       : Country
SRVC               .                                       : Service Company
DATE               .                                       : Date
UWI                .                                       : Unique Well ID
4_кв_для_Заказчика .         1                             : 
Block              .         7                             : 
Category           .         Нефтяная                      : 
Condition          .         В работе                      : 
Date               .         28.05.1993                    : 
EREF               .m        82.3                          : 100.8
GRP                .                                       : Group name
Gor                .         15                            : 
Gorizont           .         15                            : 14
ISS                .         БКЗ, магнитная лента          : Well surveys
Interpretator      .         Кайсанов Е.К                  : 
Kupol              .         Основной                      : osnovnoi
METD               .         БКЗ                           : Method
Mud                .                                       : 
Mud_density        .                                       : 
Mud_resistivity    .                                       : 
NGDU               .         НГДУ-2                        : 
ORIGINALWELLNAME   .         8416                          : 
Otmetka            .                                       : 
Spud_date          .         1993                          : 1961
TIME               .         14_34                         : LOG TIME
Viscosity          .                                       : 
X                  .m        42949.6                       : 46154
Y                  .m        83762.13                      : 85761.93
YEAR               .         2018                          : 
~Parameter Information Block
#_______________________________________________________________________________
#
#PARAMETER_NAME    .UNIT     VALUE                         : DESCRIPTION
#_______________________________________________________________________________
SET                .         LQC_KAZNIPI_Petrel            : 
TLFamily_CALI      .         Caliper                       : 
TLFamily_CILD      .         Conductivity                  : 
TLFamily_DEPT      .         Measured Depth                : 
TLFamily_GR        .         Russian Gamma Ray             : 
TLFamily_GZ1       .         Gradient 045                  : 
TLFamily_GZ2       .         Gradient 105                  : 
TLFamily_GZ3       .         Gradient 225                  : 
TLFamily_GZ4       .         Gradient 425                  : 
TLFamily_GZ5       .         Gradient 850                  : 
TLFamily_LLS       .         Lateral Log Resistivity       : 
TLFamily_MINV      .         Micro Gradient Resistivity    : 
TLFamily_MNOR      .         Micro Resistivity             : 
TLFamily_NGLD      .         Neutron Far                   : 
TLFamily_OGZ3      .         Gradient Inverted 225         : 
TLFamily_PHIE      .         Effective Porosity            : 
TLFamily_PHIEN     .         Effective Porosity            : 
TLFamily_PHIT      .         Porosity                      : 
TLFamily_PRMB      .         Permeability                  : 
TLFamily_PRMB_DGR  .         Permeability                  : 
TLFamily_RT        .         Formation Resistivity         : 
TLFamily_SOIL_ARCHIE .         Oil Saturation                : 
TLFamily_SOIL_DW   .         Oil Saturation                : 
TLFamily_SP        .         Spontaneous Potential         : 
TLFamily_VSH_FIN   .         Shale Volume                  : 
TLFamily_VSH_GR    .         Shale Volume                  : 
TLFamily_VSH_SP    .         Shale Volume                  : 
~Curve Information
#_______________________________________________________________________________
#
#LOGNAME           .UNIT     LOG_ID                        : DESCRIPTION
#_______________________________________________________________________________
DEPT               .M                                      : Колонка глубины 
CALI               .м                                      : Каверномер 
CILD               .мСм/м                                  : Индукционный каротаж 
GR                 .uR/h                                   : Гамма каротаж 
GZ1                .Ohmm                                   : А0.4М0.1N 
GZ2                .Ohmm                                   : A1.0M0.1N 
GZ3                .Ohmm                                   : 216.20 - 1352.60- 285.20 - 1164.30 
GZ4                .Ohmm                                   : A4M0.5N 
GZ5                .Ohmm                                   : A8M1N 
LLS                .Ohmm                                   : Боковой каротаж 
MINV               .Ohmm                                   : Микро-градиент зонд 
MNOR               .Ohmm                                   : Микро-потенциал зонд 
NGLD               .у.е.                                   : Показания зонда НГК-60 аппаратуры ДРСТ-3-90 
OGZ3               .Ohmm                                   : 211.70 - 1348.10- 280.70 - 1159.80 
PHIE               .v/v                                    : Описание 
PHIEN              .v/v                                    :  
PHIT               .v/v                                    : Описание 
PRMB               .mD                                     :  
PRMB_DGR           .mD                                     :  
RT                 .ohmm                                   : УЭС пласта 
SOIL_ARCHIE        .v/v                                    :  
SOIL_DW            .v/v                                    :  
SP                 .мВ                                     : Потенциал самополяризации 
VSH_FIN            .v/v                                    : Описание 
VSH_GR             .v/v                                    : Shale volume 
VSH_SP             .v/v                                    : Shale Volume 
~Ascii
# ...
1074       0.218      244.8      5.053963   3.835      5.613      3.1515     3.868      4.096      5.375      1.098      2.931      1.182      4.1077     0.06965262 0.06965262 0.1699     0.05461268 106.2913   3.361      0          0.1518096  1572.82    0.3037799  0.09652228 0.5110375 
1074.2     0.211      248.7      5.063651   5.041999   5.855      4.1212     4.096      4.68       5.614      2.301      5.06       1.22       4.7458     0.0416507  0.0416507  0.149      0.0165436  104.1922   3.308      0          0          1566.146   0.3253009  0.09731164 0.5532901 
1074.4     0.211      241.5      5.131979   3.632      5.486      4.9091     4.3        5.722      3.28       1.425      2.336      1.183      5.942201   0.08483128 0.08483128 0.16935    0.1043372  90.51942   3.407      0          0.2160501  1555.339   0.2561174  0.103065   0.4091698 
1074.6     0.211      237.4      5.272849   3.404      5.474      5.1717     5.582      6.966      3.72       1.71       3.096      1.114      8.4347     0.1383493  0.1383493  0.2073     1.02264    67.73101   3.465      0.3010927  0.4332525  1543.103   0.2089415  0.1160226  0.3018605 
1074.8     0.21       262.6      5.424088   3.391      8.509      4.767701   7.22       7.83       4.338      1.601      2.953      1.074      9.1924     0.1724763  0.1724763  0.2293     4.383668   49.60905   3.133      0.3952851  0.4870995  1535.361   0.172193   0.1317529  0.2126331 
1075       0.21       310.5      5.521078   4.089      11.239     5.4343     8.021      8.210999   6.232      1.379      2.96       1.059      7.178501   0.1818993  0.1818993  0.23755    6.552011   40.62943   2.65       0.3754711  0.4656754  1537.811   0.1686384  0.1429456  0.1943312 
1075.2     0.211      337.5      5.581445   5.41       10.604     7.6364     7.767      7.513      5.168      1.367      1.928      1.023      4.9053     0.1863122  0.1863122  0.25735    7.908821   35.88109   2.438      0.3639683  0.4736506  1551.439   0.2152661  0.1503871  0.280145  
1075.4     0.217      337.5      5.674704   4.788      8.255001   8.666699   6.624      5.962999   2.089      0.692      1.29       0.972      3.7886     0.1820109  0.1820109  0.2854     6.583256   29.6129    2.438      0.3508969  0.5000946  1571.341   0.3133004  0.162652   0.4639489 
1075.6     0.22       333.9      5.825698   3.251      5.905      6.9899     2.839      4.426      1.807      0.981      1.527      0.946      3.669      0.1618536  0.1618536  0.2997     2.786632   21.70069   2.464      0.2846007  0.4940767  1590.42    0.4177164  0.1846662  0.6507665 
1075.8     0.214      331.3      5.98797    2.515      4.191      3.9192     1.912      2.89       2.217      1.006      1.663      0.936      3.7488     0.1641268  0.1641268  0.3052     3.070324   15.53756   2.483      0.2957812  0.5042778  1604.237   0.4274946  0.2116571  0.6433322 
1076       0.216      325.3      6.098821   2.083      3.518      2.6869     1.379      2.153      2.548      1.09       1.706      0.909      3.9681     0.1627194  0.1627194  0.32005    2.891454   12.36713   2.529      0.2965649  0.5212787  1612.594   0.4767594  0.2323295  0.7211893 
1076.2     0.214      316.1      6.130192   1.854      3.137      2.1212     1.315      1.798      2.797      0.708      1.641      0.898      4.0479     0.1776119  0.1776119  0.3261     5.457083   11.59364   2.603      0.356984   0.5491197  1617.743   0.449964   0.2385381  0.6613901 
1076.4     0.22       305.7      6.09496    1.981      2.984      1.8586     1.328      1.988      3.493      1.09       2.064      0.923      3.9482     0.1606778  0.1606778  0.31235    2.650332   12.46584   2.691      0.3092096  0.526621   1622.126   0.4596128  0.2315765  0.6876491 
1076.6     0.221      290        6.025135   2.261      2.959      1.9394     1.467      2.61       3.359      0.889      1.892      0.973      4.1276     0.1308828  0.1308828  0.28485    0.7437472  14.39308   2.837      0.1943298  0.4721764  1627.131   0.4665672  0.2183742  0.7147602 
1076.8     0.215      260.9      5.940723   2.54       3.124      1.9798     2.153      3.487      3.567      1.446      2          1.007      5.663      0.1054195  0.1054195  0.26615    0.2510634  17.12487   3.153      0.07429888 0.4339234  1632.802   0.4870621  0.203415   0.7707092 
1077       0.215      231.1      5.837955   2.68       3.569      2.0202     2.979      4.375999   2.962      1.278      1.799      1.052      6.5803     0.07861447 0.07861447 0.2414     0.08003661 21.15996   3.56       0          0.3706979  1638.195   0.4932894  0.1865788  0.8       
1077.2     0.213      209.8      5.699655   2.654      4.229      2.6061     3.69       5.315      4.53       2.398      3.361      1.091      6.8395     0.06054356 0.06054356 0.21995    0.03703154 28.13013   3.921      0          0.304021   1642.077   0.4830499  0.1660997  0.8       
1077.4     0.216      189.9      5.508014   3.086      5.016      4.101      4.046      6.140999   5.265      0.981      2.344      1.158      7.138599   0.02777159 0.02777159 0.1831     0.009152828 41.737     4.332      0          0.05582646 1643.786   0.4706922  0.1413843  0.8       
1077.6     0.217      173.8      5.253864   3.327      5.016      5.939401   4.401      6.547      5.754      1.911      2.831      1.216      7.3978     0.01       0.003032332 0.1512     0.004289259 70.43067   4.734      0          0          1643.609   0.448993   0.1141856  0.7838004 
1077.8     0.216      165.5      4.958897   4.254001   5.588      6.9899     4.68       6.458      6.779      1.819      3.906      1.29       6.7398     0.01       0          0.1105     0.004289259 129.27     4.971      0          0          1642.352   0.4445543  0.08910851 0.8       
1078       0.214      163.7      4.689832   5.029      5.994      7.151501   4.604001   6.065001   7.942      1.534      3.182      1.33       5.4636     0.01       0          0.08849998 0.004289259 224.9441   5.026      0          0          1640.568   0.4226682  0.07106958 0.7742668 
1078.2     0.217      170.5      4.525005   5.435      9.398001   7.8384     4.223      5.442      7.288      1.446      3.197      1.345      4.4267     0.01       0          0.08024999 0.004289259 315.8272   4.825      0          0          1638.36    0.4204542  0.06187363 0.7790347 
1078.4     0.217      193.1      4.499569   5.842      11.176     7.596      3.957      4.527999   7.202      1.232      3.283      1.337      3.9482     0.01       0          0.08464999 0.004289259 332.8065   4.26       0          0          1635.599   0.4033838  0.06056464 0.7462029 
1078.6     0.215      237.7      4.594112   6.921      13.398     6.8687     3.601      3.538      7.182      1.044      2.824      1.302      2.9312     0.01       0          0.1039     0.004289259 273.9423   3.461      0          0          1632.311   0.3990284  0.06557476 0.732482  
1078.8     0.22       281.1      4.765366   7.429      15.684     6.505099   3.042      2.763      6.054      1.735      2.043      1.228      2.014      0.01783624 0.01783624 0.1446     0.005991402 192.5475   2.927      0          0          1628.972   0.3841325  0.07572883 0.6925362 
1079       0.236      309.3      4.985381   7.048      14.986     6.646501   2.496      1.925      2.795      0.516      1.032      1.116      1.4357     0.08854026 0.08854026 0.2062     0.1222189  122.4103   2.66       0          0.227691   1626.537   0.3565446  0.09111471 0.6219744 
1079.2     0.244      334.2      5.249322   5.118001   9.968999   5.9798     1.531      1.328      2.372      0.771      1.118      1.004      1.336      0.1389896  0.1389896  0.2678     1.050951   71.09232   2.462      0.1828178  0.4247469  1625.964   0.3903347  0.1137505  0.6669189 
1079.4     0.239      363.9      5.551932   2.921      7.493      4.3636     1.112      0.794      2.005      0.625      1.132      0.939      1.5553     0.1727258  0.1727258  0.30355    4.430565   38.12883   2.261      0.2961508  0.4891569  1627.611   0.3964369  0.1467018  0.6461719 
