~Version
 VERS              .         2.0                           : CWLS LOG ASCII STANDARD - VERSION 2.0
 WRAP              .         NO                            : ONE LINE PER DEPTH STEP
 DLM               .         SPACE                         : DELIMITING CHARACTER(SPACE TAB OR COMMA)
~Well Information
#_______________________________________________________________________________
#
#PARAMETER_NAME    .UNIT     VALUE                         : DESCRIPTION
#_______________________________________________________________________________
STRT               .M        850                           : First reference value
STOP               .M        1170                          : Last reference value
STEP               .M        0.2                           : Step increment
NULL               .         -9999                         : Missing value
COMP               .                                       : Company
WELL               .         8416                          : Well name
FLD                .         УЗЕНЬ                         : Field
LOC                .                                       : Location
CNTY               .                                       : County
STAT               .                                       : State
CTRY               .                                       : Country
SRVC               .                                       : Service Company
DATE               .                                       : Date
UWI                .                                       : Unique Well ID
4_кв_для_Заказчика .         1                             : 
Block              .         7                             : 
Category           .         Нефтяная                      : 
Condition          .         В работе                      : 
Date               .         28.05.1993                    : 
EREF               .m        82.3                          : 100.8
GRP                .                                       : Group name
Gor                .         15                            : 
Gorizont           .         15                            : 14
ISS                .         БКЗ, магнитная лента          : Well surveys
Interpretator      .         Кайсанов Е.К                  : 
Kupol              .         Основной                      : osnovnoi
METD               .         БКЗ                           : Method
Mud                .                                       : 
Mud_density        .                                       : 
Mud_resistivity    .                                       : 
NGDU               .         НГДУ-2                        : 
ORIGINALWELLNAME   .         8416                          : 
Otmetka            .                                       : 
Spud_date          .         1993                          : 1961
TIME               .         14_34                         : LOG TIME
Viscosity          .                                       : 
X                  .m        42949.6                       : 46154
Y                  .m        83762.13                      : 85761.93
YEAR               .         2018                          : 
~Parameter Information Block
#_______________________________________________________________________________
#
#PARAMETER_NAME    .UNIT     VALUE                         : DESCRIPTION
#_______________________________________________________________________________
SET                .         LQC_KAZNIPI_Petrel            : 
TLFamily_CALI      .         Caliper                       : 
TLFamily_CILD      .         Conductivity                  : 
TLFamily_DEPT      .         Measured Depth                : 
TLFamily_GR        .         Russian Gamma Ray             : 
TLFamily_GZ1       .         Gradient 045                  : 
TLFamily_GZ2       .         Gradient 105                  : 
TLFamily_GZ3       .         Gradient 225                  : 
TLFamily_GZ4       .         Gradient 425                  : 
TLFamily_GZ5       .         Gradient 850                  : 
TLFamily_LLS       .         Lateral Log Resistivity       : 
TLFamily_MINV      .         Micro Gradient Resistivity    : 
TLFamily_MNOR      .         Micro Resistivity             : 
TLFamily_NGLD      .         Neutron Far                   : 
TLFamily_OGZ3      .         Gradient Inverted 225         : 
TLFamily_PHIE      .         Effective Porosity            : 
TLFamily_PHIEN     .         Effective Porosity            : 
TLFamily_PHIT      .         Porosity                      : 
TLFamily_PRMB      .         Permeability                  : 
TLFamily_PRMB_DGR  .         Permeability                  : 
TLFamily_RT        .         Formation Resistivity         : 
TLFamily_SOIL_ARCHIE .         Oil Saturation                : 
TLFamily_SOIL_DW   .         Oil Saturation                : 
TLFamily_SP        .         Spontaneous Potential         : 
TLFamily_VSH_FIN   .         Shale Volume                  : 
TLFamily_VSH_GR    .         Shale Volume                  : 
TLFamily_VSH_SP    .         Shale Volume                  : 
~Curve Information
#_______________________________________________________________________________
#
#LOGNAME           .UNIT     LOG_ID                        : DESCRIPTION
#_______________________________________________________________________________
DEPT               .M                                      : Колонка глубины 
CALI               .м                                      : Каверномер 
CILD               .мСм/м                                  : Индукционный каротаж 
GR                 .uR/h                                   : Гамма каротаж 
GZ1                .Ohmm                                   : А0.4М0.1N 
GZ2                .Ohmm                                   : A1.0M0.1N 
GZ3                .Ohmm                                   : 216.20 - 1352.60- 285.20 - 1164.30 
GZ4                .Ohmm                                   : A4M0.5N 
GZ5                .Ohmm                                   : A8M1N 
LLS                .Ohmm                                   : Боковой каротаж 
MINV               .Ohmm                                   : Микро-градиент зонд 
MNOR               .Ohmm                                   : Микро-потенциал зонд 
NGLD               .у.е.                                   : Показания зонда НГК-60 аппаратуры ДРСТ-3-90 
OGZ3               .Ohmm                                   : 211.70 - 1348.10- 280.70 - 1159.80 
PHIE               .v/v                                    : Описание 
PHIEN              .v/v                                    :  
PHIT               .v/v                                    : Описание 
PRMB               .mD                                     :  
PRMB_DGR           .mD                                     :  
RT                 .ohmm                                   : УЭС пласта 
SOIL_ARCHIE        .v/v                                    :  
SOIL_DW            .v/v                                    :  
SP                 .мВ                                     : Потенциал самополяризации 
VSH_FIN            .v/v                                    : Описание 
VSH_GR             .v/v                                    : Shale volume 
VSH_SP             .v/v                                    : Shale Volume 
~Ascii
# ...
934        0.214      240.7      3.91876    -9999      -9999      3.6364     -9999      -9999      4.557      1.987      3.569      1.101      3.5693     0.0555335  0.0555335  0.21445    0.02990702 9.434501   3.418      0          0.220375   1601.842   0.4815652  0.25948    0.7036504 
934.2      0.211      247.8      3.929299   -9999      -9999      3.7576     -9999      -9999      4.793      1.765      3.139      1.08       3.33       0.07109759 0.07109759 0.226      0.05808419 9.258859   3.32       0          0.2957087  1601.91    0.4694012  0.2614788  0.6773235 
934.4      0.215      254.6      3.998233   -9999      -9999      4.040401   -9999      -9999      3.909      0.981      2.035      1.031      3.33       0.09014893 0.09014893 0.25295    0.1308986  8.187958   3.231      0          0.3890067  1602.792   0.4933365  0.2749376  0.7117355 
934.6      0.222      258.5      4.093651   -9999      -9999      4.222199   -9999      -9999      3.681      2.012      3.204      0.986      3.3101     0.1057237  0.1057237  0.2777     0.2543419  6.906906   3.183      0.08071335 0.452269   1603.946   0.5211402  0.294718   0.7475624 
934.8      0.217      259.4      4.16682    -9999      -9999      4.202      -9999      -9999      3.025      0.767      1.541      0.964      3.33       0.1105897  0.1105897  0.2898     0.313002   6.062082   3.172      0.1146067  0.4746715  1604.637   0.5430616  0.3108448  0.7752784 
935        0.229      264.7      4.181086   -9999      -9999      4.040401   -9999      -9999      2.855      0.604      1.706      0.966      3.4297     0.1225185  0.1225185  0.2887     0.5205926  5.909818   3.108      0.182394   0.4874718  1604.61    0.5035803  0.3140904  0.6930702 
935.2      0.236      264.4      4.126246   -9999      -9999      3.7576     -9999      -9999      3.426      1.346      1.828      0.981      3.5892     0.1028652  0.1028652  0.28045    0.2251493  6.516912   3.112      0.04848366 0.4441528  1604.138   0.5381358  0.3017961  0.7744756 
935.4      0.233      250.7      4.009632   -9999      -9999      3.798      -9999      -9999      2.682      0.595      1.347      0.986      3.9482     0.116283   0.116283   0.2777     0.3990266  8.023202   3.282      0.1659343  0.4789224  1603.627   0.4891423  0.2772291  0.7010556 
935.6      0.236      242.4      3.859407   -9999      -9999      3.7576     -9999      -9999      2.829      0.612      1.663      0.996      4.3071     0.1170216  0.1170216  0.2722     0.411796   10.48774   3.394      0.1834802  0.4822957  1603.33    0.4702376  0.2485054  0.6919698 
935.8      0.22       250.5      3.734752   -9999      -9999      3.8586     -9999      -9999      3.861      1.186      3.254      1          4.1874     0.1049645  0.1049645  0.27       0.2462383  13.09829   3.284      0.08838654 0.4495325  1603.273   0.5001075  0.2269437  0.7732714 
936        0.211      261.7      3.690102   -9999      -9999      4.4444     -9999      -9999      5.208      2.352      4.107      0.986      4.0279     0.1273978  0.1273978  0.2777     0.6410251  14.18376   3.144      0.213995   0.4853954  1603.481   0.4554611  0.2196845  0.6912377 
936.2      0.211      262.9      3.714516   -9999      -9999      4.9091     -9999      -9999      3.946      1.844      2.824      0.958      3.5892     0.1422081  0.1422081  0.2931     1.205582   13.57955   3.129      0.2841841  0.5215335  1604.119   0.4572482  0.2236245  0.690872  
936.4      0.21       255.2      3.734002   -9999      -9999      5.4141     -9999      -9999      3.191      1.761      1.806      0.948      3.2702     0.1337832  0.1337832  0.2986     0.8416806  13.11581   3.224      0.2556008  0.5231731  1604.955   0.4994449  0.2268199  0.7720698 
936.6      0.218      251.9      3.690331   -9999      -9999      4.8485     -9999      -9999      2.823      0.612      1.749      0.974      3.33       0.1222758  0.1222758  0.2843     0.5152326  14.17796   3.266      0.1998189  0.4947899  1605.271   0.4909823  0.2197211  0.7622435 
936.8      0.222      254.3      3.599342   -9999      -9999      4.2828     -9999      -9999      4.074      1.74       2.465      1.007      3.33       0.1095786  0.1095786  0.26615    0.2997915  16.67537   3.235      0.1156945  0.4489661  1604.755   0.4744589  0.2056364  0.7432814 
937        0.219      258.5      3.515814   -9999      -9999      3.798      -9999      -9999      3.462      0.838      2.035      1.008      3.4297     0.1184858  0.1184858  0.2656     0.4383305  19.35352   3.183      0.1675766  0.4596158  1603.998   0.4458007  0.1935028  0.6980987 
937.2      0.224      262.3      3.467414   -9999      -9999      3.7374     -9999      -9999      4.086      1.882      3.268      0.974      3.3101     0.1397851  0.1397851  0.2843     1.08722    21.09797   3.136      0.2741512  0.5097727  1603.815   0.4379239  0.1868024  0.6890454 
937.4      0.214      261.7      3.443818   -9999      -9999      3.7374     -9999      -9999      3.792      1.04       1.749      0.957      3.2104     0.1378438  0.1378438  0.29365    1.000831   22.00459   3.144      0.2661341  0.5175475  1604.267   0.4721398  0.1836205  0.760659  
937.6      0.224      263.2      3.428266   -9999      -9999      3.798      -9999      -9999      2.877      0.612      1.304      0.963      3.2502     0.1424823  0.1424823  0.29035    1.219766   22.62333   3.126      0.2850625  0.5188622  1604.818   0.4480838  0.1815531  0.7146146 
937.8      0.224      267.7      3.427185   -9999      -9999      3.7576     -9999      -9999      3.839      2.381      2.594      0.999      3.2104     0.1136876  0.1136876  0.27055    0.357214   22.66698   3.073      0.1227001  0.4479765  1605.011   0.4753405  0.1814102  0.7692709 
938        0.217      276.6      3.473973   -9999      -9999      3.596      -9999      -9999      3.404      1.677      2.193      1.016      3.1505     0.1153479  0.1153479  0.2612     0.3834255  20.85265   2.974      0.1202936  0.4293773  1604.748   0.441976   0.1876967  0.6962553 
938.2      0.22       290        3.598302   -9999      -9999      3.8384     -9999      -9999      3.493      0.57       1.613      1.003      3.0309     0.1076476  0.1076476  0.26835    0.2760915  16.70632   2.837      0.04482659 0.4108404  1604.157   0.4869769  0.2054807  0.7684731 
938.4      0.221      302.8      3.78525    -9999      -9999      4.040401   -9999      -9999      3.432      0.956      1.663      0.968      3.0708     0.1354203  0.1354203  0.2876     0.9025494  11.97041   2.717      0.2018692  0.47072    1603.446   0.4611505  0.2354433  0.6868578 
938.6      0.23       309.6      3.979298   -9999      -9999      4.1414     -9999      -9999      2.778      0.52       1.419      0.936      3.0309     0.144313   0.144313   0.3052     1.31882    8.469118   2.657      0.2369239  0.4964454  1602.734   0.4875363  0.2711733  0.7038994 
938.8      0.224      304.2      4.13111    -9999      -9999      4.0606     -9999      -9999      2.926      0.675      1.24       0.94       3.33       0.1310249  0.1310249  0.303      0.7482678  6.460638   2.704      0.1767489  0.4800748  1602.008   0.5211367  0.3028668  0.7394066 
939        0.233      301.3      4.230221   -9999      -9999      3.8384     -9999      -9999      1.862      0.507      1.032      0.97       3.7488     0.1196361  0.1196361  0.2865     0.4603723  5.414072   2.731      0.1130428  0.4457516  1601.385   0.5056481  0.3255306  0.6857655 
939.2      0.235      303.3      4.286659   -9999      -9999      3.6364     -9999      -9999      2.918      0.813      1.813      0.987      3.5693     0.1163479  0.1163479  0.27715    0.4001314  4.895743   2.713      0.08842528 0.4262774  1601.215   0.4872792  0.3391863  0.6353722 
939.4      0.224      300.1      4.294304   -9999      -9999      3.3131     -9999      -9999      3.138      1.484      2.021      0.996      3.8285     0.09106451 0.09106451 0.2722     0.1361112  4.829456   2.741      0          0.3698241  1601.404   0.5488954  0.3410796  0.7567112 
