~Version
 VERS              .         2.0                           : CWLS LOG ASCII STANDARD - VERSION 2.0
 WRAP              .         NO                            : ONE LINE PER DEPTH STEP
 DLM               .         SPACE                         : DELIMITING CHARACTER(SPACE TAB OR COMMA)
~Well Information
#_______________________________________________________________________________
#
#PARAMETER_NAME    .UNIT     VALUE                         : DESCRIPTION
#_______________________________________________________________________________
STRT               .M        850                           : First reference value
STOP               .M        1170                          : Last reference value
STEP               .M        0.2                           : Step increment
NULL               .         -9999                         : Missing value
COMP               .                                       : Company
WELL               .         8416                          : Well name
FLD                .         УЗЕНЬ                         : Field
LOC                .                                       : Location
CNTY               .                                       : County
STAT               .                                       : State
CTRY               .                                       : Country
SRVC               .                                       : Service Company
DATE               .                                       : Date
UWI                .                                       : Unique Well ID
4_кв_для_Заказчика .         1                             : 
Block              .         7                             : 
Category           .         Нефтяная                      : 
Condition          .         В работе                      : 
Date               .         28.05.1993                    : 
EREF               .m        82.3                          : 100.8
GRP                .                                       : Group name
Gor                .         15                            : 
Gorizont           .         15                            : 14
ISS                .         БКЗ, магнитная лента          : Well surveys
Interpretator      .         Кайсанов Е.К                  : 
Kupol              .         Основной                      : osnovnoi
METD               .         БКЗ                           : Method
Mud                .                                       : 
Mud_density        .                                       : 
Mud_resistivity    .                                       : 
NGDU               .         НГДУ-2                        : 
ORIGINALWELLNAME   .         8416                          : 
Otmetka            .                                       : 
Spud_date          .         1993                          : 1961
TIME               .         14_34                         : LOG TIME
Viscosity          .                                       : 
X                  .m        42949.6                       : 46154
Y                  .m        83762.13                      : 85761.93
YEAR               .         2018                          : 
~Parameter Information Block
#_______________________________________________________________________________
#
#PARAMETER_NAME    .UNIT     VALUE                         : DESCRIPTION
#_______________________________________________________________________________
SET                .         LQC_KAZNIPI_Petrel            : 
TLFamily_CALI      .         Caliper                       : 
TLFamily_CILD      .         Conductivity                  : 
TLFamily_DEPT      .         Measured Depth                : 
TLFamily_GR        .         Russian Gamma Ray             : 
TLFamily_GZ1       .         Gradient 045                  : 
TLFamily_GZ2       .         Gradient 105                  : 
TLFamily_GZ3       .         Gradient 225                  : 
TLFamily_GZ4       .         Gradient 425                  : 
TLFamily_GZ5       .         Gradient 850                  : 
TLFamily_LLS       .         Lateral Log Resistivity       : 
TLFamily_MINV      .         Micro Gradient Resistivity    : 
TLFamily_MNOR      .         Micro Resistivity             : 
TLFamily_NGLD      .         Neutron Far                   : 
TLFamily_OGZ3      .         Gradient Inverted 225         : 
TLFamily_PHIE      .         Effective Porosity            : 
TLFamily_PHIEN     .         Effective Porosity            : 
TLFamily_PHIT      .         Porosity                      : 
TLFamily_PRMB      .         Permeability                  : 
TLFamily_PRMB_DGR  .         Permeability                  : 
TLFamily_RT        .         Formation Resistivity         : 
TLFamily_SOIL_ARCHIE .         Oil Saturation                : 
TLFamily_SOIL_DW   .         Oil Saturation                : 
TLFamily_SP        .         Spontaneous Potential         : 
TLFamily_VSH_FIN   .         Shale Volume                  : 
TLFamily_VSH_GR    .         Shale Volume                  : 
TLFamily_VSH_SP    .         Shale Volume                  : 
~Curve Information
#_______________________________________________________________________________
#
#LOGNAME           .UNIT     LOG_ID                        : DESCRIPTION
#_______________________________________________________________________________
DEPT               .M                                      : Колонка глубины 
CALI               .м                                      : Каверномер 
CILD               .мСм/м                                  : Индукционный каротаж 
GR                 .uR/h                                   : Гамма каротаж 
GZ1                .Ohmm                                   : А0.4М0.1N 
GZ2                .Ohmm                                   : A1.0M0.1N 
GZ3                .Ohmm                                   : 216.20 - 1352.60- 285.20 - 1164.30 
GZ4                .Ohmm                                   : A4M0.5N 
GZ5                .Ohmm                                   : A8M1N 
LLS                .Ohmm                                   : Боковой каротаж 
MINV               .Ohmm                                   : Микро-градиент зонд 
MNOR               .Ohmm                                   : Микро-потенциал зонд 
NGLD               .у.е.                                   : Показания зонда НГК-60 аппаратуры ДРСТ-3-90 
OGZ3               .Ohmm                                   : 211.70 - 1348.10- 280.70 - 1159.80 
PHIE               .v/v                                    : Описание 
PHIEN              .v/v                                    :  
PHIT               .v/v                                    : Описание 
PRMB               .mD                                     :  
PRMB_DGR           .mD                                     :  
RT                 .ohmm                                   : УЭС пласта 
SOIL_ARCHIE        .v/v                                    :  
SOIL_DW            .v/v                                    :  
SP                 .мВ                                     : Потенциал самополяризации 
VSH_FIN            .v/v                                    : Описание 
VSH_GR             .v/v                                    : Shale volume 
VSH_SP             .v/v                                    : Shale Volume 
~Ascii
# ...
1096.4     0.217      285.8      6.888968   2.527      3.721      2.9091     3.372      2.014      2.971      1.689      2.645      1.006      4.666      0.1659184  0.1659184  0.2667     3.314121   2.430988   2.971      0.3587412  0.5105234  1439.249   0.3053989  0.4514256  0.1593721 
1096.6     0.218      279.3      6.993216   2.616      3.873      2.9091     3.538      2.09       3.498      1.677      2.852      1.008      5.3041     0.159857   0.159857   0.2656     2.559166   1.96143    3.498      0.3864762  0.5409771  1431.305   0.3204331  0.492773   0.1480933 
1096.8     0.221      276        7.057729   2.87       4.064      3.0101     3.601      2.153      4.117      1.987      3.326      1.011      5.6231     0.1547716  0.1547716  0.26395    2.060175   1.717474   4.117      0.415406   0.5697883  1424.294   0.3308435  0.5202363  0.1414507 
1097       0.217      272.7      7.052166   3.099      4.089      3.1111     3.55       2.217      4.285      1.87       2.817      1.011      5.4237     0.1559692  0.1559692  0.26395    2.16813    1.73726    4.285      0.4301141  0.5795985  1420.317   0.3272146  0.5178086  0.1366206 
1097.2     0.219      270.4      6.972176   3.619      4.394      3.4141     3.398      2.179      4.363      1.635      2.938      1.029      4.985      0.1517611  0.1517611  0.25405    1.811935   2.048262   4.363      0.4212956  0.5690126  1420.475   0.3099661  0.4841334  0.1357989 
1097.4     0.221      269.8      6.855329   3.912      4.724      3.5152     3.106      2.102      4.028      1.761      2.917      1.039      4.466599   0.1527514  0.1527514  0.24855    1.890098   2.605315   4.028      0.4025822  0.5467069  1424.434   0.2902988  0.4388383  0.1417593 
1097.6     0.224      265        6.768301   3.594      4.686      3.7576     2.864      2.077      3.172      1.844      2.982      1.066      4.1276     0.1401646  0.1401646  0.2337     1.104962   3.11655    3.172      0.2797316  0.4513992  1429.744   0.2834405  0.4078782  0.1590028 
1097.8     0.226      253.7      6.760419   2.997      4.445      4.101      2.699      2.09       2.747      2.104      2.673      1.064      4.2273     0.1348941  0.1348941  0.2348     0.8825207  3.167531   2.747      0.2032745  0.4031149  1432.787   0.302745   0.4051847  0.2003052 
1098       0.218      240.9      6.828529   2.591      4.191      3.9192     2.725      2.255      3.203      1.601      2.415      1.057      4.4068     0.140686   0.140686   0.23865    1.129806   2.753106   3.203      0.2853259  0.461692   1431.998   0.2968606  0.4290617  0.1646594 
1098.2     0.219      229.4      6.922621   2.629      4.229      3.6364     2.788      2.712      3.77       1.304      2.501      1.057      4.8455     0.1374729  0.1374729  0.23865    0.9851218  2.268263   3.77       0.3244922  0.4992442  1429.697   0.3065972  0.4643791  0.1488153 
1098.4     0.22       218.7      6.980652   2.921      4.521      3.2323     3.207      3.233      4.153      1.639      2.903      1.085      5.0249     0.1189576  0.1189576  0.22325    0.4472415  2.012826   4.153      0.267801   0.4741065  1429.849   0.3160374  0.4875957  0.1444791 
1098.6     0.224      208        6.974016   3.188      4.635      3.2323     3.703      3.715      4.429      1.853      2.996      1.152      5.2642     0.07925876 0.07925876 0.1864     0.08226642 2.040515   4.429      0          0.3355019  1433.997   0.3246705  0.4848831  0.1644579 
1098.8     0.224      201.1      6.925848   3.645      5.105      3.3333     3.982      4.071      5.067      2.448      3.627      1.197      5.5434     0.05459737 0.05459737 0.16165    0.0287365  2.253243   5.067      0          0.2220978  1439.508   0.3244019  0.4656407  0.183163  
1099       0.221      201.4      6.877616   4.242      5.766      3.596      4.147      4.49       5.835      1.945      4.014      1.198      5.323999   0.04645599 0.04645599 0.1611     0.02030653 2.488472   5.835      0          0.2327839  1441.619   0.3474062  0.447138   0.2476743 
1099.2     0.219      208.3      6.843652   4.737      7.493      4.1414     4.122      4.566      5.362      1.471      2.738      1.163      4.985      0.07534018 0.07534018 0.18035    0.06960509 2.668708   5.362      0.03322713 0.3717293  1437.4     0.3182116  0.4345514  0.2018718 
1099.4     0.219      218.7      6.809846   4.991      7.239      4.7273     3.995      4.426      4.986      1.576      2.895      1.133      4.5264     0.1016664  0.1016664  0.19685    0.2139277  2.861061   4.986      0.2294764  0.4490311  1427.899   0.288435   0.4223756  0.1544944 
1099.6     0.217      225.8      6.757302   4.991      7.747      5.3737     3.728      4.084001   4.547      1.911      3.297      1.113      4.2672     0.115475   0.115475   0.20785    0.3855095  3.187927   4.547      0.2798937  0.4689278  1416.583   0.2799242  0.4041242  0.1557242 
1099.8     0.217      230.8      6.676427   4.331      7.556      5.6566     3.411      3.677      3.46       1.626      2.809      1.083      4.008      0.1395913  0.1395913  0.22435    1.078269   3.765478   3.46       0.3060415  0.4608401  1406.733   0.2568447  0.3775613  0.1361281 
1100       0.218      235.3      6.581406   3.708      6.794      5.6566     3.207      3.423      3.776      1.761      2.824      1.06       4.008      0.1580514  0.1580514  0.237      2.369484   4.579101   3.776      0.4022179  0.5249822  1400.614   0.2392382  0.3485744  0.1299021 
1100.2     0.218      239.2      6.510018   3.645      6.604      5.4343     3.118      3.195      4.309      1.71       3.025      1.026      3.7488     0.1800057  0.1800057  0.2557     6.043664   5.304073   4.309      0.4983105  0.5968946  1399.106   0.2293766  0.3282706  0.1304827 
1100.4     0.218      249.6      6.488728   3.708      6.477      5.0303     3.017      2.991      4.306      1.765      3.103      1.003      3.6491     0.1917038  0.1917038  0.26835    9.953544   5.541738   4.306      0.5249261  0.6180822  1401.258   0.2322611  0.3224473  0.142075  
1100.6     0.219      260.6      6.503639   3.759      6.214      4.4646     2.89       2.801      4.035      1.895      2.996      0.973      3.5494     0.2070497  0.2070497  0.28485    19.15233   5.374191   4.035      0.5419841  0.6309748  1404.923   0.2357584  0.3265148  0.1450019 
1100.8     0.22       266.5      6.517418   3.759      5.943      4.5657     2.788      2.623      3.664      1.702      2.903      0.975      3.7488     0.2046137  0.2046137  0.28375    17.26237   5.223883   3.664      0.5158123  0.6099569  1408.166   0.2398069  0.330319   0.1492948 
1101       0.221      270.1      6.515384   3.619      5.385      4.5657     2.687      2.496      3.381      1.681      2.63       0.981      4.0479     0.2001967  0.2001967  0.28045    14.29838   5.245801   3.381      0.4875511  0.5874603  1409.821   0.2431918  0.3297547  0.1566288 
1101.2     0.221      271.6      6.520156   3.404      5.131      4.6667     2.61       2.407      3.435      1.849      2.917      0.991      4.5065     0.193809   0.193809   0.27495    10.88855   5.194518   3.435      0.4767767  0.5803494  1409.443   0.2458819  0.3310801  0.1606837 
1101.4     0.22       270.7      6.56722    3.111      4.839      4.5657     2.674      2.382      3.344      1.593      2.766      1.004      4.8455     0.1863585  0.1863585  0.2678     7.924473   4.714813   3.344      0.4517401  0.5610061  1407.839   0.2467924  0.344442   0.1491428 
1101.6     0.219      269.2      6.671655   3.023      4.547      4.6061     2.788      2.369      3.483      1.45       2.58       1.014      4.8455     0.1765308  0.1765308  0.2623     5.211194   3.802658   3.483      0.4361301  0.5547773  1407.09    0.2599065  0.3760497  0.1437633 
1101.8     0.22       268        6.817606   3.124      4.597      4.4444     2.839      2.344      3.883      1.568      2.781      1.024      4.8455     0.1627717  0.1627717  0.2568     2.897908   2.815717   3.883      0.4249349  0.5586783  1409.231   0.2849342  0.4251401  0.1447283 
