~Version
 VERS              .         2.0                           : CWLS LOG ASCII STANDARD - VERSION 2.0
 WRAP              .         NO                            : ONE LINE PER DEPTH STEP
 DLM               .         SPACE                         : DELIMITING CHARACTER(SPACE TAB OR COMMA)
~Well Information
#_______________________________________________________________________________
#
#PARAMETER_NAME    .UNIT     VALUE                         : DESCRIPTION
#_______________________________________________________________________________
STRT               .M        850                           : First reference value
STOP               .M        1170                          : Last reference value
STEP               .M        0.2                           : Step increment
NULL               .         -9999                         : Missing value
COMP               .                                       : Company
WELL               .         8416                          : Well name
FLD                .         УЗЕНЬ                         : Field
LOC                .                                       : Location
CNTY               .                                       : County
STAT               .                                       : State
CTRY               .                                       : Country
SRVC               .                                       : Service Company
DATE               .                                       : Date
UWI                .                                       : Unique Well ID
4_кв_для_Заказчика .         1                             : 
Block              .         7                             : 
Category           .         Нефтяная                      : 
Condition          .         В работе                      : 
Date               .         28.05.1993                    : 
EREF               .m        82.3                          : 100.8
GRP                .                                       : Group name
Gor                .         15                            : 
Gorizont           .         15                            : 14
ISS                .         БКЗ, магнитная лента          : Well surveys
Interpretator      .         Кайсанов Е.К                  : 
Kupol              .         Основной                      : osnovnoi
METD               .         БКЗ                           : Method
Mud                .                                       : 
Mud_density        .                                       : 
Mud_resistivity    .                                       : 
NGDU               .         НГДУ-2                        : 
ORIGINALWELLNAME   .         8416                          : 
Otmetka            .                                       : 
Spud_date          .         1993                          : 1961
TIME               .         14_34                         : LOG TIME
Viscosity          .                                       : 
X                  .m        42949.6                       : 46154
Y                  .m        83762.13                      : 85761.93
YEAR               .         2018                          : 
~Parameter Information Block
#_______________________________________________________________________________
#
#PARAMETER_NAME    .UNIT     VALUE                         : DESCRIPTION
#_______________________________________________________________________________
SET                .         LQC_KAZNIPI_Petrel            : 
TLFamily_CALI      .         Caliper                       : 
TLFamily_CILD      .         Conductivity                  : 
TLFamily_DEPT      .         Measured Depth                : 
TLFamily_GR        .         Russian Gamma Ray             : 
TLFamily_GZ1       .         Gradient 045                  : 
TLFamily_GZ2       .         Gradient 105                  : 
TLFamily_GZ3       .         Gradient 225                  : 
TLFamily_GZ4       .         Gradient 425                  : 
TLFamily_GZ5       .         Gradient 850                  : 
TLFamily_LLS       .         Lateral Log Resistivity       : 
TLFamily_MINV      .         Micro Gradient Resistivity    : 
TLFamily_MNOR      .         Micro Resistivity             : 
TLFamily_NGLD      .         Neutron Far                   : 
TLFamily_OGZ3      .         Gradient Inverted 225         : 
TLFamily_PHIE      .         Effective Porosity            : 
TLFamily_PHIEN     .         Effective Porosity            : 
TLFamily_PHIT      .         Porosity                      : 
TLFamily_PRMB      .         Permeability                  : 
TLFamily_PRMB_DGR  .         Permeability                  : 
TLFamily_RT        .         Formation Resistivity         : 
TLFamily_SOIL_ARCHIE .         Oil Saturation                : 
TLFamily_SOIL_DW   .         Oil Saturation                : 
TLFamily_SP        .         Spontaneous Potential         : 
TLFamily_VSH_FIN   .         Shale Volume                  : 
TLFamily_VSH_GR    .         Shale Volume                  : 
TLFamily_VSH_SP    .         Shale Volume                  : 
~Curve Information
#_______________________________________________________________________________
#
#LOGNAME           .UNIT     LOG_ID                        : DESCRIPTION
#_______________________________________________________________________________
DEPT               .M                                      : Колонка глубины 
CALI               .м                                      : Каверномер 
CILD               .мСм/м                                  : Индукционный каротаж 
GR                 .uR/h                                   : Гамма каротаж 
GZ1                .Ohmm                                   : А0.4М0.1N 
GZ2                .Ohmm                                   : A1.0M0.1N 
GZ3                .Ohmm                                   : 216.20 - 1352.60- 285.20 - 1164.30 
GZ4                .Ohmm                                   : A4M0.5N 
GZ5                .Ohmm                                   : A8M1N 
LLS                .Ohmm                                   : Боковой каротаж 
MINV               .Ohmm                                   : Микро-градиент зонд 
MNOR               .Ohmm                                   : Микро-потенциал зонд 
NGLD               .у.е.                                   : Показания зонда НГК-60 аппаратуры ДРСТ-3-90 
OGZ3               .Ohmm                                   : 211.70 - 1348.10- 280.70 - 1159.80 
PHIE               .v/v                                    : Описание 
PHIEN              .v/v                                    :  
PHIT               .v/v                                    : Описание 
PRMB               .mD                                     :  
PRMB_DGR           .mD                                     :  
RT                 .ohmm                                   : УЭС пласта 
SOIL_ARCHIE        .v/v                                    :  
SOIL_DW            .v/v                                    :  
SP                 .мВ                                     : Потенциал самополяризации 
VSH_FIN            .v/v                                    : Описание 
VSH_GR             .v/v                                    : Shale volume 
VSH_SP             .v/v                                    : Shale Volume 
~Ascii
# ...
1118.8     0.211      219.9      6.413363   3.289      5.169      6.4242     6.281001   3.347      4.271      1.677      2.738      1.002      7.9362     0.1957655  0.1957655  0.2689     11.83616   6.471896   4.271      0.5317326  0.6202884  1377.572   0.2216196  0.3026516  0.1405876 
1119       0.211      217.2      6.37968    3.251      4.839      6.242401   6.140999   3.347      3.707      1.811      2.924      0.997      8.8933     0.199252   0.199252   0.27165    13.73374   6.936613   3.707      0.5071897  0.5978002  1377.946   0.2193878  0.294202   0.1445737 
1119.2     0.211      202.9      6.274803   3.023      4.469999   5.757599   6.116      3.322      3.665      1.593      2.609      1.016      10.0897    0.1928759  0.1928759  0.2612     10.46374   8.608354   3.665      0.4903124  0.5804884  1377.826   0.2070428  0.2693737  0.1447119 
1119.4     0.211      186.3      6.096737   2.769      4.267      5.0303     6.178999   3.36       4.103      1.853      3.354      1.044      10.6082    0.1839621  0.1839621  0.2458     7.154545   12.42032   4.103      0.4962733  0.581021   1376.788   0.1873876  0.2319227  0.1428525 
1119.6     0.211      175        5.885796   2.807      4.407      4.8485     6.344      3.487      5.292      1.752      3.247      1.05       10.3888    0.1871722  0.1871722  0.2425     8.204287   19.17516   5.292      0.5596588  0.6308377  1374.869   0.1676601  0.1942357  0.1410846 
1119.8     0.211      166.7      5.695011   3.264      4.966      4.8687     6.458      3.626      5.769      1.882      3.469      1.067      10.2094    0.183265   0.183265   0.23315    6.944985   28.40038   5.769      0.5692946  0.6350473  1372.39    0.1511665  0.1654526  0.1368804 
1120       0.211      161.3      5.553787   3.81       5.397      5.0303     6.521999   3.792      5.866      1.857      3.34       1.082      10.2094    0.1779176  0.1779176  0.2249     5.528715   37.98348   5.866      0.5614862  0.6258099  1369.616   0.1423708  0.1469308  0.1378108 
1120.2     0.211      155.1      5.466475   4.216001   5.803999   5.1313     6.508999   3.868      5.739      1.735      3.211      1.101      10.7876    0.1700388  0.1700388  0.21445    3.950843   45.46347   5.739      0.5391322  0.6036385  1366.81    0.1345794  0.1365322  0.1326265 
1120.4     0.211      144.4      5.425666   4.28       6.604      5.2929     6.521999   3.931      5.759      1.714      3.211      1.075      11.4058    0.1850833  0.1850833  0.22875    7.50497    49.44821   5.759      0.5726342  0.6322069  1364.518   0.1323234  0.1319277  0.1327191 
1120.6     0.211      135.2      5.416232   4.356      7.112      5.535399   6.547      4.02       6.149      1.626      3.197      1.045      12.2831    0.2024548  0.2024548  0.24525    15.74391   50.41797   6.149      0.6167232  0.6708092  1363.759   0.1296824  0.1308856  0.1284793 
1120.8     0.211      131.6      5.412665   4.61       7.936999   5.7778     6.535      4.084001   6.192      1.593      3.168      1.005      13.0808    0.2243174  0.2243174  0.26725    40         50.78959   6.192      0.6506147  0.7010726  1365.676   0.1300989  0.1304937  0.1297041 
1121       0.211      131.3      5.392987   4.889      8.762999   6.0202     6.508999   4.16       5.861      1.702      3.125      0.989      14.1974    0.2330396  0.2330396  0.27605    58.0252    52.88951   5.861      0.6532056  0.7032667  1370.696   0.1303345  0.1283527  0.1323164 
1121.2     0.211      131        5.355689   4.877      9.08       6.626299   6.497001   4.325      5.736      1.618      3.197      0.975      15.1147    0.2391155  0.2391155  0.28375    75.18943   57.11081   5.736      0.6574452  0.7079709  1377.952   0.1352561  0.1243906  0.1461217 
1121.4     0.211      130.1      5.319225   4.813001   9.207      6.7879     6.484001   4.515      5.907      1.626      3.096      0.995      15.8325    0.2269365  0.2269365  0.27275    44.7273    61.56319   5.907      0.6463963  0.6990023  1385.871   0.1388288  0.1206354  0.1570222 
1121.6     0.212      128.6      5.306746   4.813001   9.461      7.111101   6.521999   4.757      5.776      1.652      3.182      1.029      15.6132    0.2072426  0.2072426  0.25405    19.31051   63.16534   5.776      0.6132548  0.6704615  1393.404   0.1418406  0.1193764  0.1643047 
1121.8     0.214      129.5      5.337801   4.813001   9.779      7.4545     6.573      4.947      5.66       1.698      3.139      1.063      15.3938    0.1869849  0.1869849  0.23535    8.139023   59.25322   5.66       0.5729614  0.6366314  1400.324   0.1465609  0.1225341  0.1705878 
1122       0.214      133.1      5.414496   4.813001   9.905999   8.0808     6.547      5.163      5.558      1.534      2.974      1.085      15.1147    0.1700722  0.1700722  0.22325    3.956461   50.59846   5.558      0.532229   0.6065716  1406.246   0.1611449  0.1306947  0.1915951 
1122.2     0.215      136.7      5.499401   4.801      9.905999   8.666699   6.508999   5.379      5.395      1.53       3.01       1.113      15.2941    0.1496321  0.1496321  0.20785    1.654652   42.48376   5.395      0.4696874  0.5608832  1409.856   0.1764179  0.1403642  0.2124717 
1122.4     0.216      139        5.513639   4.521      9.525      9.2929     6.357      5.646      4.41       1.786      3.082      1.171      17.5075    0.1182059  0.1182059  0.17595    0.4331298  41.25648   4.41       0.2842025  0.4097182  1409.419   0.1749821  0.1420545  0.2079098 
1122.6     0.216      133.4      5.38938    3.785      8.001      9.2929     6.166      6.001      5.454      2.087      3.784      1.231      19.1825    0.08747703 0.08747703 0.14295    0.1168005  53.28371   5.454      0.1579052  0.3215103  1404.061   0.1681     0.1279641  0.2082359 
1122.8     0.216      120.9      5.126604   3.632      7.62       8.7273     6.103      6.446      6.921      1.811      3.44       1.316      20.1795    0.05170122 0.05170122 0.09620001 0.02539745 91.52677   6.921      0          0.05777001 1394.628   0.1348448  0.1026003  0.1670893 
1123       0.214      111.7      4.799419   3.759      7.874      8.202      6.395      7.144      8.233      2.477      5.289      1.4        19.9003    0.01281528 0.01281528 0.05000001 0.004836466 179.5106   8.233      0          0          1383.436   0.112681   0.0779281  0.1474339 
1123.2     0.214      104.6      4.51417    4.458      8.826      8.4848     6.928      7.894001   11.394     2.917      5.87       1.518      18.4845    0.01       0          0.01       0.004289259 322.9512   11.394     0          0          1372.925   0.0992189  0.06131262 0.1371252 
1123.4     0.214      98         4.355628   5.639      10.795     9.0707     7.576      8.516      12.155     3.617      6.336      1.622      16.989     0.01       0          0.01       0.004289259 447.6031   12.155     0          0          1364.35    0.09221904 0.05366191 0.1307762 
1123.6     0.214      93.3       4.354304   6.667      14.097     10.2626    8.338001   8.973      12.281     2.632      5.511      1.668      14.9551    0.01       0          0.01       0.004289259 448.8246   12.281     0          0          1357.543   0.09139588 0.05360223 0.1291895 
1123.8     0.214      91.5       4.489195   9.398001   19.367     12.1212    9.113      8.922      10.908     1.781      4.157      1.583      13.6391    0.01       0          0.01       0.004289259 339.9914   10.908     0          0          1351.635   0.0937648  0.06003872 0.1274909 
1124       0.214      94.2       4.705908   10.414     24.828     14.3232    9.608      8.795      8.102      1.756      3.584      1.447      12.4427    0.01       0          0.02414999 0.004289259 217.6207   8.102      0          0          1345.943   0.09753974 0.07203661 0.1230429 
1124.2     0.212      100.4      4.933848   9.525      26.669     16.7273    9.545001   8.389      6.304      1.698      3.096      1.277      11.1266    0.08318357 0.08318357 0.11765    0.09725672 136.1115   6.304      0.177985   0.2769663  1340.147   0.1044438  0.08725167 0.1216359 
