~Version
 VERS              .         2.0                           : CWLS LOG ASCII STANDARD - VERSION 2.0
 WRAP              .         NO                            : ONE LINE PER DEPTH STEP
 DLM               .         SPACE                         : DELIMITING CHARACTER(SPACE TAB OR COMMA)
~Well Information
#_______________________________________________________________________________
#
#PARAMETER_NAME    .UNIT     VALUE                         : DESCRIPTION
#_______________________________________________________________________________
STRT               .M        850                           : First reference value
STOP               .M        1170                          : Last reference value
STEP               .M        0.2                           : Step increment
NULL               .         -9999                         : Missing value
COMP               .                                       : Company
WELL               .         8416                          : Well name
FLD                .         УЗЕНЬ                         : Field
LOC                .                                       : Location
CNTY               .                                       : County
STAT               .                                       : State
CTRY               .                                       : Country
SRVC               .                                       : Service Company
DATE               .                                       : Date
UWI                .                                       : Unique Well ID
4_кв_для_Заказчика .         1                             : 
Block              .         7                             : 
Category           .         Нефтяная                      : 
Condition          .         В работе                      : 
Date               .         28.05.1993                    : 
EREF               .m        82.3                          : 100.8
GRP                .                                       : Group name
Gor                .         15                            : 
Gorizont           .         15                            : 14
ISS                .         БКЗ, магнитная лента          : Well surveys
Interpretator      .         Кайсанов Е.К                  : 
Kupol              .         Основной                      : osnovnoi
METD               .         БКЗ                           : Method
Mud                .                                       : 
Mud_density        .                                       : 
Mud_resistivity    .                                       : 
NGDU               .         НГДУ-2                        : 
ORIGINALWELLNAME   .         8416                          : 
Otmetka            .                                       : 
Spud_date          .         1993                          : 1961
TIME               .         14_34                         : LOG TIME
Viscosity          .                                       : 
X                  .m        42949.6                       : 46154
Y                  .m        83762.13                      : 85761.93
YEAR               .         2018                          : 
~Parameter Information Block
#_______________________________________________________________________________
#
#PARAMETER_NAME    .UNIT     VALUE                         : DESCRIPTION
#_______________________________________________________________________________
SET                .         LQC_KAZNIPI_Petrel            : 
TLFamily_CALI      .         Caliper                       : 
TLFamily_CILD      .         Conductivity                  : 
TLFamily_DEPT      .         Measured Depth                : 
TLFamily_GR        .         Russian Gamma Ray             : 
TLFamily_GZ1       .         Gradient 045                  : 
TLFamily_GZ2       .         Gradient 105                  : 
TLFamily_GZ3       .         Gradient 225                  : 
TLFamily_GZ4       .         Gradient 425                  : 
TLFamily_GZ5       .         Gradient 850                  : 
TLFamily_LLS       .         Lateral Log Resistivity       : 
TLFamily_MINV      .         Micro Gradient Resistivity    : 
TLFamily_MNOR      .         Micro Resistivity             : 
TLFamily_NGLD      .         Neutron Far                   : 
TLFamily_OGZ3      .         Gradient Inverted 225         : 
TLFamily_PHIE      .         Effective Porosity            : 
TLFamily_PHIEN     .         Effective Porosity            : 
TLFamily_PHIT      .         Porosity                      : 
TLFamily_PRMB      .         Permeability                  : 
TLFamily_PRMB_DGR  .         Permeability                  : 
TLFamily_RT        .         Formation Resistivity         : 
TLFamily_SOIL_ARCHIE .         Oil Saturation                : 
TLFamily_SOIL_DW   .         Oil Saturation                : 
TLFamily_SP        .         Spontaneous Potential         : 
TLFamily_VSH_FIN   .         Shale Volume                  : 
TLFamily_VSH_GR    .         Shale Volume                  : 
TLFamily_VSH_SP    .         Shale Volume                  : 
~Curve Information
#_______________________________________________________________________________
#
#LOGNAME           .UNIT     LOG_ID                        : DESCRIPTION
#_______________________________________________________________________________
DEPT               .M                                      : Колонка глубины 
CALI               .м                                      : Каверномер 
CILD               .мСм/м                                  : Индукционный каротаж 
GR                 .uR/h                                   : Гамма каротаж 
GZ1                .Ohmm                                   : А0.4М0.1N 
GZ2                .Ohmm                                   : A1.0M0.1N 
GZ3                .Ohmm                                   : 216.20 - 1352.60- 285.20 - 1164.30 
GZ4                .Ohmm                                   : A4M0.5N 
GZ5                .Ohmm                                   : A8M1N 
LLS                .Ohmm                                   : Боковой каротаж 
MINV               .Ohmm                                   : Микро-градиент зонд 
MNOR               .Ohmm                                   : Микро-потенциал зонд 
NGLD               .у.е.                                   : Показания зонда НГК-60 аппаратуры ДРСТ-3-90 
OGZ3               .Ohmm                                   : 211.70 - 1348.10- 280.70 - 1159.80 
PHIE               .v/v                                    : Описание 
PHIEN              .v/v                                    :  
PHIT               .v/v                                    : Описание 
PRMB               .mD                                     :  
PRMB_DGR           .mD                                     :  
RT                 .ohmm                                   : УЭС пласта 
SOIL_ARCHIE        .v/v                                    :  
SOIL_DW            .v/v                                    :  
SP                 .мВ                                     : Потенциал самополяризации 
VSH_FIN            .v/v                                    : Описание 
VSH_GR             .v/v                                    : Shale volume 
VSH_SP             .v/v                                    : Shale Volume 
~Ascii
# ...
872.4      0.21       258.2      3.933918   -9999      -9999      3.0707     -9999      -9999      3.668      0.876      1.534      1.187      7.238299   0.1012458  0.1012458  0.16715    0.2101242  54.05151   3.186      0.04582315 0.237683   1458.276   0.1997096  0.1272187  0.2722006 
872.6      0.21       243.3      3.779173   -9999      -9999      2.7071     -9999      -9999      2.722      1.115      1.899      1.184      7.537399   0.1025695  0.1025695  0.1688     0.2223278  69.634     3.381      0.08249384 0.2681554  1456.717   0.2006985  0.1147173  0.2866797 
872.8      0.21       246.6      3.712522   -9999      -9999      2.303      -9999      -9999      5.054      1.354      2.265      1.173      6.5803     0.1140757  0.1140757  0.17485    0.3631759  77.66151   3.336      0.1583656  0.3088496  1456.257   0.1841645  0.1097186  0.2586105 
873        0.21       271        3.710209   -9999      -9999      2.6061     -9999      -9999      5.552      1.786      3.791      1.177      5.4636     0.1108005  0.1108005  0.17265    0.315829   77.95615   3.036      0.09770913 0.2613557  1456.797   0.1874227  0.109549   0.2652963 
873.2      0.21       282.2      3.752675   -9999      -9999      3.5556     -9999      -9999      3.713      1.626      3.053      1.19       6.101699   0.09960178 0.09960178 0.1655     0.1958956  72.72099   2.915      0          0.1930084  1458.369   0.1996915  0.1127032  0.2866797 
873.4      0.211      263.2      3.827404   -9999      -9999      3.5152     -9999      -9999      2.025      1.056      1.921      1.157      7.9561     0.1174106  0.1174106  0.18365    0.4186856  64.34763   3.126      0.1537966  0.3146082  1460.971   0.2007254  0.1184759  0.2829749 
873.6      0.216      235.6      3.938767   -9999      -9999      2.5455     -9999      -9999      2.63       0.973      1.749      1.154      9.6311     0.1163178  0.1163178  0.1853     0.3996191  53.62419   3.492      0.1900705  0.352526   1464.896   0.2090368  0.1276317  0.290442  
873.8      0.211      219        4.094108   -9999      -9999      2.202      -9999      -9999      4.119      1.681      3.218      1.187      9.5713     0.09124612 0.09124612 0.16715    0.1371695  41.58376   3.757      0.03313399 0.2684643  1470.609   0.2300117  0.1415968  0.3184265 
874        0.21       206.2      4.278648   -9999      -9999      2.5253     -9999      -9999      5.387      1.685      3.469      1.232      9.650999   0.05831627 0.05831627 0.1424     0.03367572 30.74171   3.99       0          0.07083184 1478.219   0.2547992  0.1601862  0.3494121 
874.2      0.21       184.8      4.456795   -9999      -9999      2.9899     -9999      -9999      4.23       1.744      3.039      1.267      9.3719     0.02662498 0.02662498 0.12315    0.008715999 22.96556   4.452      0          0          1487.091   0.2925001  0.1804434  0.4045568 
874.4      0.211      160.4      4.600003   -9999      -9999      3.2727     -9999      -9999      5.538      1.375      2.58       1.305      8.8933     0.01       0          0.10225    0.004289259 18.16628   5.129      0          0          1495.948   0.3428003  0.1985701  0.4870305 
874.6      0.214      145.3      4.709159   -9999      -9999      4.222199   -9999      -9999      7.655      2.205      4.135      1.375      8.0957     0.01       0          0.06375    0.004289259 15.19369   5.662      0          0          1503.495   0.377198   0.2136002  0.5407957 
874.8      0.212      138.7      4.801974   -9999      -9999      5.4343     -9999      -9999      7.397      2.473      5.483      1.458      7.0189     0.01       0          0.01810003 0.004289259 13.05203   5.932      0          0          1509.193   0.3947695  0.2272718  0.5622672 
875        0.212      137        4.883392   -9999      -9999      6.1414     -9999      -9999      7.748      2.72       5.318      1.506      6.002      0.01       0          0.01       0.004289259 11.42339   6.005      0          0          1513.466   0.4122281  0.2399834  0.5844728 
875.2      0.212      138.5      4.937633   -9999      -9999      6.9293     -9999      -9999      6.746      3.018      4.974      1.476      5.323999   0.01       0          0.01       0.004289259 10.45282   5.94       0          0          1517.14    0.4242673  0.2488439  0.5996907 
875.4      0.211      144.1      4.948685   -9999      -9999      7.3939     -9999      -9999      6.512      2.632      4.673      1.385      4.8255     0.01       0          0.05825001 0.004289259 10.26541   5.709      0          0          1520.707   0.4409133  0.2506891  0.6311374 
875.6      0.212      149.7      4.92415    -9999      -9999      7.1919     -9999      -9999      6.035      3.026      4.573      1.251      4.1276     0.01       0          0.13195    0.004289259 10.6861    5.496      0          0          1524.05    0.4637515  0.2466113  0.6808918 
875.8      0.214      152.4      4.900733   -9999      -9999      6.646501   -9999      -9999      4.846      2.373      3.483      1.165      3.7488     0.02254282 0.02254282 0.17925    0.007323283 11.10369   5.398      0          0.09639007 1526.728   0.4748703  0.2427812  0.7069594 
876        0.214      160.7      4.940148   -9999      -9999      6.303      -9999      -9999      5.088      2.079      3.87       1.094      3.4696     0.06052337 0.06052337 0.2183     0.03699966 10.40987   5.119      0          0.3877053  1528.481   0.478111   0.2492627  0.7069594 
876.2      0.214      183        5.104171   -9999      -9999      6.9293     -9999      -9999      6.08       2.75       4.63       1.085      3.2702     0.05776595 0.05776595 0.22325    0.03289452 7.958584   4.496      0          0.3468642  1529.489   0.5014668  0.2781461  0.7247875 
876.4      0.214      211        5.406633   -9999      -9999      8          -9999      -9999      5.518      2.356      3.691      1.048      2.8714     0.07077441 0.07077441 0.2436     0.05728907 4.850713   3.899      0          0.3808304  1530.284   0.5237139  0.3404684  0.7069594 
876.6      0.213      235.3      5.78282    -9999      -9999      8.404      -9999      -9999      4.329      1.509      1.935      1          2.7517     0.08111348 0.08111348 0.27       0.08903822 2.620364   3.496      0          0.4165546  1531.446   0.5723834  0.4378074  0.7069594 
876.8      0.215      252.2      6.114416   -9999      -9999      8.8081     -9999      -9999      3.229      0.864      1.749      0.933      2.9312     0.09409527 0.09409527 0.30685    0.1548926  1.522715   3.262      0          0.4721601  1533.186   0.6447113  0.5464429  0.7429796 
877        0.219      259.4      6.294595   -9999      -9999      8.6869     -9999      -9999      2.536      0.625      1.24       0.906      3.5095     0.09278864 0.09278864 0.3217     0.146497   1.133765   3.172      0          0.4789445  1535.176   0.6936707  0.6163827  0.7709588 
877.2      0.234      255.8      6.280118   -9999      -9999      7.697      -9999      -9999      2.406      0.771      1.233      0.913      3.7687     0.08676352 0.08676352 0.31785    0.1132998  1.160957   3.216      0          0.4667758  1536.747   0.7002621  0.6104465  0.7900777 
877.4      0.25       239.2      6.10982    -9999      -9999      6.8687     -9999      -9999      2.482      0.822      1.032      0.937      5.1645     0.0827635  0.0827635  0.30465    0.0955298  1.534215   3.439      0          0.4611823  1537.204   0.6723834  0.5447667  0.8       
877.6      0.251      221.3      5.893679   -9999      -9999      6.1818     -9999      -9999      2.741      0.516      0.917      0.954      6.3809     0.08550543 0.08550543 0.2953     0.1073807  2.185486   3.718      0          0.4763647  1536.184   0.6357411  0.4714822  0.8       
877.8      0.268      229.7      5.771672   -9999      -9999      5.494901   -9999      -9999      5.407      2.205      4.014      0.987      5.663      0.08133286 0.08133286 0.27715    0.08987522 2.668622   3.582      0          0.4340869  1533.954   0.5933853  0.4345571  0.7522134 
