~Version
 VERS              .         2.0                           : CWLS LOG ASCII STANDARD - VERSION 2.0
 WRAP              .         NO                            : ONE LINE PER DEPTH STEP
 DLM               .         SPACE                         : DELIMITING CHARACTER(SPACE TAB OR COMMA)
~Well Information
#_______________________________________________________________________________
#
#PARAMETER_NAME    .UNIT     VALUE                         : DESCRIPTION
#_______________________________________________________________________________
STRT               .M        850                           : First reference value
STOP               .M        1170                          : Last reference value
STEP               .M        0.2                           : Step increment
NULL               .         -9999                         : Missing value
COMP               .                                       : Company
WELL               .         8416                          : Well name
FLD                .         УЗЕНЬ                         : Field
LOC                .                                       : Location
CNTY               .                                       : County
STAT               .                                       : State
CTRY               .                                       : Country
SRVC               .                                       : Service Company
DATE               .                                       : Date
UWI                .                                       : Unique Well ID
4_кв_для_Заказчика .         1                             : 
Block              .         7                             : 
Category           .         Нефтяная                      : 
Condition          .         В работе                      : 
Date               .         28.05.1993                    : 
EREF               .m        82.3                          : 100.8
GRP                .                                       : Group name
Gor                .         15                            : 
Gorizont           .         15                            : 14
ISS                .         БКЗ, магнитная лента          : Well surveys
Interpretator      .         Кайсанов Е.К                  : 
Kupol              .         Основной                      : osnovnoi
METD               .         БКЗ                           : Method
Mud                .                                       : 
Mud_density        .                                       : 
Mud_resistivity    .                                       : 
NGDU               .         НГДУ-2                        : 
ORIGINALWELLNAME   .         8416                          : 
Otmetka            .                                       : 
Spud_date          .         1993                          : 1961
TIME               .         14_34                         : LOG TIME
Viscosity          .                                       : 
X                  .m        42949.6                       : 46154
Y                  .m        83762.13                      : 85761.93
YEAR               .         2018                          : 
~Parameter Information Block
#_______________________________________________________________________________
#
#PARAMETER_NAME    .UNIT     VALUE                         : DESCRIPTION
#_______________________________________________________________________________
SET                .         LQC_KAZNIPI_Petrel            : 
TLFamily_CALI      .         Caliper                       : 
TLFamily_CILD      .         Conductivity                  : 
TLFamily_DEPT      .         Measured Depth                : 
TLFamily_GR        .         Russian Gamma Ray             : 
TLFamily_GZ1       .         Gradient 045                  : 
TLFamily_GZ2       .         Gradient 105                  : 
TLFamily_GZ3       .         Gradient 225                  : 
TLFamily_GZ4       .         Gradient 425                  : 
TLFamily_GZ5       .         Gradient 850                  : 
TLFamily_LLS       .         Lateral Log Resistivity       : 
TLFamily_MINV      .         Micro Gradient Resistivity    : 
TLFamily_MNOR      .         Micro Resistivity             : 
TLFamily_NGLD      .         Neutron Far                   : 
TLFamily_OGZ3      .         Gradient Inverted 225         : 
TLFamily_PHIE      .         Effective Porosity            : 
TLFamily_PHIEN     .         Effective Porosity            : 
TLFamily_PHIT      .         Porosity                      : 
TLFamily_PRMB      .         Permeability                  : 
TLFamily_PRMB_DGR  .         Permeability                  : 
TLFamily_RT        .         Formation Resistivity         : 
TLFamily_SOIL_ARCHIE .         Oil Saturation                : 
TLFamily_SOIL_DW   .         Oil Saturation                : 
TLFamily_SP        .         Spontaneous Potential         : 
TLFamily_VSH_FIN   .         Shale Volume                  : 
TLFamily_VSH_GR    .         Shale Volume                  : 
TLFamily_VSH_SP    .         Shale Volume                  : 
~Curve Information
#_______________________________________________________________________________
#
#LOGNAME           .UNIT     LOG_ID                        : DESCRIPTION
#_______________________________________________________________________________
DEPT               .M                                      : Колонка глубины 
CALI               .м                                      : Каверномер 
CILD               .мСм/м                                  : Индукционный каротаж 
GR                 .uR/h                                   : Гамма каротаж 
GZ1                .Ohmm                                   : А0.4М0.1N 
GZ2                .Ohmm                                   : A1.0M0.1N 
GZ3                .Ohmm                                   : 216.20 - 1352.60- 285.20 - 1164.30 
GZ4                .Ohmm                                   : A4M0.5N 
GZ5                .Ohmm                                   : A8M1N 
LLS                .Ohmm                                   : Боковой каротаж 
MINV               .Ohmm                                   : Микро-градиент зонд 
MNOR               .Ohmm                                   : Микро-потенциал зонд 
NGLD               .у.е.                                   : Показания зонда НГК-60 аппаратуры ДРСТ-3-90 
OGZ3               .Ohmm                                   : 211.70 - 1348.10- 280.70 - 1159.80 
PHIE               .v/v                                    : Описание 
PHIEN              .v/v                                    :  
PHIT               .v/v                                    : Описание 
PRMB               .mD                                     :  
PRMB_DGR           .mD                                     :  
RT                 .ohmm                                   : УЭС пласта 
SOIL_ARCHIE        .v/v                                    :  
SOIL_DW            .v/v                                    :  
SP                 .мВ                                     : Потенциал самополяризации 
VSH_FIN            .v/v                                    : Описание 
VSH_GR             .v/v                                    : Shale volume 
VSH_SP             .v/v                                    : Shale Volume 
~Ascii
# ...
1034.8     0.231      398.1      6.573921   1.765      2.184      2.2626     1.836      1.658      1.996      0.658      1.24       0.885      2.1934     0.1246991  0.1246991  0.33325    0.5713317  0.8239066  2.067      0.02501797 0.4300936  1552.801   0.6319724  0.7022051  0.5617397 
1035       0.237      394        6.529229   1.816      2.172      2.2626     1.874      1.683      1.895      0.989      1.362      0.894      2.3529     0.1217728  0.1217728  0.3283     0.5042967  0.8793727  2.088      0.009353535 0.4226141  1554.03    0.6258399  0.6837702  0.5679097 
1035.2     0.236      387.4      6.440636   1.854      2.248      2.303      1.912      1.696      1.985      0.998      1.355      0.876      2.3529     0.1339679  0.1339679  0.3382     0.848337   1.000603   2.124      0.09565619 0.4572485  1556.015   0.6188852  0.6486454  0.589125  
1035.4     0.236      381.8      6.308712   1.88       2.299      2.303      1.937      1.734      1.937      0.591      1.276      0.855      2.5324     0.1586786  0.1586786  0.34975    2.433718   1.212782   2.155      0.2249133  0.5044084  1559.266   0.5790043  0.5996568  0.5583518 
1035.6     0.242      375.5      6.140882   1.829      2.299      2.303      1.975      1.81       2.078      0.604      1.319      0.846      2.4526     0.1565684  0.1565684  0.3547     2.224256   1.548947   2.191      0.2218958  0.5103537  1563.735   0.6003987  0.542645   0.6581524 
1035.8     0.238      364.2      5.954309   1.867      2.388      2.3434     2.001      1.836      2.293      0.96       1.491      0.844      2.4726     0.1573441  0.1573441  0.3558     2.299073   2.033092   2.259      0.2362708  0.5196013  1568.571   0.6013815  0.4856052  0.7171578 
1036       0.233      359.2      5.768918   2.019      2.4        2.303      2.026      1.836      2.151      0.671      1.347      0.834      2.4128     0.1714451  0.1714451  0.3613     4.195059   2.663966   2.29       0.295798   0.5424293  1572.725   0.5753177  0.4348671  0.7157683 
1036.2     0.234      365.1      5.614149   2.007      2.426      2.303      2.064      1.861      2.51       0.876      1.949      0.827      2.3729     0.1696075  0.1696075  0.36515    3.878835   3.338209   2.253      0.2837031  0.5398417  1575.481   0.5925528  0.396594   0.7885116 
1036.4     0.235      369.6      5.53091    2.146      2.565      2.303      2.09       1.887      3.017      1.299      2.093      0.834      2.3131     0.1691682  0.1691682  0.3613     3.806834   3.768877   2.226      0.27801    0.5335402  1576.619   0.5822175  0.3774224  0.7870127 
1036.6     0.229      369.3      5.542654   2.261      2.642      2.202      2.102      1.861      2.232      0.704      1.319      0.84       2.3928     0.171897   0.171897   0.358      4.276681   3.704904   2.228      0.2883024  0.5339272  1576.608   0.5639486  0.3800699  0.7478274 
1036.8     0.239      369        5.62828    2.273      2.642      2.202      2.102      1.861      2.055      0.788      1.548      0.846      2.4128     0.1685676  0.1685676  0.3547     3.710556   3.270142   2.23       0.2763799  0.5279573  1576.51    0.5640376  0.3999442  0.7281309 
1037       0.248      368.7      5.740525   2.197      2.718      2.2424     2.09       1.874      2.105      0.562      1.24       0.846      2.672      0.1642399  0.1642399  0.3547     3.085178   2.776542   2.231      0.259957   0.5233932  1577.33    0.5771517  0.4275792  0.7267241 
1037.2     0.24       366.9      5.844262   2.007      2.73       2.1818     2.064      1.887      2.092      1.052      1.218      0.842      2.7717     0.1545549  0.1545549  0.3569     2.04122    2.386866   2.242      0.2215258  0.5155036  1579.341   0.6131669  0.4548145  0.7715194 
1037.4     0.242      362.5      5.919177   2.019      2.807      2.1818     2.039      1.887      2.07       1.107      1.519      0.85       2.672      0.1422251  0.1422251  0.3525     1.20646    2.139928   2.27       0.1679264  0.4996463  1582.025   0.6371965  0.4755554  0.7988376 
1037.6     0.236      358.6      5.940435   1.994      2.654      2.202      2.014      1.899      2.204      1.128      1.684      0.857      2.7517     0.1371841  0.1371841  0.34865    0.9730623  2.074629   2.294      0.1455859  0.4921679  1584.332   0.6408057  0.4816114  0.8       
1037.8     0.242      361.9      5.892336   1.93       2.527      2.1414     1.975      1.887      2.423      1.006      1.749      0.882      2.5125     0.125677   0.125677   0.3349     0.5956647  2.225319   2.273      0.07385173 0.4597634  1584.95    0.6340089  0.4680178  0.8       
1038       0.239      369.3      5.80328    2.032      2.654      2.202      1.912      1.887      2.706      0.956      1.964      0.889      2.5922     0.1258141  0.1258141  0.33105    0.5991577  2.533808   2.228      0.06600759 0.4504808  1583.032   0.6219268  0.4438537  0.8       
1038.2     0.239      373.2      5.73559    2.184      2.705      2.303      1.874      1.874      2.687      1.4        1.749      0.906      2.4726     0.1252675  0.1252675  0.3217     0.5853511  2.796588   2.204      0.05768195 0.4363823  1579.08    0.5952499  0.426325   0.7641748 
1038.4     0.249      374.9      5.717869   2.286      2.705      2.3434     1.836      1.836      2.163      0.922      1.19       0.887      2.5324     0.151427   0.151427   0.33215    1.786293   2.869773   2.194      0.1994499  0.4837494  1574.821   0.5476456  0.4218516  0.6734395 
1038.6     0.244      376.1      5.714083   2.235      2.718      2.3838     1.747      1.81       2.154      0.931      1.347      0.848      2.672      0.1732512  0.1732512  0.3536     4.530963   2.885656   2.187      0.2869622  0.527385   1571.872   0.5465115  0.420902   0.672121  
1038.8     0.242      374.9      5.677084   2.134      2.756      2.303      1.683      1.785      2.065      0.729      1.67       0.819      2.672      0.1908054  0.1908054  0.36955    9.579354   3.04557    2.194      0.3454303  0.5575182  1570.693   0.5416504  0.4117334  0.6715674 
1039       0.236      365.4      5.604235   2.019      2.68       2.202      1.607      1.76       1.953      1.031      1.663      0.817      3.0309     0.1906298  0.1906298  0.37065    9.507876   3.386801   2.252      0.3528774  0.563893   1570.929   0.545516   0.3942606  0.6967714 
1039.2     0.24       343.4      5.512464   1.93       2.464      2.1818     1.582      1.76       1.807      0.671      1.469      0.841      3.5494     0.1852291  0.1852291  0.35745    7.551796   3.871602   2.396      0.3554961  0.5628629  1572.363   0.5218815  0.3733007  0.6704623 
1039.4     0.237      321.5      5.392719   1.753      2.222      2.0202     1.721      1.836      1.819      1.031      1.605      0.869      3.7687     0.171343   0.171343   0.34205    4.176828   4.610007   2.559      0.331213   0.55215    1574.981   0.5172938  0.3476183  0.6869693 
1039.6     0.215      315.5      5.227709   1.727      2.172      1.9394     1.899      2.014      2.722      0.746      1.892      0.899      3.5693     0.1469084  0.1469084  0.32555    1.473186   5.863676   2.608      0.2420871  0.5150368  1578.295   0.5413383  0.3150974  0.7675791 
1039.8     0.215      324.7      5.051326   2.095      2.629      2.303      2.09       2.128      4.046      1.467      3.247      0.912      3.0309     0.1395909  0.1395909  0.3184     1.07825    7.58296    2.534      0.1968223  0.4914999  1581.149   0.5418459  0.2836917  0.8       
1040       0.224      332.5      4.944809   2.832      3.353      2.5455     2.191      2.128      3.798      2.146      2.91       0.902      2.7517     0.1479666  0.1479666  0.3239     1.541201   8.856754   2.474      0.2279345  0.5018387  1582.479   0.5331314  0.2662627  0.8       
1040.2     0.231      329.2      4.964523   3.111      3.315      2.8283     2.153      2.052      2.712      1.362      1.756      0.902      2.6321     0.1474481  0.1474481  0.3239     1.507489   8.605854   2.499      0.2292154  0.5036821  1582.087   0.5347028  0.2694056  0.8       
