~Version
 VERS              .         2.0                           : CWLS LOG ASCII STANDARD - VERSION 2.0
 WRAP              .         NO                            : ONE LINE PER DEPTH STEP
 DLM               .         SPACE                         : DELIMITING CHARACTER(SPACE TAB OR COMMA)
~Well Information
#_______________________________________________________________________________
#
#PARAMETER_NAME    .UNIT     VALUE                         : DESCRIPTION
#_______________________________________________________________________________
STRT               .M        850                           : First reference value
STOP               .M        1170                          : Last reference value
STEP               .M        0.2                           : Step increment
NULL               .         -9999                         : Missing value
COMP               .                                       : Company
WELL               .         8416                          : Well name
FLD                .         УЗЕНЬ                         : Field
LOC                .                                       : Location
CNTY               .                                       : County
STAT               .                                       : State
CTRY               .                                       : Country
SRVC               .                                       : Service Company
DATE               .                                       : Date
UWI                .                                       : Unique Well ID
4_кв_для_Заказчика .         1                             : 
Block              .         7                             : 
Category           .         Нефтяная                      : 
Condition          .         В работе                      : 
Date               .         28.05.1993                    : 
EREF               .m        82.3                          : 100.8
GRP                .                                       : Group name
Gor                .         15                            : 
Gorizont           .         15                            : 14
ISS                .         БКЗ, магнитная лента          : Well surveys
Interpretator      .         Кайсанов Е.К                  : 
Kupol              .         Основной                      : osnovnoi
METD               .         БКЗ                           : Method
Mud                .                                       : 
Mud_density        .                                       : 
Mud_resistivity    .                                       : 
NGDU               .         НГДУ-2                        : 
ORIGINALWELLNAME   .         8416                          : 
Otmetka            .                                       : 
Spud_date          .         1993                          : 1961
TIME               .         14_34                         : LOG TIME
Viscosity          .                                       : 
X                  .m        42949.6                       : 46154
Y                  .m        83762.13                      : 85761.93
YEAR               .         2018                          : 
~Parameter Information Block
#_______________________________________________________________________________
#
#PARAMETER_NAME    .UNIT     VALUE                         : DESCRIPTION
#_______________________________________________________________________________
SET                .         LQC_KAZNIPI_Petrel            : 
TLFamily_CALI      .         Caliper                       : 
TLFamily_CILD      .         Conductivity                  : 
TLFamily_DEPT      .         Measured Depth                : 
TLFamily_GR        .         Russian Gamma Ray             : 
TLFamily_GZ1       .         Gradient 045                  : 
TLFamily_GZ2       .         Gradient 105                  : 
TLFamily_GZ3       .         Gradient 225                  : 
TLFamily_GZ4       .         Gradient 425                  : 
TLFamily_GZ5       .         Gradient 850                  : 
TLFamily_LLS       .         Lateral Log Resistivity       : 
TLFamily_MINV      .         Micro Gradient Resistivity    : 
TLFamily_MNOR      .         Micro Resistivity             : 
TLFamily_NGLD      .         Neutron Far                   : 
TLFamily_OGZ3      .         Gradient Inverted 225         : 
TLFamily_PHIE      .         Effective Porosity            : 
TLFamily_PHIEN     .         Effective Porosity            : 
TLFamily_PHIT      .         Porosity                      : 
TLFamily_PRMB      .         Permeability                  : 
TLFamily_PRMB_DGR  .         Permeability                  : 
TLFamily_RT        .         Formation Resistivity         : 
TLFamily_SOIL_ARCHIE .         Oil Saturation                : 
TLFamily_SOIL_DW   .         Oil Saturation                : 
TLFamily_SP        .         Spontaneous Potential         : 
TLFamily_VSH_FIN   .         Shale Volume                  : 
TLFamily_VSH_GR    .         Shale Volume                  : 
TLFamily_VSH_SP    .         Shale Volume                  : 
~Curve Information
#_______________________________________________________________________________
#
#LOGNAME           .UNIT     LOG_ID                        : DESCRIPTION
#_______________________________________________________________________________
DEPT               .M                                      : Колонка глубины 
CALI               .м                                      : Каверномер 
CILD               .мСм/м                                  : Индукционный каротаж 
GR                 .uR/h                                   : Гамма каротаж 
GZ1                .Ohmm                                   : А0.4М0.1N 
GZ2                .Ohmm                                   : A1.0M0.1N 
GZ3                .Ohmm                                   : 216.20 - 1352.60- 285.20 - 1164.30 
GZ4                .Ohmm                                   : A4M0.5N 
GZ5                .Ohmm                                   : A8M1N 
LLS                .Ohmm                                   : Боковой каротаж 
MINV               .Ohmm                                   : Микро-градиент зонд 
MNOR               .Ohmm                                   : Микро-потенциал зонд 
NGLD               .у.е.                                   : Показания зонда НГК-60 аппаратуры ДРСТ-3-90 
OGZ3               .Ohmm                                   : 211.70 - 1348.10- 280.70 - 1159.80 
PHIE               .v/v                                    : Описание 
PHIEN              .v/v                                    :  
PHIT               .v/v                                    : Описание 
PRMB               .mD                                     :  
PRMB_DGR           .mD                                     :  
RT                 .ohmm                                   : УЭС пласта 
SOIL_ARCHIE        .v/v                                    :  
SOIL_DW            .v/v                                    :  
SP                 .мВ                                     : Потенциал самополяризации 
VSH_FIN            .v/v                                    : Описание 
VSH_GR             .v/v                                    : Shale volume 
VSH_SP             .v/v                                    : Shale Volume 
~Ascii
# ...
1012.4     0.226      437.3      6.253295   1.943      2.375      2.1414     2.191      2.471      1.698      1.325      0.659      0.84       1.7547     0.1817218  0.1817218  0.358      6.502588   1.314824   1.881      0.2658665  0.5034459  1534.259   0.5341765  0.5801984  0.4881546 
1012.6     0.227      439.7      6.373156   1.829      2.311      2.1414     2.141      2.395      1.606      0.931      0.867      0.863      1.5952     0.1618095  0.1618095  0.34535    2.781393   1.104036   1.871      0.1857459  0.4678462  1534.11    0.5561834  0.6231071  0.4892597 
1012.8     0.231      444.2      6.528363   1.689      2.299      2.0808     2.102      2.344      1.433      0.537      1.075      0.881      1.6351     0.1374166  0.1374166  0.33545    0.9827605  0.8804833  1.852      0.05670621 0.4211124  1534.752   0.6001011  0.6834178  0.5167844 
1013       0.231      452.5      6.648103   1.626      2.261      1.9394     2.077      2.268      1.586      0.587      1.147      0.894      1.7547     0.1239532  0.1239532  0.3283     0.553443   0.7394573  1.818      0          0.3851266  1535.657   0.6192326  0.7339075  0.5045577 
1013.2     0.231      467        6.718323   1.613      2.222      2.1212     2.001      2.204      1.578      0.859      1.376      0.889      1.7149     0.1145484  0.1145484  0.33105    0.3705724  0.6675083  1.762      0          0.3612453  1536.326   0.6560653  0.7652342  0.5468965 
1013.4     0.242      479.5      6.772314   1.638      2.134      2.0202     1.848      2.166      1.58       0.763      1.29       0.867      1.7149     0.1269161  0.1269161  0.34315    0.6279894  0.6169852  1.716      0          0.3900378  1536.467   0.6552542  0.7902271  0.5202814 
1013.6     0.243      481.6      6.828339   1.6        1.968      1.9798     1.709      2.115      1.358      0.968      1.254      0.85       1.5553     0.1344605  0.1344605  0.3525     0.866349   0.5685983  1.708      0.001452244 0.4113493  1536.161   0.6607257  0.8        0.5214514 
1013.8     0.24       477.4      6.865361   1.549      1.867      1.8182     1.633      2.052      1.242      0.646      1.118      0.848      1.5952     0.1330878  0.1330878  0.3536     0.8170845  0.5387238  1.723      0          0.4129365  1535.836   0.6682188  0.8        0.5364376 
1014       0.235      469.7      6.857398   1.549      1.867      1.7374     1.62       2.001      1.412      0.704      1.032      0.868      1.5952     0.1307142  0.1307142  0.3426     0.7384185  0.5450144  1.752      0          0.4020423  1536.142   0.6420782  0.8        0.4841563 
1014.2     0.233      470.9      6.813953   1.537      1.968      1.8586     1.658      2.001      1.659      0.746      1.326      0.869      1.5952     0.1234289  0.1234289  0.34205    0.5412036  0.5806481  1.747      0          0.388212   1537.471   0.6624882  0.8        0.5249763 
1014.4     0.232      480.7      6.782024   1.549      2.032      1.7778     1.645      2.001      1.761      0.696      1.383      0.87       1.675      0.1165033  0.1165033  0.3415     0.4027936  0.6083135  1.711      0          0.3685299  1539.466   0.6818081  0.7948078  0.5688083 
1014.6     0.229      485.5      6.80684    1.651      1.968      1.8182     1.62       1.937      1.552      0.914      1.347      0.863      1.675      0.1180658  0.1180658  0.34535    0.4305489  0.5867     1.695      0          0.373089   1541.442   0.6887401  0.8        0.5774803 
1014.8     0.231      484.3      6.885804   1.638      1.905      1.7778     1.582      1.874      1.303      0.96       1.319      0.841      1.6351     0.1311788  0.1311788  0.35745    0.7531963  0.5229065  1.699      0          0.409887   1543.183   0.6856702  0.8        0.5713404 
1015       0.236      482.2      6.956664   1.562      1.892      1.6768     1.569      1.874      1.446      1.027      1.469      0.8        1.6351     0.1522925  0.1522925  0.38       1.853464   0.471587   1.706      0.103597   0.4632903  1544.943   0.6900228  0.8        0.5800456 
1015.2     0.231      482.2      6.944472   1.511      1.854      1.6566     1.569      1.887      1.405      0.855      1.462      0.788      1.7547     0.1523277  0.1523277  0.3866     1.856248   0.4800438  1.706      0.1037774  0.4691925  1546.744   0.7099162  0.8        0.6198323 
1015.4     0.227      484.3      6.827652   1.537      1.854      1.697      1.569      1.887      1.437      1.031      1.347      0.793      1.675      0.1453664  0.1453664  0.38385    1.379418   0.5691674  1.699      0.06470829 0.4565935  1548.176   0.7226777  0.8        0.6453554 
1015.6     0.224      487.2      6.66198    1.524      1.841      1.7374     1.569      1.912      1.511      0.738      1.462      0.816      1.675      0.1450619  0.1450619  0.3712     1.361619   0.7246495  1.689      0.06039925 0.4427417  1548.89    0.6852672  0.7399946  0.6305396 
1015.8     0.224      490.5      6.528225   1.587      1.816      1.7778     1.594      1.912      1.374      1.182      1.462      0.808      1.7946     0.1585784  0.1585784  0.3756     2.423343   0.8806596  1.677      0.1276343  0.4626739  1548.949   0.6576411  0.6833619  0.6319203 
1016       0.221      493.5      6.461371   1.549      1.829      1.7778     1.594      1.874      1.254      0.729      1.398      0.811      1.9143     0.1584126  0.1584126  0.37395    2.406263   0.9708093  1.667      0.1243849  0.4593563  1548.751   0.6531438  0.6567011  0.6495864 
1016.2     0.216      494.7      6.437677   1.537      1.854      1.6566     1.582      1.772      1.338      0.981      1.233      0.83       1.8345     0.1584198  0.1584198  0.3635     2.407011   1.004927   1.663      0.1234323  0.448969   1548.899   0.621455   0.6475042  0.5954058 
1016.4     0.216      494.7      6.413684   1.537      1.803      1.7576     1.544      1.721      1.283      0.671      1.29       0.849      1.8744     0.1427739  0.1427739  0.35305    1.235029   1.040698   1.663      0.04033782 0.4168179  1549.867   0.6372004  0.6383222  0.6360785 
1016.6     0.221      489        6.360619   1.511      1.791      1.697      1.455      1.721      1.241      0.817      1.39       0.876      2.0738     0.1282679  0.1282679  0.3382     0.6652594  1.1244     1.682      0          0.3804638  1551.542   0.6361579  0.6184741  0.6538416 
1016.8     0.221      478.3      6.272888   1.499      1.702      1.6364     1.455      1.696      1.162      0.96       1.29       0.871      2.1535     0.1289565  0.1289565  0.34095    0.6850854  1.2778     1.72       0          0.3916901  1553.254   0.6424047  0.5870049  0.6978045 
1017       0.229      469.1      6.173632   1.46       1.651      1.6162     1.467      1.671      1.343      0.755      1.24       0.863      2.0538     0.1386654  0.1386654  0.34535    1.036522   1.476735   1.754      0.0399252  0.4179741  1554.432   0.6263169  0.5533276  0.6993062 
1017.2     0.225      470.9      6.116342   1.499      1.74       1.6162     1.442      1.658      1.923      1.128      1.706      0.834      2.1336     0.1602898  0.1602898  0.3613     2.606834   1.605363   1.747      0.1521786  0.4626819  1555.014   0.6091219  0.5347757  0.683468  
1017.4     0.224      475.1      6.143228   1.714      1.765      1.5354     1.417      1.645      1.561      1.09       1.706      0.817      2.1934     0.1679725  0.1679725  0.37065    3.617563   1.54366    1.732      0.1827531  0.4781449  1555.031   0.6141743  0.5434032  0.6849455 
1017.6     0.22       466.4      6.235514   1.638      1.803      1.6364     1.353      1.594      1.482      1.073      1.24       0.823      2.1137     0.1510656  0.1510656  0.36735    1.758974   1.349352   1.764      0.111312   0.4591202  1554.104   0.6554072  0.5740897  0.7367249 
1017.8     0.219      452.2      6.320009   1.702      1.753      1.5354     1.34       1.594      1.465      0.884      1.476      0.829      2.1934     0.1490066  0.1490066  0.36405    1.611099   1.192973   1.819      0.1134913  0.461607   1552.062   0.6516466  0.603703   0.6995903 
