~Version
 VERS              .         2.0                           : CWLS LOG ASCII STANDARD - VERSION 2.0
 WRAP              .         NO                            : ONE LINE PER DEPTH STEP
 DLM               .         SPACE                         : DELIMITING CHARACTER(SPACE TAB OR COMMA)
~Well Information
#_______________________________________________________________________________
#
#PARAMETER_NAME    .UNIT     VALUE                         : DESCRIPTION
#_______________________________________________________________________________
STRT               .M        850                           : First reference value
STOP               .M        1170                          : Last reference value
STEP               .M        0.2                           : Step increment
NULL               .         -9999                         : Missing value
COMP               .                                       : Company
WELL               .         8416                          : Well name
FLD                .         УЗЕНЬ                         : Field
LOC                .                                       : Location
CNTY               .                                       : County
STAT               .                                       : State
CTRY               .                                       : Country
SRVC               .                                       : Service Company
DATE               .                                       : Date
UWI                .                                       : Unique Well ID
4_кв_для_Заказчика .         1                             : 
Block              .         7                             : 
Category           .         Нефтяная                      : 
Condition          .         В работе                      : 
Date               .         28.05.1993                    : 
EREF               .m        82.3                          : 100.8
GRP                .                                       : Group name
Gor                .         15                            : 
Gorizont           .         15                            : 14
ISS                .         БКЗ, магнитная лента          : Well surveys
Interpretator      .         Кайсанов Е.К                  : 
Kupol              .         Основной                      : osnovnoi
METD               .         БКЗ                           : Method
Mud                .                                       : 
Mud_density        .                                       : 
Mud_resistivity    .                                       : 
NGDU               .         НГДУ-2                        : 
ORIGINALWELLNAME   .         8416                          : 
Otmetka            .                                       : 
Spud_date          .         1993                          : 1961
TIME               .         14_34                         : LOG TIME
Viscosity          .                                       : 
X                  .m        42949.6                       : 46154
Y                  .m        83762.13                      : 85761.93
YEAR               .         2018                          : 
~Parameter Information Block
#_______________________________________________________________________________
#
#PARAMETER_NAME    .UNIT     VALUE                         : DESCRIPTION
#_______________________________________________________________________________
SET                .         LQC_KAZNIPI_Petrel            : 
TLFamily_CALI      .         Caliper                       : 
TLFamily_CILD      .         Conductivity                  : 
TLFamily_DEPT      .         Measured Depth                : 
TLFamily_GR        .         Russian Gamma Ray             : 
TLFamily_GZ1       .         Gradient 045                  : 
TLFamily_GZ2       .         Gradient 105                  : 
TLFamily_GZ3       .         Gradient 225                  : 
TLFamily_GZ4       .         Gradient 425                  : 
TLFamily_GZ5       .         Gradient 850                  : 
TLFamily_LLS       .         Lateral Log Resistivity       : 
TLFamily_MINV      .         Micro Gradient Resistivity    : 
TLFamily_MNOR      .         Micro Resistivity             : 
TLFamily_NGLD      .         Neutron Far                   : 
TLFamily_OGZ3      .         Gradient Inverted 225         : 
TLFamily_PHIE      .         Effective Porosity            : 
TLFamily_PHIEN     .         Effective Porosity            : 
TLFamily_PHIT      .         Porosity                      : 
TLFamily_PRMB      .         Permeability                  : 
TLFamily_PRMB_DGR  .         Permeability                  : 
TLFamily_RT        .         Formation Resistivity         : 
TLFamily_SOIL_ARCHIE .         Oil Saturation                : 
TLFamily_SOIL_DW   .         Oil Saturation                : 
TLFamily_SP        .         Spontaneous Potential         : 
TLFamily_VSH_FIN   .         Shale Volume                  : 
TLFamily_VSH_GR    .         Shale Volume                  : 
TLFamily_VSH_SP    .         Shale Volume                  : 
~Curve Information
#_______________________________________________________________________________
#
#LOGNAME           .UNIT     LOG_ID                        : DESCRIPTION
#_______________________________________________________________________________
DEPT               .M                                      : Колонка глубины 
CALI               .м                                      : Каверномер 
CILD               .мСм/м                                  : Индукционный каротаж 
GR                 .uR/h                                   : Гамма каротаж 
GZ1                .Ohmm                                   : А0.4М0.1N 
GZ2                .Ohmm                                   : A1.0M0.1N 
GZ3                .Ohmm                                   : 216.20 - 1352.60- 285.20 - 1164.30 
GZ4                .Ohmm                                   : A4M0.5N 
GZ5                .Ohmm                                   : A8M1N 
LLS                .Ohmm                                   : Боковой каротаж 
MINV               .Ohmm                                   : Микро-градиент зонд 
MNOR               .Ohmm                                   : Микро-потенциал зонд 
NGLD               .у.е.                                   : Показания зонда НГК-60 аппаратуры ДРСТ-3-90 
OGZ3               .Ohmm                                   : 211.70 - 1348.10- 280.70 - 1159.80 
PHIE               .v/v                                    : Описание 
PHIEN              .v/v                                    :  
PHIT               .v/v                                    : Описание 
PRMB               .mD                                     :  
PRMB_DGR           .mD                                     :  
RT                 .ohmm                                   : УЭС пласта 
SOIL_ARCHIE        .v/v                                    :  
SOIL_DW            .v/v                                    :  
SP                 .мВ                                     : Потенциал самополяризации 
VSH_FIN            .v/v                                    : Описание 
VSH_GR             .v/v                                    : Shale volume 
VSH_SP             .v/v                                    : Shale Volume 
~Ascii
# ...
995.6      0.221      181.5      2.284195   3.797      5.372      3.0505     2.331      1.836      5.258      -9999      3.963      1.378      4.0678     0.01854204 0.01854204 0.06209999 0.006174497 173.9895   4.533      0          0          1484.99    0.1319938  0.07892851 0.1850591 
995.8      0.215      176.8      2.273419   3.95       5.994      3.5152     2.636      2.026      4.85       -9999      4.1        1.377      4.2672     0.02225642 0.02225642 0.06265002 0.007234373 177.3651   4.653      0          0          1480.469   0.1224048  0.07831164 0.166498  
996        0.216      173.5      2.288318   4.077      6.07       4.040401   2.991      2.191      4.846      -9999      3.412      1.378      4.2672     0.02146313 0.02146313 0.06209999 0.006993704 172.7152   4.742      0          0          1480.711   0.123142   0.07916578 0.1671182 
996.2      0.221      177.7      2.344205   4.14       6.667      4.8081     3.36       2.268      5.2        -9999      4.938      1.37       3.9681     0.0179104  0.0179104  0.0665     0.006010383 156.3333   4.63       0          0          1485.288   0.1472412  0.08245362 0.2120288 
996.4      0.222      187.8      2.451381   4.712      8.255001   5.596      3.499      2.318      6.727      -9999      4.042      1.331      3.5494     0.04006142 0.04006142 0.08795001 0.0154594  129.1381   4.381      0          0          1492.704   0.145117   0.08914567 0.2010882 
996.6      0.213      199.7      2.622318   4.991      8.953      5.939401   3.411      2.255      4.87       -9999      4.157      1.243      3.1705     0.08032086 0.08032086 0.13635    0.0860786  95.20972   4.12       0          0.1690154  1501.66    0.1697852  0.1009608  0.2386097 
996.8      0.211      220.8      2.8666     4.75       8.255001   6.2828     3.271      2.166      4.526      -9999      3.526      1.119      2.9312     0.1367342  0.1367342  0.20455    0.9545681  61.58997   3.726      0.3175655  0.4464792  1511.183   0.2055025  0.1206139  0.2903911 
997        0.211      237.1      3.172667   4.521      8.064      6.222199   3.169      2.077      4.43       -9999      1.362      0.992      3.0309     0.1980995  0.1980995  0.2744     13.07499   35.68554   3.47       0.4890968  0.5857425  1520.249   0.2312137  0.1507231  0.3117042 
997.2      0.212      246.9      3.501627   4.216001   7.366      6.242401   3.118      2.014      2.914      -9999      1.462      0.911      3.0309     0.2275229  0.2275229  0.31895    45.86      19.84935   3.332      0.5384396  0.634496   1527.874   0.2770518  0.1915142  0.3625894 
997.4      0.211      271.3      3.804447   3.404      6.54       6.1414     3.144      1.912      3.321      -9999      3.139      0.876      2.9113     0.23009    0.23009    0.3382     51.16614   11.56759   3.032      0.5222362  0.6315396  1533.381   0.3276062  0.2387573  0.4164551 
997.6      0.211      295.9      4.053482   3.365      6.382      5.7778     3.093      1.861      3.741      -9999      1.276      0.88       2.9312     0.2241434  0.2241434  0.336      39.70431   7.419776   2.78       0.490902   0.6095577  1536.774   0.3389594  0.286223   0.3916958 
997.8      0.211      309.3      4.25565    2.781      5.651      5.6566     2.991      1.874      2.362      0          1.476      0.87       3.3699     0.2191625  0.2191625  0.3415     32.10554   5.174067   2.66       0.4699777  0.6010476  1538.731   0.3707196  0.3316139  0.4098252 
998        0.211      319.7      4.424832   2.603      4.547      5.494901   2.966      1.836      2.243      -9999      1.24       0.87       3.5494     0.2097986  0.2097986  0.3415     21.53461   3.82664    2.573      0.4407736  0.5871511  1540.046   0.3990952  0.3750855  0.4231049 
998.2      0.211      325.6      4.549715   2.337      3.988      4.767701   2.915      1.823      2.207      -9999      1.405      0.872      3.6291     0.2033649  0.2033649  0.3404     16.36702   3.06273    2.527      0.4205111  0.5773643  1541.126   0.4152579  0.4107899  0.4197258 
998.4      0.21       314.3      4.597994   2.172      3.531      4.4444     2.852      1.836      2.024      -9999      0.975      0.883      3.7089     0.1907256  0.1907256  0.33435    9.546809   2.810096   2.618      0.3972932  0.5694194  1542.08    0.4352255  0.425487   0.4449641 
998.6      0.212      288.5      4.542736   1.88       2.921      4.1212     2.75       1.912      1.683      -0.004     1.032      0.906      4.2273     0.1833371  0.1833371  0.3217     6.966362   3.10108    2.852      0.4007566  0.57108    1542.861   0.4192815  0.4087078  0.4298551 
998.8      0.214      271.8      4.381059   1.791      2.692      3.9192     2.953      2.026      2.466      -9999      3.297      0.936      4.6261     0.1700675  0.1700675  0.3052     3.95568    4.137289   3.027      0.3778644  0.5572444  1543.3     0.4094924  0.3633193  0.4556655 
999        0.216      269.2      4.151551   2.121      2.921      3.4141     3.258      2.153      4.004      -9999      4.479      1.003      4.6261     0.1400224  0.1400224  0.26835    1.098277   6.2294     3.056      0.26638    0.4857978  1543.191   0.3888716  0.307408   0.4703352 
999.2      0.227      270.7      3.937854   2.629      3.251      3.5556     3.411      2.229      4.963      0          2.953      1.054      4.3669     0.1276453  0.1276453  0.2403     0.6478252  9.118696   3.039      0.2027143  0.4281564  1542.562   0.341378   0.2631126  0.4196434 
999.4      0.216      273.3      3.83022    3.277      3.696      3.6364     3.372      2.255      4.084      -9999      3.777      1.089      4.0678     0.1035141  0.1035141  0.22105    0.2314676  11.04801   3.01       0.03876571 0.3443849  1541.661   0.3561694  0.24328    0.4690588 
999.6      0.225      270.1      3.860353   3.67       4.039      3.8788     3.22       2.331      4.423      -9999      1.555      1.062      4.0479     0.1248923  0.1248923  0.2359     0.5760573  10.47006   3.046      0.1883062  0.4174064  1540.69    0.336387   0.2486766  0.4240974 
999.8      0.242      249.6      3.966366   3.378      3.912      3.7374     3.093      2.509      2.643      -9999      1.032      1.029      4.5264     0.1374859  0.1374859  0.25405    0.985666   8.666692   3.296      0.2805871  0.4843848  1539.8     0.3532246  0.2686318  0.4378174 
1000       0.244      224        4.031592   2.857      3.619      3.4545     3.284      2.649      2.438      -9999      1.362      1.018      5.6231     0.1409986  0.1409986  0.2601     1.144968   7.715112   3.673      0.3310952  0.5232399  1539.122   0.3609135  0.2816973  0.4401296 
1000.2     0.243      216.6      3.975649   2.324      3.975      3.0505     3.804      2.826      3.831      0.008      4.365      1.079      5.822501   0.1126976  0.1126976  0.22655    0.342445   8.524403   3.798      0.1996356  0.443483   1538.862   0.3450073  0.2704538  0.4195609 
1000.4     0.243      228.5      3.818321   2.832      4.902      2.9899     4.134      2.966      6.599      -9999      4.35       1.185      5.2243     0.05506489 0.05506489 0.16825    0.02931524 11.28493   3.6        0          0.10365    1539.362   0.3429853  0.2411814  0.4447891 
1000.6     0.246      242.1      3.652997   3.772      5.766      3.5152     3.982      2.928      5.694      -9999      3.455      1.254      4.347      0.02505592 0.02505592 0.1303     0.008151818 15.15393   3.398      0          0          1540.85    0.3189215  0.2138289  0.4240142 
1000.8     0.218      242.1      3.554754   4.356      5.677001   4.0808     3.474      2.814      3.518      -9999      1.498      1.218      3.988      0.04008451 0.04008451 0.1501     0.01547463 18.05529   3.398      0          0          1543.051   0.3333802  0.1990676  0.4676928 
1001       0.211      228.8      3.516587   3.658      5.296      4.1414     3.093      2.712      3.078      -9999      1.211      1.115      4.347      0.08863191 0.08863191 0.20675    0.1226976  19.32685   3.596      0          0.3371318  1545.059   0.3579336  0.1936118  0.5222555 
