~Version
 VERS              .         2.0                           : CWLS LOG ASCII STANDARD - VERSION 2.0
 WRAP              .         NO                            : ONE LINE PER DEPTH STEP
 DLM               .         SPACE                         : DELIMITING CHARACTER(SPACE TAB OR COMMA)
~Well Information
#_______________________________________________________________________________
#
#PARAMETER_NAME    .UNIT     VALUE                         : DESCRIPTION
#_______________________________________________________________________________
STRT               .M        850                           : First reference value
STOP               .M        1170                          : Last reference value
STEP               .M        0.2                           : Step increment
NULL               .         -9999                         : Missing value
COMP               .                                       : Company
WELL               .         8416                          : Well name
FLD                .         УЗЕНЬ                         : Field
LOC                .                                       : Location
CNTY               .                                       : County
STAT               .                                       : State
CTRY               .                                       : Country
SRVC               .                                       : Service Company
DATE               .                                       : Date
UWI                .                                       : Unique Well ID
4_кв_для_Заказчика .         1                             : 
Block              .         7                             : 
Category           .         Нефтяная                      : 
Condition          .         В работе                      : 
Date               .         28.05.1993                    : 
EREF               .m        82.3                          : 100.8
GRP                .                                       : Group name
Gor                .         15                            : 
Gorizont           .         15                            : 14
ISS                .         БКЗ, магнитная лента          : Well surveys
Interpretator      .         Кайсанов Е.К                  : 
Kupol              .         Основной                      : osnovnoi
METD               .         БКЗ                           : Method
Mud                .                                       : 
Mud_density        .                                       : 
Mud_resistivity    .                                       : 
NGDU               .         НГДУ-2                        : 
ORIGINALWELLNAME   .         8416                          : 
Otmetka            .                                       : 
Spud_date          .         1993                          : 1961
TIME               .         14_34                         : LOG TIME
Viscosity          .                                       : 
X                  .m        42949.6                       : 46154
Y                  .m        83762.13                      : 85761.93
YEAR               .         2018                          : 
~Parameter Information Block
#_______________________________________________________________________________
#
#PARAMETER_NAME    .UNIT     VALUE                         : DESCRIPTION
#_______________________________________________________________________________
SET                .         LQC_KAZNIPI_Petrel            : 
TLFamily_CALI      .         Caliper                       : 
TLFamily_CILD      .         Conductivity                  : 
TLFamily_DEPT      .         Measured Depth                : 
TLFamily_GR        .         Russian Gamma Ray             : 
TLFamily_GZ1       .         Gradient 045                  : 
TLFamily_GZ2       .         Gradient 105                  : 
TLFamily_GZ3       .         Gradient 225                  : 
TLFamily_GZ4       .         Gradient 425                  : 
TLFamily_GZ5       .         Gradient 850                  : 
TLFamily_LLS       .         Lateral Log Resistivity       : 
TLFamily_MINV      .         Micro Gradient Resistivity    : 
TLFamily_MNOR      .         Micro Resistivity             : 
TLFamily_NGLD      .         Neutron Far                   : 
TLFamily_OGZ3      .         Gradient Inverted 225         : 
TLFamily_PHIE      .         Effective Porosity            : 
TLFamily_PHIEN     .         Effective Porosity            : 
TLFamily_PHIT      .         Porosity                      : 
TLFamily_PRMB      .         Permeability                  : 
TLFamily_PRMB_DGR  .         Permeability                  : 
TLFamily_RT        .         Formation Resistivity         : 
TLFamily_SOIL_ARCHIE .         Oil Saturation                : 
TLFamily_SOIL_DW   .         Oil Saturation                : 
TLFamily_SP        .         Spontaneous Potential         : 
TLFamily_VSH_FIN   .         Shale Volume                  : 
TLFamily_VSH_GR    .         Shale Volume                  : 
TLFamily_VSH_SP    .         Shale Volume                  : 
~Curve Information
#_______________________________________________________________________________
#
#LOGNAME           .UNIT     LOG_ID                        : DESCRIPTION
#_______________________________________________________________________________
DEPT               .M                                      : Колонка глубины 
CALI               .м                                      : Каверномер 
CILD               .мСм/м                                  : Индукционный каротаж 
GR                 .uR/h                                   : Гамма каротаж 
GZ1                .Ohmm                                   : А0.4М0.1N 
GZ2                .Ohmm                                   : A1.0M0.1N 
GZ3                .Ohmm                                   : 216.20 - 1352.60- 285.20 - 1164.30 
GZ4                .Ohmm                                   : A4M0.5N 
GZ5                .Ohmm                                   : A8M1N 
LLS                .Ohmm                                   : Боковой каротаж 
MINV               .Ohmm                                   : Микро-градиент зонд 
MNOR               .Ohmm                                   : Микро-потенциал зонд 
NGLD               .у.е.                                   : Показания зонда НГК-60 аппаратуры ДРСТ-3-90 
OGZ3               .Ohmm                                   : 211.70 - 1348.10- 280.70 - 1159.80 
PHIE               .v/v                                    : Описание 
PHIEN              .v/v                                    :  
PHIT               .v/v                                    : Описание 
PRMB               .mD                                     :  
PRMB_DGR           .mD                                     :  
RT                 .ohmm                                   : УЭС пласта 
SOIL_ARCHIE        .v/v                                    :  
SOIL_DW            .v/v                                    :  
SP                 .мВ                                     : Потенциал самополяризации 
VSH_FIN            .v/v                                    : Описание 
VSH_GR             .v/v                                    : Shale volume 
VSH_SP             .v/v                                    : Shale Volume 
~Ascii
# ...
889.2      0.215      511        1.903196   -9999      -9999      3.3939     -9999      -9999      1.32       1.232      1.706      0.985      1.5354     0.2466395  0.2466395  0.27825    103.6384   1501.47    1.61       0.3947386  0.4498661  1417.724   0.09578926 0.03273682 0.1588417 
889.4      0.215      514.9      1.929882   -9999      -9999      2.7475     -9999      -9999      1.344      1.216      1.777      0.969      1.4756     0.2556554  0.2556554  0.28705    152.2355   1437.29    1.598      0.4113088  0.4658227  1416.871   0.09513521 0.03332602 0.1569444 
889.6      0.217      514        1.928376   -9999      -9999      2.303      -9999      -9999      1.381      1.056      1.849      0.967      1.5553     0.2566284  0.2566284  0.28815    158.6858   1440.838   1.601      0.4137694  0.4683547  1416.202   0.09552006 0.03329249 0.1577476 
889.8      0.217      495.6      1.899653   -9999      -9999      2.0404     -9999      -9999      1.302      1.547      2.035      0.996      1.9143     0.2415105  0.2415105  0.2722     83.27587   1510.203   1.66       0.3923424  0.4464019  1415.822   0.09299836 0.03265938 0.1533373 
890        0.217      459        1.85886    -9999      -9999      1.8182     -9999      -9999      0.661      1.174      1.541      1.013      2.5125     0.2319709  0.2319709  0.26285    55.43985   1614.494   1.792      0.3928314  0.4469655  1415.732   0.093573   0.03178088 0.1553651 
890.2      0.218      424.5      1.823591   -9999      -9999      1.6162     -9999      -9999      1.279      1.258      1.892      1.029      3.1505     0.2233782  0.2233782  0.25405    38.42948   1710.45    1.938      0.3951827  0.4489156  1415.89    0.09294473 0.03104041 0.1548491 
890.4      0.22       399.9      1.802189   -9999      -9999      1.6364     -9999      -9999      1.896      1.165      2.329      1.078      3.5892     0.1965854  0.1965854  0.2271     12.25733   1771.436   2.057      0.3426324  0.3976145  1416.294   0.09246869 0.03059951 0.1543379 
890.6      0.217      374.3      1.787272   -9999      -9999      1.899      -9999      -9999      3.042      1.53       2.523      1.126      4.1276     0.1707232  0.1707232  0.2007     4.067854   1815.225   2.198      0.2794734  0.3356819  1416.881   0.0908388  0.03029592 0.1513817 
890.8      0.216      341.4      1.762958   -9999      -9999      2.202      -9999      -9999      2.822      1.249      2.523      1.157      5.0648     0.1521072  0.1521072  0.18365    1.838873   1888.932   2.41       0.2369439  0.2987863  1417.368   0.09558444 0.02980752 0.1613614 
891        0.215      305.7      1.724373   -9999      -9999      2.3838     -9999      -9999      3.173      1.258      2.293      1.168      5.5833     0.1471729  0.1471729  0.1776     1.4899     2012.092   2.691      0.2543174  0.3139521  1417.496   0.09220337 0.02904856 0.1553582 
891.2      0.215      284.6      1.684328   -9999      -9999      2.8283     -9999      -9999      2.958      1.811      3.225      1.198      4.9252     0.1316893  0.1316893  0.1611     0.7697726  2148.408   2.891      0.2056879  0.2660923  1417.391   0.08912357 0.02828133 0.1499658 
891.4      0.215      273.9      1.655688   -9999      -9999      3.4141     -9999      -9999      4.404      1.903      3.67       1.268      4.5862     0.09234566 0.09234566 0.1226     0.1437553  2251.531   3.004      0          0.02090097 1417.339   0.09167979 0.02774506 0.1556145 
891.6      0.213      259.1      1.634732   -9999      -9999      4.0808     -9999      -9999      5.404      1.744      3.053      1.337      4.347      0.05475464 0.05475464 0.08464999 0.0289299  2330.109   3.175      0          0          1417.382   0.09059196 0.02735912 0.1538248 
891.8      0.212      243.6      1.608421   -9999      -9999      4.040401   -9999      -9999      3.82       2.054      3.39       1.367      4.1077     0.0388162  0.0388162  0.06815001 0.01465981 2432.664   3.377      0          0          1417.46    0.08889034 0.02688215 0.1508985 
892        0.212      237.4      1.575703   -9999      -9999      3.6364     -9999      -9999      4.057      1.325      3.139      1.368      3.4696     0.03804382 0.03804382 0.06759998 0.01418476 2566.507   3.465      0          0          1417.536   0.08956414 0.02630062 0.1528277 
892.2      0.212      244.5      1.553588   -9999      -9999      3.2929     -9999      -9999      5.191      1.903      3.784      1.344      2.9312     0.05138858 0.05138858 0.08080001 0.02506105 2661.122   3.365      0          0          1417.474   0.08912554 0.02591469 0.1523364 
892.4      0.215      243.3      1.560357   -9999      -9999      3.1515     -9999      -9999      4.67       1.677      3.103      1.334      2.672      0.05674787 0.05674787 0.08630001 0.03149679 2631.797   3.381      0          0          1417.087   0.08955193 0.02603221 0.1530716 
892.6      0.214      227.3      1.59896    -9999      -9999      3.0101     -9999      -9999      3.732      0.687      1.333      1.299      2.8514     0.07673581 0.07673581 0.10555    0.07387397 2470.631   3.619      0          0          1416.314   0.08731569 0.02671269 0.1479187 
892.8      0.215      214.8      1.662933   -9999      -9999      2.6667     -9999      -9999      3.777      1.274      2.379      1.286      3.2104     0.08358307 0.08358307 0.1127     0.09892802 2224.987   3.83       0          0.05060793 1415.242   0.08823308 0.02787974 0.1485864 
893        0.214      212.1      1.743844   -9999      -9999      2.8283     -9999      -9999      4.663      1.861      3.426      1.273      3.1505     0.09055142 0.09055142 0.11985    0.133165   1948.971   3.879      0.04116385 0.1197335  1413.975   0.08878358 0.0294291  0.148138  
893.2      0.215      218.1      1.826391   -9999      -9999      3.2525     -9999      -9999      5.077      1.853      3.469      1.27       2.9711     0.09315955 0.09315955 0.1215     0.1488329  1702.628   3.772      0.05222693 0.1248537  1412.697   0.0858802  0.03109855 0.1406618 
893.4      0.214      231.7      1.889168   -9999      -9999      3.8788     -9999      -9999      5.209      1.865      3.584      1.232      2.672      0.1131019  0.1131019  0.1424     0.3484013  1536.346   3.551      0.1765492  0.2417015  1411.65    0.08878211 0.0324313  0.1451329 
893.6      0.214      249.3      1.917574   -9999      -9999      4.3636     -9999      -9999      4.636      1.693      3.426      1.187      2.3529     0.1387517  0.1387517  0.16715    1.040343   1466.543   3.3        0.2867129  0.342229   1410.947   0.08605536 0.03305297 0.1390578 
893.8      0.214      263.2      1.915963   -9999      -9999      4.9697     -9999      -9999      3.679      1.819      3.211      1.149      2.1336     0.1591156  0.1591156  0.18805    2.479502   1470.414   3.126      0.3506117  0.4041338  1410.589   0.08768001 0.0330174  0.1423426 
894        0.214      281.1      1.899985   -9999      -9999      4.8485     -9999      -9999      3.166      1.48       2.609      1.12       2.0538     0.175491   0.175491   0.204      4.985148   1509.382   2.927      0.3850253  0.4363353  1410.579   0.08639077 0.03266664 0.1401149 
894.2      0.217      310.8      1.878082   -9999      -9999      4.6061     -9999      -9999      3.675      1.509      2.924      1.101      1.7547     0.1863633  0.1863633  0.21445    7.926069   1564.483   2.647      0.3881952  0.4385885  1410.958   0.08511139 0.03219185 0.1380309 
894.4      0.217      347.9      1.844035   -9999      -9999      4.5455     -9999      -9999      3.082      1.555      3.103      1.084      1.4357     0.1949939  0.1949939  0.2238     11.45299   1654.155   2.365      0.3799212  0.4315027  1411.59    0.0872911  0.03146749 0.1431147 
894.6      0.216      380.3      1.790927   -9999      -9999      4.222199   -9999      -9999      2.314      1.463      2.465      1.081      1.1765     0.1972007  0.1972007  0.22545    12.58328   1804.396   2.163      0.3596967  0.4108829  1412.092   0.08560394 0.03037003 0.1408379 
