~Version
 VERS              .         2.0                           : CWLS LOG ASCII STANDARD - VERSION 2.0
 WRAP              .         NO                            : ONE LINE PER DEPTH STEP
 DLM               .         SPACE                         : DELIMITING CHARACTER(SPACE TAB OR COMMA)
~Well Information
#_______________________________________________________________________________
#
#PARAMETER_NAME    .UNIT     VALUE                         : DESCRIPTION
#_______________________________________________________________________________
STRT               .M        870                           : First reference value
STOP               .M        1167.2                        : Last reference value
STEP               .M        0.2                           : Step increment
NULL               .         -9999                         : Missing value
COMP               .                                       : Company
WELL               .         2950                          : Well name
FLD                .         УЗЕНЬ                         : Field
LOC                .                                       : Location
CNTY               .                                       : County
STAT               .                                       : State
CTRY               .                                       : Country
SRVC               .                                       : Service Company
DATE               .                                       : Date
UWI                .                                       : Unique Well ID
Block              .         7                             : 
Category           .         Нагнетательная                : 
Condition          .         В работе                      : 
Date               .         24.08.2001                    : 
EREF               .m        86.2                          : 100.8
Gorizont           .         15                            : 14
Interpretator      .         Ткачева И.Г.                  : 
Kupol              .         Основной                      : osnovnoi
Mud                .         0                             : 
Mud_density        .         0                             : 
Mud_resistivity    .         0                             : 
NGDU               .         НГДУ-2                        : 
ORIGINALWELLNAME   .         2950                          : 
Spud_date          .         2001                          : 1961
Viscosity          .         0                             : 
X                  .m        42734.2                       : 46154
Y                  .m        84082.73                      : 85761.93
YEAR               .         2019                          : 
~Parameter Information Block
#_______________________________________________________________________________
#
#PARAMETER_NAME    .UNIT     VALUE                         : DESCRIPTION
#_______________________________________________________________________________
SET                .         LQC_KAZNIPI_Petrel            : 
GSDD               .         CSAT                          : CSATкрив,0,DEPT,BOTTOM,,,,0
TLFamily_CALI      .         Caliper                       : 
TLFamily_CILD      .         Conductivity                  : 
TLFamily_COLL      .         Net Reservoir Flag            : 
TLFamily_CSAT      .         Fluid Code                    : 
TLFamily_DEPT      .         Measured Depth                : 
TLFamily_DT        .         Compressional Slowness        : 
TLFamily_GR        .         Russian Gamma Ray             : 
TLFamily_GZ3       .         Gradient 225                  : 
TLFamily_LLS       .         Lateral Log Resistivity       : 
TLFamily_MINV      .         Micro Gradient Resistivity    : 
TLFamily_MNOR      .         Micro Resistivity             : 
TLFamily_NGLD      .         Neutron Gamma                 : 
TLFamily_OGZ       .         Gradient Inverted 225         : 
TLFamily_PHIE      .         Effective Porosity            : 
TLFamily_PHIEN     .         Effective Porosity            : 
TLFamily_PHIES     .         Effective Porosity            : 
TLFamily_PHIT      .         Porosity                      : 
TLFamily_PRMB      .         Permeability                  : 
TLFamily_PRMB_DGR  .         Permeability                  : 
TLFamily_RT        .         Formation Resistivity         : 
TLFamily_SOIL_ARCHIE .         Oil Saturation                : 
TLFamily_SOIL_DW   .         Oil Saturation                : 
TLFamily_SP        .         Spontaneous Potential         : 
TLFamily_VSH_FIN   .         Shale Volume                  : 
TLFamily_VSH_GR    .         Shale Volume                  : 
TLFamily_VSH_SP    .         Shale Volume                  : 
~Curve Information
#_______________________________________________________________________________
#
#LOGNAME           .UNIT     LOG_ID                        : DESCRIPTION
#_______________________________________________________________________________
DEPT               .M                                      : Колонка глубины 
CALI               .м                                      : Каверномер 
CILD               .мСм/м                                  : Индукционный каротаж зондом 6Ф1 
COLL               .unitless                               : Описание 
CSAT               .unitless                               : Описание 
DT                 .мкс/м                                  : Интервальное время пробега продольной волны 
GR                 .uR/h                                   : Гамма каротаж 
GZ3                .Ohmm                                   : Градиент-зонд  длиной 2.25м 
LLS                .Ohmm                                   : Боковой каротаж 
MINV               .Ohmm                                   : Микро-градиент зонд 
MNOR               .Ohmm                                   : Микро-потенциал зонд 
NGLD               .у.е.                                   : Показания зонда НГК-60 аппаратуры ДРСТ-3-90 
OGZ                .Ohmm                                   : Обращенный градиент-зонд 
PHIE               .v/v                                    : Описание 
PHIEN              .v/v                                    :  
PHIES              .v/v                                    :  
PHIT               .v/v                                    : Описание 
PRMB               .mD                                     :  
PRMB_DGR           .mD                                     :  
RT                 .ohmm                                   : Удельное электрическое сопротивление 
SOIL_ARCHIE        .v/v                                    :  
SOIL_DW            .v/v                                    :  
SP                 .мВ                                     : Потенциал самополяризации 
VSH_FIN            .v/v                                    : Описание 
VSH_GR             .v/v                                    : Shale volume 
VSH_SP             .v/v                                    : Shale Volume 
~Ascii
# ...
937.2000000000001 0.22       276.912    -9999      -9999      -9999      5.935      3.054      -9999      -9999      -9999      1.437      2.903      0.1485822  0.1485822  -9999      0.30764    1.582198   24.08774   2.526      0.2381935  0.4917614  45.003     0.4819933  0.1769623  0.7870244 
937.4      0.22       274.586    -9999      -9999      -9999      5.897      3.089      -9999      -9999      -9999      1.451      2.879      0.1454149  0.1454149  -9999      0.30372    1.382275   25.29081   2.548      0.2269142  0.4857232  44.995     0.4797125  0.1734753  0.7859498 
937.6      0.219      272.697    -9999      -9999      -9999      5.893      3.162      -9999      -9999      -9999      1.466      2.813      0.1413438  0.1413438  -9999      0.29952    1.161953   25.42089   2.565      0.2100255  0.4773785  45.003     0.4793217  0.1731123  0.7855312 
937.8      0.219      271.589    -9999      -9999      -9999      5.929      3.267      -9999      -9999      -9999      1.476      2.712      0.1382177  0.1382177  -9999      0.29672    1.016917   24.27383   2.576      0.1961025  0.4709828  44.989     0.48031    0.1764071  0.7842129 
938        0.219      271.918    -9999      -9999      -9999      5.996      3.379      -9999      -9999      -9999      1.479      2.605      0.136744   0.136744   -9999      0.29588    0.9549662  22.27503   2.573      0.188118   0.4675891  44.947     0.4822305  0.1827069  0.781754  
938.2000000000001 0.218      273.976    -9999      -9999      -9999      6.067      3.465      -9999      -9999      -9999      1.474      2.526      0.137467   0.137467   -9999      0.29728    0.984872   20.33622   2.554      0.1890226  0.4682399  44.896     0.484282   0.1896286  0.7789353 
938.4      0.218      277.511    -9999      -9999      -9999      6.124      3.52       -9999      -9999      -9999      1.463      2.49       0.1400024  0.1400024  -9999      0.30036    1.09734    18.90254   2.522      0.1970923  0.4719556  44.854     0.4859322  0.1953747  0.7764897 
938.6      0.217      281.811    -9999      -9999      -9999      6.174      3.564      -9999      -9999      -9999      1.448      2.489      0.1437095  0.1437095  -9999      0.30456    1.285309   17.7284    2.483      0.2094011  0.4775917  44.818     0.4874257  0.2005583  0.7742929 
938.8      0.217      286.305    -9999      -9999      -9999      6.234      3.617      -9999      -9999      -9999      1.43       2.498      0.1481081  0.1481081  -9999      0.3096     1.550528   16.41529   2.444      0.2241477  0.4847068  44.774     0.4893694  0.2069606  0.7717782 
939        0.217      290.792    -9999      -9999      -9999      6.313      3.676      -9999      -9999      -9999      1.413      2.492      0.1518727  0.1518727  -9999      0.31436    1.820574   14.83351   2.406      0.235322   0.4904308  44.725     0.4923859  0.215703   0.7690688 
939.2000000000001 0.218      295.414    -9999      -9999      -9999      6.399      3.719      -9999      -9999      -9999      1.396      2.47       0.1553593  0.1553593  -9999      0.31912    2.112462   13.28436   2.369      0.2448182  0.4956053  44.688     0.4962446  0.2256403  0.7668489 
939.4      0.22       300.116    -9999      -9999      -9999      6.483      3.72       -9999      -9999      -9999      1.382      2.449      0.1577653  0.1577653  -9999      0.32304    2.340745   11.92756   2.332      0.2493341  0.4983945  44.682     0.5008324  0.2357883  0.7658767 
939.6      0.223      304.432    -9999      -9999      -9999      6.549      3.682      -9999      -9999      -9999      1.372      2.449      0.1592117  0.1592117  -9999      0.32584    2.489693   10.95945   2.299      0.25028    0.4992435  44.698     0.5049341  0.2440809  0.7657874 
939.8      0.225      307.416    -9999      -9999      -9999      6.594      3.625      -9999      -9999      -9999      1.37       2.469      0.1587665  0.1587665  -9999      0.3264     2.442862   10.34482   2.276      0.2448948  0.4967152  44.723     0.5079803  0.2499015  0.766059  
940        0.226      308.386    -9999      -9999      -9999      6.626      3.574      -9999      -9999      -9999      1.373      2.503      0.1571451  0.1571451  -9999      0.32556    2.279637   9.928839   2.269      0.2370113  0.4931543  44.754     0.5103483  0.2541249  0.7665717 
940.2000000000001 0.228      307.33     -9999      -9999      -9999      6.665      3.531      -9999      -9999      -9999      1.376      2.541      0.1551828  0.1551828  -9999      0.32472    2.096619   9.444409   2.276      0.2297294  0.4906932  44.811     0.5137491  0.2593688  0.7681295 
940.4      0.229      305.151    -9999      -9999      -9999      6.718      3.482      -9999      -9999      -9999      1.376      2.594      0.1534216  0.1534216  -9999      0.32472    1.944901   8.823747   2.292      0.224587   0.4902692  44.913     0.5190862  0.266669   0.7715034 
940.6      0.231      302.857    -9999      -9999      -9999      6.757      3.405      -9999      -9999      -9999      1.375      2.668      0.1520277  0.1520277  -9999      0.325      1.832649   8.393234   2.31       0.2212626  0.4907734  45.046     0.5241586  0.2721717  0.7761455 
940.8      0.231      300.921    -9999      -9999      -9999      6.745      3.309      -9999      -9999      -9999      1.381      2.748      0.14994    0.14994    -9999      0.32332    1.67653    8.523415   2.324      0.2140594  0.4880016  45.167     0.5253938  0.2704666  0.780321  
941        0.228      298.893    -9999      -9999      -9999      6.678      3.223      -9999      -9999      -9999      1.395      2.796      0.147399   0.147399   -9999      0.3194     1.504339   9.288246   2.341      0.2049958  0.4826488  45.209     0.5212151  0.2611407  0.7812895 
941.2000000000001 0.224      296.1      -9999      -9999      -9999      6.609      3.191      -9999      -9999      -9999      1.412      2.78       0.1447069  0.1447069  -9999      0.31464    1.341162   10.1477    2.363      0.1956679  0.4765987  45.147     0.5149488  0.2518725  0.7780251 
941.4      0.221      292.552    -9999      -9999      -9999      6.607      3.214      -9999      -9999      -9999      1.42       2.706      0.1435541  0.1435541  -9999      0.3124     1.276816   10.17377   2.392      0.1946681  0.4758825  45.009     0.5116543  0.2516088  0.7716998 
941.6      0.22       289.331    -9999      -9999      -9999      6.699      3.259      -9999      -9999      -9999      1.414      2.615      0.144215   0.144215   -9999      0.31408    1.313318   9.041415   2.418      0.2019423  0.4813459  44.872     0.5147424  0.2640286  0.7654561 
941.8      0.222      287.899    -9999      -9999      -9999      6.848      3.273      -9999      -9999      -9999      1.395      2.556      0.1466807  0.1466807  -9999      0.3194     1.458953   7.468631   2.43       0.2154641  0.4912756  44.787     0.5233917  0.285457   0.7613264 
942        0.223      288.843    -9999      -9999      -9999      6.989      3.242      -9999      -9999      -9999      1.372      2.551      0.149894   0.149894   -9999      0.32584    1.673243   6.233067   2.422      0.22894    0.5008285  44.747     0.5331696  0.3073342  0.7590051 
942.2000000000001 0.224      291.326    -9999      -9999      -9999      7.078      3.191      -9999      -9999      -9999      1.356      2.588      0.1523759  0.1523759  -9999      0.33032    1.860067   5.560672   2.401      0.2367771  0.5059653  44.701     0.5392247  0.3219984  0.756451  
942.4      0.221      293.663    -9999      -9999      -9999      7.106      3.152      -9999      -9999      -9999      1.353      2.636      0.1530472  0.1530472  -9999      0.33116    1.914094   5.364522   2.383      0.2370041  0.505707   44.625     0.5397357  0.326755   0.7527165 
942.6      0.218      294.546    -9999      -9999      -9999      7.086      3.137      -9999      -9999      -9999      1.362      2.671      0.1517027  0.1517027  -9999      0.32864    1.807423   5.50391    2.375      0.2299036  0.5008556  44.549     0.5361737  0.3233504  0.748997  
