~Version
 VERS              .         2.0                           : CWLS LOG ASCII STANDARD - VERSION 2.0
 WRAP              .         NO                            : ONE LINE PER DEPTH STEP
 DLM               .         SPACE                         : DELIMITING CHARACTER(SPACE TAB OR COMMA)
~Well Information
#_______________________________________________________________________________
#
#PARAMETER_NAME    .UNIT     VALUE                         : DESCRIPTION
#_______________________________________________________________________________
STRT               .M        870                           : First reference value
STOP               .M        1167.2                        : Last reference value
STEP               .M        0.2                           : Step increment
NULL               .         -9999                         : Missing value
COMP               .                                       : Company
WELL               .         2950                          : Well name
FLD                .         УЗЕНЬ                         : Field
LOC                .                                       : Location
CNTY               .                                       : County
STAT               .                                       : State
CTRY               .                                       : Country
SRVC               .                                       : Service Company
DATE               .                                       : Date
UWI                .                                       : Unique Well ID
Block              .         7                             : 
Category           .         Нагнетательная                : 
Condition          .         В работе                      : 
Date               .         24.08.2001                    : 
EREF               .m        86.2                          : 100.8
Gorizont           .         15                            : 14
Interpretator      .         Ткачева И.Г.                  : 
Kupol              .         Основной                      : osnovnoi
Mud                .         0                             : 
Mud_density        .         0                             : 
Mud_resistivity    .         0                             : 
NGDU               .         НГДУ-2                        : 
ORIGINALWELLNAME   .         2950                          : 
Spud_date          .         2001                          : 1961
Viscosity          .         0                             : 
X                  .m        42734.2                       : 46154
Y                  .m        84082.73                      : 85761.93
YEAR               .         2019                          : 
~Parameter Information Block
#_______________________________________________________________________________
#
#PARAMETER_NAME    .UNIT     VALUE                         : DESCRIPTION
#_______________________________________________________________________________
SET                .         LQC_KAZNIPI_Petrel            : 
GSDD               .         CSAT                          : CSATкрив,0,DEPT,BOTTOM,,,,0
TLFamily_CALI      .         Caliper                       : 
TLFamily_CILD      .         Conductivity                  : 
TLFamily_COLL      .         Net Reservoir Flag            : 
TLFamily_CSAT      .         Fluid Code                    : 
TLFamily_DEPT      .         Measured Depth                : 
TLFamily_DT        .         Compressional Slowness        : 
TLFamily_GR        .         Russian Gamma Ray             : 
TLFamily_GZ3       .         Gradient 225                  : 
TLFamily_LLS       .         Lateral Log Resistivity       : 
TLFamily_MINV      .         Micro Gradient Resistivity    : 
TLFamily_MNOR      .         Micro Resistivity             : 
TLFamily_NGLD      .         Neutron Gamma                 : 
TLFamily_OGZ       .         Gradient Inverted 225         : 
TLFamily_PHIE      .         Effective Porosity            : 
TLFamily_PHIEN     .         Effective Porosity            : 
TLFamily_PHIES     .         Effective Porosity            : 
TLFamily_PHIT      .         Porosity                      : 
TLFamily_PRMB      .         Permeability                  : 
TLFamily_PRMB_DGR  .         Permeability                  : 
TLFamily_RT        .         Formation Resistivity         : 
TLFamily_SOIL_ARCHIE .         Oil Saturation                : 
TLFamily_SOIL_DW   .         Oil Saturation                : 
TLFamily_SP        .         Spontaneous Potential         : 
TLFamily_VSH_FIN   .         Shale Volume                  : 
TLFamily_VSH_GR    .         Shale Volume                  : 
TLFamily_VSH_SP    .         Shale Volume                  : 
~Curve Information
#_______________________________________________________________________________
#
#LOGNAME           .UNIT     LOG_ID                        : DESCRIPTION
#_______________________________________________________________________________
DEPT               .M                                      : Колонка глубины 
CALI               .м                                      : Каверномер 
CILD               .мСм/м                                  : Индукционный каротаж зондом 6Ф1 
COLL               .unitless                               : Описание 
CSAT               .unitless                               : Описание 
DT                 .мкс/м                                  : Интервальное время пробега продольной волны 
GR                 .uR/h                                   : Гамма каротаж 
GZ3                .Ohmm                                   : Градиент-зонд  длиной 2.25м 
LLS                .Ohmm                                   : Боковой каротаж 
MINV               .Ohmm                                   : Микро-градиент зонд 
MNOR               .Ohmm                                   : Микро-потенциал зонд 
NGLD               .у.е.                                   : Показания зонда НГК-60 аппаратуры ДРСТ-3-90 
OGZ                .Ohmm                                   : Обращенный градиент-зонд 
PHIE               .v/v                                    : Описание 
PHIEN              .v/v                                    :  
PHIES              .v/v                                    :  
PHIT               .v/v                                    : Описание 
PRMB               .mD                                     :  
PRMB_DGR           .mD                                     :  
RT                 .ohmm                                   : Удельное электрическое сопротивление 
SOIL_ARCHIE        .v/v                                    :  
SOIL_DW            .v/v                                    :  
SP                 .мВ                                     : Потенциал самополяризации 
VSH_FIN            .v/v                                    : Описание 
VSH_GR             .v/v                                    : Shale volume 
VSH_SP             .v/v                                    : Shale Volume 
~Ascii
# ...
1010       0.22       494.491    -9999      -9999      -9999      11.849     1.749      -9999      -9999      -9999      1.159      0.947      0.1656984  0.1656984  -9999      0.38548    3.283175   1.191117   1.414      0.09039972 0.4336015  37.973     0.6660049  0.6040868  0.727923  
1010.2     0.22       494.931    -9999      -9999      -9999      11.909     1.727      -9999      -9999      -9999      1.165      0.958      0.1616528  0.1616528  -9999      0.3838     2.762865   1.132018   1.413      0.07029635 0.4266268  37.987     0.6731734  0.6167712  0.7295757 
1010.4     0.219      495.976    -9999      -9999      -9999      11.877     1.698      -9999      -9999      -9999      1.164      0.977      0.1630742  0.1630742  -9999      0.38408    2.935537   1.163164   1.41       0.0764375  0.4281307  37.955     0.6697146  0.6099733  0.7294558 
1010.6     0.218      497.907    -9999      -9999      -9999      11.791     1.669      -9999      -9999      -9999      1.158      0.993      0.1682673  0.1682673  -9999      0.38576    3.663335   1.251177   1.405      0.09981313 0.4352829  37.885     0.6590688  0.5920734  0.7260643 
1010.8     0.217      500.316    -9999      -9999      -9999      11.696     1.648      -9999      -9999      -9999      1.152      1.007      0.1735087  0.1735087  -9999      0.38744    4.581008   1.356165   1.398      0.1214873  0.4418346  37.84      0.6482766  0.5729102  0.723643  
1011       0.216      502.47     -9999      -9999      -9999      11.645     1.632      -9999      -9999      -9999      1.151      1.024      0.1754065  0.1754065  -9999      0.38772    4.967214   1.416114   1.392      0.1280133  0.4431601  37.864     0.6433741  0.5628798  0.7238684 
1011.2     0.216      503.796    -9999      -9999      -9999      11.658     1.614      -9999      -9999      -9999      1.152      1.053      0.1741634  0.1741634  -9999      0.38744    4.710723   1.400586   1.388      0.1214095  0.4406169  37.968     0.6462926  0.5654197  0.7271656 
1011.4     0.217      504.2      -9999      -9999      -9999      11.726     1.59       -9999      -9999      -9999      1.15       1.097      0.1715842  0.1715842  -9999      0.388      4.220021   1.322093   1.387      0.1096171  0.437794   38.13      0.6558053  0.5788937  0.732717  
1011.6     0.217      503.883    -9999      -9999      -9999      11.79      1.562      -9999      -9999      -9999      1.146      1.154      0.1693653  0.1693653  -9999      0.38912    3.838962   1.252239   1.388      0.09977005 0.436287   38.335     0.6659234  0.5918683  0.7399785 
1011.8     0.218      503.059    -9999      -9999      -9999      11.773     1.534      -9999      -9999      -9999      1.146      1.214      0.1685944  0.1685944  -9999      0.38912    3.714807   1.270426   1.39       0.09679683 0.4357376  38.561     0.6682592  0.5883938  0.7481245 
1012       0.218      501.755    -9999      -9999      -9999      11.63      1.507      -9999      -9999      -9999      1.154      1.273      0.1698205  0.1698205  -9999      0.38688    3.914225   1.434246   1.394      0.1036883  0.4360217  38.767     0.657756   0.5599632  0.7555489 
1012.2     0.218      499.729    -9999      -9999      -9999      11.392     1.487      -9999      -9999      -9999      1.17       1.322      0.1719956  0.1719956  -9999      0.3824     4.294714   1.755059   1.399      0.1150568  0.4355971  38.885     0.637589   0.515658   0.7595201 
1012.4     0.218      496.628    -9999      -9999      -9999      11.159     1.469      -9999      -9999      -9999      1.189      1.356      0.173463   0.173463   -9999      0.37708    4.572087   2.138541   1.408      0.1242199  0.4342705  38.874     0.6170211  0.4756813  0.7583609 
1012.6     0.219      491.959    -9999      -9999      -9999      11.023     1.453      -9999      -9999      -9999      1.204      1.377      0.173811   0.173811   -9999      0.37288    4.64045    2.400013   1.422      0.1297969  0.4335514  38.749     0.6032393  0.4537955  0.752683  
1012.8     0.221      485.509    -9999      -9999      -9999      11.003     1.435      -9999      -9999      -9999      1.217      1.397      0.1719107  0.1719107  -9999      0.36924    4.27918    2.441072   1.441      0.1268798  0.4314967  38.579     0.5979677  0.4506631  0.7452722 
1013       0.223      477.391    -9999      -9999      -9999      11.022     1.424      -9999      -9999      -9999      1.228      1.43       0.169495   0.169495   -9999      0.36616    3.860254   2.402049   1.466      0.1231576  0.4303829  38.418     0.5959547  0.4536384  0.7382709 
1013.2     0.226      468.392    -9999      -9999      -9999      10.983     1.425      -9999      -9999      -9999      1.236      1.482      0.1692525  0.1692525  -9999      0.36392    3.820544   2.482836   1.494      0.1298238  0.4332805  38.281     0.5899015  0.4475523  0.7322508 
1013.4     0.227      459.466    -9999      -9999      -9999      10.832     1.436      -9999      -9999      -9999      1.24       1.542      0.1728565  0.1728565  -9999      0.3628     4.455328   2.822078   1.523      0.1533197  0.4420982  38.148     0.5755864  0.4247484  0.7264244 
1013.6     0.227      451.289    -9999      -9999      -9999      10.597     1.443      -9999      -9999      -9999      1.239      1.591      0.1795507  0.1795507  -9999      0.36308    5.92752    3.444545   1.55       0.187607   0.4552012  38.018     0.5561494  0.3915483  0.7207504 
1013.8     0.227      443.691    -9999      -9999      -9999      10.346     1.444      -9999      -9999      -9999      1.235      1.619      0.1869236  0.1869236  -9999      0.3642     8.117765   4.261755   1.577      0.2219186  0.4691956  37.897     0.5372012  0.3589486  0.7154539 
1014       0.227      435.928    -9999      -9999      -9999      10.155     1.442      -9999      -9999      -9999      1.234      1.626      0.1917886  0.1917886  -9999      0.36448    9.98959    5.011222   1.606      0.2456155  0.4794691  37.788     0.5233074  0.3359725  0.7106422 
1014.2     0.228      427.383    -9999      -9999      -9999      10.07      1.456      -9999      -9999      -9999      1.237      1.614      0.1935196  0.1935196  -9999      0.36364    10.755     5.385842   1.638      0.2583939  0.4856544  37.651     0.5155164  0.3262262  0.7048066 
1014.4     0.23       418.191    -9999      -9999      -9999      10.1       1.495      -9999      -9999      -9999      1.247      1.591      0.1914698  0.1914698  -9999      0.36084    9.854686   5.250526   1.674      0.2590812  0.4866834  37.456     0.5132431  0.3296335  0.6968528 
1014.6     0.231      409.373    -9999      -9999      -9999      10.217     1.556      -9999      -9999      -9999      1.261      1.566      0.187007   0.187007   -9999      0.35692    8.146703   4.754511   1.71       0.2512189  0.4840024  37.194     0.5148878  0.3432648  0.6865107 
1014.8     0.234      402.38     -9999      -9999      -9999      10.362     1.622      -9999      -9999      -9999      1.274      1.553      0.1822074  0.1822074  -9999      0.35328    6.638669   4.204308   1.739      0.2400896  0.479884   36.92      0.5184018  0.3609432  0.6758603 
1015       0.235      398.46     -9999      -9999      -9999      10.474     1.685      -9999      -9999      -9999      1.28       1.557      0.1796586  0.1796586  -9999      0.3516     5.954853   3.823308   1.756      0.2342125  0.4780569  36.688     0.5210346  0.375219   0.6668503 
1015.2     0.236      397.925    -9999      -9999      -9999      10.541     1.74       -9999      -9999      -9999      1.273      1.568      0.1811786  0.1811786  -9999      0.35356    6.353687   3.612098   1.758      0.2402171  0.4818199  36.534     0.5223678  0.3840275  0.660708  
1015.4     0.237      399.851    -9999      -9999      -9999      10.602     1.789      -9999      -9999      -9999      1.258      1.565      0.1847459  0.1847459  -9999      0.35776    7.397769   3.429968   1.75       0.2514102  0.4882584  36.429     0.5242851  0.3922269  0.6563432 
