~Version
 VERS              .         2.0                           : CWLS LOG ASCII STANDARD - VERSION 2.0
 WRAP              .         NO                            : ONE LINE PER DEPTH STEP
 DLM               .         SPACE                         : DELIMITING CHARACTER(SPACE TAB OR COMMA)
~Well Information
#_______________________________________________________________________________
#
#PARAMETER_NAME    .UNIT     VALUE                         : DESCRIPTION
#_______________________________________________________________________________
STRT               .M        870                           : First reference value
STOP               .M        1167.2                        : Last reference value
STEP               .M        0.2                           : Step increment
NULL               .         -9999                         : Missing value
COMP               .                                       : Company
WELL               .         2950                          : Well name
FLD                .         УЗЕНЬ                         : Field
LOC                .                                       : Location
CNTY               .                                       : County
STAT               .                                       : State
CTRY               .                                       : Country
SRVC               .                                       : Service Company
DATE               .                                       : Date
UWI                .                                       : Unique Well ID
Block              .         7                             : 
Category           .         Нагнетательная                : 
Condition          .         В работе                      : 
Date               .         24.08.2001                    : 
EREF               .m        86.2                          : 100.8
Gorizont           .         15                            : 14
Interpretator      .         Ткачева И.Г.                  : 
Kupol              .         Основной                      : osnovnoi
Mud                .         0                             : 
Mud_density        .         0                             : 
Mud_resistivity    .         0                             : 
NGDU               .         НГДУ-2                        : 
ORIGINALWELLNAME   .         2950                          : 
Spud_date          .         2001                          : 1961
Viscosity          .         0                             : 
X                  .m        42734.2                       : 46154
Y                  .m        84082.73                      : 85761.93
YEAR               .         2019                          : 
~Parameter Information Block
#_______________________________________________________________________________
#
#PARAMETER_NAME    .UNIT     VALUE                         : DESCRIPTION
#_______________________________________________________________________________
SET                .         LQC_KAZNIPI_Petrel            : 
GSDD               .         CSAT                          : CSATкрив,0,DEPT,BOTTOM,,,,0
TLFamily_CALI      .         Caliper                       : 
TLFamily_CILD      .         Conductivity                  : 
TLFamily_COLL      .         Net Reservoir Flag            : 
TLFamily_CSAT      .         Fluid Code                    : 
TLFamily_DEPT      .         Measured Depth                : 
TLFamily_DT        .         Compressional Slowness        : 
TLFamily_GR        .         Russian Gamma Ray             : 
TLFamily_GZ3       .         Gradient 225                  : 
TLFamily_LLS       .         Lateral Log Resistivity       : 
TLFamily_MINV      .         Micro Gradient Resistivity    : 
TLFamily_MNOR      .         Micro Resistivity             : 
TLFamily_NGLD      .         Neutron Gamma                 : 
TLFamily_OGZ       .         Gradient Inverted 225         : 
TLFamily_PHIE      .         Effective Porosity            : 
TLFamily_PHIEN     .         Effective Porosity            : 
TLFamily_PHIES     .         Effective Porosity            : 
TLFamily_PHIT      .         Porosity                      : 
TLFamily_PRMB      .         Permeability                  : 
TLFamily_PRMB_DGR  .         Permeability                  : 
TLFamily_RT        .         Formation Resistivity         : 
TLFamily_SOIL_ARCHIE .         Oil Saturation                : 
TLFamily_SOIL_DW   .         Oil Saturation                : 
TLFamily_SP        .         Spontaneous Potential         : 
TLFamily_VSH_FIN   .         Shale Volume                  : 
TLFamily_VSH_GR    .         Shale Volume                  : 
TLFamily_VSH_SP    .         Shale Volume                  : 
~Curve Information
#_______________________________________________________________________________
#
#LOGNAME           .UNIT     LOG_ID                        : DESCRIPTION
#_______________________________________________________________________________
DEPT               .M                                      : Колонка глубины 
CALI               .м                                      : Каверномер 
CILD               .мСм/м                                  : Индукционный каротаж зондом 6Ф1 
COLL               .unitless                               : Описание 
CSAT               .unitless                               : Описание 
DT                 .мкс/м                                  : Интервальное время пробега продольной волны 
GR                 .uR/h                                   : Гамма каротаж 
GZ3                .Ohmm                                   : Градиент-зонд  длиной 2.25м 
LLS                .Ohmm                                   : Боковой каротаж 
MINV               .Ohmm                                   : Микро-градиент зонд 
MNOR               .Ohmm                                   : Микро-потенциал зонд 
NGLD               .у.е.                                   : Показания зонда НГК-60 аппаратуры ДРСТ-3-90 
OGZ                .Ohmm                                   : Обращенный градиент-зонд 
PHIE               .v/v                                    : Описание 
PHIEN              .v/v                                    :  
PHIES              .v/v                                    :  
PHIT               .v/v                                    : Описание 
PRMB               .mD                                     :  
PRMB_DGR           .mD                                     :  
RT                 .ohmm                                   : Удельное электрическое сопротивление 
SOIL_ARCHIE        .v/v                                    :  
SOIL_DW            .v/v                                    :  
SP                 .мВ                                     : Потенциал самополяризации 
VSH_FIN            .v/v                                    : Описание 
VSH_GR             .v/v                                    : Shale volume 
VSH_SP             .v/v                                    : Shale Volume 
~Ascii
# ...
1088.4     0.22       337.05     -9999      -9999      369.654    12.269     4.262      2.009      1.645      1.533      1.476      2.177      0.108741   0.108741   0.1619246  0.29672    0.2892717  0.8341544  2.076      0          0.356572   27.14      0.4405969  0.6986696  0.4405969 
1088.6     0.22       339.08     -9999      -9999      374.648    12.239     3.981      2.012      1.759      1.541      1.47       2.294      0.1080954  0.1080954  0.1638404  0.2984     0.2814151  0.8556516  2.063      0          0.3555414  27.893     0.4619131  0.691448   0.4619131 
1088.8     0.22       338.856    -9999      -9999      373.139    12.21      3.751      2.018      1.824      1.556      1.475      2.436      0.1048406  0.1048406  0.1608433  0.297      0.2449403  0.876959   2.064      0          0.3467396  28.494     0.4800644  0.684538   0.4800644 
1089       0.22       336.724    -9999      -9999      366.123    12.186     3.563      2.031      1.791      1.564      1.489      2.6        0.09987502 0.09987502 0.1539747  0.29308    0.1981918  0.8949934  2.078      0          0.3320791  28.85      0.4920676  0.6788717  0.4920676 
1089.2     0.22       333.19     -9999      -9999      357.514    12.136     3.408      2.062      1.692      1.563      1.505      2.764      0.09657654 0.09657654 0.1475731  0.2886     0.1721829  0.9337648  2.1        0          0.3210168  28.928     0.4965615  0.6672171  0.4965615 
1089.4     0.22       328.808    -9999      -9999      351.084    12.032     3.281      2.124      1.61       1.57       1.515      2.897      0.09838891 0.09838891 0.1460948  0.2858     0.1860199  1.019873   2.128      0          0.3255454  28.744     0.4922123  0.6436124  0.4922123 
1089.6     0.22       323.918    -9999      -9999      347.674    11.881     3.184      2.206      1.592      1.595      1.515      2.973      0.1053919  0.1053919  0.1495524  0.2858     0.2507682  1.159224   2.16       0          0.3465476  28.364     0.4825634  0.6108189  0.4825634 
1089.8     0.22       318.76     -9999      -9999      346.215    11.737     3.121      2.279      1.641      1.631      1.507      2.991      0.1146629  0.1146629  0.1548458  0.28804    0.3723854  1.309815   2.195      0          0.3742444  27.855     0.469667   0.5811034  0.469667  
1090       0.22       313.401    -9999      -9999      345.678    11.664     3.084      2.315      1.71       1.659      1.495      2.979      0.1228275  0.1228275  0.1588973  0.2914     0.5274978  1.393478   2.233      0.04726091 0.3994367  27.267     0.455056   0.5665958  0.455056  
1090.2     0.219      307.957    -9999      -9999      345.338    11.698     3.058      2.326      1.78       1.667      1.482      2.978      0.1278818  0.1278818  0.1599152  0.29504    0.654395   1.353867   2.273      0.08777431 0.418126   26.635     0.4397727  0.5733072  0.4397727 
1090.4     0.219      302.544    -9999      -9999      344.76     11.808     3.032      2.344      1.812      1.658      1.469      3.015      0.130366   0.130366   0.1582617  0.29868    0.7275324  1.233267   2.313      0.1102461  0.431684   25.984     0.4245155  0.5955695  0.4245155 
1090.6     0.219      297.381    -9999      -9999      343.532    11.922     3.012      2.393      1.797      1.648      1.458      3.095      0.1319839  0.1319839  0.1556864  0.30176    0.7795073  1.119605   2.353      0.1268071  0.4427167  25.317     0.4093919  0.6195542  0.4093919 
1090.8     0.218      292.594    -9999      -9999      342.117    11.975     3.006      2.458      1.722      1.648      1.451      3.204      0.1346477  0.1346477  0.1549777  0.30372    0.8732926  1.07039    2.392      0.148466   0.4536027  24.599     0.3936491  0.6310316  0.3936491 
1091       0.218      288.174    -9999      -9999      341.448    11.953     3.018      2.517      1.63       1.657      1.449      3.338      0.1388402  0.1388402  0.1577737  0.30428    1.044277   1.090551   2.428      0.176697   0.4644806  23.784     0.3764236  0.6262418  0.3764236 
1091.2     0.217      283.952    -9999      -9999      342.389    11.892     3.042      2.577      1.553      1.67       1.45       3.495      0.1437601  0.1437601  0.1636349  0.304      1.288082   1.148458   2.464      0.2067891  0.4750519  22.873     0.3580005  0.6131504  0.3580005 
1091.4     0.216      279.801    8          2          344.72     11.831     3.083      2.666      1.519      1.683      1.452      3.671      0.1482843  0.1482843  0.1707247  0.30344    1.562225   1.209441   2.501      0.2332906  0.4844735  21.936     0.3400047  0.6003327  0.3400047 
1091.6     0.215      275.684    8          2          347.448    11.782     3.156      2.791      1.52       1.705      1.455      3.837      0.1517663  0.1517663  0.1774366  0.3026     1.812332   1.260766   2.538      0.2537942  0.491912   21.051     0.3239129  0.5902307  0.3239129 
1091.8     0.215      271.692    8          2          349.344    11.715     3.276      2.913      1.538      1.739      1.46       3.963      0.1548868  0.1548868  0.1835185  0.3012     2.070319   1.334485   2.576      0.2719999  0.4981899  20.247     0.3100541  0.5766926  0.3100541 
1092       0.214      267.936    8          2          349.715    11.604     3.438      2.977      1.55       1.77       1.469      4.032      0.1579523  0.1579523  0.1891726  0.29868    2.359489   1.466226   2.611      0.288839   0.5027912  19.509     0.2979516  0.5549435  0.2979516 
1092.2     0.213      264.68     8          2          348.382    11.449     3.604      2.958      1.534      1.777      1.477      4.067999   0.1621508  0.1621508  0.1940381  0.29644    2.822179   1.672228   2.643      0.3088656  0.508601   18.868     0.2879351  0.5259387  0.2879351 
1092.4     0.212      262.225    8          2          345.648    11.286     3.724      2.882      1.479      1.742      1.485      4.117      0.1658389  0.1658389  0.197073   0.2942     3.302908   1.920158   2.667      0.3251404  0.51289    18.393     0.2808754  0.4970708  0.2808754 
1092.6     0.212      260.827    8          2          342.251    11.154     3.766      2.798      1.397      1.676      1.492      4.231      0.1681087  0.1681087  0.1978066  0.29224    3.638633   2.14763    2.681      0.3347199  0.5148121  18.144     0.2774529  0.4748583  0.2774529 
1092.8     0.211      260.316    8          2          339.221    11.073     3.732      2.759      1.328      1.612      1.497      4.439      0.1689672  0.1689672  0.1969667  0.29084    3.774331   2.300361   2.687      0.3383593  0.5149294  18.081     0.276901   0.4617222  0.276901  
1093       0.212      260.156    8          2          337.523    11.051     3.656      2.781      1.306      1.579      1.496      4.745      0.1696592  0.1696592  0.1956616  0.29112    3.887394   2.343689   2.688      0.3408256  0.5160873  18.12      0.2779083  0.4582175  0.2779083 
1093.2     0.212      259.506    8          2          337.284    11.089     3.585      2.84       1.335      1.588      1.488      5.138      0.1707002  0.1707002  0.1942823  0.29336    4.063877   2.269355   2.695      0.3451279  0.5201113  18.171     0.2791047  0.4642878  0.2791047 
1093.4     0.212      257.709    8          2          338.03     11.188     3.559      2.877      1.391      1.626      1.477      5.61       0.1710015  0.1710015  0.1923907  0.29644    4.116426   2.086583   2.715      0.3483976  0.5252165  18.186     0.2797506  0.4804829  0.2797506 
1093.6     0.212      254.417    8          2          339.193    11.327     3.591      2.849      1.45       1.68       1.467      6.155      0.1699607  0.1699607  0.189902   0.29924    3.937693   1.854533   2.751      0.3489603  0.5298692  18.132     0.2793319  0.5041792  0.2793319 
1093.8     0.212      249.847    8          2          341.136    11.465     3.662      2.772      1.492      1.728      1.462      6.749      0.1679468  0.1679468  0.1885795  0.30064    3.613595   1.649688   2.803      0.3479215  0.5333749  17.844     0.2753403  0.5288612  0.2753403 
