~Version
 VERS              .         2.0                           : CWLS LOG ASCII STANDARD - VERSION 2.0
 WRAP              .         NO                            : ONE LINE PER DEPTH STEP
 DLM               .         SPACE                         : DELIMITING CHARACTER(SPACE TAB OR COMMA)
~Well Information
#_______________________________________________________________________________
#
#PARAMETER_NAME    .UNIT     VALUE                         : DESCRIPTION
#_______________________________________________________________________________
STRT               .M        870                           : First reference value
STOP               .M        1167.2                        : Last reference value
STEP               .M        0.2                           : Step increment
NULL               .         -9999                         : Missing value
COMP               .                                       : Company
WELL               .         2950                          : Well name
FLD                .         УЗЕНЬ                         : Field
LOC                .                                       : Location
CNTY               .                                       : County
STAT               .                                       : State
CTRY               .                                       : Country
SRVC               .                                       : Service Company
DATE               .                                       : Date
UWI                .                                       : Unique Well ID
Block              .         7                             : 
Category           .         Нагнетательная                : 
Condition          .         В работе                      : 
Date               .         24.08.2001                    : 
EREF               .m        86.2                          : 100.8
Gorizont           .         15                            : 14
Interpretator      .         Ткачева И.Г.                  : 
Kupol              .         Основной                      : osnovnoi
Mud                .         0                             : 
Mud_density        .         0                             : 
Mud_resistivity    .         0                             : 
NGDU               .         НГДУ-2                        : 
ORIGINALWELLNAME   .         2950                          : 
Spud_date          .         2001                          : 1961
Viscosity          .         0                             : 
X                  .m        42734.2                       : 46154
Y                  .m        84082.73                      : 85761.93
YEAR               .         2019                          : 
~Parameter Information Block
#_______________________________________________________________________________
#
#PARAMETER_NAME    .UNIT     VALUE                         : DESCRIPTION
#_______________________________________________________________________________
SET                .         LQC_KAZNIPI_Petrel            : 
GSDD               .         CSAT                          : CSATкрив,0,DEPT,BOTTOM,,,,0
TLFamily_CALI      .         Caliper                       : 
TLFamily_CILD      .         Conductivity                  : 
TLFamily_COLL      .         Net Reservoir Flag            : 
TLFamily_CSAT      .         Fluid Code                    : 
TLFamily_DEPT      .         Measured Depth                : 
TLFamily_DT        .         Compressional Slowness        : 
TLFamily_GR        .         Russian Gamma Ray             : 
TLFamily_GZ3       .         Gradient 225                  : 
TLFamily_LLS       .         Lateral Log Resistivity       : 
TLFamily_MINV      .         Micro Gradient Resistivity    : 
TLFamily_MNOR      .         Micro Resistivity             : 
TLFamily_NGLD      .         Neutron Gamma                 : 
TLFamily_OGZ       .         Gradient Inverted 225         : 
TLFamily_PHIE      .         Effective Porosity            : 
TLFamily_PHIEN     .         Effective Porosity            : 
TLFamily_PHIES     .         Effective Porosity            : 
TLFamily_PHIT      .         Porosity                      : 
TLFamily_PRMB      .         Permeability                  : 
TLFamily_PRMB_DGR  .         Permeability                  : 
TLFamily_RT        .         Formation Resistivity         : 
TLFamily_SOIL_ARCHIE .         Oil Saturation                : 
TLFamily_SOIL_DW   .         Oil Saturation                : 
TLFamily_SP        .         Spontaneous Potential         : 
TLFamily_VSH_FIN   .         Shale Volume                  : 
TLFamily_VSH_GR    .         Shale Volume                  : 
TLFamily_VSH_SP    .         Shale Volume                  : 
~Curve Information
#_______________________________________________________________________________
#
#LOGNAME           .UNIT     LOG_ID                        : DESCRIPTION
#_______________________________________________________________________________
DEPT               .M                                      : Колонка глубины 
CALI               .м                                      : Каверномер 
CILD               .мСм/м                                  : Индукционный каротаж зондом 6Ф1 
COLL               .unitless                               : Описание 
CSAT               .unitless                               : Описание 
DT                 .мкс/м                                  : Интервальное время пробега продольной волны 
GR                 .uR/h                                   : Гамма каротаж 
GZ3                .Ohmm                                   : Градиент-зонд  длиной 2.25м 
LLS                .Ohmm                                   : Боковой каротаж 
MINV               .Ohmm                                   : Микро-градиент зонд 
MNOR               .Ohmm                                   : Микро-потенциал зонд 
NGLD               .у.е.                                   : Показания зонда НГК-60 аппаратуры ДРСТ-3-90 
OGZ                .Ohmm                                   : Обращенный градиент-зонд 
PHIE               .v/v                                    : Описание 
PHIEN              .v/v                                    :  
PHIES              .v/v                                    :  
PHIT               .v/v                                    : Описание 
PRMB               .mD                                     :  
PRMB_DGR           .mD                                     :  
RT                 .ohmm                                   : Удельное электрическое сопротивление 
SOIL_ARCHIE        .v/v                                    :  
SOIL_DW            .v/v                                    :  
SP                 .мВ                                     : Потенциал самополяризации 
VSH_FIN            .v/v                                    : Описание 
VSH_GR             .v/v                                    : Shale volume 
VSH_SP             .v/v                                    : Shale Volume 
~Ascii
# ...
1161.2     0.182      179.483    1          2          317.303    8.753      2.088      6.962      1.46       1.805      1.488      1.048      0.2284034  0.2284034  0.2318862  0.29336    47.61491   18.56021   3.922      0.5797976  0.651862   -9999      0.1968382  0.1968382  -9999     
1161.4     0.183      187.017    1          2          315.951    8.66       2.077      6.82       1.436      1.8        1.48       0.993      0.2326637  0.2326637  0.232134   0.2956     57.10229   20.05338   3.785      0.5795498  0.6499119  -9999      0.1907162  0.1907162  -9999     
1161.6     0.185      200.677    1          2          316.67     8.663      2.057      6.509      1.366      1.747      1.456      -9999      0.2393195  0.2393195  0.2328993  0.30232    75.84651   20.00338   3.549      0.5771695  0.6473494  -9999      0.1909107  0.1909107  -9999     
1161.8     0.188      218.225    1          2          318.371    8.745      2.042      6.162      1.298      1.678      1.429      -9999      0.2450997  0.2450997  0.2332519  0.30988    97.05084   18.68417   3.272      0.56977    0.6415594  -9999      0.1963039  0.1963039  -9999     
1162       0.196      237.712    7          7          319.497    8.875      2.042      5.774      1.26       1.626      1.39       -9999      0.2530945  0.2530945  0.2319255  0.3208     136.4841   16.76872   3.001      0.5643083  0.638078   -9999      0.2051682  0.2051682  -9999     
1162.2     0.199      258.575    7          7          320.093    9.055      -9999      5.279      1.269      1.606      1.355      -9999      0.2586249  0.2586249  0.2288077  0.3306     172.7899   14.4364    2.756      0.5550004  0.6322159  -9999      0.2181064  0.2181064  -9999     
1162.4     0.202      281.481    7          7          320.971    9.274      -9999      4.597      1.295      1.586      1.354      -9999      0.2533455  0.2533455  0.2248578  0.33088    137.9532   12.03167   2.534      0.5287232  0.6132889  -9999      0.234953   0.234953   -9999     
1162.6     0.205      306.542    7          7          323.647    9.54       -9999      3.753      1.339      1.545      1.387      -9999      0.2367723  0.2367723  0.2213049  0.32164    68.03875   9.642954   2.329      0.4799332  0.5781472  -9999      0.2571748  0.2571748  -9999     
1162.8     0.206      331.642    7          7          327.872    9.868      -9999      2.885      1.413      1.485      1.452      -9999      0.2085681  0.2085681  0.2169924  0.30344    20.43364   7.339919   2.146      0.3964527  0.5207154  -9999      0.2874905  0.2874905  -9999     
1163       0.206      352.932    7          7          332.484    10.261     -9999      2.182      1.536      1.447      1.518      -9999      0.1765366  0.1765366  0.2098207  0.28496    5.212469   5.292801   2.003      0.2791686  0.4488023  -9999      0.3285559  0.3285559  -9999     
1163.2     0.206      367.462    -9999      -9999      335.442    10.699     -9999      1.75       1.671      1.438      1.591      -9999      0.1387003  0.1387003  0.1974354  0.26452    1.038066   3.676371   1.912      0.09103305 0.3504972  -9999      0.3812717  0.3812717  -9999     
1163.4     0.205      375.084    -9999      -9999      336.461    11.108     -9999      1.563      1.779      1.446      1.649      -9999      0.1037044  0.1037044  0.1818438  0.24828    0.233354   2.615967   1.866      0          0.2360699  -9999      0.4381078  0.4381078  -9999     
1163.6     0.205      377.983    -9999      -9999      336.104    11.428     -9999      1.514      1.832      1.448      1.67       -9999      0.08122049 0.08122049 0.1667655  0.2424     0.08944552 2.004489   1.85       0          0.1492704  -9999      0.4884228  0.4884228  -9999     
1163.8     0.203      378.683    -9999      -9999      335.591    11.618     -9999      1.512      1.85       1.446      1.673      -9999      0.0696332  0.0696332  0.1567192  0.24156    0.05456747 1.711393   1.847      0          0.1006929  -9999      0.5209903  0.5209903  -9999     
1164       0.199      378.734    -9999      -9999      335.294    11.698     -9999      1.514      1.85       1.446      1.678      -9999      0.06349631 0.06349631 0.1522186  0.24016    0.04200139 1.601189   1.846      0          0.06922188 -9999      0.5353445  0.5353445  -9999     
1164.2     0.19       378.692    -9999      -9999      335.22     11.718     -9999      1.516      -9999      -9999      1.677      -9999      0.06257179 0.06257179 0.1510757  0.24044    0.04037749 1.574765   1.847      0          0.06581138 -9999      0.5389946  0.5389946  -9999     
1164.4     0.182      378.667    -9999      -9999      335.223    11.725     -9999      1.517      -9999      -9999      1.677      -9999      0.06214828 0.06214828 0.1507033  0.24044    0.03965473 1.56562    1.847      0          0.06377639 -9999      0.5402779  0.5402779  -9999     
1164.6     0.177      378.66     -9999      -9999      335.251    11.741     -9999      1.519      -9999      -9999      1.67       -9999      0.06313653 0.06313653 0.1498705  0.2424     0.04136183 1.544916   1.847      0          0.07362267 -9999      0.5432227  0.5432227  -9999     
1164.8     0.164      378.66     -9999      -9999      335.305    11.741     -9999      1.521      -9999      -9999      1.666      -9999      0.06425652 0.06425652 0.1499255  0.24352    0.04338551 1.544916   1.847      0          0.08172312 -9999      0.5432227  0.5432227  -9999     
1165       0.152      -9999      -9999      -9999      335.327    11.698     -9999      1.522      -9999      -9999      1.662      -9999      0.06797632 0.06797632 0.1522522  0.24464    0.05084455 1.601189   -9999      -9999      -9999      -9999      0.5353445  0.5353445  -9999     
1165.2     0.145      -9999      -9999      -9999      335.324    11.661     -9999      1.523      -9999      -9999      1.656      -9999      0.0718631  0.0718631  0.1542052  0.24632    0.06001185 1.651247   -9999      -9999      -9999      -9999      0.5286573  0.5286573  -9999     
1165.4     0.14       -9999      -9999      -9999      335.304    11.677     -9999      1.525      -9999      -9999      1.654      -9999      0.07147221 0.07147221 0.153342   0.24688    0.05901966 1.629412   -9999      -9999      -9999      -9999      0.5315387  0.5315387  -9999     
1165.6     0.137      -9999      -9999      -9999      335.304    11.72      -9999      1.526      -9999      -9999      1.65       -9999      0.07001092 0.07001092 0.151054   0.248      0.05545364 1.572147   -9999      -9999      -9999      -9999      0.5393609  0.5393609  -9999     
1165.8     0.134      -9999      -9999      -9999      -9999      11.752     -9999      1.527      -9999      -9999      1.645      -9999      0.06946536 0.06946536 -9999      0.2494     0.05417826 1.530843   -9999      -9999      -9999      -9999      0.5452565  0.5452565  -9999     
1166       0.132      -9999      -9999      -9999      -9999      11.763     -9999      1.527      -9999      -9999      1.643      -9999      0.06935167 0.06935167 -9999      0.24996    0.0539162  1.516896   -9999      -9999      -9999      -9999      0.547298   0.547298   -9999     
1166.2     0.13       -9999      -9999      -9999      -9999      11.755     -9999      1.527      -9999      -9999      1.633      -9999      0.07264186 0.07264186 -9999      0.25276    0.06203853 1.527026   -9999      -9999      -9999      -9999      0.5458125  0.5458125  -9999     
1166.4     0.129      -9999      -9999      -9999      -9999      11.747     -9999      -9999      -9999      -9999      1.627      -9999      0.07481075 0.07481075 -9999      0.25444    0.06805102 1.537224   -9999      -9999      -9999      -9999      0.5443311  0.5443311  -9999     
1166.6     0.127      -9999      -9999      -9999      -9999      11.747     -9999      -9999      -9999      -9999      1.622      -9999      0.07621075 0.07621075 -9999      0.25584    0.07223806 1.537224   -9999      -9999      -9999      -9999      0.5443311  0.5443311  -9999     
