~Version
 VERS              .         2.0                           : CWLS LOG ASCII STANDARD - VERSION 2.0
 WRAP              .         NO                            : ONE LINE PER DEPTH STEP
 DLM               .         SPACE                         : DELIMITING CHARACTER(SPACE TAB OR COMMA)
~Well Information
#_______________________________________________________________________________
#
#PARAMETER_NAME    .UNIT     VALUE                         : DESCRIPTION
#_______________________________________________________________________________
STRT               .M        870                           : First reference value
STOP               .M        1167.2                        : Last reference value
STEP               .M        0.2                           : Step increment
NULL               .         -9999                         : Missing value
COMP               .                                       : Company
WELL               .         2950                          : Well name
FLD                .         УЗЕНЬ                         : Field
LOC                .                                       : Location
CNTY               .                                       : County
STAT               .                                       : State
CTRY               .                                       : Country
SRVC               .                                       : Service Company
DATE               .                                       : Date
UWI                .                                       : Unique Well ID
Block              .         7                             : 
Category           .         Нагнетательная                : 
Condition          .         В работе                      : 
Date               .         24.08.2001                    : 
EREF               .m        86.2                          : 100.8
Gorizont           .         15                            : 14
Interpretator      .         Ткачева И.Г.                  : 
Kupol              .         Основной                      : osnovnoi
Mud                .         0                             : 
Mud_density        .         0                             : 
Mud_resistivity    .         0                             : 
NGDU               .         НГДУ-2                        : 
ORIGINALWELLNAME   .         2950                          : 
Spud_date          .         2001                          : 1961
Viscosity          .         0                             : 
X                  .m        42734.2                       : 46154
Y                  .m        84082.73                      : 85761.93
YEAR               .         2019                          : 
~Parameter Information Block
#_______________________________________________________________________________
#
#PARAMETER_NAME    .UNIT     VALUE                         : DESCRIPTION
#_______________________________________________________________________________
SET                .         LQC_KAZNIPI_Petrel            : 
GSDD               .         CSAT                          : CSATкрив,0,DEPT,BOTTOM,,,,0
TLFamily_CALI      .         Caliper                       : 
TLFamily_CILD      .         Conductivity                  : 
TLFamily_COLL      .         Net Reservoir Flag            : 
TLFamily_CSAT      .         Fluid Code                    : 
TLFamily_DEPT      .         Measured Depth                : 
TLFamily_DT        .         Compressional Slowness        : 
TLFamily_GR        .         Russian Gamma Ray             : 
TLFamily_GZ3       .         Gradient 225                  : 
TLFamily_LLS       .         Lateral Log Resistivity       : 
TLFamily_MINV      .         Micro Gradient Resistivity    : 
TLFamily_MNOR      .         Micro Resistivity             : 
TLFamily_NGLD      .         Neutron Gamma                 : 
TLFamily_OGZ       .         Gradient Inverted 225         : 
TLFamily_PHIE      .         Effective Porosity            : 
TLFamily_PHIEN     .         Effective Porosity            : 
TLFamily_PHIES     .         Effective Porosity            : 
TLFamily_PHIT      .         Porosity                      : 
TLFamily_PRMB      .         Permeability                  : 
TLFamily_PRMB_DGR  .         Permeability                  : 
TLFamily_RT        .         Formation Resistivity         : 
TLFamily_SOIL_ARCHIE .         Oil Saturation                : 
TLFamily_SOIL_DW   .         Oil Saturation                : 
TLFamily_SP        .         Spontaneous Potential         : 
TLFamily_VSH_FIN   .         Shale Volume                  : 
TLFamily_VSH_GR    .         Shale Volume                  : 
TLFamily_VSH_SP    .         Shale Volume                  : 
~Curve Information
#_______________________________________________________________________________
#
#LOGNAME           .UNIT     LOG_ID                        : DESCRIPTION
#_______________________________________________________________________________
DEPT               .M                                      : Колонка глубины 
CALI               .м                                      : Каверномер 
CILD               .мСм/м                                  : Индукционный каротаж зондом 6Ф1 
COLL               .unitless                               : Описание 
CSAT               .unitless                               : Описание 
DT                 .мкс/м                                  : Интервальное время пробега продольной волны 
GR                 .uR/h                                   : Гамма каротаж 
GZ3                .Ohmm                                   : Градиент-зонд  длиной 2.25м 
LLS                .Ohmm                                   : Боковой каротаж 
MINV               .Ohmm                                   : Микро-градиент зонд 
MNOR               .Ohmm                                   : Микро-потенциал зонд 
NGLD               .у.е.                                   : Показания зонда НГК-60 аппаратуры ДРСТ-3-90 
OGZ                .Ohmm                                   : Обращенный градиент-зонд 
PHIE               .v/v                                    : Описание 
PHIEN              .v/v                                    :  
PHIES              .v/v                                    :  
PHIT               .v/v                                    : Описание 
PRMB               .mD                                     :  
PRMB_DGR           .mD                                     :  
RT                 .ohmm                                   : Удельное электрическое сопротивление 
SOIL_ARCHIE        .v/v                                    :  
SOIL_DW            .v/v                                    :  
SP                 .мВ                                     : Потенциал самополяризации 
VSH_FIN            .v/v                                    : Описание 
VSH_GR             .v/v                                    : Shale volume 
VSH_SP             .v/v                                    : Shale Volume 
~Ascii
# ...
920.4      0.221      193.153    -9999      -9999      -9999      5.196      6.494      -9999      -9999      -9999      1.526      4.5        0.1499689  0.1499689  -9999      0.28272    1.678598   62.14848   3.622      0.3619069  0.5545471  40.825     0.4022759  0.1201702  0.6843817 
920.6      0.221      195.143    -9999      -9999      -9999      5.102      6.379      -9999      -9999      -9999      1.532      4.385      0.1481758  0.1481758  -9999      0.28104    1.555011   70.1116    3.586      0.3521572  0.5485755  41.019     0.4026188  0.1143975  0.6908401 
920.8      0.221      198.326    -9999      -9999      -9999      5.079      6.293      -9999      -9999      -9999      1.556      4.201      0.1407183  0.1407183  -9999      0.27432    1.131364   72.21067   3.53       0.3173314  0.5288764  41.195     0.4048537  0.1130278  0.6966796 
921        0.221      202.411    -9999      -9999      -9999      5.182      6.288      -9999      -9999      -9999      1.593      3.918      0.1284284  0.1284284  -9999      0.26396    0.6698297  63.27449   3.459      0.2536916  0.4952306  41.359     0.4107016  0.1192923  0.702111  
921.2000000000001 0.22       207.14     -9999      -9999      -9999      5.394      6.405      -9999      -9999      -9999      1.628      3.569      0.1154277  0.1154277  -9999      0.25416    0.3847319  48.21049   3.381      0.1721791  0.4557361  41.521     0.420401   0.1333004  0.7075017 
921.4      0.22       212.716    -9999      -9999      -9999      5.657      6.587      -9999      -9999      -9999      1.642      3.25       0.107427   0.107427   -9999      0.25024    0.273506   34.40696   3.295      0.1080143  0.4281641  41.673     0.4327667  0.1529855  0.7125479 
921.6      0.22       219.712    -9999      -9999      -9999      5.898      6.69       -9999      -9999      -9999      1.624      3.066      0.108353   0.108353   -9999      0.25528    0.2845235  25.25841   3.194      0.101628   0.4282644  41.806     0.4452334  0.1735662  0.7169007 
921.8      0.22       228.35     -9999      -9999      -9999      6.061      6.585      -9999      -9999      -9999      1.577      3.062      0.1182769  0.1182769  -9999      0.26844    0.4344426  20.49331   3.077      0.1529399  0.4536781  41.933     0.4550398  0.1890337  0.7210459 
922        0.22       237.84     -9999      -9999      -9999      6.144      6.284      -9999      -9999      -9999      1.519      3.194      0.1323743  0.1323743  -9999      0.28468    0.7925939  18.42382   2.955      0.2173523  0.4848367  42.071     0.4615324  0.1974319  0.725633  
922.2000000000001 0.22       246.424    -9999      -9999      -9999      6.177      5.923999   -9999      -9999      -9999      1.47       3.363      0.1446955  0.1446955  -9999      0.2984     1.34051    17.66031   2.848      0.2630821  0.5072829  42.22      0.4657711  0.2008737  0.7306685 
922.4      0.22       252.263    -9999      -9999      -9999      6.217      5.657      -9999      -9999      -9999      1.443      3.476      0.1509169  0.1509169  -9999      0.30596    1.747851   16.77713   2.777      0.2811458  0.5165208  42.338     0.4698277  0.2051262  0.7345293 
922.6      0.22       254.556    -9999      -9999      -9999      6.278      5.533      -9999      -9999      -9999      1.439      3.492      0.1507283  0.1507283  -9999      0.30708    1.733849   15.51458   2.749      0.2769322  0.514927   42.389     0.4737931  0.2117851  0.7358012 
922.8      0.22       253.961    -9999      -9999      -9999      6.351      5.495      -9999      -9999      -9999      1.45       3.437      0.1464608  0.1464608  -9999      0.304      1.445329   14.1279    2.755      0.2593748  0.5070499  42.38      0.4773916  0.2200387  0.7347445 
923        0.22       252.134    -9999      -9999      -9999      6.418      5.458      -9999      -9999      -9999      1.458      3.35       0.1431048  0.1431048  -9999      0.30176    1.25258    12.96455   2.774      0.2467036  0.5021144  42.37      0.4807735  0.2278968  0.7336503 
923.2000000000001 0.22       250.642    -9999      -9999      -9999      6.488      5.379      -9999      -9999      -9999      1.452      3.271      0.1432222  0.1432222  -9999      0.30344    1.258868   11.85131   2.79       0.2492704  0.5054057  42.413     0.4855085  0.2364065  0.7346105 
923.4      0.22       250.229    -9999      -9999      -9999      6.566      5.25       -9999      -9999      -9999      1.428      3.224      0.1478044  0.1478044  -9999      0.31016    1.530573   10.72308   2.795      0.2701955  0.5183111  42.511     0.4919867  0.2462637  0.7377097 
923.6      0.22       250.737    -9999      -9999      -9999      6.607      5.078      -9999      -9999      -9999      1.395      3.225      0.1555592  0.1555592  -9999      0.3194     2.130546   10.17377   2.789      0.3012815  0.5356129  42.623     0.4964874  0.2516088  0.7413661 
923.8      0.221      251.617    -9999      -9999      -9999      6.541      4.867      -9999      -9999      -9999      1.367      3.265      0.1643721  0.1643721  -9999      0.32724    3.102615   11.07247   2.779      0.3329012  0.551264   42.709     0.4935391  0.2430604  0.7440179 
924        0.221      252.411    -9999      -9999      -9999      6.331      4.642      -9999      -9999      -9999      1.355      3.314      0.1714507  0.1714507  -9999      0.3306     4.196051   14.495     2.771      0.3560835  0.560638   42.798     0.4822706  0.217746   0.7467953 
924.2000000000001 0.221      252.916    -9999      -9999      -9999      6.045      4.453      -9999      -9999      -9999      1.366      3.328      0.1725768  0.1725768  -9999      0.32752    4.402489   20.9182    2.765      0.3590928  0.5587588  42.938     0.4695249  0.1874563  0.7515936 
924.4      0.221      253.127    -9999      -9999      -9999      5.801      4.35       -9999      -9999      -9999      1.395      3.291      0.1667213  0.1667213  -9999      0.3194     3.429578   28.60462   2.763      0.3393077  0.545719   43.177     0.4626628  0.1649691  0.7603564 
924.6      0.221      253.247    -9999      -9999      -9999      5.702      4.348      -9999      -9999      -9999      1.431      3.215      0.1561249  0.1561249  -9999      0.30932    2.182581   32.47734   2.762      0.3003005  0.5246951  43.481     0.4642275  0.1566338  0.7718213 
924.8      0.221      253.746    -9999      -9999      -9999      5.763      4.415      -9999      -9999      -9999      1.462      3.126      0.1446779  0.1446779  -9999      0.30064    1.339504   30.03328   2.757      0.251687   0.5015062  43.787     0.4726124  0.1617185  0.7835063 
925        0.221      255.274    -9999      -9999      -9999      5.956      4.494      -9999      -9999      -9999      1.481      3.043      0.1349568  0.1349568  -9999      0.29532    0.8848829  23.44762   2.741      0.2027792  0.4809881  44.036     0.4859491  0.1789193  0.7929788 
925.2000000000001 0.221      258.297    -9999      -9999      -9999      6.223      4.536      -9999      -9999      -9999      1.488      2.966      0.1274135  0.1274135  -9999      0.29336    0.6414538  16.64852   2.71       0.1573398  0.4644564  44.223     0.5028681  0.2057718  0.7999644 
925.4      0.222      262.729    -9999      -9999      -9999      6.52       4.515      -9999      -9999      -9999      1.484      2.899      0.1228137  0.1228137  -9999      0.29448    0.5271885  11.37475   2.664      0.1228994  0.4537797  44.368     0.5202009  0.2404018  0.8       
925.6      0.222      267.986    -9999      -9999      -9999      6.781      4.434      -9999      -9999      -9999      1.469      2.856      0.1212036  0.1212036  -9999      0.29868    0.4922021  8.138809   2.613      0.1046756  0.4507565  44.474     0.5378072  0.2756143  0.8       
925.8      0.223      273.246    -9999      -9999      -9999      6.965      4.304      -9999      -9999      -9999      1.445      2.862      0.1233232  0.1233232  -9999      0.3054     0.5387701  6.427913   2.562      0.1098979  0.4565496  44.512     0.5517477  0.3034955  0.8       
