~Version
 VERS              .         2.0                           : CWLS LOG ASCII STANDARD - VERSION 2.0
 WRAP              .         NO                            : ONE LINE PER DEPTH STEP
 DLM               .         SPACE                         : DELIMITING CHARACTER(SPACE TAB OR COMMA)
~Well Information
#_______________________________________________________________________________
#
#PARAMETER_NAME    .UNIT     VALUE                         : DESCRIPTION
#_______________________________________________________________________________
STRT               .M        870                           : First reference value
STOP               .M        1167.2                        : Last reference value
STEP               .M        0.2                           : Step increment
NULL               .         -9999                         : Missing value
COMP               .                                       : Company
WELL               .         2950                          : Well name
FLD                .         УЗЕНЬ                         : Field
LOC                .                                       : Location
CNTY               .                                       : County
STAT               .                                       : State
CTRY               .                                       : Country
SRVC               .                                       : Service Company
DATE               .                                       : Date
UWI                .                                       : Unique Well ID
Block              .         7                             : 
Category           .         Нагнетательная                : 
Condition          .         В работе                      : 
Date               .         24.08.2001                    : 
EREF               .m        86.2                          : 100.8
Gorizont           .         15                            : 14
Interpretator      .         Ткачева И.Г.                  : 
Kupol              .         Основной                      : osnovnoi
Mud                .         0                             : 
Mud_density        .         0                             : 
Mud_resistivity    .         0                             : 
NGDU               .         НГДУ-2                        : 
ORIGINALWELLNAME   .         2950                          : 
Spud_date          .         2001                          : 1961
Viscosity          .         0                             : 
X                  .m        42734.2                       : 46154
Y                  .m        84082.73                      : 85761.93
YEAR               .         2019                          : 
~Parameter Information Block
#_______________________________________________________________________________
#
#PARAMETER_NAME    .UNIT     VALUE                         : DESCRIPTION
#_______________________________________________________________________________
SET                .         LQC_KAZNIPI_Petrel            : 
GSDD               .         CSAT                          : CSATкрив,0,DEPT,BOTTOM,,,,0
TLFamily_CALI      .         Caliper                       : 
TLFamily_CILD      .         Conductivity                  : 
TLFamily_COLL      .         Net Reservoir Flag            : 
TLFamily_CSAT      .         Fluid Code                    : 
TLFamily_DEPT      .         Measured Depth                : 
TLFamily_DT        .         Compressional Slowness        : 
TLFamily_GR        .         Russian Gamma Ray             : 
TLFamily_GZ3       .         Gradient 225                  : 
TLFamily_LLS       .         Lateral Log Resistivity       : 
TLFamily_MINV      .         Micro Gradient Resistivity    : 
TLFamily_MNOR      .         Micro Resistivity             : 
TLFamily_NGLD      .         Neutron Gamma                 : 
TLFamily_OGZ       .         Gradient Inverted 225         : 
TLFamily_PHIE      .         Effective Porosity            : 
TLFamily_PHIEN     .         Effective Porosity            : 
TLFamily_PHIES     .         Effective Porosity            : 
TLFamily_PHIT      .         Porosity                      : 
TLFamily_PRMB      .         Permeability                  : 
TLFamily_PRMB_DGR  .         Permeability                  : 
TLFamily_RT        .         Formation Resistivity         : 
TLFamily_SOIL_ARCHIE .         Oil Saturation                : 
TLFamily_SOIL_DW   .         Oil Saturation                : 
TLFamily_SP        .         Spontaneous Potential         : 
TLFamily_VSH_FIN   .         Shale Volume                  : 
TLFamily_VSH_GR    .         Shale Volume                  : 
TLFamily_VSH_SP    .         Shale Volume                  : 
~Curve Information
#_______________________________________________________________________________
#
#LOGNAME           .UNIT     LOG_ID                        : DESCRIPTION
#_______________________________________________________________________________
DEPT               .M                                      : Колонка глубины 
CALI               .м                                      : Каверномер 
CILD               .мСм/м                                  : Индукционный каротаж зондом 6Ф1 
COLL               .unitless                               : Описание 
CSAT               .unitless                               : Описание 
DT                 .мкс/м                                  : Интервальное время пробега продольной волны 
GR                 .uR/h                                   : Гамма каротаж 
GZ3                .Ohmm                                   : Градиент-зонд  длиной 2.25м 
LLS                .Ohmm                                   : Боковой каротаж 
MINV               .Ohmm                                   : Микро-градиент зонд 
MNOR               .Ohmm                                   : Микро-потенциал зонд 
NGLD               .у.е.                                   : Показания зонда НГК-60 аппаратуры ДРСТ-3-90 
OGZ                .Ohmm                                   : Обращенный градиент-зонд 
PHIE               .v/v                                    : Описание 
PHIEN              .v/v                                    :  
PHIES              .v/v                                    :  
PHIT               .v/v                                    : Описание 
PRMB               .mD                                     :  
PRMB_DGR           .mD                                     :  
RT                 .ohmm                                   : Удельное электрическое сопротивление 
SOIL_ARCHIE        .v/v                                    :  
SOIL_DW            .v/v                                    :  
SP                 .мВ                                     : Потенциал самополяризации 
VSH_FIN            .v/v                                    : Описание 
VSH_GR             .v/v                                    : Shale volume 
VSH_SP             .v/v                                    : Shale Volume 
~Ascii
# ...
898        0.211      458.847    1          3          -9999      2.894      1.81       -9999      -9999      -9999      1.502      0.842      0.222044   0.222044   -9999      0.28944    36.30382   1255.576   1.524      0.3194397  0.4221757  27.121     0.2042302  0.03521707 0.3732434 
898.2000000000001 0.211      461.808    1          3          -9999      2.937      1.812      -9999      -9999      -9999      1.506      0.861      0.2207295  0.2207295  -9999      0.28832    34.3245    1189.926   1.514      0.3137945  0.417517   27.158     0.2048196  0.03599787 0.3736414 
898.4      0.211      463.607    1          3          -9999      2.937      1.797      -9999      -9999      -9999      1.511      0.884      0.2192568  0.2192568  -9999      0.28692    32.23481   1189.926   1.508      0.3084944  0.4130637  27.197     0.2050401  0.03599787 0.3740823 
898.6      0.211      464.649    1          3          -9999      2.896      1.773      -9999      -9999      -9999      1.518      0.901      0.21748    0.21748    -9999      0.28496    29.88239   1252.444   1.505      0.3029255  0.4081211  27.198     0.2044848  0.03525301 0.3737166 
898.8      0.211      465.651    1          3          -9999      2.836      1.744      -9999      -9999      -9999      1.526      0.909      0.2156292  0.2156292  -9999      0.28272    27.61436   1349.901   1.501      0.2968399  0.402474   27.155     0.2033053  0.03419067 0.3724199 
899        0.21       466.986    1          3          -9999      2.776      1.714      -9999      -9999      -9999      1.533      0.916      0.2141255  0.2141255  -9999      0.28076    25.89888   1454.941   1.497      0.2916544  0.3974887  27.091     0.2019229  0.03316034 0.3706854 
899.2000000000001 0.21       468.632    1          3          -9999      2.722      1.687      -9999      -9999      -9999      1.541      0.925      0.212267   0.212267   -9999      0.27852    23.92535   1556.449   1.492      0.2851346  0.3914467  27.042     0.2007666  0.03225961 0.3692735 
899.4      0.21       470.311    1          3          -9999      2.675      1.673      -9999      -9999      -9999      1.549      0.929      0.2102817  0.2102817  -9999      0.27628    21.98293   1650.545   1.487      0.2781237  0.3851429  27.023     0.1999948  0.03149558 0.368494  
899.6      0.209      471.976    1          3          -9999      2.643      1.678      -9999      -9999      -9999      1.557      0.919      0.2082094  0.2082094  -9999      0.27404    20.12338   1717.845   1.482      0.2707183  0.3786151  27.017     0.1994867  0.03098578 0.3679876 
899.8      0.209      473.985    1          3          -9999      2.638      1.69       -9999      -9999      -9999      1.558      0.892      0.2080362  0.2080362  -9999      0.27376    19.97528   1728.605   1.476      0.2687988  0.376766   27.008     0.1991631  0.03090687 0.3674193 
900        0.209      476.942    1          3          -9999      2.663      1.691      -9999      -9999      -9999      1.551      0.861      0.2100621  0.2100621  -9999      0.27572    21.77802   1675.467   1.466      0.272628   0.3797519  26.988     0.1989632  0.03130343 0.366623  
900.2000000000001 0.209      481.202    1          3          -9999      2.71       1.663      -9999      -9999      -9999      1.541      0.846      0.2128748  0.2128748  -9999      0.27852    24.55362   1579.95    1.454      0.278227   0.3842814  26.966     0.1989249  0.0320628  0.365787  
900.4      0.209      486.403    1          3          -9999      2.763      1.609      -9999      -9999      -9999      1.535      0.854      0.2145543  0.2145543  -9999      0.2802     26.37696   1478.756   1.438      0.2794185  0.3850519  26.942     0.1989263  0.03294122 0.3649114 
900.6      0.209      491.595    1          3          -9999      2.813      1.545      -9999      -9999      -9999      1.537      0.877      0.2140287  0.2140287  -9999      0.27964    25.79228   1389.239   1.423      0.2743156  0.3804643  26.909     0.198822   0.03379197 0.3638521 
900.8      0.209      495.717    1          3          -9999      2.851      1.491      -9999      -9999      -9999      1.543      0.895      0.2124954  0.2124954  -9999      0.27796    24.1595    1324.848   1.41       0.2666051  0.3735485  26.852     0.1983777  0.03445321 0.3623021 
901        0.209      498.379    1          3          -9999      2.875      1.455      -9999      -9999      -9999      1.545      0.898      0.2122111  0.2122111  -9999      0.2774     23.86837   1285.726   1.403      0.2640328  0.3708981  26.768     0.1975421  0.03487749 0.3602067 
901.2000000000001 0.209      499.892    1          3          -9999      2.887      1.438      -9999      -9999      -9999      1.542      0.889      0.2133963  0.2133963  -9999      0.27824    25.10588   1266.601   1.399      0.2666122  0.3725693  26.673     0.196496   0.03509158 0.3579004 
901.4      0.209      500.995    1          3          -9999      2.896      1.427      -9999      -9999      -9999      1.535      0.881      0.2156512  0.2156512  -9999      0.2802     27.64017   1252.444   1.396      0.272563   0.3771989  26.595     0.1956026  0.03525301 0.3559522 
901.6      0.209      502.142    1          3          -9999      2.911      1.417      -9999      -9999      -9999      1.53       0.883      0.2170905  0.2170905  -9999      0.2816     29.39003   1229.199   1.392      0.2757908  0.3798383  26.588     0.1954835  0.03552371 0.3554433 
901.8      0.209      503.351    1          3          -9999      2.934      1.401      -9999      -9999      -9999      1.528      0.898      0.2173187  0.2173187  -9999      0.28216    29.67748   1194.393   1.39       0.2759649  0.3803815  26.685     0.1964889  0.03594284 0.3570349 
902        0.209      504.364    1          3          -9999      2.952      1.377      -9999      -9999      -9999      1.531      0.921      0.2162675  0.2162675  -9999      0.28132    28.37633   1167.842   1.387      0.2721631  0.3773735  26.75      0.1971289  0.03627429 0.3579834 
902.2000000000001 0.209      505.061    1          3          -9999      2.947      1.343      -9999      -9999      -9999      1.537      0.946      0.2146403  0.2146403  -9999      0.27964    26.47389   1175.158   1.385      0.2668637  0.3727713  26.757     0.1969687  0.03618192 0.3577555 
902.4      0.209      505.585    1          3          -9999      2.913      1.306      -9999      -9999      -9999      1.543      0.972      0.2132876  0.2132876  -9999      0.27796    24.98976   1226.133   1.383      0.2623155  0.368446   26.708     0.195977   0.03555997 0.356394  
902.6      0.21       506.132    1          3          -9999      2.862      1.276      -9999      -9999      -9999      1.548      0.998      0.2122985  0.2122985  -9999      0.27656    23.95753   1306.771   1.382      0.2590717  0.3651258  26.648     0.1947317  0.03464703 0.3548164 
902.8      0.21       506.628    1          3          -9999      2.818      1.264      -9999      -9999      -9999      1.549      1.025      0.2122755  0.2122755  -9999      0.27628    23.93396   1380.59    1.38       0.2584978  0.3642624  26.627     0.1939531  0.03387825 0.354028  
903        0.21       506.637    1          3          -9999      2.797      1.276      -9999      -9999      -9999      1.549      1.05       0.2122728  0.2122728  -9999      0.27628    23.93124   1417.279   1.38       0.2584897  0.3642591  26.664     0.1939612  0.03351737 0.3544051 
903.2000000000001 0.21       505.706    1          3          -9999      2.799      1.306      -9999      -9999      -9999      1.548      1.072      0.2123087  0.2123087  -9999      0.27656    23.96787   1413.743   1.383      0.2593539  0.3653681  26.754     0.1947011  0.03355157 0.3558506 
903.4      0.21       503.808    1          3          -9999      2.826      1.335      -9999      -9999      -9999      1.545      1.098      0.2126884  0.2126884  -9999      0.2774     24.35923   1366.865   1.388      0.2617571  0.3681015  26.887     0.1960957  0.03401675 0.3581747 
