~Version
 VERS              .         2.0                           : CWLS LOG ASCII STANDARD - VERSION 2.0
 WRAP              .         NO                            : ONE LINE PER DEPTH STEP
 DLM               .         SPACE                         : DELIMITING CHARACTER(SPACE TAB OR COMMA)
~Well Information
#_______________________________________________________________________________
#
#PARAMETER_NAME    .UNIT     VALUE                         : DESCRIPTION
#_______________________________________________________________________________
STRT               .M        870                           : First reference value
STOP               .M        1167.2                        : Last reference value
STEP               .M        0.2                           : Step increment
NULL               .         -9999                         : Missing value
COMP               .                                       : Company
WELL               .         2950                          : Well name
FLD                .         УЗЕНЬ                         : Field
LOC                .                                       : Location
CNTY               .                                       : County
STAT               .                                       : State
CTRY               .                                       : Country
SRVC               .                                       : Service Company
DATE               .                                       : Date
UWI                .                                       : Unique Well ID
Block              .         7                             : 
Category           .         Нагнетательная                : 
Condition          .         В работе                      : 
Date               .         24.08.2001                    : 
EREF               .m        86.2                          : 100.8
Gorizont           .         15                            : 14
Interpretator      .         Ткачева И.Г.                  : 
Kupol              .         Основной                      : osnovnoi
Mud                .         0                             : 
Mud_density        .         0                             : 
Mud_resistivity    .         0                             : 
NGDU               .         НГДУ-2                        : 
ORIGINALWELLNAME   .         2950                          : 
Spud_date          .         2001                          : 1961
Viscosity          .         0                             : 
X                  .m        42734.2                       : 46154
Y                  .m        84082.73                      : 85761.93
YEAR               .         2019                          : 
~Parameter Information Block
#_______________________________________________________________________________
#
#PARAMETER_NAME    .UNIT     VALUE                         : DESCRIPTION
#_______________________________________________________________________________
SET                .         LQC_KAZNIPI_Petrel            : 
GSDD               .         CSAT                          : CSATкрив,0,DEPT,BOTTOM,,,,0
TLFamily_CALI      .         Caliper                       : 
TLFamily_CILD      .         Conductivity                  : 
TLFamily_COLL      .         Net Reservoir Flag            : 
TLFamily_CSAT      .         Fluid Code                    : 
TLFamily_DEPT      .         Measured Depth                : 
TLFamily_DT        .         Compressional Slowness        : 
TLFamily_GR        .         Russian Gamma Ray             : 
TLFamily_GZ3       .         Gradient 225                  : 
TLFamily_LLS       .         Lateral Log Resistivity       : 
TLFamily_MINV      .         Micro Gradient Resistivity    : 
TLFamily_MNOR      .         Micro Resistivity             : 
TLFamily_NGLD      .         Neutron Gamma                 : 
TLFamily_OGZ       .         Gradient Inverted 225         : 
TLFamily_PHIE      .         Effective Porosity            : 
TLFamily_PHIEN     .         Effective Porosity            : 
TLFamily_PHIES     .         Effective Porosity            : 
TLFamily_PHIT      .         Porosity                      : 
TLFamily_PRMB      .         Permeability                  : 
TLFamily_PRMB_DGR  .         Permeability                  : 
TLFamily_RT        .         Formation Resistivity         : 
TLFamily_SOIL_ARCHIE .         Oil Saturation                : 
TLFamily_SOIL_DW   .         Oil Saturation                : 
TLFamily_SP        .         Spontaneous Potential         : 
TLFamily_VSH_FIN   .         Shale Volume                  : 
TLFamily_VSH_GR    .         Shale Volume                  : 
TLFamily_VSH_SP    .         Shale Volume                  : 
~Curve Information
#_______________________________________________________________________________
#
#LOGNAME           .UNIT     LOG_ID                        : DESCRIPTION
#_______________________________________________________________________________
DEPT               .M                                      : Колонка глубины 
CALI               .м                                      : Каверномер 
CILD               .мСм/м                                  : Индукционный каротаж зондом 6Ф1 
COLL               .unitless                               : Описание 
CSAT               .unitless                               : Описание 
DT                 .мкс/м                                  : Интервальное время пробега продольной волны 
GR                 .uR/h                                   : Гамма каротаж 
GZ3                .Ohmm                                   : Градиент-зонд  длиной 2.25м 
LLS                .Ohmm                                   : Боковой каротаж 
MINV               .Ohmm                                   : Микро-градиент зонд 
MNOR               .Ohmm                                   : Микро-потенциал зонд 
NGLD               .у.е.                                   : Показания зонда НГК-60 аппаратуры ДРСТ-3-90 
OGZ                .Ohmm                                   : Обращенный градиент-зонд 
PHIE               .v/v                                    : Описание 
PHIEN              .v/v                                    :  
PHIES              .v/v                                    :  
PHIT               .v/v                                    : Описание 
PRMB               .mD                                     :  
PRMB_DGR           .mD                                     :  
RT                 .ohmm                                   : Удельное электрическое сопротивление 
SOIL_ARCHIE        .v/v                                    :  
SOIL_DW            .v/v                                    :  
SP                 .мВ                                     : Потенциал самополяризации 
VSH_FIN            .v/v                                    : Описание 
VSH_GR             .v/v                                    : Shale volume 
VSH_SP             .v/v                                    : Shale Volume 
~Ascii
# ...
954        0.211      278.04     -9999      -9999      -9999      6.716      4.024      -9999      -9999      -9999      1.502      2.716      0.1346975  0.1346975  -9999      0.28944    0.8751516  8.846406   2.516      0.1686922  0.45105    42.94      0.4689166  0.2663898  0.6714433 
954.2000000000001 0.213      280.4      -9999      -9999      -9999      6.755      4.013      -9999      -9999      -9999      1.48       2.623      0.1403946  0.1403946  -9999      0.2956     1.11585    8.414789   2.494      0.1948389  0.4642728  42.867     0.4703195  0.2718868  0.6687523 
954.4      0.215      281.903    -9999      -9999      -9999      6.845      3.954      -9999      -9999      -9999      1.443      2.561      0.1489138  0.1489138  -9999      0.30596    1.604735   7.497426   2.48       0.2330856  0.4857673  42.814     0.4758976  0.2850088  0.6667863 
954.6      0.218      282.689    -9999      -9999      -9999      6.928      3.858      -9999      -9999      -9999      1.398      2.536      0.159642   0.159642   -9999      0.31856    2.535798   6.740309   2.473      0.2772141  0.5109141  42.779     0.4815698  0.297671   0.6654685 
954.8      0.221      283.186    -9999      -9999      -9999      6.941      3.74       -9999      -9999      -9999      1.362      2.528      0.1698154  0.1698154  -9999      0.32864    3.913379   6.628854   2.469      0.3145562  0.5311061  42.708     0.4812866  0.2997046  0.6628686 
955        0.221      283.523    -9999      -9999      -9999      6.882      3.633      -9999      -9999      -9999      1.349      2.505      0.1758851  0.1758851  -9999      0.33228    5.069626   7.14994    2.466      0.3348248  0.5402835  42.552     0.4739241  0.2905855  0.6572627 
955.2000000000001 0.22       283.566    -9999      -9999      -9999      6.818      3.561      -9999      -9999      -9999      1.361      2.439      0.1755044  0.1755044  -9999      0.32892    4.987981   7.761606   2.466      0.3335684  0.5370324  42.313     0.4648959  0.2810071  0.6487847 
955.4      0.217      283.054    -9999      -9999      -9999      6.866      3.545      -9999      -9999      -9999      1.386      2.322      0.168902   0.168902   -9999      0.32192    3.763849   7.298181   2.471      0.3115903  0.5243371  42.04      0.463691   0.2881608  0.6392212 
955.6      0.214      282.3      -9999      -9999      -9999      7.095      3.583      -9999      -9999      -9999      1.403      2.164      0.1593826  0.1593826  -9999      0.31716    2.5079     5.440743   2.478      0.2768754  0.5097752  41.813     0.4781134  0.324878   0.6313488 
955.8      0.212      282.284    -9999      -9999      -9999      7.479      3.667      -9999      -9999      -9999      1.399      1.993      0.1493319  0.1493319  -9999      0.31828    1.633608   3.32479    2.478      0.2346664  0.4985278  41.678     0.5119638  0.3972468  0.6266807 
956        0.213      284.485    -9999      -9999      -9999      7.896      3.764      -9999      -9999      -9999      1.37       1.84       0.1415484  0.1415484  -9999      0.3264     1.172136   1.947551   2.46       0.1953923  0.4945157  41.663     0.5601563  0.494204   0.6261088 
956.2000000000001 0.215      290.107    -9999      -9999      -9999      8.217      3.837      -9999      -9999      -9999      1.329      1.736      0.1375877  0.1375877  -9999      0.33788    0.9899556  1.290288   2.416      0.1682415  0.4957108  41.756     0.6069464  0.5846784  0.6292144 
956.4      0.219      299.428    -9999      -9999      -9999      8.371      3.849      -9999      -9999      -9999      1.29       1.692      0.1769468  0.1769468  -9999      0.3488     5.304469   3.736619   2.345      0.3224941  0.5434424  41.962     0.5207673  0.3787494  0.6627853 
956.6      0.221      311.543    -9999      -9999      -9999      8.371      3.796      -9999      -9999      -9999      1.261      1.703      0.1833134  0.1833134  -9999      0.35692    6.959313   3.736619   2.256      0.330997   0.5472752  42.26      0.5260807  0.3787494  0.673412  
956.8      0.222      324.807    -9999      -9999      -9999      8.266      3.706      -9999      -9999      -9999      1.243      1.744      0.189194   0.189194   -9999      0.36196    8.943142   4.195881   2.163      0.3361593  0.5471736  42.603     0.5235333  0.361239   0.6858276 
957        0.221      337.757    -9999      -9999      -9999      8.125      3.62       -9999      -9999      -9999      1.232      1.792      0.1942026  0.1942026  -9999      0.36504    11.0729    4.902618   2.078      0.3387725  0.5450386  42.891     0.5176891  0.3389919  0.6963863 
957.2000000000001 0.218      349.747    -9999      -9999      -9999      8.001      3.56       -9999      -9999      -9999      1.222      1.828      0.1990402  0.1990402  -9999      0.36784    13.61025   5.621886   2.006      0.3419928  0.5435047  43.056     0.5115144  0.3205622  0.7024666 
957.4      0.216      360.877    -9999      -9999      -9999      7.942      3.518      -9999      -9999      -9999      1.207      1.842      0.2043309  0.2043309  -9999      0.37204    17.05543   6.000272   1.943      0.3471539  0.5440657  43.106     0.5082093  0.3121484  0.7042702 
957.6      0.214      371.119    -9999      -9999      -9999      7.955      3.478      -9999      -9999      -9999      1.187      1.836      0.2095405  0.2095405  -9999      0.37764    21.29885   5.914768   1.888      0.3526487  0.5461601  43.122     0.5093924  0.3139831  0.7048019 
957.8      0.214      379.93     -9999      -9999      -9999      8.026      3.422      -9999      -9999      -9999      1.163      1.819      0.2143638  0.2143638  -9999      0.38436    26.16352   5.468842   1.843      0.3581283  0.5495924  43.158     0.5151399  0.3241954  0.7060845 
958        0.215      386.392    -9999      -9999      -9999      8.108      3.338      -9999      -9999      -9999      1.14       1.815      0.2185216  0.2185216  -9999      0.3908     31.23983   4.995502   1.811      0.3635686  0.5535744  43.203     0.5220557  0.3364039  0.7077075 
958.2000000000001 0.216      389.971    -9999      -9999      -9999      8.156      3.21       -9999      -9999      -9999      1.129      1.852      0.2203987  0.2203987  -9999      0.39388    33.84365   4.737668   1.794      0.3654901  0.5550948  43.203     0.5257009  0.3437626  0.7076391 
958.4      0.218      390.389    -9999      -9999      -9999      8.129      3.034      -9999      -9999      -9999      1.141      1.944      0.2180214  0.2180214  -9999      0.39052    30.5804    4.881017   1.792      0.3591331  0.5506135  43.157     0.522723   0.3396037  0.7058423 
958.6      0.218      387.208    -9999      -9999      -9999      8.006      2.824      -9999      -9999      -9999      1.179      2.083      0.2106627  0.2106627  -9999      0.37988    22.34304   5.590941   1.808      0.3424277  0.5388589  43.117     0.5127797  0.3212855  0.7042739 
958.8      0.217      379.704    -9999      -9999      -9999      7.793      2.622      -9999      -9999      -9999      1.241      2.239      0.1979386  0.1979386  -9999      0.36252    12.98555   7.073127   1.847      0.3126788  0.5189817  43.154     0.4987316  0.29187    0.7055932 
959        0.215      367.67     -9999      -9999      -9999      7.531      2.467      -9999      -9999      -9999      1.313      2.368      0.1824036  0.1824036  -9999      0.34236    6.694467   9.445659   1.911      0.2736705  0.4944356  43.275     0.4847163  0.2593548  0.7100778 
959.2000000000001 0.213      352.453    -9999      -9999      -9999      7.297      2.388      -9999      -9999      -9999      1.382      2.43       0.1664113  0.1664113  -9999      0.32304    3.384531   12.23004   1.997      0.229326   0.4689625  43.43      0.4746325  0.2333894  0.7158757 
959.4      0.211      336.884    -9999      -9999      -9999      7.173      2.386      -9999      -9999      -9999      1.436      2.407      0.1527243  0.1527243  -9999      0.30792    1.887918   14.02433   2.088      0.1866946  0.4471489  43.537     0.4702899  0.2207008  0.719879  
