~Version
 VERS              .         2.0                           : CWLS LOG ASCII STANDARD - VERSION 2.0
 WRAP              .         NO                            : ONE LINE PER DEPTH STEP
 DLM               .         SPACE                         : DELIMITING CHARACTER(SPACE TAB OR COMMA)
~Well Information
#_______________________________________________________________________________
#
#PARAMETER_NAME    .UNIT     VALUE                         : DESCRIPTION
#_______________________________________________________________________________
STRT               .M        870                           : First reference value
STOP               .M        1167.2                        : Last reference value
STEP               .M        0.2                           : Step increment
NULL               .         -9999                         : Missing value
COMP               .                                       : Company
WELL               .         2950                          : Well name
FLD                .         УЗЕНЬ                         : Field
LOC                .                                       : Location
CNTY               .                                       : County
STAT               .                                       : State
CTRY               .                                       : Country
SRVC               .                                       : Service Company
DATE               .                                       : Date
UWI                .                                       : Unique Well ID
Block              .         7                             : 
Category           .         Нагнетательная                : 
Condition          .         В работе                      : 
Date               .         24.08.2001                    : 
EREF               .m        86.2                          : 100.8
Gorizont           .         15                            : 14
Interpretator      .         Ткачева И.Г.                  : 
Kupol              .         Основной                      : osnovnoi
Mud                .         0                             : 
Mud_density        .         0                             : 
Mud_resistivity    .         0                             : 
NGDU               .         НГДУ-2                        : 
ORIGINALWELLNAME   .         2950                          : 
Spud_date          .         2001                          : 1961
Viscosity          .         0                             : 
X                  .m        42734.2                       : 46154
Y                  .m        84082.73                      : 85761.93
YEAR               .         2019                          : 
~Parameter Information Block
#_______________________________________________________________________________
#
#PARAMETER_NAME    .UNIT     VALUE                         : DESCRIPTION
#_______________________________________________________________________________
SET                .         LQC_KAZNIPI_Petrel            : 
GSDD               .         CSAT                          : CSATкрив,0,DEPT,BOTTOM,,,,0
TLFamily_CALI      .         Caliper                       : 
TLFamily_CILD      .         Conductivity                  : 
TLFamily_COLL      .         Net Reservoir Flag            : 
TLFamily_CSAT      .         Fluid Code                    : 
TLFamily_DEPT      .         Measured Depth                : 
TLFamily_DT        .         Compressional Slowness        : 
TLFamily_GR        .         Russian Gamma Ray             : 
TLFamily_GZ3       .         Gradient 225                  : 
TLFamily_LLS       .         Lateral Log Resistivity       : 
TLFamily_MINV      .         Micro Gradient Resistivity    : 
TLFamily_MNOR      .         Micro Resistivity             : 
TLFamily_NGLD      .         Neutron Gamma                 : 
TLFamily_OGZ       .         Gradient Inverted 225         : 
TLFamily_PHIE      .         Effective Porosity            : 
TLFamily_PHIEN     .         Effective Porosity            : 
TLFamily_PHIES     .         Effective Porosity            : 
TLFamily_PHIT      .         Porosity                      : 
TLFamily_PRMB      .         Permeability                  : 
TLFamily_PRMB_DGR  .         Permeability                  : 
TLFamily_RT        .         Formation Resistivity         : 
TLFamily_SOIL_ARCHIE .         Oil Saturation                : 
TLFamily_SOIL_DW   .         Oil Saturation                : 
TLFamily_SP        .         Spontaneous Potential         : 
TLFamily_VSH_FIN   .         Shale Volume                  : 
TLFamily_VSH_GR    .         Shale Volume                  : 
TLFamily_VSH_SP    .         Shale Volume                  : 
~Curve Information
#_______________________________________________________________________________
#
#LOGNAME           .UNIT     LOG_ID                        : DESCRIPTION
#_______________________________________________________________________________
DEPT               .M                                      : Колонка глубины 
CALI               .м                                      : Каверномер 
CILD               .мСм/м                                  : Индукционный каротаж зондом 6Ф1 
COLL               .unitless                               : Описание 
CSAT               .unitless                               : Описание 
DT                 .мкс/м                                  : Интервальное время пробега продольной волны 
GR                 .uR/h                                   : Гамма каротаж 
GZ3                .Ohmm                                   : Градиент-зонд  длиной 2.25м 
LLS                .Ohmm                                   : Боковой каротаж 
MINV               .Ohmm                                   : Микро-градиент зонд 
MNOR               .Ohmm                                   : Микро-потенциал зонд 
NGLD               .у.е.                                   : Показания зонда НГК-60 аппаратуры ДРСТ-3-90 
OGZ                .Ohmm                                   : Обращенный градиент-зонд 
PHIE               .v/v                                    : Описание 
PHIEN              .v/v                                    :  
PHIES              .v/v                                    :  
PHIT               .v/v                                    : Описание 
PRMB               .mD                                     :  
PRMB_DGR           .mD                                     :  
RT                 .ohmm                                   : Удельное электрическое сопротивление 
SOIL_ARCHIE        .v/v                                    :  
SOIL_DW            .v/v                                    :  
SP                 .мВ                                     : Потенциал самополяризации 
VSH_FIN            .v/v                                    : Описание 
VSH_GR             .v/v                                    : Shale volume 
VSH_SP             .v/v                                    : Shale Volume 
~Ascii
# ...
976.4      0.219      404.756    -9999      -9999      -9999      8.94       2.301      -9999      -9999      -9999      1.267      1.502      0.1465355  0.1465355  -9999      0.35524    1.449946   1.993708   1.728      0.07855853 0.4355218  44.028     0.6324378  0.4894995  0.775376  
976.6      0.218      407.284    -9999      -9999      -9999      8.854      2.281      -9999      -9999      -9999      1.281      1.511      0.1456609  0.1456609  -9999      0.35132    1.396855   2.192278   1.717      0.07096156 0.4284696  44.003     0.6232094  0.4708852  0.7755335 
976.8      0.218      409.209    -9999      -9999      -9999      8.762      2.25       -9999      -9999      -9999      1.295      1.522      0.1448446  0.1448446  -9999      0.3474     1.349062   2.426648   1.709      0.06435491 0.4218594  43.982     0.6138042  0.4517551  0.7758533 
977        0.22       410.087    -9999      -9999      -9999      8.675      2.206      -9999      -9999      -9999      1.304      1.541      0.1449178  0.1449178  -9999      0.34488    1.353278   2.671286   1.706      0.06399494 0.4187898  43.994     0.6059461  0.4343801  0.777512  
977.2000000000001 0.222      409.601    -9999      -9999      -9999      8.58       2.158      -9999      -9999      -9999      1.303      1.567      0.1476395  0.1476395  -9999      0.34516    1.519849   2.966676   1.708      0.07954779 0.4234006  44.049     0.5985469  0.4161698  0.780924  
977.4      0.222      407.851    -9999      -9999      -9999      8.46       2.117      -9999      -9999      -9999      1.293      1.6        0.1534569  0.1534569  -9999      0.34796    1.947836   3.38693    1.715      0.1117201  0.4356515  44.109     0.5894033  0.3942544  0.7845522 
977.6      0.222      405.372    -9999      -9999      -9999      8.304      2.09       -9999      -9999      -9999      1.28       1.635      0.1611438  0.1611438  -9999      0.3516     2.703536   4.023494   1.725      0.1510597  0.4510837  44.135     0.57714    0.3674806  0.7867994 
977.8      0.221      402.794    -9999      -9999      -9999      8.12       2.065      -9999      -9999      -9999      1.272      1.666      0.1682449  0.1682449  -9999      0.35384    3.659839   4.929756   1.736      0.1847887  0.4637975  44.101     0.5624094  0.3382286  0.7865901 
978        0.221      400.521    -9999      -9999      -9999      7.935      2.036      -9999      -9999      -9999      1.274      1.686      0.1724686  0.1724686  -9999      0.35328    4.382231   6.04682    1.746      0.2043519  0.4698431  44.025     0.5479133  0.3111649  0.7846616 
978.2000000000001 0.222      398.637    -9999      -9999      -9999      7.792      2.008      -9999      -9999      -9999      1.286      1.694      0.1727595  0.1727595  -9999      0.34992    4.436939   7.080945   1.755      0.2074334  0.4684186  43.93      0.5368499  0.2917384  0.7819614 
978.4      0.224      397.11     -9999      -9999      -9999      7.741      1.997      -9999      -9999      -9999      1.3        1.691      0.1704986  0.1704986  -9999      0.346      4.029083   7.491068   1.761      0.1995706  0.4629204  43.817     0.5318224  0.2851076  0.7785372 
978.6      0.225      396.088    -9999      -9999      -9999      7.803      2.01       -9999      -9999      -9999      1.311      1.685      0.166902   0.166902   -9999      0.34292    3.456117   6.995469   1.766      0.1856528  0.4562959  43.666     0.5333878  0.2931887  0.7735869 
978.8      0.227      395.978    -9999      -9999      -9999      7.949      2.036      -9999      -9999      -9999      1.316      1.676      0.1632821  0.1632821  -9999      0.34152    2.961687   5.954079   1.766      0.1699512  0.4503431  43.476     0.5401148  0.3131349  0.7670946 
979        0.228      397.246    -9999      -9999      -9999      8.104      2.064      -9999      -9999      -9999      1.311      1.658      0.1619673  0.1619673  -9999      0.34292    2.800172   5.01761    1.761      0.1629725  0.4492698  43.292     0.5483416  0.3357978  0.7608854 
979.2000000000001 0.23       400.003    -9999      -9999      -9999      8.181      2.079      -9999      -9999      -9999      1.303      1.617      0.1629407  0.1629407  -9999      0.34516    2.918868   4.608695   1.749      0.1646532  0.450862   43.158     0.5521798  0.3476587  0.7567009 
979.4      0.231      403.801    -9999      -9999      -9999      8.134      2.073      -9999      -9999      -9999      1.295      1.548      0.1666067  0.1666067  -9999      0.3474     3.412858   4.854147   1.732      0.1769212  0.4550087  43.095     0.5478585  0.3403701  0.755347  
979.6      0.232      407.643    -9999      -9999      -9999      7.983      2.037      -9999      -9999      -9999      1.294      1.464      0.1705243  0.1705243  -9999      0.34768    4.03349    5.734727   1.716      0.1898943  0.457579   43.075     0.5368356  0.3179714  0.7556996 
979.8      0.232      410.441    -9999      -9999      -9999      7.799      1.976      -9999      -9999      -9999      1.295      1.391      0.1742051  0.1742051  -9999      0.3474     4.719099   7.026433   1.704      0.2022     0.4598455  43.079     0.5248331  0.2926605  0.7570056 
980        0.233      411.403    -9999      -9999      -9999      7.646      1.906      -9999      -9999      -9999      1.295      1.347      0.1771092  0.1771092  -9999      0.3474     5.341335   8.319428   1.7        0.2127379  0.4626448  43.098     0.5160328  0.2731551  0.7589105 
980.2000000000001 0.233      410.471    -9999      -9999      -9999      7.546      1.854      -9999      -9999      -9999      1.293      1.348      0.1791894  0.1791894  -9999      0.34796    5.836884   9.290525   1.703      0.2213484  0.4660638  43.14      0.511426   0.2611145  0.7617374 
980.4      0.234      408.174    -9999      -9999      -9999      7.479      1.834      -9999      -9999      -9999      1.291      1.397      0.1805767  0.1805767  -9999      0.34852    6.192643   10.00379   1.713      0.228683   0.4697348  43.18      0.5089192  0.2533457  0.7644926 
980.6      0.234      405.428    -9999      -9999      -9999      7.424      1.855      -9999      -9999      -9999      1.292      1.486      0.1810962  0.1810962  -9999      0.34824    6.331401   10.63005   1.725      0.233127   0.4719108  43.185     0.5064962  0.2471414  0.765851  
980.8      0.233      402.983    -9999      -9999      -9999      7.366      1.916      -9999      -9999      -9999      1.3        1.596      0.1801739  0.1801739  -9999      0.346      6.087173   11.33299   1.736      0.2320032  0.4704553  43.116     0.5025034  0.2407632  0.7642435 
981        0.233      401.234    -9999      -9999      -9999      7.289      2.014      -9999      -9999      -9999      1.315      1.7        0.1780484  0.1780484  -9999      0.3418     5.55963    12.33853   1.743      0.2254882  0.4650975  42.978     0.496217   0.2325492  0.7598848 
981.2000000000001 0.231      399.976    -9999      -9999      -9999      7.184      2.134      -9999      -9999      -9999      1.333      1.777      0.1757468  0.1757468  -9999      0.33676    5.039831   13.85504   1.748      0.217714   0.458257   42.802     0.4879187  0.221798   0.7540394 
981.4      0.23       398.7      -9999      -9999      -9999      7.081      2.257      -9999      -9999      -9999      1.351      1.817      0.1733712  0.1733712  -9999      0.33172    4.554214   15.52362   1.754      0.209658   0.4512807  42.619     0.4798448  0.2117347  0.747955  
981.6      0.229      396.968    -9999      -9999      -9999      7.049      2.355      -9999      -9999      -9999      1.361      1.83       0.1721721  0.1721721  -9999      0.32892    4.327164   16.08186   1.762      0.2065623  0.4481966  42.42      0.4749936  0.2087021  0.7412851 
981.8      0.228      395.029    -9999      -9999      -9999      7.154      2.401      -9999      -9999      -9999      1.357      1.838      0.1729968  0.1729968  -9999      0.33004    4.482064   14.32161   1.771      0.2117443  0.451762   42.177     0.4758886  0.2188185  0.7329586 
