~Version
 VERS              .         2.0                           : CWLS LOG ASCII STANDARD - VERSION 2.0
 WRAP              .         NO                            : ONE LINE PER DEPTH STEP
 DLM               .         SPACE                         : DELIMITING CHARACTER(SPACE TAB OR COMMA)
~Well Information
#_______________________________________________________________________________
#
#PARAMETER_NAME    .UNIT     VALUE                         : DESCRIPTION
#_______________________________________________________________________________
STRT               .M        870                           : First reference value
STOP               .M        1167.2                        : Last reference value
STEP               .M        0.2                           : Step increment
NULL               .         -9999                         : Missing value
COMP               .                                       : Company
WELL               .         2950                          : Well name
FLD                .         УЗЕНЬ                         : Field
LOC                .                                       : Location
CNTY               .                                       : County
STAT               .                                       : State
CTRY               .                                       : Country
SRVC               .                                       : Service Company
DATE               .                                       : Date
UWI                .                                       : Unique Well ID
Block              .         7                             : 
Category           .         Нагнетательная                : 
Condition          .         В работе                      : 
Date               .         24.08.2001                    : 
EREF               .m        86.2                          : 100.8
Gorizont           .         15                            : 14
Interpretator      .         Ткачева И.Г.                  : 
Kupol              .         Основной                      : osnovnoi
Mud                .         0                             : 
Mud_density        .         0                             : 
Mud_resistivity    .         0                             : 
NGDU               .         НГДУ-2                        : 
ORIGINALWELLNAME   .         2950                          : 
Spud_date          .         2001                          : 1961
Viscosity          .         0                             : 
X                  .m        42734.2                       : 46154
Y                  .m        84082.73                      : 85761.93
YEAR               .         2019                          : 
~Parameter Information Block
#_______________________________________________________________________________
#
#PARAMETER_NAME    .UNIT     VALUE                         : DESCRIPTION
#_______________________________________________________________________________
SET                .         LQC_KAZNIPI_Petrel            : 
GSDD               .         CSAT                          : CSATкрив,0,DEPT,BOTTOM,,,,0
TLFamily_CALI      .         Caliper                       : 
TLFamily_CILD      .         Conductivity                  : 
TLFamily_COLL      .         Net Reservoir Flag            : 
TLFamily_CSAT      .         Fluid Code                    : 
TLFamily_DEPT      .         Measured Depth                : 
TLFamily_DT        .         Compressional Slowness        : 
TLFamily_GR        .         Russian Gamma Ray             : 
TLFamily_GZ3       .         Gradient 225                  : 
TLFamily_LLS       .         Lateral Log Resistivity       : 
TLFamily_MINV      .         Micro Gradient Resistivity    : 
TLFamily_MNOR      .         Micro Resistivity             : 
TLFamily_NGLD      .         Neutron Gamma                 : 
TLFamily_OGZ       .         Gradient Inverted 225         : 
TLFamily_PHIE      .         Effective Porosity            : 
TLFamily_PHIEN     .         Effective Porosity            : 
TLFamily_PHIES     .         Effective Porosity            : 
TLFamily_PHIT      .         Porosity                      : 
TLFamily_PRMB      .         Permeability                  : 
TLFamily_PRMB_DGR  .         Permeability                  : 
TLFamily_RT        .         Formation Resistivity         : 
TLFamily_SOIL_ARCHIE .         Oil Saturation                : 
TLFamily_SOIL_DW   .         Oil Saturation                : 
TLFamily_SP        .         Spontaneous Potential         : 
TLFamily_VSH_FIN   .         Shale Volume                  : 
TLFamily_VSH_GR    .         Shale Volume                  : 
TLFamily_VSH_SP    .         Shale Volume                  : 
~Curve Information
#_______________________________________________________________________________
#
#LOGNAME           .UNIT     LOG_ID                        : DESCRIPTION
#_______________________________________________________________________________
DEPT               .M                                      : Колонка глубины 
CALI               .м                                      : Каверномер 
CILD               .мСм/м                                  : Индукционный каротаж зондом 6Ф1 
COLL               .unitless                               : Описание 
CSAT               .unitless                               : Описание 
DT                 .мкс/м                                  : Интервальное время пробега продольной волны 
GR                 .uR/h                                   : Гамма каротаж 
GZ3                .Ohmm                                   : Градиент-зонд  длиной 2.25м 
LLS                .Ohmm                                   : Боковой каротаж 
MINV               .Ohmm                                   : Микро-градиент зонд 
MNOR               .Ohmm                                   : Микро-потенциал зонд 
NGLD               .у.е.                                   : Показания зонда НГК-60 аппаратуры ДРСТ-3-90 
OGZ                .Ohmm                                   : Обращенный градиент-зонд 
PHIE               .v/v                                    : Описание 
PHIEN              .v/v                                    :  
PHIES              .v/v                                    :  
PHIT               .v/v                                    : Описание 
PRMB               .mD                                     :  
PRMB_DGR           .mD                                     :  
RT                 .ohmm                                   : Удельное электрическое сопротивление 
SOIL_ARCHIE        .v/v                                    :  
SOIL_DW            .v/v                                    :  
SP                 .мВ                                     : Потенциал самополяризации 
VSH_FIN            .v/v                                    : Описание 
VSH_GR             .v/v                                    : Shale volume 
VSH_SP             .v/v                                    : Shale Volume 
~Ascii
# ...
1049.2     0.228      373.535    -9999      -9999      391.675    10.578     2.274      1.728      0.73       1.346      1.252      1.826      0.1922378  0.1922378  0.1990641  0.35944    10.18283   3.500503   1.873      0.2995701  0.5143244  36.046     0.5066733  0.3889802  0.6243664 
1049.4     0.227      377.255    -9999      -9999      396.705    10.625     2.283      1.633      0.728      1.298      1.273      1.833      0.1853183  0.1853183  0.2017799  0.35356    7.580575   3.363706   1.854      0.2733778  0.4998119  36.032     0.5098234  0.3953637  0.6242831 
1049.6     0.227      380.617    -9999      -9999      397.154    10.305     2.302      1.6        0.707      1.234      1.308      1.868      0.1823476  0.1823476  0.2085943  0.34376    6.678484   4.412561   1.838      0.2600752  0.4857143  36.023     0.4891285  0.3538877  0.6243694 
1049.8     0.227      382.954    -9999      -9999      395.759    9.654      2.326      1.643      0.69       1.183      1.347      1.936      0.18339    0.18339    0.2189443  0.33284    6.982084   7.664574   1.827      0.2616626  0.4751011  35.98      0.4528789  0.2824543  0.6233035 
1050       0.227      383.309    -9999      -9999      397.973    9.349      2.352      1.746      0.703      1.157      1.38       2.038      0.1792036  0.1792036  0.2253539  0.3236     5.840423   9.927402   1.824      0.2460816  0.4607432  35.9       0.4375647  0.2541399  0.6209895 
1050.2     0.225      380.993    -9999      -9999      409.092    9.176      2.39       1.872      0.758      1.155      1.399      2.157      0.1768195  0.1768195  0.2359562  0.31828    5.275751   11.49637   1.836      0.2395792  0.454208   35.799     0.4286681  0.2393601  0.6179762 
1050.4     0.223      376.158    -9999      -9999      430.139    9.139      2.438      1.97       0.827      1.172      1.402      2.267      0.1770604  0.1770604  0.2506663  0.31744    5.330222   11.86287   1.86       0.2450949  0.457162   35.683     0.4253929  0.2363125  0.6144733 
1050.6     0.221      369.776    -9999      -9999      454.996    9.157      2.489      2.02       0.902      1.22       1.393      2.343      0.1800709  0.1800709  0.2656621  0.31996    6.060499   11.68314   1.893      0.2622131  0.4680329  35.538     0.4239063  0.2377902  0.6100224 
1050.8     0.22       363.194    -9999      -9999      471.33     9.169      2.515      2.019      0.98       1.312      1.376      2.39       0.1856098  0.1856098  0.2751155  0.32472    7.675421   11.56483   1.927      0.2874037  0.4836541  35.354     0.421546   0.2387805  0.6043113 
1051       0.218      357.572    -9999      -9999      469.464    9.217      2.506      1.999      1.103      1.453      1.359      2.428      0.1907252  0.1907252  0.2744884  0.32948    9.546663   11.10346   1.957      0.3091055  0.4975517  35.155     0.4204691  0.2427832  0.5981549 
1051.2     0.217      353.329    -9999      -9999      446.387    9.281      2.466      1.986      1.222      1.583      1.346      2.481      0.193863   0.193863   0.2614135  0.33312    10.91367   10.5168    1.98       0.3225796  0.5069814  35.07      0.421991   0.2482247  0.5957572 
1051.4     0.216      350.031    -9999      -9999      410.057    9.408      2.429      2.01       1.304      1.659      1.338      2.537      0.1946127  0.1946127  0.2372919  0.33536    11.26827   9.442844   1.999      0.327872   0.5120569  34.993     0.4265069  0.2593864  0.5936275 
1051.6     0.215      346.622    -9999      -9999      373.524    9.614      2.419      2.039      1.284      1.643      1.334      2.574      0.1930088  0.1930088  0.2074174  0.33648    10.52325   7.929067   2.018      0.3260087  0.5137422  34.899     0.4347611  0.2785683  0.5909538 
1051.8     0.215      342.233    -9999      -9999      351.092    9.724      2.443      2.035      1.215      1.591      1.335      2.584      0.1910532  0.1910532  0.1862571  0.3362     9.681134   7.222764   2.045      0.3242317  0.5147682  34.867     0.4398389  0.2893856  0.5902922 
1052       0.216      336.61     -9999      -9999      349.954    9.843      2.469      1.968      1.117      1.518      1.341      2.604      0.1872865  0.1872865  0.183215   0.33452    8.244402   6.529342   2.08       0.3178639  0.513599   34.87      0.446162   0.3015614  0.5907626 
1052.2     0.217      330.336    -9999      -9999      363.628    9.993      2.47       1.916      1.022      1.449      1.353      2.678      0.1810459  0.1810459  0.192771   0.33116    6.317835   5.749323   2.119      0.303528   0.5086318  34.901     0.454891   0.3176416  0.5921405 
1052.4     0.218      324.082    -9999      -9999      378.728    10.006     2.446      1.963      0.941      1.384      1.371      2.813      0.1755148  0.1755148  0.2048479  0.32612    4.990207   5.686279   2.16       0.2908565  0.5027514  34.937     0.4563792  0.3190749  0.5936836 
1052.6     0.218      318.131    -9999      -9999      379.408    9.921      2.439      2.159      0.921      1.368      1.395      2.967      0.1700723  0.1700723  0.206603   0.3194     3.956492   6.111367   2.2        0.277381   0.4948252  34.972     0.4525081  0.3098187  0.5951974 
1052.8     0.216      312.016    -9999      -9999      365.212    9.859      2.491      2.44       1.01       1.433      1.423      3.075      0.1626148  0.1626148  0.1952461  0.31156    2.878582   6.441335   2.244      0.2555522  0.4832131  35.091     0.4513491  0.3032371  0.5994611 
1053       0.215      305.245    -9999      -9999      341.177    9.809      2.61       2.71       1.225      1.572      1.451      3.092      0.1547845  0.1547845  0.1731882  0.30372    2.061308   6.720376   2.294      0.2308521  0.4708164  35.236     0.4513197  0.2980312  0.6046081 
1053.2     0.214      298.024    -9999      -9999      319.968    9.732      2.765      2.873      1.543      1.736      1.474      3.011      0.1488215  0.1488215  0.1514154  0.29728    1.598428   7.173923   2.35       0.2130363  0.4621463  35.374     0.4498743  0.2901885  0.6095601 
1053.4     0.213      291.611    -9999      -9999      306.276    9.703      2.915      2.88       1.912      1.862      1.488      2.857      0.14464    0.14464    0.1351835  0.29336    1.337341   7.352568   2.401      0.2013453  0.457619   35.497     0.4506665  0.2872885  0.6140445 
1053.6     0.214      287.628    -9999      -9999      303.108    9.75       3.029      2.74       2.199      1.895      1.489      2.679      0.1427376  0.1427376  0.1297381  0.29308    1.23312    7.065231   2.433      0.1970865  0.4581423  35.638     0.4555829  0.2920032  0.6191627 
1053.8     0.215      287.044    -9999      -9999      307.354    9.865      3.093      2.518      2.312      1.82       1.475      2.528      0.1435415  0.1435415  0.1319915  0.297      1.276127   6.408641   2.438      0.2017733  0.4642766  35.834     0.4650259  0.3038678  0.6261839 
1054       0.216      289.659    -9999      -9999      315.275    9.927      3.108      2.319      2.198      1.663      1.448      2.445      0.1484467  0.1484467  0.1388206  0.30456    1.573084   6.08034    2.416      0.2214911  0.4768946  36.1       0.4730705  0.3104632  0.6356778 
1054.2     0.218      294.271    -9999      -9999      321.923    10.007     3.089      2.212      1.999      1.505      1.417      2.438      0.1539401  0.1539401  0.1432864  0.31324    1.988389   5.681458   2.378      0.2401113  0.4889545  36.394     0.4827271  0.3191854  0.6462687 
1054.4     0.218      299.37     -9999      -9999      324.732    10.078     3.064      2.206      1.828      1.403      1.394      2.488      0.1573673  0.1573673  0.1434979  0.31968    2.301345   5.349422   2.338      0.2485874  0.4953067  36.676     0.4918567  0.3271314  0.656582  
1054.6     0.219      303.666    -9999      -9999      323.51     10.014     3.059      2.259      1.775      1.378      1.385      2.553      0.1595472  0.1595472  0.1418441  0.3222     2.525569   5.647828   2.304      0.2524156  0.4967131  36.924     0.4928873  0.3199602  0.6658144 
