~Version
 VERS              .         2.0                           : CWLS LOG ASCII STANDARD - VERSION 2.0
 WRAP              .         NO                            : ONE LINE PER DEPTH STEP
 DLM               .         SPACE                         : DELIMITING CHARACTER(SPACE TAB OR COMMA)
~Well Information
#_______________________________________________________________________________
#
#PARAMETER_NAME    .UNIT     VALUE                         : DESCRIPTION
#_______________________________________________________________________________
STRT               .M        870                           : First reference value
STOP               .M        1167.2                        : Last reference value
STEP               .M        0.2                           : Step increment
NULL               .         -9999                         : Missing value
COMP               .                                       : Company
WELL               .         2950                          : Well name
FLD                .         УЗЕНЬ                         : Field
LOC                .                                       : Location
CNTY               .                                       : County
STAT               .                                       : State
CTRY               .                                       : Country
SRVC               .                                       : Service Company
DATE               .                                       : Date
UWI                .                                       : Unique Well ID
Block              .         7                             : 
Category           .         Нагнетательная                : 
Condition          .         В работе                      : 
Date               .         24.08.2001                    : 
EREF               .m        86.2                          : 100.8
Gorizont           .         15                            : 14
Interpretator      .         Ткачева И.Г.                  : 
Kupol              .         Основной                      : osnovnoi
Mud                .         0                             : 
Mud_density        .         0                             : 
Mud_resistivity    .         0                             : 
NGDU               .         НГДУ-2                        : 
ORIGINALWELLNAME   .         2950                          : 
Spud_date          .         2001                          : 1961
Viscosity          .         0                             : 
X                  .m        42734.2                       : 46154
Y                  .m        84082.73                      : 85761.93
YEAR               .         2019                          : 
~Parameter Information Block
#_______________________________________________________________________________
#
#PARAMETER_NAME    .UNIT     VALUE                         : DESCRIPTION
#_______________________________________________________________________________
SET                .         LQC_KAZNIPI_Petrel            : 
GSDD               .         CSAT                          : CSATкрив,0,DEPT,BOTTOM,,,,0
TLFamily_CALI      .         Caliper                       : 
TLFamily_CILD      .         Conductivity                  : 
TLFamily_COLL      .         Net Reservoir Flag            : 
TLFamily_CSAT      .         Fluid Code                    : 
TLFamily_DEPT      .         Measured Depth                : 
TLFamily_DT        .         Compressional Slowness        : 
TLFamily_GR        .         Russian Gamma Ray             : 
TLFamily_GZ3       .         Gradient 225                  : 
TLFamily_LLS       .         Lateral Log Resistivity       : 
TLFamily_MINV      .         Micro Gradient Resistivity    : 
TLFamily_MNOR      .         Micro Resistivity             : 
TLFamily_NGLD      .         Neutron Gamma                 : 
TLFamily_OGZ       .         Gradient Inverted 225         : 
TLFamily_PHIE      .         Effective Porosity            : 
TLFamily_PHIEN     .         Effective Porosity            : 
TLFamily_PHIES     .         Effective Porosity            : 
TLFamily_PHIT      .         Porosity                      : 
TLFamily_PRMB      .         Permeability                  : 
TLFamily_PRMB_DGR  .         Permeability                  : 
TLFamily_RT        .         Formation Resistivity         : 
TLFamily_SOIL_ARCHIE .         Oil Saturation                : 
TLFamily_SOIL_DW   .         Oil Saturation                : 
TLFamily_SP        .         Spontaneous Potential         : 
TLFamily_VSH_FIN   .         Shale Volume                  : 
TLFamily_VSH_GR    .         Shale Volume                  : 
TLFamily_VSH_SP    .         Shale Volume                  : 
~Curve Information
#_______________________________________________________________________________
#
#LOGNAME           .UNIT     LOG_ID                        : DESCRIPTION
#_______________________________________________________________________________
DEPT               .M                                      : Колонка глубины 
CALI               .м                                      : Каверномер 
CILD               .мСм/м                                  : Индукционный каротаж зондом 6Ф1 
COLL               .unitless                               : Описание 
CSAT               .unitless                               : Описание 
DT                 .мкс/м                                  : Интервальное время пробега продольной волны 
GR                 .uR/h                                   : Гамма каротаж 
GZ3                .Ohmm                                   : Градиент-зонд  длиной 2.25м 
LLS                .Ohmm                                   : Боковой каротаж 
MINV               .Ohmm                                   : Микро-градиент зонд 
MNOR               .Ohmm                                   : Микро-потенциал зонд 
NGLD               .у.е.                                   : Показания зонда НГК-60 аппаратуры ДРСТ-3-90 
OGZ                .Ohmm                                   : Обращенный градиент-зонд 
PHIE               .v/v                                    : Описание 
PHIEN              .v/v                                    :  
PHIES              .v/v                                    :  
PHIT               .v/v                                    : Описание 
PRMB               .mD                                     :  
PRMB_DGR           .mD                                     :  
RT                 .ohmm                                   : Удельное электрическое сопротивление 
SOIL_ARCHIE        .v/v                                    :  
SOIL_DW            .v/v                                    :  
SP                 .мВ                                     : Потенциал самополяризации 
VSH_FIN            .v/v                                    : Описание 
VSH_GR             .v/v                                    : Shale volume 
VSH_SP             .v/v                                    : Shale Volume 
~Ascii
# ...
1032.4     0.234      388.346    -9999      -9999      -9999      11.061     2.09       -9999      -9999      -9999      1.283      1.779      0.1548883  0.1548883  -9999      0.35076    2.070448   2.323895   1.801      0.1388744  0.4539452  39.862     0.5935507  0.4598072  0.7272943 
1032.6     0.235      389.789    -9999      -9999      -9999      11.088     2.112      -9999      -9999      -9999      1.266      1.842      0.1594452  0.1594452  -9999      0.35552    2.514607   2.27128    1.794      0.1588136  0.463327   39.77      0.594166   0.4641271  0.7242048 
1032.8     0.237      390.941    -9999      -9999      -9999      11.092     2.137      -9999      -9999      -9999      1.254      1.899      0.163415   0.163415   -9999      0.35888    2.978515   2.263587   1.789      0.1755602  0.4706334  39.645     0.5923183  0.4647705  0.719866  
1033       0.238      391.233    -9999      -9999      -9999      11.106     2.149      -9999      -9999      -9999      1.252      1.941      0.1644962  0.1644962  -9999      0.35944    3.119076   2.236869   1.787      0.1798513  0.4721628  39.491     0.590739   0.4670295  0.7144485 
1033.2     0.238      390.506    -9999      -9999      -9999      11.151     2.153      -9999      -9999      -9999      1.258      1.961      0.162488   0.162488   -9999      0.35776    2.863052   2.153101   1.791      0.1718995  0.4687613  39.338     0.5917335  0.4743651  0.7091017 
1033.4     0.237      388.781    -9999      -9999      -9999      11.218     2.163      -9999      -9999      -9999      1.266      1.961      0.1591451  0.1591451  -9999      0.35552    2.482627   2.034159   1.799      0.1585319  0.4636953  39.208     0.5950754  0.4855012  0.7046497 
1033.6     0.234      386.261    -9999      -9999      -9999      11.259     2.183      -9999      -9999      -9999      1.275      1.952      0.1561118  0.1561118  -9999      0.353      2.181363   1.964638   1.81       0.146754   0.4590642  39.094     0.5966308  0.4924443  0.7008173 
1033.8     0.23       383.169    -9999      -9999      -9999      11.243     2.2        -9999      -9999      -9999      1.284      1.958      0.1547316  0.1547316  -9999      0.35048    2.056662   1.991481   1.825      0.1434527  0.457071   38.97      0.5931769  0.4897231  0.6966308 
1034       0.226      379.808    -9999      -9999      -9999      11.148     2.194      -9999      -9999      -9999      1.294      2.002      0.1549658  0.1549658  -9999      0.34768    2.077308   2.158587   1.841      0.1480771  0.4570183  38.89      0.5839823  0.4738725  0.6940922 
1034.2     0.224      376.36     -9999      -9999      -9999      10.969     2.16       -9999      -9999      -9999      1.307      2.107      0.1563581  0.1563581  -9999      0.34404    2.204396   2.512492   1.859      0.1585386  0.4579059  38.824     0.568733   0.4453875  0.6920784 
1034.4     0.222      372.814    -9999      -9999      -9999      10.686     2.108      -9999      -9999      -9999      1.325      2.266      0.1590811  0.1590811  -9999      0.339      2.47586    3.194101   1.876      0.1746305  0.4589192  38.664     0.5452088  0.4038051  0.6866124 
1034.6     0.221      368.805    -9999      -9999      -9999      10.301     2.06       -9999      -9999      -9999      1.352      2.443      0.1606802  0.1606802  -9999      0.33144    2.650603   4.427559   1.897      0.1860521  0.4564174  38.513     0.517454   0.3533977  0.6815103 
1034.8     0.22       363.739    -9999      -9999      -9999      9.882      2.049      -9999      -9999      -9999      1.386      2.572      0.1597895  0.1597895  -9999      0.32192    2.551799   6.316896   1.924      0.1875082  0.4492756  38.376     0.4913046  0.3056622  0.6769471 
1035       0.219      357.019    -9999      -9999      -9999      9.563      2.11       -9999      -9999      -9999      1.423      2.598      0.155388   0.155388   -9999      0.31156    2.115047   8.279581   1.962      0.1751054  0.4375334  38.25      0.4732486  0.2736911  0.6728061 
1035.2     0.217      348.624    -9999      -9999      -9999      9.468      2.244      -9999      -9999      -9999      1.45       2.513      0.1499338  0.1499338  -9999      0.304      1.676085   8.974321   2.01       0.1586285  0.4280253  38.13      0.4668672  0.2648328  0.6689015 
1035.4     0.217      339.604    -9999      -9999      -9999      9.595      2.415      -9999      -9999      -9999      1.459      2.363      0.1460724  0.1460724  -9999      0.30148    1.421587   8.05788    2.064      0.1499313  0.4269595  38.013     0.4709321  0.2767413  0.665123  
1035.6     0.217      331.998    -9999      -9999      -9999      9.82       2.552      -9999      -9999      -9999      1.446      2.22       0.1467087  0.1467087  -9999      0.30512    1.460694   6.657969   2.11       0.1618577  0.4383652  37.883     0.4800342  0.2991688  0.6608996 
1035.8     0.219      327.778    -9999      -9999      -9999      9.976      2.605      -9999      -9999      -9999      1.424      2.135      0.1510839  0.1510839  -9999      0.31128    1.760347   5.832821   2.136      0.1877186  0.4547975  37.708     0.4854428  0.3157769  0.6551087 
1036       0.22       327.447    -9999      -9999      -9999      9.968      2.566      -9999      -9999      -9999      1.41       2.116      0.156443   0.156443   -9999      0.3152     2.212396   5.872532   2.137      0.2121808  0.4662869  37.473     0.4810817  0.3149032  0.6472602 
1036.2     0.222      329.519    -9999      -9999      -9999      9.798      2.48       -9999      -9999      -9999      1.414      2.143      0.1589349  0.1589349  -9999      0.31408    2.460473   6.783366   2.123      0.2205493  0.466607   37.35      0.4701365  0.296898   0.643375  
1036.4     0.223      331.476    -9999      -9999      -9999      9.522      2.402      -9999      -9999      -9999      1.438      2.191      0.15741    0.15741    -9999      0.30736    2.305538   8.572561   2.11       0.2117078  0.4557921  37.211     0.4543941  0.2698323  0.6389559 
1036.6     0.222      331.461    -9999      -9999      -9999      9.21       2.38       2.539      -9999      -9999      1.471      2.233      0.1538966  0.1538966  -9999      0.29812    1.984705   11.16957   2.11       0.1960567  0.4406478  36.994     0.4370407  0.2421954  0.6318861 
1036.8     0.221      329.36     -9999      -9999      342.702    8.943      2.428      2.539      -9999      -9999      1.503      2.236      0.149027   0.149027   0.1830434  0.28916    1.612499   14.00834   2.124      0.1757867  0.4248547  36.883     0.4246455  0.2208036  0.6284873 
1037       0.22       326.754    -9999      -9999      342.702    8.842      2.543      2.616      -9999      -9999      1.525      2.172      0.1440656  0.1440656  0.1841822  0.283      1.304978   15.26126   2.141      0.1542891  0.4118786  36.881     0.4210132  0.2132135  0.628813  
1037.2     0.22       325.992    -9999      -9999      363.721    8.999      2.694      2.66       -9999      -9999      1.532      2.038      0.1396574  0.1396574  0.2011471  0.28104    1.081313   13.35854   2.146      0.1320367  0.4029488  36.955     0.4284322  0.2251278  0.6317366 
1037.4     0.22       329.205    -9999      -9999      391.848    9.423      2.839      2.563      -9999      -9999      1.518      1.87       0.1369165  0.1369165  0.2173955  0.28496    0.9620188  9.323467   2.127      0.1132299  0.4008748  37.082     0.4486167  0.2607374  0.6364959 
1037.6     0.221      337.211    -9999      -9999      408.318    9.731      2.93       2.348      -9999      -9999      1.483      1.727      0.1406249  0.1406249  0.2233841  0.29476    1.126864   7.180011   2.08       0.1244997  0.4127052  37.289     0.4670762  0.290088   0.6440644 
1037.8     0.224      349.153    -9999      -9999      405.243    10.012     2.94       2.092      -9999      -9999      1.437      1.648      0.1466943  0.1466943  0.2147875  0.30764    1.459798   5.657414   2.012      0.142869   0.4277519  37.609     0.4877141  0.3197386  0.6556897 
