~Version
 VERS              .         2.0                           : CWLS LOG ASCII STANDARD - VERSION 2.0
 WRAP              .         NO                            : ONE LINE PER DEPTH STEP
 DLM               .         SPACE                         : DELIMITING CHARACTER(SPACE TAB OR COMMA)
~Well Information
#_______________________________________________________________________________
#
#PARAMETER_NAME    .UNIT     VALUE                         : DESCRIPTION
#_______________________________________________________________________________
STRT               .M        870                           : First reference value
STOP               .M        1167.2                        : Last reference value
STEP               .M        0.2                           : Step increment
NULL               .         -9999                         : Missing value
COMP               .                                       : Company
WELL               .         2950                          : Well name
FLD                .         УЗЕНЬ                         : Field
LOC                .                                       : Location
CNTY               .                                       : County
STAT               .                                       : State
CTRY               .                                       : Country
SRVC               .                                       : Service Company
DATE               .                                       : Date
UWI                .                                       : Unique Well ID
Block              .         7                             : 
Category           .         Нагнетательная                : 
Condition          .         В работе                      : 
Date               .         24.08.2001                    : 
EREF               .m        86.2                          : 100.8
Gorizont           .         15                            : 14
Interpretator      .         Ткачева И.Г.                  : 
Kupol              .         Основной                      : osnovnoi
Mud                .         0                             : 
Mud_density        .         0                             : 
Mud_resistivity    .         0                             : 
NGDU               .         НГДУ-2                        : 
ORIGINALWELLNAME   .         2950                          : 
Spud_date          .         2001                          : 1961
Viscosity          .         0                             : 
X                  .m        42734.2                       : 46154
Y                  .m        84082.73                      : 85761.93
YEAR               .         2019                          : 
~Parameter Information Block
#_______________________________________________________________________________
#
#PARAMETER_NAME    .UNIT     VALUE                         : DESCRIPTION
#_______________________________________________________________________________
SET                .         LQC_KAZNIPI_Petrel            : 
GSDD               .         CSAT                          : CSATкрив,0,DEPT,BOTTOM,,,,0
TLFamily_CALI      .         Caliper                       : 
TLFamily_CILD      .         Conductivity                  : 
TLFamily_COLL      .         Net Reservoir Flag            : 
TLFamily_CSAT      .         Fluid Code                    : 
TLFamily_DEPT      .         Measured Depth                : 
TLFamily_DT        .         Compressional Slowness        : 
TLFamily_GR        .         Russian Gamma Ray             : 
TLFamily_GZ3       .         Gradient 225                  : 
TLFamily_LLS       .         Lateral Log Resistivity       : 
TLFamily_MINV      .         Micro Gradient Resistivity    : 
TLFamily_MNOR      .         Micro Resistivity             : 
TLFamily_NGLD      .         Neutron Gamma                 : 
TLFamily_OGZ       .         Gradient Inverted 225         : 
TLFamily_PHIE      .         Effective Porosity            : 
TLFamily_PHIEN     .         Effective Porosity            : 
TLFamily_PHIES     .         Effective Porosity            : 
TLFamily_PHIT      .         Porosity                      : 
TLFamily_PRMB      .         Permeability                  : 
TLFamily_PRMB_DGR  .         Permeability                  : 
TLFamily_RT        .         Formation Resistivity         : 
TLFamily_SOIL_ARCHIE .         Oil Saturation                : 
TLFamily_SOIL_DW   .         Oil Saturation                : 
TLFamily_SP        .         Spontaneous Potential         : 
TLFamily_VSH_FIN   .         Shale Volume                  : 
TLFamily_VSH_GR    .         Shale Volume                  : 
TLFamily_VSH_SP    .         Shale Volume                  : 
~Curve Information
#_______________________________________________________________________________
#
#LOGNAME           .UNIT     LOG_ID                        : DESCRIPTION
#_______________________________________________________________________________
DEPT               .M                                      : Колонка глубины 
CALI               .м                                      : Каверномер 
CILD               .мСм/м                                  : Индукционный каротаж зондом 6Ф1 
COLL               .unitless                               : Описание 
CSAT               .unitless                               : Описание 
DT                 .мкс/м                                  : Интервальное время пробега продольной волны 
GR                 .uR/h                                   : Гамма каротаж 
GZ3                .Ohmm                                   : Градиент-зонд  длиной 2.25м 
LLS                .Ohmm                                   : Боковой каротаж 
MINV               .Ohmm                                   : Микро-градиент зонд 
MNOR               .Ohmm                                   : Микро-потенциал зонд 
NGLD               .у.е.                                   : Показания зонда НГК-60 аппаратуры ДРСТ-3-90 
OGZ                .Ohmm                                   : Обращенный градиент-зонд 
PHIE               .v/v                                    : Описание 
PHIEN              .v/v                                    :  
PHIES              .v/v                                    :  
PHIT               .v/v                                    : Описание 
PRMB               .mD                                     :  
PRMB_DGR           .mD                                     :  
RT                 .ohmm                                   : Удельное электрическое сопротивление 
SOIL_ARCHIE        .v/v                                    :  
SOIL_DW            .v/v                                    :  
SP                 .мВ                                     : Потенциал самополяризации 
VSH_FIN            .v/v                                    : Описание 
VSH_GR             .v/v                                    : Shale volume 
VSH_SP             .v/v                                    : Shale Volume 
~Ascii
# ...
1122       0.205      203.994    1          2          402.292    8.757      13.134     3.264      0.805      1.175      1.427      3.314      0.2403547  0.2403547  0.2990422  0.31044    79.27041   16.40213   3.434      0.5661588  0.6424819  9.632      0.2177307  0.2070284  0.2177307 
1122.2     0.201      208.815    1          2          403.521    8.837      11.085     3.353      0.711      1.082      1.436      3.124      0.2360637  0.2360637  0.2982257  0.30792    66.01321   15.32612   3.353      0.5543342  0.6337201  10.044     0.222648   0.2128446  0.222648  
1122.4     0.196      213.247    1          2          403.117    8.902      9.627      3.481      0.698      1.028      1.449      2.873      0.2305587  0.2305587  0.2961696  0.30428    52.19924   14.50404   3.283      0.5405541  0.6235723  10.572     0.2291054  0.2176905  0.2291054 
1122.6     0.195      217.874    1          2          397.479    8.906      8.633      3.607      0.747      1.043      1.466      2.571      0.2245379  0.2245379  0.2909464  0.29952    40.37796   14.45492   3.214      0.5251328  0.6117805  11.149     0.2364449  0.2179922  0.2364449 
1122.8     0.193      223.217    1          2          383.518    8.85       7.982      3.662      0.851      1.125      1.484      2.258      0.2189399  0.2189399  0.2799391  0.29448    31.80219   15.15805   3.138      0.5090934  0.5990043  11.718     0.2440134  0.2138051  0.2440134 
1123       0.193      229.813    1          2          365.28     8.792      7.579      3.585      0.983      1.262      1.496      1.973      0.2150159  0.2150159  0.2645099  0.29112    26.90136   15.92238   3.051      0.4946762  0.5875019  12.27      0.2516838  0.2095531  0.2516838 
1123.2     0.194      238.225    1          2          354.291    8.813      7.343      3.409      1.115      1.403      1.495      1.744      0.213639   0.213639   0.2532217  0.2914     25.36705   15.6413    2.948      0.4835851  0.5794734  12.859     0.2601962  0.2110828  0.2601962 
1123.4     0.197      248.757    1          2          357.491    8.925      7.167      3.233      1.203      1.511      1.48       1.564      0.2147151  0.2147151  0.2531441  0.2956     26.5584    14.22385   2.828      0.4757149  0.5751121  13.563     0.2707803  0.2194314  0.2707803 
1123.6     0.204      261.375    1          2          361.567    9.057      6.959      3.119      1.235      1.572      1.459      1.413      0.2166163  0.2166163  0.2529714  0.30148    28.8017    12.71729   2.695      0.4678302  0.5713172  14.441     0.2846295  0.2296958  0.2846295 
1123.8     0.207      275.693    1          2          386.562    9.136      6.694      3.05       1.237      1.602      1.44       1.274      0.2179294  0.2179294  0.2696229  0.3068     30.46065   11.89309   2.557      0.4574039  0.5654829  15.51      0.3025425  0.2360671  0.3025425 
1124       0.213      291.497    1          2          416.926    9.184      6.408      2.961      1.247      1.62       1.43       1.151      0.2163475  0.2163475  0.2870126  0.3096     28.47336   11.41863   2.42       0.4396558  0.5543969  16.765     0.3251424  0.2400243  0.3251424 
1124.2     0.218      308.793    1          2          435.567    9.302      6.146      2.827      1.29       1.636      1.43       1.053      0.2123101  0.2123101  0.2949198  0.3096     23.96937   10.33114   2.285      0.4148345  0.5378605  17.508     0.3395991  0.2500366  0.3395991 
1124.4     0.219      327.732    1          2          433.318    9.582      5.929999   2.643      1.357      1.651      1.437      0.989      0.2037967  0.2037967  0.2873302  0.30764    16.6712    8.147223   2.155      0.3767013  0.5142772  18.207     0.3538554  0.2754981  0.3538554 
1124.6     0.219      348.191    1          2          413.171    10.013     5.759      2.411      1.419      1.66       1.444      0.946      0.1888452  0.1888452  0.2621136  0.30568    8.811101   5.652621   2.029      0.3148348  0.4817751  19.814     0.3882401  0.3198493  0.3882401 
1124.8     0.219      369.692    1          2          375.715    10.502     5.618999   2.127      1.432      1.638      1.443      0.917      0.1728156  0.1728156  0.2190148  0.30596    4.447568   3.733579   1.91       0.2385093  0.4469625  21.509     0.4280605  0.3788753  0.4280605 
1125       0.219      391.622    -9999      -9999      352.065    10.935     5.456      1.822      1.361      1.55       1.436      0.901      0.1577336  0.1577336  0.1823695  0.30792    2.337583   2.586      1.801      0.1524195  0.4120784  23.14      0.4700468  0.4401737  0.4700468 
1125.2     0.22       413.406    -9999      -9999      347.275    11.258     5.197      1.554      1.216      1.391      1.428      0.915      0.1448691  0.1448691  0.163537   0.31016    1.350473   1.966305   1.704      0.06320566 0.3783794  24.551     0.509489   0.4922738  0.509489  
1125.4     0.222      434.55     -9999      -9999      346.96     11.475     4.794      1.37       1.062      1.208      1.423      0.97       0.134562   0.134562   0.1521151  0.31156    0.8701066  1.635755   1.62       0          0.3464416  25.637     0.5420192  0.530696   0.5420192 
1125.6     0.226      454.294    -9999      -9999      346.652    11.63      4.288      1.275      0.99       1.08       1.422      1.047      0.1261055  0.1261055  0.1435218  0.31184    0.6066504  1.434246   1.547      0          0.3154372  26.384     0.5657002  0.5599632  0.5657002 
1125.8     0.231      471.634    -9999      -9999      347.32     11.762     3.792      1.239      1.044      1.049      1.42       1.104      0.119884   0.119884   0.1377134  0.3124     0.4652661  1.282334   1.487      0          0.2896771  26.83      0.5806069  0.5861566  0.5806069 
1126       0.232      485.516    -9999      -9999      347.943    11.886     3.412      1.233      1.185      1.09       1.415      1.095      0.1277434  0.1277434  0.1444402  0.3138     0.6505432  1.571986   1.443      0          0.2973283  27.041     0.5882322  0.5393835  0.5882322 
1126.2     0.233      495.407    -9999      -9999      348.21     12.006     3.168      1.238      1.332      1.153      1.407      1.009      0.1259244  0.1259244  0.1408359  0.31604    0.6019829  1.424847   1.413      0          0.289413   27.092     0.5907469  0.5614687  0.5907469 
1126.4     0.231      501.556    -9999      -9999      348.063    12.116     2.989      1.245      1.42       1.203      1.394      0.87       0.1261258  0.1261258  0.1374301  0.31968    0.6071745  1.302099   1.394      0          0.290202   27.059     0.5905488  0.582507   0.5905488 
1126.6     0.229      504.959    -9999      -9999      347.492    12.222     2.789      1.246      1.446      1.242      1.38       0.731      0.1267117  0.1267117  0.1337224  0.3236     0.6225395  1.193832   1.385      0          0.2946019  27.007     0.5897365  0.6035257  0.5897365 
1126.8     0.229      506.957    -9999      -9999      346.642    12.304     2.53       1.232      1.444      1.27       1.368      0.633      0.1273146  0.1273146  0.1302956  0.32696    0.6387539  1.116292   1.38       0          0.2991765  26.978     0.5896677  0.6203043  0.5896677 
1127       0.228      508.719    -9999      -9999      345.797    12.338     2.253      1.204      1.447      1.284      1.362      0.6        0.1276489  0.1276489  0.1282106  0.32864    0.6479261  1.085638   1.375      0          0.300862   26.984     0.5907304  0.6273974  0.5907304 
1127.2     0.228      510.79     -9999      -9999      345.553    12.305     2.013      1.172      1.469      1.268      1.363      0.629      0.1281743  0.1281743  0.1287422  0.32836    0.6626083  1.115378   1.369      0          0.2999873  27.019     0.5927348  0.6205118  0.5927348 
1127.4     0.228      513.013    -9999      -9999      345.26     12.231     1.849      1.146      1.494      1.23       1.369      0.707      0.1285738  0.1285738  0.130437   0.32668    0.6739962  1.185065   1.364      0          0.297195   27.071     0.5952986  0.6053448  0.5952986 
