~Version
 VERS              .         2.0                           : CWLS LOG ASCII STANDARD - VERSION 2.0
 WRAP              .         NO                            : ONE LINE PER DEPTH STEP
 DLM               .         SPACE                         : DELIMITING CHARACTER(SPACE TAB OR COMMA)
~Well Information
#_______________________________________________________________________________
#
#PARAMETER_NAME    .UNIT     VALUE                         : DESCRIPTION
#_______________________________________________________________________________
STRT               .M        870                           : First reference value
STOP               .M        1167.2                        : Last reference value
STEP               .M        0.2                           : Step increment
NULL               .         -9999                         : Missing value
COMP               .                                       : Company
WELL               .         2950                          : Well name
FLD                .         УЗЕНЬ                         : Field
LOC                .                                       : Location
CNTY               .                                       : County
STAT               .                                       : State
CTRY               .                                       : Country
SRVC               .                                       : Service Company
DATE               .                                       : Date
UWI                .                                       : Unique Well ID
Block              .         7                             : 
Category           .         Нагнетательная                : 
Condition          .         В работе                      : 
Date               .         24.08.2001                    : 
EREF               .m        86.2                          : 100.8
Gorizont           .         15                            : 14
Interpretator      .         Ткачева И.Г.                  : 
Kupol              .         Основной                      : osnovnoi
Mud                .         0                             : 
Mud_density        .         0                             : 
Mud_resistivity    .         0                             : 
NGDU               .         НГДУ-2                        : 
ORIGINALWELLNAME   .         2950                          : 
Spud_date          .         2001                          : 1961
Viscosity          .         0                             : 
X                  .m        42734.2                       : 46154
Y                  .m        84082.73                      : 85761.93
YEAR               .         2019                          : 
~Parameter Information Block
#_______________________________________________________________________________
#
#PARAMETER_NAME    .UNIT     VALUE                         : DESCRIPTION
#_______________________________________________________________________________
SET                .         LQC_KAZNIPI_Petrel            : 
GSDD               .         CSAT                          : CSATкрив,0,DEPT,BOTTOM,,,,0
TLFamily_CALI      .         Caliper                       : 
TLFamily_CILD      .         Conductivity                  : 
TLFamily_COLL      .         Net Reservoir Flag            : 
TLFamily_CSAT      .         Fluid Code                    : 
TLFamily_DEPT      .         Measured Depth                : 
TLFamily_DT        .         Compressional Slowness        : 
TLFamily_GR        .         Russian Gamma Ray             : 
TLFamily_GZ3       .         Gradient 225                  : 
TLFamily_LLS       .         Lateral Log Resistivity       : 
TLFamily_MINV      .         Micro Gradient Resistivity    : 
TLFamily_MNOR      .         Micro Resistivity             : 
TLFamily_NGLD      .         Neutron Gamma                 : 
TLFamily_OGZ       .         Gradient Inverted 225         : 
TLFamily_PHIE      .         Effective Porosity            : 
TLFamily_PHIEN     .         Effective Porosity            : 
TLFamily_PHIES     .         Effective Porosity            : 
TLFamily_PHIT      .         Porosity                      : 
TLFamily_PRMB      .         Permeability                  : 
TLFamily_PRMB_DGR  .         Permeability                  : 
TLFamily_RT        .         Formation Resistivity         : 
TLFamily_SOIL_ARCHIE .         Oil Saturation                : 
TLFamily_SOIL_DW   .         Oil Saturation                : 
TLFamily_SP        .         Spontaneous Potential         : 
TLFamily_VSH_FIN   .         Shale Volume                  : 
TLFamily_VSH_GR    .         Shale Volume                  : 
TLFamily_VSH_SP    .         Shale Volume                  : 
~Curve Information
#_______________________________________________________________________________
#
#LOGNAME           .UNIT     LOG_ID                        : DESCRIPTION
#_______________________________________________________________________________
DEPT               .M                                      : Колонка глубины 
CALI               .м                                      : Каверномер 
CILD               .мСм/м                                  : Индукционный каротаж зондом 6Ф1 
COLL               .unitless                               : Описание 
CSAT               .unitless                               : Описание 
DT                 .мкс/м                                  : Интервальное время пробега продольной волны 
GR                 .uR/h                                   : Гамма каротаж 
GZ3                .Ohmm                                   : Градиент-зонд  длиной 2.25м 
LLS                .Ohmm                                   : Боковой каротаж 
MINV               .Ohmm                                   : Микро-градиент зонд 
MNOR               .Ohmm                                   : Микро-потенциал зонд 
NGLD               .у.е.                                   : Показания зонда НГК-60 аппаратуры ДРСТ-3-90 
OGZ                .Ohmm                                   : Обращенный градиент-зонд 
PHIE               .v/v                                    : Описание 
PHIEN              .v/v                                    :  
PHIES              .v/v                                    :  
PHIT               .v/v                                    : Описание 
PRMB               .mD                                     :  
PRMB_DGR           .mD                                     :  
RT                 .ohmm                                   : Удельное электрическое сопротивление 
SOIL_ARCHIE        .v/v                                    :  
SOIL_DW            .v/v                                    :  
SP                 .мВ                                     : Потенциал самополяризации 
VSH_FIN            .v/v                                    : Описание 
VSH_GR             .v/v                                    : Shale volume 
VSH_SP             .v/v                                    : Shale Volume 
~Ascii
# ...
881.2000000000001 0.236      259.66     -9999      -9999      -9999      10.451     4.072      -9999      -9999      -9999      1.329      8.401      -9999      -9999      -9999      -9999      -9999      -9999      2.699      -9999      -9999      37.466     -9999      0.8        0.5634757 
881.4      0.228      251.753    -9999      -9999      -9999      9.926      3.885      -9999      -9999      -9999      1.349      9.787      0.08233795 0.08233795 -9999      0.33228    0.09381163 0.1926323  2.79       0          0.4353316  37.329     0.7574002  0.8        0.7148003 
881.6      0.224      241.143    -9999      -9999      -9999      9.254      3.69       -9999      -9999      -9999      1.379      11.28      0.07502421 0.07502421 -9999      0.32388    0.06867338 0.4458799  2.92       0          0.4218818  37.173     0.7541085  0.8        0.708217  
881.8      0.222      228.417    -9999      -9999      -9999      8.905      3.552      -9999      -9999      -9999      1.426      12.668     0.07011431 0.07011431 -9999      0.31072    0.05569871 0.6894668  3.094      0          0.4099422  37.053     0.7291082  0.755187   0.7030294 
882        0.221      214.017    -9999      -9999      -9999      8.42       3.539      -9999      -9999      -9999      1.496      13.662     0.0783064  0.0783064  -9999      0.29112    0.0789919  1.263497   3.315      0          0.4238566  36.992     0.6448897  0.5897093  0.70007   
882.2000000000001 0.221      198.265    -9999      -9999      -9999      7.532      3.692      -9999      -9999      -9999      1.586      13.956     0.08891282 0.08891282 -9999      0.26592    0.1241764  3.830188   3.597      0          0.4367923  36.95      0.5363854  0.3749436  0.6978272 
882.4      0.22       181.7      -9999      -9999      -9999      6.751      4.011      -9999      -9999      -9999      1.691      13.392     0.08048186 0.08048186 -9999      0.23652    0.0866717  10.1585    3.943      0          0.3988611  36.863     0.4728429  0.251763   0.6939227 
882.6      0.219      165.288    6          6          -9999      6.208      4.468      -9999      -9999      -9999      1.81       12.057     0.05843955 0.05843955 -9999      0.2032     0.03385325 20.01472   4.341      0          0.294175   36.679     0.4386681  0.1908665  0.6864697 
882.8      0.217      150.379    6          6          -9999      5.917      5.015      -9999      -9999      -9999      1.937      10.284     0.02899868 0.02899868 -9999      0.16764    0.009644593 28.78634   4.757      0          0.04886675 36.402     0.4201252  0.1645431  0.6757073 
883        0.216      138.308    6          6          -9999      5.804      5.607999   -9999      -9999      -9999      2.064      8.451      0.01       0          -9999      0.13208    0.004289259 33.14948   5.136      0          0          36.071     0.4092429  0.1553291  0.6631567 
883.2000000000001 0.214      130.122    6          6          -9999      5.733      6.223      -9999      -9999      -9999      2.178      6.822      0.01       0          -9999      0.10016    0.004289259 36.2232    5.418      0          0          35.733     0.4001801  0.1498055  0.6505546 
883.4      0.213      126.335    6          6          -9999      5.586      6.866001   -9999      -9999      -9999      2.267      5.478001   0.01       0          -9999      0.07524001 0.004289259 43.52299   5.556      0          0          35.381     0.3883276  0.1389859  0.6376693 
883.6      0.213      127.086    6          6          -9999      5.308      7.555      -9999      -9999      -9999      2.324      4.41       0.01       0          -9999      0.05928003 0.004289259 61.58914   5.527      0          0          34.972     0.3718406  0.1206146  0.6230665 
883.8      0.212      132.203    6          6          -9999      4.934      8.297001   -9999      -9999      -9999      2.345      3.589      0.01       0          -9999      0.05339999 0.004289259 98.25609   5.34       0          0          34.443     0.3522227  0.09967067 0.6047748 
884        0.212      141.432    6          6          -9999      4.558      9.107001   -9999      -9999      -9999      2.33       2.986      0.01       0          -9999      0.05760002 0.004289259 157.1446   5.029      0          0          33.783     0.3325092  0.08227954 0.5827389 
884.2000000000001 0.212      154.335    6          6          -9999      4.261      10.042     -9999      -9999      -9999      2.282      2.552      0.01       0          -9999      0.07103998 0.004289259 227.7144   4.64       0          0          32.654     0.3088745  0.07071524 0.5470337 
884.4      0.212      170.301    6          6          -9999      4.074      11.177     -9999      -9999      -9999      2.21       2.226      0.01       0          -9999      0.09119999 0.004289259 287.6194   4.222      0          0          31.528     0.288811   0.06428308 0.5133388 
884.6      0.212      188.466    6          6          -9999      3.979      12.486     -9999      -9999      -9999      2.126      1.967      0.02335122 0.02335122 -9999      0.11472    0.007580177 323.8512   3.816      0          0          30.805     0.2768751  0.06124299 0.4925073 
884.8      0.212      207.97     6          6          -9999      3.932      13.73      -9999      -9999      -9999      2.042      1.785      0.05041265 0.05041265 -9999      0.13824    0.02403934 343.43     3.45       0          0          30.084     0.2661434  0.05979253 0.4724943 
885        0.212      228.177    6          6          -9999      3.886      14.489     -9999      -9999      -9999      1.964      1.714      0.07559707 0.07559707 -9999      0.16008    0.07037189 363.7377   3.134      0          0.1155973  29.378     0.2560089  0.0584062  0.4536116 
885.2000000000001 0.212      248.769    6          6          -9999      3.814      14.429     -9999      -9999      -9999      1.896      1.763      0.09774817 0.09774817 -9999      0.17912    0.1810053  397.9611   2.866      0          0.2183064  28.73      0.2465813  0.05630054 0.4368621 
885.4      0.212      269.333    1          3          -9999      3.71       13.531     -9999      -9999      -9999      1.842      1.883      0.1155538  0.1155538  -9999      0.19424    0.3868079  453.1579   2.639      0.07099391 0.2740028  28.199     0.2384429  0.05339234 0.4234935 
885.6      0.212      288.894    1          3          -9999      3.594      12.109     -9999      -9999      -9999      1.807      2.002      0.1274498  0.1274498  -9999      0.20404    0.6424485  523.8021   2.451      0.1168861  0.2967442  27.811     0.2320914  0.05032543 0.4138573 
885.8      0.212      305.85     1          3          -9999      3.487      10.546     -9999      -9999      -9999      1.788      2.08       0.1342873  0.1342873  -9999      0.20936    0.859972   598.692    2.305      0.131507   0.3007727  27.549     0.2274931  0.04765291 0.4073333 
886        0.212      318.765    1          3          -9999      3.402      9.084      -9999      -9999      -9999      1.778      2.128      0.1382025  0.1382025  -9999      0.21216    1.016257   665.7435   2.203      0.1347931  0.2986178  27.361     0.2241136  0.0456314  0.4025959 
886.2000000000001 0.212      327.275    1          3          -9999      3.338      7.794      -9999      -9999      -9999      1.769      2.176      0.1416439  0.1416439  -9999      0.21468    1.176917   721.1408   2.141      0.1417092  0.3005334  27.198     0.2213216  0.04416612 0.3984771 
886.4      0.212      332.449    1          3          -9999      3.3        6.693      -9999      -9999      -9999      1.759      2.225      0.1452196  0.1452196  -9999      0.21748    1.370809   756.1904   2.105      0.1534352  0.3070498  27.045     0.218971   0.04331847 0.3946235 
886.6      0.213      336.015    1          3          -9999      3.298      5.799      -9999      -9999      -9999      1.748      2.245      0.1488194  0.1488194  -9999      0.22056    1.598286   758.0813   2.082      0.167015   0.3158816  26.924     0.2173957  0.04327431 0.3915171 
