~Version
 VERS              .         2.0                           : CWLS LOG ASCII STANDARD - VERSION 2.0
 WRAP              .         NO                            : ONE LINE PER DEPTH STEP
 DLM               .         SPACE                         : DELIMITING CHARACTER(SPACE TAB OR COMMA)
~Well Information
#_______________________________________________________________________________
#
#PARAMETER_NAME    .UNIT     VALUE                         : DESCRIPTION
#_______________________________________________________________________________
STRT               .M        870                           : First reference value
STOP               .M        1167.2                        : Last reference value
STEP               .M        0.2                           : Step increment
NULL               .         -9999                         : Missing value
COMP               .                                       : Company
WELL               .         2950                          : Well name
FLD                .         УЗЕНЬ                         : Field
LOC                .                                       : Location
CNTY               .                                       : County
STAT               .                                       : State
CTRY               .                                       : Country
SRVC               .                                       : Service Company
DATE               .                                       : Date
UWI                .                                       : Unique Well ID
Block              .         7                             : 
Category           .         Нагнетательная                : 
Condition          .         В работе                      : 
Date               .         24.08.2001                    : 
EREF               .m        86.2                          : 100.8
Gorizont           .         15                            : 14
Interpretator      .         Ткачева И.Г.                  : 
Kupol              .         Основной                      : osnovnoi
Mud                .         0                             : 
Mud_density        .         0                             : 
Mud_resistivity    .         0                             : 
NGDU               .         НГДУ-2                        : 
ORIGINALWELLNAME   .         2950                          : 
Spud_date          .         2001                          : 1961
Viscosity          .         0                             : 
X                  .m        42734.2                       : 46154
Y                  .m        84082.73                      : 85761.93
YEAR               .         2019                          : 
~Parameter Information Block
#_______________________________________________________________________________
#
#PARAMETER_NAME    .UNIT     VALUE                         : DESCRIPTION
#_______________________________________________________________________________
SET                .         LQC_KAZNIPI_Petrel            : 
GSDD               .         CSAT                          : CSATкрив,0,DEPT,BOTTOM,,,,0
TLFamily_CALI      .         Caliper                       : 
TLFamily_CILD      .         Conductivity                  : 
TLFamily_COLL      .         Net Reservoir Flag            : 
TLFamily_CSAT      .         Fluid Code                    : 
TLFamily_DEPT      .         Measured Depth                : 
TLFamily_DT        .         Compressional Slowness        : 
TLFamily_GR        .         Russian Gamma Ray             : 
TLFamily_GZ3       .         Gradient 225                  : 
TLFamily_LLS       .         Lateral Log Resistivity       : 
TLFamily_MINV      .         Micro Gradient Resistivity    : 
TLFamily_MNOR      .         Micro Resistivity             : 
TLFamily_NGLD      .         Neutron Gamma                 : 
TLFamily_OGZ       .         Gradient Inverted 225         : 
TLFamily_PHIE      .         Effective Porosity            : 
TLFamily_PHIEN     .         Effective Porosity            : 
TLFamily_PHIES     .         Effective Porosity            : 
TLFamily_PHIT      .         Porosity                      : 
TLFamily_PRMB      .         Permeability                  : 
TLFamily_PRMB_DGR  .         Permeability                  : 
TLFamily_RT        .         Formation Resistivity         : 
TLFamily_SOIL_ARCHIE .         Oil Saturation                : 
TLFamily_SOIL_DW   .         Oil Saturation                : 
TLFamily_SP        .         Spontaneous Potential         : 
TLFamily_VSH_FIN   .         Shale Volume                  : 
TLFamily_VSH_GR    .         Shale Volume                  : 
TLFamily_VSH_SP    .         Shale Volume                  : 
~Curve Information
#_______________________________________________________________________________
#
#LOGNAME           .UNIT     LOG_ID                        : DESCRIPTION
#_______________________________________________________________________________
DEPT               .M                                      : Колонка глубины 
CALI               .м                                      : Каверномер 
CILD               .мСм/м                                  : Индукционный каротаж зондом 6Ф1 
COLL               .unitless                               : Описание 
CSAT               .unitless                               : Описание 
DT                 .мкс/м                                  : Интервальное время пробега продольной волны 
GR                 .uR/h                                   : Гамма каротаж 
GZ3                .Ohmm                                   : Градиент-зонд  длиной 2.25м 
LLS                .Ohmm                                   : Боковой каротаж 
MINV               .Ohmm                                   : Микро-градиент зонд 
MNOR               .Ohmm                                   : Микро-потенциал зонд 
NGLD               .у.е.                                   : Показания зонда НГК-60 аппаратуры ДРСТ-3-90 
OGZ                .Ohmm                                   : Обращенный градиент-зонд 
PHIE               .v/v                                    : Описание 
PHIEN              .v/v                                    :  
PHIES              .v/v                                    :  
PHIT               .v/v                                    : Описание 
PRMB               .mD                                     :  
PRMB_DGR           .mD                                     :  
RT                 .ohmm                                   : Удельное электрическое сопротивление 
SOIL_ARCHIE        .v/v                                    :  
SOIL_DW            .v/v                                    :  
SP                 .мВ                                     : Потенциал самополяризации 
VSH_FIN            .v/v                                    : Описание 
VSH_GR             .v/v                                    : Shale volume 
VSH_SP             .v/v                                    : Shale Volume 
~Ascii
# ...
1066       0.216      348.884    -9999      -9999      339.242    9.923      2.276      2.03       1.997      1.64       1.277      3.131      0.1896653  0.1896653  0.1581271  0.35244    9.124722   5.343165   2.006      0.3137542  0.5225363  39.051     0.6592258  0.3272877  0.6592258 
1066.2     0.214      343.159    -9999      -9999      337.526    9.863      2.277      2.048      2.067      1.665      1.288      3.261      0.1871023  0.1871023  0.1569039  0.34936    8.179874   5.627316   2.039      0.3108709  0.5213389  39.198     0.6629441  0.3204359  0.6629441 
1066.4     0.213      337.723    -9999      -9999      336.045    9.902      2.27       2.074      2.15       1.684      1.305      3.349      0.1814009  0.1814009  0.1545157  0.3446     6.414212   5.440947   2.072      0.2973582  0.5153651  39.276     0.6642123  0.3248731  0.6642123 
1066.6     0.213      332.516    -9999      -9999      334.252    10.032     2.26       2.12       2.233      1.701      1.33       3.364      0.1722422  0.1722422  0.1506386  0.3376     4.340114   4.863173   2.105      0.2703575  0.503223   39.258     0.6620566  0.340112   0.6620566 
1066.8     0.214      327.456    -9999      -9999      331.746    10.194     2.261      2.187      2.301      1.726      1.355      3.305      0.1628066  0.1628066  0.1457392  0.3306     2.90223    4.228271   2.137      0.239069   0.4896185  39.153     0.656823   0.3601065  0.656823  
1067       0.214      322.488    -9999      -9999      328.344    10.3       2.276      2.271      2.369      1.775      1.377      3.188      0.1554676  0.1554676  0.141046   0.32444    2.122239   3.858413   2.17       0.2135531  0.4784872  39.009     0.6502542  0.3738212  0.6502542 
1067.2     0.215      317.489    -9999      -9999      324.109    10.281     2.304      2.361      2.424      1.845      1.393      3.046      0.1523995  0.1523995  0.137835   0.31996    1.861947   3.922241   2.204      0.2055984  0.4740759  38.878     0.6441929  0.3713251  0.6441929 
1067.4     0.215      312.262    -9999      -9999      319.599    10.132     2.342      2.434      2.472      1.926      1.404      2.905      0.153311   0.153311   0.1366463  0.31688    1.93575    4.460828   2.241      0.2158632  0.4764915  38.771     0.6390082  0.3523191  0.6390082 
1067.6     0.214      306.651    -9999      -9999      316.296    9.899      2.391      2.452      2.487      1.983      1.414      2.792      0.1560026  0.1560026  0.1381259  0.31408    2.171225   5.455063   2.283      0.2343603  0.4819404  38.654     0.6335152  0.3245296  0.6335152 
1067.8     0.214      300.78     -9999      -9999      316.172    9.662      2.45       2.394      2.475      1.996      1.424      2.75       0.1585922  0.1585922  0.1431046  0.31128    2.424772   6.693981   2.327      0.2519912  0.4872866  38.502     0.6268699  0.2985106  0.6268699 
1068       0.213      295.254    -9999      -9999      319.788    9.475      2.521      2.339      2.414      1.943      1.44       2.833      0.1584255  0.1584255  0.151294   0.3068     2.407587   7.867136   2.371      0.2578579  0.4873209  38.335     0.6197779  0.2794617  0.6197779 
1068.2     0.213      290.816    -9999      -9999      324.214    9.351      2.616      2.458      2.35       1.879      1.467      3.061      0.153854   0.153854   0.159017   0.29924    1.981103   8.756324   2.406      0.2439058  0.4773306  38.194     0.6136219  0.2675055  0.6136219 
1068.4     0.212      287.859    -9999      -9999      323.558    9.246      2.767      2.966      2.32       1.876      1.514      3.376      0.1431688  0.1431688  0.1606529  0.28608    1.256004   9.5874     2.43       0.1987289  0.4502988  38.078     0.6083465  0.2577822  0.6083465 
1068.6     0.212      285.758    6          6          313.047    9.103      3.028      3.805      2.428      2.025      1.581      3.651      0.1274894  0.1274894  0.1517081  0.26732    0.6435334  10.84756   2.448      0.1166172  0.4029969  37.939     0.6023524  0.2451058  0.6023524 
1068.8     0.212      283.423    6          6          294.182    8.896      3.436      4.669      2.67       2.281      1.655      3.768      0.1110106  0.1110106  0.1323031  0.2466     0.3186717  12.97075   2.469      0.00743079 0.341398   37.723     0.5939018  0.2278523  0.5939018 
1069       0.213      280.254    6          6          275.177    8.681      3.949      5.041      3.001      2.526      1.716      3.7        0.09844453 0.09844453 0.1097342  0.22952    0.1864617  15.61704   2.497      0          0.2835781  37.433     0.5831804  0.2112166  0.5831804 
1069.2     0.216      277.394    6          6          266.035    8.574      4.429      4.777      3.211      2.591      1.742      3.532      0.0942433  0.0942433  0.09837312 0.22224    0.1558736  17.12884   2.523      0          0.2608293  37.134     0.5723418  0.2033958  0.5723418 
1069.4     0.218      277.124    6          6          270.945    8.667      4.714      4.065      3.167      2.452      1.72       3.396      0.1005472  0.1005472  0.1063025  0.2284     0.2039555  15.80699   2.527      0          0.2912354  36.932     0.5646892  0.2101764  0.5646892 
1069.6     0.221      281.358    6          6          286.385    8.949      4.734001   3.398      2.829      2.201      1.661      3.385      0.1136131  0.1136131  0.1257845  0.24492    0.3560802  12.39047   2.492      0.03148599 0.3473565  36.941     0.5636488  0.2321507  0.5636488 
1069.8     0.222      289.95     -9999      -9999      304.937    9.296      4.572      2.967      2.378      1.986      1.589      3.513      0.127412   0.127412   0.1440437  0.26508    0.6414127  9.182251   2.422      0.1117101  0.3965244  37.25      0.5719841  0.2623674  0.5719841 
1070       0.22       300.828    -9999      -9999      321.361    9.583      4.363      2.75       2.003      1.873      1.525      3.732      0.1375532  0.1375532  0.1558266  0.283      0.9885021  7.166589   2.334      0.1544699  0.4266272  37.894     0.5911859  0.2903097  0.5911859 
1070.2     0.219      311.49     -9999      -9999      333.597    9.765      4.184      2.577      1.794      1.832      1.48       3.987      0.1421883  0.1421883  0.1613165  0.2956     1.204565   6.124279   2.252      0.1646236  0.4389379  38.815     0.6202161  0.3095518  0.6202161 
1070.4     0.218      320.369    -9999      -9999      340.465    9.891      4.013      2.47       1.745      1.822      1.453      4.204      0.1417094  0.1417094  0.1605965  0.30316    1.180213   5.492881   2.187      0.150571   0.438794   39.862     0.6548731  0.3236153  0.6548731 
1070.6     0.215      327.076    -9999      -9999      341.048    10.025     3.823      2.456      1.816      1.831      1.439      4.298      0.1375076  0.1375076  0.1534545  0.30708    0.986581   4.892658   2.14       0.1190735  0.4307826  40.836     0.6884379  0.3392735  0.6884379 
1070.8     0.212      331.261    -9999      -9999      336.986    10.184     3.632      2.506      2.025      1.878      1.432      4.218      0.1319535  0.1319535  0.1422721  0.30904    0.7784973  4.264943   2.112      0.08120435 0.420486   41.574     0.7144125  0.3588389  0.7144125 
1071       0.21       332.187    -9999      -9999      333.189    10.334     3.471      2.484      2.269      1.921      1.426      4.031001   0.1278774  0.1278774  0.1329345  0.31072    0.6542698  3.746774   2.106      0.05448711 0.4149303  42.019     0.7298073  0.3783299  0.7298073 
1071.2     0.209      329.008    -9999      -9999      333.97     10.436     3.328      2.351      2.427      1.902      1.42       3.917      0.1261753  0.1261753  0.1305242  0.3124     0.6084593  3.430862   2.129      0.04825193 0.4172426  42.233     0.7364491  0.3921852  0.7364491 
1071.4     0.208      321.909    -9999      -9999      339.218    10.479     3.163      2.171      2.37       1.795      1.417      4.086      0.12549    0.12549    0.1343745  0.31324    0.590932   3.305799   2.178      0.05388322 0.4236775  42.359     0.7397016  0.3981771  0.7397016 
