~Version
 VERS              .         2.0                           : CWLS LOG ASCII STANDARD - VERSION 2.0
 WRAP              .         NO                            : ONE LINE PER DEPTH STEP
 DLM               .         SPACE                         : DELIMITING CHARACTER(SPACE TAB OR COMMA)
~Well Information
#_______________________________________________________________________________
#
#PARAMETER_NAME    .UNIT     VALUE                         : DESCRIPTION
#_______________________________________________________________________________
STRT               .M        870                           : First reference value
STOP               .M        1167.2                        : Last reference value
STEP               .M        0.2                           : Step increment
NULL               .         -9999                         : Missing value
COMP               .                                       : Company
WELL               .         2950                          : Well name
FLD                .         УЗЕНЬ                         : Field
LOC                .                                       : Location
CNTY               .                                       : County
STAT               .                                       : State
CTRY               .                                       : Country
SRVC               .                                       : Service Company
DATE               .                                       : Date
UWI                .                                       : Unique Well ID
Block              .         7                             : 
Category           .         Нагнетательная                : 
Condition          .         В работе                      : 
Date               .         24.08.2001                    : 
EREF               .m        86.2                          : 100.8
Gorizont           .         15                            : 14
Interpretator      .         Ткачева И.Г.                  : 
Kupol              .         Основной                      : osnovnoi
Mud                .         0                             : 
Mud_density        .         0                             : 
Mud_resistivity    .         0                             : 
NGDU               .         НГДУ-2                        : 
ORIGINALWELLNAME   .         2950                          : 
Spud_date          .         2001                          : 1961
Viscosity          .         0                             : 
X                  .m        42734.2                       : 46154
Y                  .m        84082.73                      : 85761.93
YEAR               .         2019                          : 
~Parameter Information Block
#_______________________________________________________________________________
#
#PARAMETER_NAME    .UNIT     VALUE                         : DESCRIPTION
#_______________________________________________________________________________
SET                .         LQC_KAZNIPI_Petrel            : 
GSDD               .         CSAT                          : CSATкрив,0,DEPT,BOTTOM,,,,0
TLFamily_CALI      .         Caliper                       : 
TLFamily_CILD      .         Conductivity                  : 
TLFamily_COLL      .         Net Reservoir Flag            : 
TLFamily_CSAT      .         Fluid Code                    : 
TLFamily_DEPT      .         Measured Depth                : 
TLFamily_DT        .         Compressional Slowness        : 
TLFamily_GR        .         Russian Gamma Ray             : 
TLFamily_GZ3       .         Gradient 225                  : 
TLFamily_LLS       .         Lateral Log Resistivity       : 
TLFamily_MINV      .         Micro Gradient Resistivity    : 
TLFamily_MNOR      .         Micro Resistivity             : 
TLFamily_NGLD      .         Neutron Gamma                 : 
TLFamily_OGZ       .         Gradient Inverted 225         : 
TLFamily_PHIE      .         Effective Porosity            : 
TLFamily_PHIEN     .         Effective Porosity            : 
TLFamily_PHIES     .         Effective Porosity            : 
TLFamily_PHIT      .         Porosity                      : 
TLFamily_PRMB      .         Permeability                  : 
TLFamily_PRMB_DGR  .         Permeability                  : 
TLFamily_RT        .         Formation Resistivity         : 
TLFamily_SOIL_ARCHIE .         Oil Saturation                : 
TLFamily_SOIL_DW   .         Oil Saturation                : 
TLFamily_SP        .         Spontaneous Potential         : 
TLFamily_VSH_FIN   .         Shale Volume                  : 
TLFamily_VSH_GR    .         Shale Volume                  : 
TLFamily_VSH_SP    .         Shale Volume                  : 
~Curve Information
#_______________________________________________________________________________
#
#LOGNAME           .UNIT     LOG_ID                        : DESCRIPTION
#_______________________________________________________________________________
DEPT               .M                                      : Колонка глубины 
CALI               .м                                      : Каверномер 
CILD               .мСм/м                                  : Индукционный каротаж зондом 6Ф1 
COLL               .unitless                               : Описание 
CSAT               .unitless                               : Описание 
DT                 .мкс/м                                  : Интервальное время пробега продольной волны 
GR                 .uR/h                                   : Гамма каротаж 
GZ3                .Ohmm                                   : Градиент-зонд  длиной 2.25м 
LLS                .Ohmm                                   : Боковой каротаж 
MINV               .Ohmm                                   : Микро-градиент зонд 
MNOR               .Ohmm                                   : Микро-потенциал зонд 
NGLD               .у.е.                                   : Показания зонда НГК-60 аппаратуры ДРСТ-3-90 
OGZ                .Ohmm                                   : Обращенный градиент-зонд 
PHIE               .v/v                                    : Описание 
PHIEN              .v/v                                    :  
PHIES              .v/v                                    :  
PHIT               .v/v                                    : Описание 
PRMB               .mD                                     :  
PRMB_DGR           .mD                                     :  
RT                 .ohmm                                   : Удельное электрическое сопротивление 
SOIL_ARCHIE        .v/v                                    :  
SOIL_DW            .v/v                                    :  
SP                 .мВ                                     : Потенциал самополяризации 
VSH_FIN            .v/v                                    : Описание 
VSH_GR             .v/v                                    : Shale volume 
VSH_SP             .v/v                                    : Shale Volume 
~Ascii
# ...
993.2000000000001 0.223      301.989    -9999      -9999      -9999      7.839      5.23       -9999      -9999      -9999      1.333      2.494      0.1854874  0.1854874  -9999      0.33676    7.635458   6.72289    2.324      0.3469951  0.5399562  37.373     0.4584018  0.2979857  0.6188179 
993.4      0.226      310.4      -9999      -9999      -9999      7.978      4.954999   -9999      -9999      -9999      1.296      2.757      0.1902911  0.1902911  -9999      0.34712    9.371548   5.766468   2.257      0.3525487  0.5462683  37.768     0.475239   0.3172556  0.6332225 
993.6      0.228      316.018    -9999      -9999      -9999      7.873      4.656      -9999      -9999      -9999      1.294      3.053      0.1918026  0.1918026  -9999      0.34768    9.995579   6.475212   2.215      0.3513018  0.5438541  37.997     0.4723557  0.3025883  0.6421231 
993.8      0.229      318.392    -9999      -9999      -9999      7.583      4.39       -9999      -9999      -9999      1.324      3.302      0.1886885  0.1886885  -9999      0.33928    8.752395   8.918662   2.198      0.3396038  0.5322464  38.113     0.4563379  0.2655064  0.6471693 
994        0.227      316.661    -9999      -9999      -9999      7.268      4.205      -9999      -9999      -9999      1.37       3.452      0.1810887  0.1810887  -9999      0.3264     6.329357   12.62793   2.211      0.3174211  0.5147603  38.174     0.4403374  0.2303581  0.6503166 
994.2000000000001 0.224      310.645    -9999      -9999      -9999      7.079      4.083      -9999      -9999      -9999      1.41       3.519      0.1725994  0.1725994  -9999      0.3152     4.406744   15.55793   2.257      0.2951164  0.5001001  38.213     0.4321231  0.2115439  0.6527023 
994.4      0.221      301.698    -9999      -9999      -9999      7.06       3.96       -9999      -9999      -9999      1.428      3.571      0.1676369  0.1676369  -9999      0.31016    3.566155   15.88773   2.326      0.2871223  0.4970035  38.222     0.4318882  0.2097397  0.6540368 
994.6      0.22       292.472    -9999      -9999      -9999      7.111      3.779      -9999      -9999      -9999      1.428      3.669      0.1666697  0.1666697  -9999      0.31016    3.422039   15.01789   2.398      0.2936972  0.5034906  38.221     0.4348192  0.2146177  0.6550206 
994.8      0.219      285.34     -9999      -9999      -9999      7.084      3.544      -9999      -9999      -9999      1.426      3.809      0.1674839  0.1674839  -9999      0.31072    3.542961   15.47229   2.455      0.3043993  0.5107599  38.222     0.4340487  0.2120212  0.6560763 
995        0.219      280.767    -9999      -9999      -9999      6.896      3.308      -9999      -9999      -9999      1.436      3.929      0.1672412  0.1672412  -9999      0.30792    3.50648    19.04121   2.493      0.3085224  0.511543   38.242     0.4262993  0.1947925  0.6578062 
995.2000000000001 0.219      277.172    -9999      -9999      -9999      6.587      3.131      -9999      -9999      -9999      1.463      3.964      0.1636916  0.1636916  -9999      0.30036    3.013865   26.78245   2.525      0.299685   0.5030951  38.242     0.4141466  0.1694631  0.65883   
995.4      0.219      272.307    -9999      -9999      -9999      6.262      3.031      -9999      -9999      -9999      1.498      3.901      0.1578199  0.1578199  -9999      0.29056    2.346207   38.34225   2.573      0.2834065  0.4904796  38.193     0.4022426  0.1463679  0.6581172 
995.6      0.219      265.249    -9999      -9999      -9999      6.005      2.988      -9999      -9999      -9999      1.53       3.779      0.1519754  0.1519754  -9999      0.2816     1.828565   50.92145   2.645      0.2689921  0.4801696  38.083     0.392802   0.1303556  0.6552483 
995.8      0.219      256.893    -9999      -9999      -9999      5.837      2.985      -9999      -9999      -9999      1.551      3.651      0.1482402  0.1482402  -9999      0.27572    1.559289   61.29875   2.731      0.2641086  0.4767369  37.955     0.3863024  0.1208476  0.6517571 
996        0.219      249.181    -9999      -9999      -9999      5.73       3.03       -9999      -9999      -9999      1.564      3.547      0.1459221  0.1459221  -9999      0.27208    1.412502   68.98499   2.813      0.2642228  0.4770177  37.86      0.3822967  0.1151567  0.6494368 
996.2000000000001 0.218      243.47     -9999      -9999      -9999      5.658      3.137      -9999      -9999      -9999      1.577      3.464      0.1429647  0.1429647  -9999      0.26844    1.245118   74.69239   2.876      0.2587288  0.474329   37.818     0.3802283  0.111479   0.6489775 
996.4      0.218      240.014    -9999      -9999      -9999      5.604      3.301      -9999      -9999      -9999      1.589      3.397      0.1399147  0.1399147  -9999      0.26508    1.093246   79.28072   2.915      0.249434   0.4693886  37.812     0.3792888  0.108798   0.6497796 
996.6      0.217      238.247    -9999      -9999      -9999      5.559      3.486      -9999      -9999      -9999      1.595      3.351      0.1384685  0.1384685  -9999      0.2634     1.027853   83.31892   2.936      0.2451581  0.4670824  37.805     0.3785802  0.1066131  0.6505474 
996.8      0.216      237.779    -9999      -9999      -9999      5.522      3.657      -9999      -9999      -9999      1.595      3.337      0.1386211  0.1386211  -9999      0.2634     1.034562   86.79288   2.941      0.2464836  0.4677635  37.8       0.3781179  0.1048495  0.6513863 
997        0.216      238.682    -9999      -9999      -9999      5.522      3.805      -9999      -9999      -9999      1.593      3.35       0.1388451  0.1388451  -9999      0.26396    1.044493   86.79288   2.931      0.2463388  0.4678821  37.829     0.3791361  0.1048495  0.6534227 
997.2000000000001 0.216      241.236    -9999      -9999      -9999      5.605      3.959      -9999      -9999      -9999      1.59       3.361      0.1382157  0.1382157  -9999      0.2648     1.016831   79.19325   2.901      0.2396891  0.4652331  37.939     0.3835887  0.108847   0.6583303 
997.4      0.216      245.389    -9999      -9999      -9999      5.802      4.143      -9999      -9999      -9999      1.585      3.341      0.1366318  0.1366318  -9999      0.2662     0.9504107  63.71371   2.853      0.225982   0.460087   38.134     0.3926307  0.1189558  0.6663056 
997.6      0.216      250.701    -9999      -9999      -9999      6.093      4.344      -9999      -9999      -9999      1.565      3.29       0.1379125  0.1379125  -9999      0.2718     1.003764   46.20699   2.794      0.2246799  0.4632811  38.369     0.4057197  0.1356309  0.6758085 
997.8      0.216      256.673    -9999      -9999      -9999      6.424      4.507      -9999      -9999      -9999      1.527      3.236      0.1434131  0.1434131  -9999      0.28244    1.269162   32.06297   2.729      0.2423217  0.4775286  38.596     0.4212936  0.1574572  0.6851299 
998        0.217      262.966    -9999      -9999      -9999      6.741      4.585      -9999      -9999      -9999      1.477      3.215      0.1520253  0.1520253  -9999      0.29644    1.832466   22.59499   2.664      0.2716518  0.498097   38.797     0.4376202  0.181646   0.6935944 
998.2000000000001 0.218      269.27     -9999      -9999      -9999      7.008      4.568      -9999      -9999      -9999      1.43       3.25       0.160015   0.160015   -9999      0.3096     2.576459   16.82652   2.601      0.2955625  0.5151085  38.986     0.453288   0.2048801  0.701696  
998.4      0.22       275.089    -9999      -9999      -9999      7.209      4.478      -9999      -9999      -9999      1.395      3.348      0.1653587  0.1653587  -9999      0.3194     3.235953   13.47786   2.545      0.3084035  0.5251536  39.159     0.4667918  0.2243119  0.7092718 
998.6      0.224      279.719    -9999      -9999      -9999      7.337      4.339      -9999      -9999      -9999      1.375      3.521      0.1677687  0.1677687  -9999      0.325      3.586255   11.70171   2.502      0.3115813  0.5288115  39.289     0.4764585  0.2376361  0.715281  
