~Version
 VERS              .         2.0                           : CWLS LOG ASCII STANDARD - VERSION 2.0
 WRAP              .         NO                            : ONE LINE PER DEPTH STEP
 DLM               .         SPACE                         : DELIMITING CHARACTER(SPACE TAB OR COMMA)
~Well Information
#_______________________________________________________________________________
#
#PARAMETER_NAME    .UNIT     VALUE                         : DESCRIPTION
#_______________________________________________________________________________
STRT               .M        870                           : First reference value
STOP               .M        1167.2                        : Last reference value
STEP               .M        0.2                           : Step increment
NULL               .         -9999                         : Missing value
COMP               .                                       : Company
WELL               .         2950                          : Well name
FLD                .         УЗЕНЬ                         : Field
LOC                .                                       : Location
CNTY               .                                       : County
STAT               .                                       : State
CTRY               .                                       : Country
SRVC               .                                       : Service Company
DATE               .                                       : Date
UWI                .                                       : Unique Well ID
Block              .         7                             : 
Category           .         Нагнетательная                : 
Condition          .         В работе                      : 
Date               .         24.08.2001                    : 
EREF               .m        86.2                          : 100.8
Gorizont           .         15                            : 14
Interpretator      .         Ткачева И.Г.                  : 
Kupol              .         Основной                      : osnovnoi
Mud                .         0                             : 
Mud_density        .         0                             : 
Mud_resistivity    .         0                             : 
NGDU               .         НГДУ-2                        : 
ORIGINALWELLNAME   .         2950                          : 
Spud_date          .         2001                          : 1961
Viscosity          .         0                             : 
X                  .m        42734.2                       : 46154
Y                  .m        84082.73                      : 85761.93
YEAR               .         2019                          : 
~Parameter Information Block
#_______________________________________________________________________________
#
#PARAMETER_NAME    .UNIT     VALUE                         : DESCRIPTION
#_______________________________________________________________________________
SET                .         LQC_KAZNIPI_Petrel            : 
GSDD               .         CSAT                          : CSATкрив,0,DEPT,BOTTOM,,,,0
TLFamily_CALI      .         Caliper                       : 
TLFamily_CILD      .         Conductivity                  : 
TLFamily_COLL      .         Net Reservoir Flag            : 
TLFamily_CSAT      .         Fluid Code                    : 
TLFamily_DEPT      .         Measured Depth                : 
TLFamily_DT        .         Compressional Slowness        : 
TLFamily_GR        .         Russian Gamma Ray             : 
TLFamily_GZ3       .         Gradient 225                  : 
TLFamily_LLS       .         Lateral Log Resistivity       : 
TLFamily_MINV      .         Micro Gradient Resistivity    : 
TLFamily_MNOR      .         Micro Resistivity             : 
TLFamily_NGLD      .         Neutron Gamma                 : 
TLFamily_OGZ       .         Gradient Inverted 225         : 
TLFamily_PHIE      .         Effective Porosity            : 
TLFamily_PHIEN     .         Effective Porosity            : 
TLFamily_PHIES     .         Effective Porosity            : 
TLFamily_PHIT      .         Porosity                      : 
TLFamily_PRMB      .         Permeability                  : 
TLFamily_PRMB_DGR  .         Permeability                  : 
TLFamily_RT        .         Formation Resistivity         : 
TLFamily_SOIL_ARCHIE .         Oil Saturation                : 
TLFamily_SOIL_DW   .         Oil Saturation                : 
TLFamily_SP        .         Spontaneous Potential         : 
TLFamily_VSH_FIN   .         Shale Volume                  : 
TLFamily_VSH_GR    .         Shale Volume                  : 
TLFamily_VSH_SP    .         Shale Volume                  : 
~Curve Information
#_______________________________________________________________________________
#
#LOGNAME           .UNIT     LOG_ID                        : DESCRIPTION
#_______________________________________________________________________________
DEPT               .M                                      : Колонка глубины 
CALI               .м                                      : Каверномер 
CILD               .мСм/м                                  : Индукционный каротаж зондом 6Ф1 
COLL               .unitless                               : Описание 
CSAT               .unitless                               : Описание 
DT                 .мкс/м                                  : Интервальное время пробега продольной волны 
GR                 .uR/h                                   : Гамма каротаж 
GZ3                .Ohmm                                   : Градиент-зонд  длиной 2.25м 
LLS                .Ohmm                                   : Боковой каротаж 
MINV               .Ohmm                                   : Микро-градиент зонд 
MNOR               .Ohmm                                   : Микро-потенциал зонд 
NGLD               .у.е.                                   : Показания зонда НГК-60 аппаратуры ДРСТ-3-90 
OGZ                .Ohmm                                   : Обращенный градиент-зонд 
PHIE               .v/v                                    : Описание 
PHIEN              .v/v                                    :  
PHIES              .v/v                                    :  
PHIT               .v/v                                    : Описание 
PRMB               .mD                                     :  
PRMB_DGR           .mD                                     :  
RT                 .ohmm                                   : Удельное электрическое сопротивление 
SOIL_ARCHIE        .v/v                                    :  
SOIL_DW            .v/v                                    :  
SP                 .мВ                                     : Потенциал самополяризации 
VSH_FIN            .v/v                                    : Описание 
VSH_GR             .v/v                                    : Shale volume 
VSH_SP             .v/v                                    : Shale Volume 
~Ascii
# ...
1144.4     0.213      359.398    8          2          318.033    10.761     1.839      1.804      1.55       1.644      1.539      2.729      0.150582   0.150582   0.1763929  0.27908    1.723066   3.491536   1.948      0.1612019  0.3969113  8.354      0.3893878  0.3893878  0.2510099 
1144.6     0.213      351.884    8          2          318.988    10.614     2.039      1.965      1.516      1.633      1.542      3.146      0.1560017  0.1560017  0.1830183  0.27824    2.171144   3.945781   1.99       0.1947412  0.410522   7.642      0.3704189  0.3704189  0.2414403 
1144.8     0.211      345.047    1          2          319.272    10.403     2.301      2.205      1.422      1.63       1.544      3.425      0.1638977  0.1638977  0.1908323  0.27768    3.04047    4.703006   2.029      0.2356296  0.4269135  7.076      0.3447949  0.3447949  0.234143  
1145       0.21       338.776    1          2          319.21     10.171     2.614      2.452      1.332      1.652      1.545      3.465      0.1722416  0.1722416  0.1984067  0.2774     4.340009   5.704348   2.066      0.2741638  0.4429902  6.807      0.3186618  0.3186618  0.2306782 
1145.2     0.209      333.705    1          2          320.232    9.979      2.928      2.599      1.28       1.681      1.544      3.255      0.1791621  0.1791621  0.2054363  0.27768    5.830084   6.692413   2.097      0.3035289  0.4562333  7.074      0.2985391  0.2985391  0.2337105 
1145.4     0.209      331.059    1          2          324.29     9.878      3.158      2.574      1.269      1.684      1.54       2.875      0.1836053  0.1836053  0.2128522  0.2788     7.046494   7.279103   2.113      0.3206588  0.4649688  8.115      0.2884689  0.2884689  0.2467151 
1145.6     0.21       331.794    1          2          331.877    9.861      3.241      2.359      1.286      1.639      1.539      2.465      0.1844335  0.1844335  0.2214027  0.27908    7.299838   7.382791   2.109      0.3227145  0.4657649  9.98       0.2868077  0.2868077  0.2727089 
1145.8     0.211      335.618    -9999      -9999      340.778    9.87       3.141      2.049      1.294      1.551      1.538      2.156      0.1844236  0.1844236  0.2301495  0.27936    7.296781   7.327717   2.085      0.3190356  0.4630052  12.491     0.2876859  0.2876859  0.3132992 
1146       0.212      340.647    -9999      -9999      347.576    9.844      2.888      1.773      1.282      1.462      1.538      2.021      0.1852586  0.1852586  0.2374552  0.27936    7.56129    7.487959   2.055      0.3170805  0.4601003  15.135     0.2851559  0.2851559  0.3634717 
1146.2     0.213      344.028    -9999      -9999      350.354    9.827      2.553      1.652      1.237      1.404      1.538      2.071      0.1858005  0.1858005  0.2405454  0.27936    7.738088   7.594622   2.034      0.3155244  0.4579702  17.296     0.2835137  0.2835137  0.410514  
1146.4     0.214      343.074    -9999      -9999      350.065    9.705      2.234      1.709      1.199      1.404      1.535      2.266      0.1904391  0.1904391  0.2436427  0.2802     9.43087    8.406      2.041      0.3311471  0.4653044  18.431     0.2720028  0.2720028  0.4373517 
1146.6     0.213      336.549    -9999      -9999      348.419    9.632      2.012      1.919      1.185      1.448      1.527      2.541      0.1948778  0.1948778  0.2440478  0.28244    11.39642   8.932378   2.085      0.3509642  0.4784257  18.425     0.2653399  0.2653399  0.4367916 
1146.8     0.212      325.083    1          2          345.97     9.527      1.931      2.239      1.209      1.524      1.521      2.814      0.1996263  0.1996263  0.2444434  0.28412    13.95474   9.747817   2.163      0.3752912  0.4947504  17.542     0.2560415  0.2560415  0.4151009 
1147       0.211      311.025    1          2          341.859    9.422      2.01       2.635      1.244      1.606      1.521      3.004      0.2025873  0.2025873  0.2430915  0.28412    15.83312   10.63771   2.263      0.3961937  0.5090474  16.314     0.2470688  0.2470688  0.3867981 
1147.2     0.21       297.513    1          2          335.793    9.356      2.245      2.814      1.282      1.69       1.522      3.043      0.2041152  0.2041152  0.2386487  0.28384    16.89919   11.23819   2.363      0.4121814  0.52077    15.206     0.2415905  0.2415905  0.3628741 
1147.4     0.21       287.733    1          2          329.198    9.252      2.619      3.058      1.316      1.759      1.539      2.903      0.2021229  0.2021229  0.2342768  0.27908    15.52257   12.25393   2.397      0.4110994  0.5174938  14.853     0.2332034  0.2332034  0.3553433 
1147.6     0.211      283.96     1          2          324.426    9.254      3.075      3.402      1.359      1.804      1.559      2.616      0.1964706  0.1964706  0.2291188  0.27348    12.19746   12.23356   2.438      0.4011557  0.5101244  14.488     0.2333619  0.2333619  0.3477376 
1147.8     0.212      287.048    1          2          323.152    9.257      3.521      3.549      1.417      1.812      1.564      2.262      0.194992   0.194992   0.2276591  0.27208    11.45205   12.20306   2.468      0.4006525  0.5101126  14.213     0.2335999  0.2335999  0.3420403 
1148       0.212      296.143    1          2          325.327    9.395      3.851      3.42       1.497      1.787      1.559      1.941      0.1926918  0.1926918  0.2267461  0.27348    10.3819    10.87938   2.443      0.3915257  0.5066643  14.339     0.2448128  0.2448128  0.3441644 
1148.2     0.214      309.085    1          2          329.771    9.658      3.985      3.249      1.592      1.739      1.547      1.733      0.1885009  0.1885009  0.2247921  0.27684    8.68266    8.741225   2.373      0.3712408  0.4984776  14.834     0.2676941  0.2676941  0.3536213 
1148.4     0.215      323.18     1          2          334.846    9.809      3.905      3.05       1.667      1.679      1.516      1.675      0.1925309  0.1925309  0.2259282  0.28552    10.3109    7.709215   2.276      0.3705103  0.5014796  15.681     0.2817853  0.2817853  0.3706805 
1148.6     0.216      335.913    1          2          338.931    10.001     3.654      2.566      1.685      1.62       1.507      1.769      0.188783   0.188783   0.2244904  0.28804    8.787737   6.571025   2.176      0.3459947  0.4886811  16.821     0.3007788  0.3007788  0.3950906 
1148.8     0.215      345.649    1          2          340.607    10.355     3.326      2.134      1.629      1.569      1.505      1.99       0.1766582  0.1766582  0.2149079  0.2886     5.23957    4.894629   2.133      0.3005483  0.4700329  18.09      0.3392177  0.3392177  0.4241665 
1149       0.215      351.738    1          2          339.396    10.663     3.025      1.865      1.534      1.534      1.492      2.314      0.1679498  0.1679498  0.2027643  0.29224    3.614068   3.788153   2.058      0.2566837  0.4535125  19.25      0.3766369  0.3766369  0.4524853 
1149.2     0.215      354.532    -9999      -9999      336.269    10.898     2.841      1.772      1.444      1.516      1.467      2.708      0.1646198  0.1646198  0.1904738  0.29924    3.135568   3.115396   1.99       0.231584   0.44775    20.102     0.40794    0.40794    0.4742782 
1149.4     0.216      354.807    -9999      -9999      333.116    11.061     2.813      1.81       1.399      1.524      1.449      3.128      0.1619946  0.1619946  0.1804595  0.30428    2.803441   2.720289   1.973      0.2176062  0.4474706  20.58      0.4311678  0.4311678  0.4867218 
1149.6     0.218      353.311    -9999      -9999      331.438    11.137     2.943      1.937      1.404      1.543      1.433      3.49       0.162753   0.162753   0.1754221  0.30876    2.895594   2.553602   1.971      0.2204113  0.4530815  20.778     0.4424456  0.4424456  0.4916935 
1149.8     0.219      350.432    -9999      -9999      331.508    10.987     3.188      1.986      1.456      1.562      1.419      3.701      0.1739271  0.1739271  0.1819248  0.31268    4.663484   2.893036   1.98       0.2657902  0.4724705  20.875     0.4204632  0.4204632  0.4939107 
