~Version
 VERS              .         2.0                           : CWLS LOG ASCII STANDARD - VERSION 2.0
 WRAP              .         NO                            : ONE LINE PER DEPTH STEP
 DLM               .         SPACE                         : DELIMITING CHARACTER(SPACE TAB OR COMMA)
~Well Information
#_______________________________________________________________________________
#
#PARAMETER_NAME    .UNIT     VALUE                         : DESCRIPTION
#_______________________________________________________________________________
STRT               .M        870                           : First reference value
STOP               .M        1167.2                        : Last reference value
STEP               .M        0.2                           : Step increment
NULL               .         -9999                         : Missing value
COMP               .                                       : Company
WELL               .         2950                          : Well name
FLD                .         УЗЕНЬ                         : Field
LOC                .                                       : Location
CNTY               .                                       : County
STAT               .                                       : State
CTRY               .                                       : Country
SRVC               .                                       : Service Company
DATE               .                                       : Date
UWI                .                                       : Unique Well ID
Block              .         7                             : 
Category           .         Нагнетательная                : 
Condition          .         В работе                      : 
Date               .         24.08.2001                    : 
EREF               .m        86.2                          : 100.8
Gorizont           .         15                            : 14
Interpretator      .         Ткачева И.Г.                  : 
Kupol              .         Основной                      : osnovnoi
Mud                .         0                             : 
Mud_density        .         0                             : 
Mud_resistivity    .         0                             : 
NGDU               .         НГДУ-2                        : 
ORIGINALWELLNAME   .         2950                          : 
Spud_date          .         2001                          : 1961
Viscosity          .         0                             : 
X                  .m        42734.2                       : 46154
Y                  .m        84082.73                      : 85761.93
YEAR               .         2019                          : 
~Parameter Information Block
#_______________________________________________________________________________
#
#PARAMETER_NAME    .UNIT     VALUE                         : DESCRIPTION
#_______________________________________________________________________________
SET                .         LQC_KAZNIPI_Petrel            : 
GSDD               .         CSAT                          : CSATкрив,0,DEPT,BOTTOM,,,,0
TLFamily_CALI      .         Caliper                       : 
TLFamily_CILD      .         Conductivity                  : 
TLFamily_COLL      .         Net Reservoir Flag            : 
TLFamily_CSAT      .         Fluid Code                    : 
TLFamily_DEPT      .         Measured Depth                : 
TLFamily_DT        .         Compressional Slowness        : 
TLFamily_GR        .         Russian Gamma Ray             : 
TLFamily_GZ3       .         Gradient 225                  : 
TLFamily_LLS       .         Lateral Log Resistivity       : 
TLFamily_MINV      .         Micro Gradient Resistivity    : 
TLFamily_MNOR      .         Micro Resistivity             : 
TLFamily_NGLD      .         Neutron Gamma                 : 
TLFamily_OGZ       .         Gradient Inverted 225         : 
TLFamily_PHIE      .         Effective Porosity            : 
TLFamily_PHIEN     .         Effective Porosity            : 
TLFamily_PHIES     .         Effective Porosity            : 
TLFamily_PHIT      .         Porosity                      : 
TLFamily_PRMB      .         Permeability                  : 
TLFamily_PRMB_DGR  .         Permeability                  : 
TLFamily_RT        .         Formation Resistivity         : 
TLFamily_SOIL_ARCHIE .         Oil Saturation                : 
TLFamily_SOIL_DW   .         Oil Saturation                : 
TLFamily_SP        .         Spontaneous Potential         : 
TLFamily_VSH_FIN   .         Shale Volume                  : 
TLFamily_VSH_GR    .         Shale Volume                  : 
TLFamily_VSH_SP    .         Shale Volume                  : 
~Curve Information
#_______________________________________________________________________________
#
#LOGNAME           .UNIT     LOG_ID                        : DESCRIPTION
#_______________________________________________________________________________
DEPT               .M                                      : Колонка глубины 
CALI               .м                                      : Каверномер 
CILD               .мСм/м                                  : Индукционный каротаж зондом 6Ф1 
COLL               .unitless                               : Описание 
CSAT               .unitless                               : Описание 
DT                 .мкс/м                                  : Интервальное время пробега продольной волны 
GR                 .uR/h                                   : Гамма каротаж 
GZ3                .Ohmm                                   : Градиент-зонд  длиной 2.25м 
LLS                .Ohmm                                   : Боковой каротаж 
MINV               .Ohmm                                   : Микро-градиент зонд 
MNOR               .Ohmm                                   : Микро-потенциал зонд 
NGLD               .у.е.                                   : Показания зонда НГК-60 аппаратуры ДРСТ-3-90 
OGZ                .Ohmm                                   : Обращенный градиент-зонд 
PHIE               .v/v                                    : Описание 
PHIEN              .v/v                                    :  
PHIES              .v/v                                    :  
PHIT               .v/v                                    : Описание 
PRMB               .mD                                     :  
PRMB_DGR           .mD                                     :  
RT                 .ohmm                                   : Удельное электрическое сопротивление 
SOIL_ARCHIE        .v/v                                    :  
SOIL_DW            .v/v                                    :  
SP                 .мВ                                     : Потенциал самополяризации 
VSH_FIN            .v/v                                    : Описание 
VSH_GR             .v/v                                    : Shale volume 
VSH_SP             .v/v                                    : Shale Volume 
~Ascii
# ...
1105.2     0.214      237.926    8          2          341.464    11.153     5.82       2.579      1.344      1.594      1.483      4          0.1773272  0.1773272  0.2034004  0.29476    5.391239   2.149453   2.945      0.392326   0.5491418  13.533     0.2370199  0.4746938  0.2370199 
1105.4     0.214      241.186    8          2          339.57     11.382     5.386      2.492      1.333      1.566      1.497      4.206      0.1666198  0.1666198  0.1950831  0.29084    3.414765   1.770008   2.902      0.3540089  0.530647   13.662     0.2389746  0.5138751  0.2389746 
1105.6     0.214      240.955    8          2          338.285    11.498     5.051      2.483      1.339      1.551      1.505      4.467      0.1603199  0.1603199  0.1899461  0.2886     2.610186   1.604154   2.904      0.3321712  0.5213811  13.913     0.242515   0.5349402  0.242515  
1105.8     0.214      237.706    8          2          337.79     11.492     4.828      2.57       1.353      1.546      1.504      4.761      0.1602196  0.1602196  0.1890892  0.28888    2.599046   1.61234    2.946      0.3362945  0.5249677  14.149     0.2459304  0.5338297  0.2459304 
1106       0.214      232.123    8          2          337.722    11.372     4.718999   2.78       1.364      1.556      1.5        5.039      0.1644391  0.1644391  0.1919658  0.29       3.111491   1.785085   3.02       0.3586619  0.5366945  14.345     0.2488769  0.5120984  0.2488769 
1106.2     0.214      224.97     8          2          337.601    11.183     4.721      3.127      1.36       1.578      1.499      5.23       0.1697304  0.1697304  0.1966056  0.29028    3.899214   2.09545    3.119      0.3854832  0.5500569  14.473     0.2509521  0.4796515  0.2509521 
1106.4     0.214      216.818    8          2          337.234    10.975     4.825      3.557      1.347      1.61       1.504      5.278      0.1736061  0.1736061  0.2012491  0.28888    4.600059   2.499738   3.239      0.4080296  0.5611542  14.547     0.2523161  0.4463141  0.2523161 
1106.6     0.214      208.336    8          2          336.362    10.777     5.018      3.938      1.336      1.646      1.518      5.195001   0.1744031  0.1744031  0.2048513  0.28496    4.759122   2.956843   3.372      0.4214162  0.5671543  14.593     0.2533074  0.4167343  0.2533074 
1106.8     0.214      200.234    8          2          334.861    10.598     5.264      4.144      1.342      1.68       1.539      5.077      0.1725282  0.1725282  0.207132   0.27908    4.393377   3.441627   3.507      0.4266041  0.5683694  14.623     0.2540847  0.3916838  0.2540847 
1107       0.214      193.465    8          2          332.344    10.445     5.503      4.185      1.361      1.704      1.561      5.02       0.1695726  0.1695726  0.2075891  0.27292    3.873054   3.918514   3.625      0.4268791  0.5667499  14.654     0.2548788  0.3714692  0.2548788 
1107.2     0.214      188.852    8          2          324.552    10.336     5.669      4.212      1.383      1.715      1.581      5.051      0.1659724  0.1659724  0.2012249  0.26732    3.321774   4.298051   3.708      0.4222372  0.5625244  14.746     0.2565202  0.3577076  0.2565202 
1107.4     0.214      186.91     8          2          311.234    10.281     5.73       4.361      1.395      1.722      1.592      5.091      0.1635781  0.1635781  0.1867931  0.26424    2.999305   4.503304   3.744      0.4175255  0.5590362  14.905     0.259114   0.3509583  0.259114  
1107.6     0.215      187.458    8          2          301.624    10.294     5.725999   4.596      1.395      1.74       1.59       5.029      0.1631769  0.1631769  0.1741688  0.2648     2.948425   4.453923   3.733      0.4154719  0.55851    15.177     0.2633556  0.352542   0.2633556 
1107.8     0.215      189.901    8          2          296.451    10.331     5.736001   4.72       1.384      1.773      1.579      4.812      0.1644014  0.1644014  0.1657875  0.26788    3.106492   4.316318   3.685      0.415728   0.560031   15.61      0.2700545  0.3570887  0.2700545 
1108       0.216      193.559    8          2          298.363    10.369     5.81       4.576      1.362      1.805      1.566      4.510001   0.1657841  0.1657841  0.1661159  0.27152    3.295199   4.179421   3.617      0.4148827  0.5609665  16.176     0.2790044  0.3618193  0.2790044 
1108.2     0.216      198.152    8          2          305.907    10.406     5.925001   4.179      1.335      1.813      1.555      4.243      0.1664601  0.1664601  0.1732876  0.2746     3.391591   4.050299   3.535      0.4106449  0.5596137  16.779     0.2889076  0.3664856  0.2889076 
1108.4     0.215      203.606    8          2          315.359    10.616     6.011001   3.698      1.312      1.789      1.545      4.083      0.1639395  0.1639395  0.1794412  0.2774     3.045899   3.389481   3.443      0.3953241  0.5537664  17.036     0.2935062  0.3941333  0.2935062 
1108.6     0.214      209.717    8          2          323.358    10.85      6.025      3.288      1.301      1.74       1.531      4.005      0.1616216  0.1616216  0.1824884  0.28132    2.759192   2.779319   3.343      0.3792514  0.5484063  17.284     0.2980402  0.4274046  0.2980402 
1108.8     0.213      215.776    8          2          328.671    10.943     5.989999   3.023      1.299      1.687      1.515      3.959      0.1628694  0.1628694  0.1851365  0.2858     2.910007   2.568515   3.248      0.374997   0.5475812  17.59      0.3036391  0.4413949  0.3036391 
1109       0.213      220.889    8          2          331.507    10.866     5.947      2.874      1.293      1.639      1.501      3.957      0.1685207  0.1685207  0.1897592  0.28972    3.703149   2.741858   3.17       0.3863316  0.5518993  17.629     0.3047612  0.4297796  0.3047612 
1109.2     0.213      224.447    8          2          332.914    10.744     5.877      2.811      1.281      1.605      1.495      4.081      0.1737225  0.1737225  0.1945636  0.2914     4.622968   3.040773   3.117      0.3976195  0.5550945  17.392     0.3011982  0.4119986  0.3011982 
1109.4     0.212      226.499    8          2          333.859    10.623     5.714      2.834      1.263      1.587      1.496      4.386      0.1774413  0.1774413  0.1993355  0.29112    5.417521   3.369415   3.088      0.4060301  0.5565268  16.924     0.293872   0.39509    0.293872  
1109.6     0.212      227.46     8          2          335.082    10.542     5.428999   2.984      1.254      1.588      1.5        4.817      0.1796002  0.1796002  0.2037014  0.29       5.94004    3.609037   3.075      0.4110888  0.5567226  16.341     0.2849293  0.3841605  0.2849293 
1109.8     0.212      227.663    8          2          337.18     10.526     5.125      3.254      1.255      1.604      1.5        5.218      0.1819164  0.1819164  0.2080263  0.29       6.556784   3.658347   3.072      0.4173579  0.5587893  15.54      0.2730145  0.3820376  0.2730145 
1110       0.211      227.091    8          2          339.407    10.583     4.966      3.519      1.276      1.636      1.499      5.437      0.1822925  0.1822925  0.2103438  0.29028    6.662807   3.485689   3.08       0.4191144  0.5599831  14.956     0.2648154  0.3896544  0.2648154 
1110.2     0.211      225.707    8          2          341.166    10.807     5.038      3.617      1.31       1.673      1.5        5.435      0.1773654  0.1773654  0.2076665  0.29       5.400024   2.882556   3.099      0.4067995  0.5562155  14.701     0.2615472  0.4210867  0.2615472 
1110.4     0.211      223.793    8          2          342.893    11.119     5.26       3.457      1.348      1.698      1.503      5.309      0.1689474  0.1689474  0.2021555  0.28916    3.771147   2.212339   3.126      0.3836521  0.5486841  14.524     0.2594243  0.469137   0.2594243 
1110.6     0.211      222.094    8          2          344.353    11.313     5.435      3.139      1.369      1.692      1.503      5.221      0.1637971  0.1637971  0.1986768  0.28916    3.027455   1.876686   3.15       0.3690755  0.544856   14.398     0.2580346  0.5017406  0.2580346 
