~Version information
VERS.                            2.00: CWLS LAS  -  VERSION 2.00
WRAP.                              NO: One line per depth step
~Well information
#MNEM.UNIT                  DATA TYPE  INFORMATION
#===.================================:==================
STRT.M                       1062.550: First depth in file
STOP.M                       1240.950: Last depth in file
STEP.M                          0.100: Depth increment
NULL.                        -999.25 : Null values
DATE.                       25/2/2014: LOG DATE
TIME.                                : LOG TIME
WELL.                            4055: Well name
GRP.                                 : Group name
FLD.                             UZEN: Field name
ISS.                                 : Well surveys
SRVC.                        AO"UPGF": Service Company
~Curve information
#MNEM.UNIT                   API CODE   CURVE DESCRIPTION
#===.================================:==================
DEPT.M                               : Depth curve
T60 .мкс                             : Тау на зонде 60, мкс
T30 .мкс                             : Тау на зонде 30, мкс
IN60.имп/мин                         : Интегр. счет на зонде 60
IN30.имп/мин                         : Интегр. счет на зонде 30
SIGMA.                               : SIGMA
Кн  .д.е.                            : Кн (ИНГК)
#
~Other information
#------------------ REMARKS AREA -----------------------
#=======================================================
# The file is generated by the program EditKar v2003.01
#Number of Curves = 6
~A Log Data Section
# ...
1161.75 114.0000 107.8000  368.3900 4264.1899  39.9100   0.0000 
1161.85 112.5000 108.7100  379.1000 4106.1001  40.4400   0.0000 
1161.95 111.0000 109.6100  389.8200 3948.0200  40.9900   0.0000 
1162.05 114.5000 108.2000  401.9700 3944.0100  39.7400   0.0000 
1162.15 118.0000 106.7800  414.1200 3940.0000  38.5600   0.0000 
1162.25 122.0000 106.7900  412.7500 4017.5400  37.3000   0.0000 
1162.35 126.0000 106.8000  411.3800 4095.0801  36.1100   0.0000 
1162.45 125.5000 108.1100  415.4600 4205.0400  36.2500   0.0000 
1162.55 125.0000 109.4100  419.5300 4314.9902  36.4000   0.0000 
1162.65 121.5000 108.9000  414.4700 4328.8301  37.4500   0.0000 
1162.75 118.0000 108.3900  409.4100 4342.6699  38.5600   0.0000 
1162.85 124.5000 107.3900  375.0700 4077.1699  36.5500   0.0000 
1162.95 131.0000 106.3900  340.7400 3811.6599  34.7300   0.0000 
1163.05 123.0000 107.4000  323.9100 3639.6799  36.9900   0.0000 
1163.15 115.0000 108.4100  307.0800 3467.7100  39.5700   0.0000 
1163.25 115.0000 109.9100  338.6300 3566.8401  39.5700   0.0000 
1163.35 115.0000 111.4100  370.1800 3665.9700  39.5700   0.0000 
1163.45 118.0000 112.5100  394.7700 3816.4399  38.5600   0.0000 
1163.55 121.0000 113.6100  419.3500 3966.8999  37.6000   0.0000 
1163.65 116.0000 113.0000  411.4800 4023.1299  39.2200   0.0000 
1163.75 111.0000 112.3900  403.6000 4079.3601  40.9900   0.0000 
1163.85 110.0000 111.3900  394.7200 4105.8198  41.3600   0.0000 
1163.95 109.0000 110.3900  385.8400 4132.2798  41.7400   0.0000 
1164.05 105.0000 110.2000  377.8500 4175.8501  43.3300   0.0000 
1164.15 101.0000 110.0000  369.8600 4219.4302  45.0500   0.0000 
1164.25 106.5000 110.0000  368.6900 4162.7002  42.7200   0.0000 
1164.35 112.0000 110.0000  367.5200 4105.9702  40.6300   0.0000 
1164.45 120.0000 110.0000  366.3700 4115.5498  37.9200   0.0000 
1164.55 128.0000 110.0000  365.2100 4125.1401  35.5500   0.0000 
1164.65 116.0000 109.2000  360.8700 4157.9902  39.2200   0.0000 
1164.75 104.0000 108.3900  356.5300 4190.8398  43.7500   0.0000 
1164.85 102.5000 108.2000  360.8800 4110.6899  44.3900   0.0000 
1164.95 101.0000 108.0000  365.2300 4030.5300  45.0500   0.0000 
1165.05 107.0000 108.4000  356.4700 4038.5801  42.5200   0.0000 
1165.15 113.0000 108.8000  347.7000 4046.6201  40.2700   0.0000 
1165.25 118.0000 107.7000  344.5700 3995.9600  38.5600   0.0000 
1165.35 123.0000 106.5900  341.4400 3945.3000  36.9900   0.0000 
1165.45 121.5000 105.4900  355.1100 3918.4600  37.4500   0.0000 
1165.55 120.0000 104.3900  368.7800 3891.6201  37.9200   0.0000 
1165.65 116.0000 105.4000  371.3800 3981.1299  39.2200   0.0000 
1165.75 112.0000 106.4100  373.9800 4070.6499  40.6300   0.0000 
1165.85 115.0000 107.5100  366.3500 4070.6499  39.5700   0.0000 
1165.95 118.0000 108.6100  358.7300 4070.6499  38.5600   0.0000 
1166.05 113.5000 108.8000  363.4000 4087.0200  40.0900   0.0000 
1166.15 109.0000 109.0000  368.0800 4103.3901  41.7400   0.0000 
1166.25 106.0000 109.0000  386.2500 4085.6001  42.9200   0.0000 
1166.35 103.0000 109.0000  404.4100 4067.8101  44.1700   0.0000 
1166.45 102.5000 108.6000  404.8100 4063.2100  44.3900   0.0000 
1166.55 102.0000 108.2000  405.2100 4058.6201  44.6100   0.0000 
1166.65 103.0000 109.3000  396.3500 4087.7500  44.1700   0.0000 
1166.75 104.0000 110.4100  387.4900 4116.8901  43.7500   0.0000 
1166.85 107.0000 111.5100  386.0600 4113.6499  42.5200   0.0000 
1166.95 110.0000 112.6100  384.6200 4110.4102  41.3600   0.0000 
1167.05 119.5000 112.4000  395.2400 4230.6201  38.0800   0.0000 
1167.15 129.0000 112.2000  405.8500 4350.8198  35.2700   0.0000 
1167.25 136.5000 114.1100  441.0800 4447.2900  33.3300   0.0000 
1167.35 144.0000 116.0200  476.3100 4543.7700  31.6000   0.0000 
1167.45 146.5000 122.5500  509.5500 4862.2700  31.0600   0.0000 
1167.55 149.0000 129.0700  542.7900 5180.7700  30.5400   0.0000 
1167.65 159.5000 134.9600  576.8700 5581.7798  28.5300   0.0000 
1167.75 170.0000 140.8500  610.9500 5982.7900  26.7600   0.0000 
1167.85 189.5000 145.9500  679.7800 6178.3198  24.0100   0.0000 
1167.95 209.0000 151.0500  748.6000 6373.8398  21.7700   0.0000 
1168.05 223.5000 163.2900  816.1600 6888.1802  20.3600   0.0000 
1168.15 238.0000 175.5300  883.7200 7402.5298  19.1200   0.0000 
1168.25 233.5000 185.1100  954.8400 7770.8101  19.4900   0.0000 
1168.35 229.0000 194.6800 1025.9500 8139.0898  19.8700   0.0000 
1168.45 228.0000 198.3500 1054.9500 8244.3398  19.9600   0.0000 
1168.55 227.0000 202.0200 1083.9399 8349.5898  20.0400   0.0000 
1168.65 237.0000 201.7100 1039.0500 8459.9902  19.2000   0.0000 
1168.75 247.0000 201.3900  994.1700 8570.3799  18.4200   0.0000 
1168.85 247.5000 199.5900  985.1200 8468.4805  18.3800   0.0000 
1168.95 248.0000 197.7800  976.0800 8366.5801  18.3500   0.0000 
1169.05 232.0000 196.1800  998.0100 8261.4805  19.6100   0.0000 
1169.15 216.0000 194.5900 1019.9400 8156.3799  21.0600   0.0000 
1169.25 205.0000 190.6700 1026.9399 7888.7300  22.2000   0.0000 
1169.35 194.0000 186.7600 1033.9500 7621.0698  23.4500   0.0000 
1169.45 185.5000 179.8400  994.4600 7370.1099  24.5300   0.0000 
1169.55 177.0000 172.9300  954.9600 7119.1499  25.7100   0.0000 
1169.65 170.0000 165.8400  883.1600 6720.0400  26.7600   0.0000 
1169.75 163.0000 158.7400  811.3600 6320.9199  27.9100   0.0000 
1169.85 161.0000 149.7300  763.7900 5875.9302  28.2600   0.0000 
1169.95 159.0000 140.7100  716.2300 5430.9502  28.6200   0.0000 
1170.05 151.5000 136.4400  691.5600 5442.0801  30.0300   0.0000 
1170.15 144.0000 132.1700  666.9000 5453.2100  31.6000   0.0000 
1170.25 139.5000 132.3900  666.9900 5494.2402  32.6200   0.0000 
1170.35 135.0000 132.6100  667.0800 5535.2798  33.7000   0.0000 
1170.45 133.0000 132.0000  638.5100 5658.0200  34.2100   0.0000 
1170.55 131.0000 131.3900  609.9300 5780.7700  34.7300   0.0000 
1170.65 135.0000 131.2000  577.7900 5582.9800  33.7000   0.0000 
1170.75 139.0000 131.0000  545.6600 5385.2002  32.7300   0.0000 
1170.85 142.5000 129.7900  552.0800 5102.6099  31.9300   0.0000 
1170.95 146.0000 128.5900  558.4900 4820.0200  31.1600   0.0000 
1171.05 142.0000 128.7000  554.8000 4977.7100  32.0400   0.0000 
1171.15 138.0000 128.8000  551.1000 5135.4102  32.9700   0.0000 
1171.25 136.0000 128.9000  545.7300 5179.1602  33.4600   0.0000 
1171.35 134.0000 129.0000  540.3600 5222.9102  33.9600   0.0000 
1171.45 137.0000 127.7900  528.7600 5218.8901  33.2100   0.0000 
1171.55 140.0000 126.5900  517.1700 5214.8599  32.5000   0.0000 
1171.65 143.0000 126.7000  500.2700 5123.3301  31.8200   0.0000 
1171.75 146.0000 126.8000  483.3600 5031.7900  31.1600   0.0000 
1171.85 145.0000 125.7000  476.8500 4825.0200  31.3800   0.0000 
1171.95 144.0000 124.5900  470.3400 4618.2598  31.6000   0.0000 
1172.05 137.0000 123.0900  464.4900 4625.1802  33.2100   0.0000 
1172.15 130.0000 121.5900  458.6400 4632.1001  35.0000   0.0000 
1172.25 127.5000 120.4900  463.6500 4631.4502  35.6900   0.0000 
1172.35 125.0000 119.3900  468.6600 4630.7900  36.4000   0.0000 
1172.45 125.5000 117.1800  468.8100 4648.0000  36.2500   0.0000 
1172.55 126.0000 114.9800  468.9600 4665.2100  36.1100   0.0000 
1172.65 122.5000 114.8900  470.3300 4686.3999  37.1400   0.0000 
1172.75 119.0000 114.8000  471.6900 4707.5898  38.2400   0.0000 
1172.85 124.5000 117.7200  486.3500 4638.8501  36.5500   0.0000 
1172.95 130.0000 120.6300  501.0000 4570.1201  35.0000   0.0000 
1173.05 129.5000 122.1200  494.6000 4669.2500  35.1400   0.0000 
1173.15 129.0000 123.6100  488.1900 4768.3901  35.2700   0.0000 
1173.25 125.0000 122.2000  473.2600 4755.4302  36.4000   0.0000 
1173.35 121.0000 120.7800  458.3300 4742.4702  37.6000   0.0000 
1173.45 119.5000 119.5900  446.6400 4649.2002  38.0800   0.0000 
1173.55 118.0000 118.3900  434.9600 4555.9399  38.5600   0.0000 
1173.65 118.5000 117.7900  428.0400 4543.2002  38.4000   0.0000 
1173.75 119.0000 117.2000  421.1300 4530.4600  38.2400   0.0000 
1173.85 128.5000 117.1000  420.3700 4562.6201  35.4100   0.0000 
1173.95 138.0000 117.0000  419.6100 4594.7900  32.9700   0.0000 
1174.05 141.0000 118.2100  420.5700 4639.3301  32.2700   0.0000 
