~Version information
VERS.                            2.00: CWLS LAS  -  VERSION 2.00
WRAP.                              NO: One line per depth step
~Well information
#MNEM.UNIT                  DATA TYPE  INFORMATION
#===.================================:==================
STRT.M                       1062.550: First depth in file
STOP.M                       1240.950: Last depth in file
STEP.M                          0.100: Depth increment
NULL.                        -999.25 : Null values
DATE.                       25/2/2014: LOG DATE
TIME.                                : LOG TIME
WELL.                            4055: Well name
GRP.                                 : Group name
FLD.                             UZEN: Field name
ISS.                                 : Well surveys
SRVC.                        AO"UPGF": Service Company
~Curve information
#MNEM.UNIT                   API CODE   CURVE DESCRIPTION
#===.================================:==================
DEPT.M                               : Depth curve
T60 .мкс                             : Тау на зонде 60, мкс
T30 .мкс                             : Тау на зонде 30, мкс
IN60.имп/мин                         : Интегр. счет на зонде 60
IN30.имп/мин                         : Интегр. счет на зонде 30
SIGMA.                               : SIGMA
Кн  .д.е.                            : Кн (ИНГК)
#
~Other information
#------------------ REMARKS AREA -----------------------
#=======================================================
# The file is generated by the program EditKar v2003.01
#Number of Curves = 6
~A Log Data Section
# ...
1099.75 145.0000 135.2600  400.5400 5480.7700  31.3800   0.0000 
1099.85 148.5000 137.4300  402.1100 5346.4399  30.6400   0.0000 
1099.95 152.0000 139.6100  403.6900 5212.1099  29.9300   0.0000 
1100.05 147.0000 137.7900  402.2000 4984.7100  30.9500   0.0000 
1100.15 142.0000 135.9800  400.7200 4757.3101  32.0400   0.0000 
1100.25 143.0000 132.2700  424.0800 4784.1099  31.8200   0.0000 
1100.35 144.0000 128.5600  447.4400 4810.9199  31.6000   0.0000 
1100.45 148.0000 128.5900  439.8300 5108.6899  30.7400   0.0000 
1100.55 152.0000 128.6100  432.2200 5406.4702  29.9300   0.0000 
1100.65 147.5000 130.0100  396.2100 5324.8999  30.8500   0.0000 
1100.75 143.0000 131.4100  360.2000 5243.3301  31.8200   0.0000 
1100.85 139.0000 129.6900  347.9100 4854.2202  32.7300   0.0000 
1100.95 135.0000 127.9800  335.6100 4465.1001  33.7000   0.0000 
1101.05 142.0000 124.6700  336.7600 4485.9399  32.0400   0.0000 
1101.15 149.0000 121.3700  337.9100 4506.7798  30.5400   0.0000 
1101.25 148.0000 120.6800  362.5500 4660.9102  30.7400   0.0000 
1101.35 147.0000 120.0000  387.2000 4815.0298  30.9500   0.0000 
1101.45 153.0000 126.4400  419.3600 5115.7300  29.7400   0.0000 
1101.55 159.0000 132.8700  451.5200 5416.4302  28.6200   0.0000 
1101.65 158.0000 138.0600  453.7500 5482.7900  28.8000   0.0000 
1101.75 157.0000 143.2400  455.9900 5549.1499  28.9800   0.0000 
1101.85 160.0000 141.3000  455.9400 5393.2700  28.4400   0.0000 
1101.95 163.0000 139.3700  455.9000 5237.3799  27.9100   0.0000 
1102.05 165.5000 140.7000  476.1500 5442.4302  27.4900   0.0000 
1102.15 168.0000 142.0200  496.3900 5647.4800  27.0800   0.0000 
1102.25 168.5000 145.3300  528.8500 5841.9199  27.0000   0.0000 
1102.35 169.0000 148.6300  561.3100 6036.3599  26.9200   0.0000 
1102.45 168.5000 148.5100  548.6200 5996.0498  27.0000   0.0000 
1102.55 168.0000 148.3900  535.9300 5955.7402  27.0800   0.0000 
1102.65 155.0000 145.7800  496.4500 5648.8301  29.3500   0.0000 
1102.75 142.0000 143.1800  456.9800 5341.9102  32.0400   0.0000 
1102.85 145.5000 141.3800  447.2800 5113.6099  31.2700   0.0000 
1102.95 149.0000 139.5900  437.5800 4885.2998  30.5400   0.0000 
1103.05 156.5000 136.8800  420.1900 4921.2798  29.0700   0.0000 
1103.15 164.0000 134.1700  402.7900 4957.2700  27.7400   0.0000 
1103.25 160.0000 134.3900  393.1200 4965.8799  28.4400   0.0000 
1103.35 156.0000 134.6100  383.4400 4974.5000  29.1700   0.0000 
1103.45 159.0000 139.2300  398.6200 5084.7402  28.6200   0.0000 
1103.55 162.0000 143.8500  413.7900 5194.9800  28.0900   0.0000 
1103.65 172.5000 146.1300  425.4700 5304.8398  26.3800   0.0000 
1103.75 183.0000 148.4100  437.1500 5414.7002  24.8600   0.0000 
1103.85 176.5000 150.3200  441.5700 5510.2100  25.7800   0.0000 
1103.95 170.0000 152.2200  445.9900 5605.7202  26.7600   0.0000 
1104.05 162.0000 150.6000  441.6100 5709.7598  28.0900   0.0000 
1104.15 154.0000 148.9800  437.2300 5813.7998  29.5500   0.0000 
1104.25 144.5000 144.0600  428.2700 5502.3999  31.4900   0.0000 
1104.35 135.0000 139.1500  419.3100 5190.9902  33.7000   0.0000 
1104.45 135.5000 134.4500  399.8600 4987.9600  33.5800   0.0000 
1104.55 136.0000 129.7600  380.4100 4784.9302  33.4600   0.0000 
1104.65 130.0000 128.0700  361.9500 4788.1802  35.0000   0.0000 
1104.75 124.0000 126.3900  343.4800 4791.4399  36.6900   0.0000 
1104.85 122.5000 125.3900  344.8300 4683.3901  37.1400   0.0000 
1104.95 121.0000 124.3900  346.1700 4575.3398  37.6000   0.0000 
1105.05 127.5000 123.3900  357.2200 4573.0801  35.6900   0.0000 
1105.15 134.0000 122.3900  368.2700 4570.8198  33.9600   0.0000 
1105.25 133.0000 122.2000  370.5600 4565.4399  34.2100   0.0000 
1105.35 132.0000 122.0000  372.8500 4560.0601  34.4700   0.0000 
1105.45 137.0000 123.2100  373.9500 4619.8198  33.2100   0.0000 
1105.55 142.0000 124.4100  375.0400 4679.5698  32.0400   0.0000 
1105.65 144.0000 127.1200  386.1000 4775.0298  31.6000   0.0000 
1105.75 146.0000 129.8200  397.1500 4870.4902  31.1600   0.0000 
1105.85 144.5000 133.6300  403.6400 4972.0498  31.4900   0.0000 
1105.95 143.0000 137.4400  410.1300 5073.6001  31.8200   0.0000 
1106.05 143.5000 139.4300  425.0000 5258.1001  31.7100   0.0000 
1106.15 144.0000 141.4100  439.8700 5442.6001  31.6000   0.0000 
1106.25 151.5000 142.5100  467.6500 5491.4102  30.0300   0.0000 
1106.35 159.0000 143.6100  495.4300 5540.2100  28.6200   0.0000 
1106.45 161.0000 146.6200  497.3700 5600.9502  28.2600   0.0000 
1106.55 163.0000 149.6300  499.3200 5661.6802  27.9100   0.0000 
1106.65 163.0000 151.5200  492.4800 5689.5898  27.9100   0.0000 
1106.75 163.0000 153.4100  485.6500 5717.5000  27.9100   0.0000 
1106.85 167.5000 153.3000  477.1400 5577.9902  27.1600   0.0000 
1106.95 172.0000 153.2000  468.6300 5438.4902  26.4500   0.0000 
1107.05 168.0000 150.6800  433.4400 5185.4600  27.0800   0.0000 
1107.15 164.0000 148.1700  398.2600 4932.4399  27.7400   0.0000 
1107.25 161.0000 144.7700  383.6700 4753.0098  28.2600   0.0000 
1107.35 158.0000 141.3700  369.0800 4573.5801  28.8000   0.0000 
1107.45 171.5000 145.1100  387.5700 4968.2202  26.5300   0.0000 
1107.55 185.0000 148.8500  406.0500 5362.8599  24.5900   0.0000 
1107.65 181.5000 153.5400  424.8700 5809.6802  25.0700   0.0400 
1107.75 178.0000 158.2400  443.6900 6256.5000  25.5600   0.1200 
1107.85 169.0000 159.1200  464.7500 6250.9102  26.9200   0.1900 
1107.95 160.0000 160.0000  485.8100 6245.3198  28.4400   0.2400 
1108.05 162.5000 161.6100  499.6100 6299.4600  28.0000   0.2600 
1108.15 165.0000 163.2200  513.4000 6353.6001  27.5800   0.2600 
1108.25 173.0000 166.0200  522.4700 6400.2798  26.3000   0.2300 
1108.35 181.0000 168.8300  531.5400 6446.9600  25.1400   0.2300 
1108.45 188.5000 170.6200  528.5400 6518.0098  24.1400   0.2800 
1108.55 196.0000 172.4100  525.5400 6589.0601  23.2100   0.3000 
1108.65 187.5000 173.1100  511.9700 6682.2998  24.2700   0.3000 
1108.75 179.0000 173.8000  498.3900 6775.5498  25.4200   0.3100 
1108.85 183.5000 173.5000  506.6600 6693.2598  24.8000   0.3300 
1108.95 188.0000 173.2000  514.9200 6610.9702  24.2000   0.3400 
1109.05 184.5000 172.7000  529.0500 6564.4702  24.6600   0.3400 
1109.15 181.0000 172.2000  543.1700 6517.9600  25.1400   0.3400 
1109.25 183.0000 172.9000  549.7000 6505.9199  24.8600   0.3600 
1109.35 185.0000 173.6100  556.2300 6493.8799  24.5900   0.3500 
1109.45 189.0000 173.8000  545.2000 6700.1001  24.0700   0.3400 
1109.55 193.0000 174.0000  534.1800 6906.3301  23.5800   0.3400 
1109.65 194.0000 176.0100  533.7000 7014.5400  23.4500   0.3300 
1109.75 195.0000 178.0200  533.2200 7122.7500  23.3300   0.3300 
1109.85 198.0000 178.1100  563.5300 7016.0098  22.9800   0.3400 
1109.95 201.0000 178.2000  593.8300 6909.2598  22.6400   0.3600 
1110.05 210.0000 174.8800  621.6600 7070.0498  21.6700   0.3900 
1110.15 219.0000 171.5600  649.4800 7230.8398  20.7800   0.3900 
1110.25 212.5000 171.5900  662.7700 7334.2700  21.4100   0.3700 
1110.35 206.0000 171.6100  676.0500 7437.7100  22.0900   0.3400 
1110.45 200.0000 172.2100  644.9400 7657.1802  22.7500   0.3100 
1110.55 194.0000 172.8000  613.8300 7876.6401  23.4500   0.3200 
1110.65 191.5000 173.7100  588.7500 7756.3101  23.7600   0.3100 
1110.75 189.0000 174.6100  563.6800 7635.9702  24.0700   0.3000 
1110.85 187.5000 174.0000  574.5200 7287.8398  24.2700   0.3000 
1110.95 186.0000 173.3900  585.3600 6939.7002  24.4600   0.3300 
1111.05 187.5000 173.6000  584.1200 7116.9399  24.2700   0.3400 
1111.15 189.0000 173.8000  582.8800 7294.1802  24.0700   0.3500 
1111.25 193.5000 174.7100  591.7900 7312.4399  23.5100   0.3700 
1111.35 198.0000 175.6100  600.7100 7330.7100  22.9800   0.3900 
1111.45 198.0000 176.6100  612.8500 7347.7002  22.9800   0.4000 
1111.55 198.0000 177.6100  625.0000 7364.6899  22.9800   0.4000 
1111.65 198.5000 178.6100  623.3100 7375.0098  22.9200   0.4000 
1111.75 199.0000 179.6100  621.6100 7385.3301  22.8600   0.4000 
1111.85 193.5000 179.8000  618.0500 7339.5400  23.5100   0.4200 
1111.95 188.0000 180.0000  614.4900 7293.7402  24.2000   0.4300 
1112.05 181.5000 180.0000  618.3300 7375.9502  25.0700   0.4400 
