~Version information
VERS.                            2.00: CWLS LAS  -  VERSION 2.00
WRAP.                              NO: One line per depth step
~Well information
#MNEM.UNIT                  DATA TYPE  INFORMATION
#===.================================:==================
STRT.M                       1062.550: First depth in file
STOP.M                       1240.950: Last depth in file
STEP.M                          0.100: Depth increment
NULL.                        -999.25 : Null values
DATE.                       25/2/2014: LOG DATE
TIME.                                : LOG TIME
WELL.                            4055: Well name
GRP.                                 : Group name
FLD.                             UZEN: Field name
ISS.                                 : Well surveys
SRVC.                        AO"UPGF": Service Company
~Curve information
#MNEM.UNIT                   API CODE   CURVE DESCRIPTION
#===.================================:==================
DEPT.M                               : Depth curve
T60 .мкс                             : Тау на зонде 60, мкс
T30 .мкс                             : Тау на зонде 30, мкс
IN60.имп/мин                         : Интегр. счет на зонде 60
IN30.имп/мин                         : Интегр. счет на зонде 30
SIGMA.                               : SIGMA
Кн  .д.е.                            : Кн (ИНГК)
#
~Other information
#------------------ REMARKS AREA -----------------------
#=======================================================
# The file is generated by the program EditKar v2003.01
#Number of Curves = 6
~A Log Data Section
# ...
1149.35 179.0000 157.5900  681.9300 6837.2598  25.4200   0.1500 
1149.45 173.0000 156.4900  671.4000 6734.6699  26.3000   0.1100 
1149.55 167.0000 155.3900  660.8700 6632.0801  27.2500   0.0900 
1149.65 167.5000 154.3900  670.1000 6477.9302  27.1600   0.0500 
1149.75 168.0000 153.3900  679.3300 6323.7900  27.0800   0.0200 
1149.85 167.5000 152.7900  698.4200 6287.9800  27.1600   0.0000 
1149.95 167.0000 152.2000  717.5200 6252.1699  27.2500   0.0000 
1150.05 164.0000 151.2900  737.6500 6375.6602  27.7400   0.0000 
1150.15 161.0000 150.3900  757.7700 6499.1499  28.2600   0.0000 
1150.25 161.0000 150.2000  794.5000 6629.5298  28.2600   0.0000 
1150.35 161.0000 150.0000  831.2300 6759.9102  28.2600   0.0000 
1150.45 164.0000 150.4000  825.0800 7007.7300  27.7400   0.0000 
1150.55 167.0000 150.8000  818.9300 7255.5498  27.2500   0.0000 
1150.65 166.5000 150.5000  772.6800 7170.8398  27.3300   0.0000 
1150.75 166.0000 150.2000  726.4200 7086.1299  27.4100   0.0000 
1150.85 173.5000 150.1000  709.6500 6697.7900  26.2200   0.0000 
1150.95 181.0000 150.0000  692.8700 6309.4502  25.1400   0.0000 
1151.05 189.5000 151.6100  691.7500 6336.9902  24.0100   0.0000 
1151.15 198.0000 153.2200  690.6200 6364.5200  22.9800   0.0000 
1151.25 196.5000 157.2300  699.7400 6588.7002  23.1600   0.0000 
1151.35 195.0000 161.2400  708.8500 6812.8701  23.3300   0.0000 
1151.45 188.5000 166.5500  729.5100 7028.8398  24.1400   0.0000 
1151.55 182.0000 171.8500  750.1700 7244.7998  25.0000   0.0000 
1151.65 186.5000 173.7300  752.0000 7211.5801  24.4000   0.0000 
1151.75 191.0000 175.6100  753.8200 7178.3599  23.8200   0.0000 
1151.85 194.0000 172.9900  718.8000 6681.2700  23.4500   0.0000 
1151.95 197.0000 170.3700  683.7900 6184.1802  23.1000   0.0000 
1152.05 200.0000 170.4900  665.3600 6214.3999  22.7500   0.0000 
1152.15 203.0000 170.6100  646.9400 6244.6201  22.4100   0.0000 
1152.25 199.0000 172.8200  707.5500 6512.2700  22.8600   0.0500 
1152.35 195.0000 175.0200  768.1500 6779.9302  23.3300   0.1500 
1152.45 190.0000 173.9000  791.1200 7012.1899  23.9500   0.2000 
1152.55 185.0000 172.7800  814.0900 7244.4502  24.5900   0.2300 
1152.65 183.0000 171.1800  780.3400 7376.1001  24.8600   0.2500 
1152.75 181.0000 169.5900  746.6000 7507.7500  25.1400   0.2500 
1152.85 177.0000 168.0900  735.6500 7231.6001  25.7100   0.2600 
1152.95 173.0000 166.5900  724.7000 6955.4502  26.3000   0.2600 
1153.05 174.0000 164.2800  713.4700 6843.5698  26.1500   0.2400 
1153.15 175.0000 161.9800  702.2300 6731.7002  26.0000   0.2200 
1153.25 176.5000 157.8700  697.6100 6565.9502  25.7800   0.2200 
1153.35 178.0000 153.7600  692.9800 6400.2100  25.5600   0.2000 
1153.45 172.5000 151.2700  675.0500 6361.0298  26.3800   0.1300 
1153.55 167.0000 148.7800  657.1100 6321.8599  27.2500   0.0800 
1153.65 168.5000 148.7900  629.8600 6398.4702  27.0000   0.1000 
1153.75 170.0000 148.8000  602.6100 6475.0698  26.7600   0.1400 
1153.85 177.0000 150.5100  606.7700 6344.9600  25.7100   0.1700 
1153.95 184.0000 152.2200  610.9400 6214.8398  24.7300   0.1700 
1154.05 182.0000 155.0200  633.7700 6327.4102  25.0000   0.1700 
1154.15 180.0000 157.8300  656.6000 6439.9800  25.2800   0.2000 
1154.25 181.5000 158.4100  681.7100 6545.0601  25.0700   0.2600 
1154.35 183.0000 159.0000  706.8200 6650.1299  24.8600   0.3000 
1154.45 188.5000 158.2000  708.3700 6700.2300  24.1400   0.3000 
1154.55 194.0000 157.3900  709.9200 6750.3398  23.4500   0.2900 
1154.65 186.5000 156.7900  697.0300 6817.1099  24.4000   0.2800 
1154.75 179.0000 156.2000  684.1400 6883.8901  25.4200   0.2900 
1154.85 177.0000 156.1000  683.0500 6855.2202  25.7100   0.2800 
1154.95 175.0000 156.0000  681.9600 6826.5498  26.0000   0.2500 
1155.05 178.5000 156.4000  670.5200 6813.2300  25.4900   0.2500 
1155.15 182.0000 156.8000  659.0900 6799.9102  25.0000   0.2500 
1155.25 179.5000 156.9000  661.9700 6674.4199  25.3500   0.2600 
1155.35 177.0000 157.0000  664.8500 6548.9302  25.7100   0.2500 
1155.45 173.0000 157.8000  676.0900 6581.0898  26.3000   0.2800 
1155.55 169.0000 158.6100  687.3400 6613.2500  26.9200   0.3200 
1155.65 169.5000 159.2100  679.6000 6752.1201  26.8400   0.3300 
1155.75 170.0000 159.8000  671.8700 6890.9902  26.7600   0.3200 
1155.85 176.5000 159.5000  671.6900 6806.1201  25.7800   0.3400 
1155.95 183.0000 159.2000  671.5100 6721.2500  24.8600   0.3200 
1156.05 179.0000 158.2900  675.7700 6655.3799  25.4200   0.2700 
1156.15 175.0000 157.3900  680.0300 6589.5098  26.0000   0.2400 
1156.25 168.5000 155.5900  681.0500 6439.1201  27.0000   0.2300 
1156.35 162.0000 153.7800  682.0800 6288.7202  28.0900   0.2400 
1156.45 152.0000 149.7700  656.5200 6065.5298  29.9300   0.2500 
1156.55 142.0000 145.7600  630.9600 5842.3398  32.0400   0.2400 
1156.65 149.5000 144.8800  604.5600 5845.1201  30.4300   0.2400 
1156.75 157.0000 144.0000  578.1600 5847.8901  28.9800   0.2300 
1156.85 159.0000 144.4000  590.5400 5885.7402  28.6200   0.2100 
1156.95 161.0000 144.8000  602.9100 5923.5898  28.2600   0.1800 
1157.05 162.0000 145.7100  610.9600 6040.3398  28.0900   0.1500 
1157.15 163.0000 146.6100  619.0100 6157.0898  27.9100   0.1400 
1157.25 159.5000 145.6000  627.7300 6103.5298  28.5300   0.1500 
1157.35 156.0000 144.5900  636.4400 6049.9702  29.1700   0.1600 
1157.45 157.0000 143.8900  649.5500 5996.5000  28.9800   0.1700 
1157.55 158.0000 143.2000  662.6500 5943.0400  28.8000   0.1700 
1157.65 154.5000 144.3000  678.8100 6007.2402  29.4500   0.0800 
1157.75 151.0000 145.4100  694.9600 6071.4399  30.1300   0.0000 
1157.85 147.5000 144.1000  695.9000 6004.0400  30.8500   0.0000 
1157.95 144.0000 142.7800  696.8400 5936.6299  31.6000   0.0000 
1158.05 140.0000 140.7800  646.3900 5851.2100  32.5000   0.0000 
1158.15 136.0000 138.7800  595.9400 5765.7900  33.4600   0.0000 
1158.25 132.5000 135.1700  553.4900 5359.4702  34.3400   0.0000 
1158.35 129.0000 131.5600  511.0300 4953.1401  35.2700   0.0000 
1158.45 133.0000 125.9500  485.3400 4828.4502  34.2100   0.0000 
1158.55 137.0000 120.3400  459.6500 4703.7500  33.2100   0.0000 
1158.65 140.5000 119.9800  457.2600 4920.3101  32.3800   0.0000 
1158.75 144.0000 119.6100  454.8800 5136.8799  31.6000   0.0000 
1158.85 151.0000 125.0300  498.7600 5282.6299  30.1300   0.0000 
1158.95 158.0000 130.4600  542.6400 5428.3901  28.8000   0.0000 
1159.05 167.5000 137.7600  581.8200 5729.2002  27.1600   0.0900 
1159.15 177.0000 145.0700  620.9900 6030.0098  25.7100   0.2100 
1159.25 181.5000 148.9500  654.3700 6176.9102  25.0700   0.2500 
1159.35 186.0000 152.8300  687.7500 6323.8101  24.4600   0.2600 
1159.45 190.5000 155.4300  708.7000 6536.2202  23.8800   0.2800 
1159.55 195.0000 158.0200  729.6400 6748.6299  23.3300   0.2900 
1159.65 193.5000 161.7300  747.4400 6977.8599  23.5100   0.3300 
1159.75 192.0000 165.4300  765.2500 7207.0898  23.7000   0.3600 
1159.85 186.5000 168.2300  799.2200 7258.1201  24.4000   0.3800 
1159.95 181.0000 171.0200  833.2000 7309.1602  25.1400   0.4000 
1160.05 186.5000 173.9300  854.5100 7367.1299  24.4000   0.4100 
1160.15 192.0000 176.8300  875.8200 7425.1099  23.7000   0.4200 
1160.25 192.0000 177.4100  880.8000 7381.5400  23.7000   0.4500 
1160.35 192.0000 178.0000  885.7900 7337.9800  23.7000   0.4500 
1160.45 187.0000 175.9900  836.6100 7388.5698  24.3300   0.4300 
1160.55 182.0000 173.9800  787.4300 7439.1699  25.0000   0.3900 
1160.65 163.5000 168.2600  699.7900 6994.4399  27.8300   0.3500 
1160.75 145.0000 162.5500  612.1600 6549.7100  31.3800   0.3200 
1160.85 128.5000 149.2000  551.5200 5676.4800  35.4100   0.1500 
1160.95 112.0000 135.8600  490.8800 4803.2402  40.6300   0.0000 
1161.05 117.0000 126.0900  461.6600 4536.1299  38.8900   0.0000 
1161.15 122.0000 116.3200  432.4400 4269.0298  37.3000   0.0000 
1161.25 125.0000 113.8600  415.1900 4228.1602  36.4000   0.0000 
1161.35 128.0000 111.3900  397.9300 4187.2900  35.5500   0.0000 
1161.45 124.5000 109.5900  385.5200 4216.8701  36.5500   0.0000 
1161.55 121.0000 107.7800  373.1000 4246.4502  37.6000   0.0000 
1161.65 117.5000 107.7900  370.7500 4255.3198  38.7200   0.0000 
