~Version information
VERS.                            2.00: CWLS LAS  -  VERSION 2.00
WRAP.                              NO: One line per depth step
~Well information
#MNEM.UNIT                  DATA TYPE  INFORMATION
#===.================================:==================
STRT.M                       1062.550: First depth in file
STOP.M                       1240.950: Last depth in file
STEP.M                          0.100: Depth increment
NULL.                        -999.25 : Null values
DATE.                       25/2/2014: LOG DATE
TIME.                                : LOG TIME
WELL.                            4055: Well name
GRP.                                 : Group name
FLD.                             UZEN: Field name
ISS.                                 : Well surveys
SRVC.                        AO"UPGF": Service Company
~Curve information
#MNEM.UNIT                   API CODE   CURVE DESCRIPTION
#===.================================:==================
DEPT.M                               : Depth curve
T60 .мкс                             : Тау на зонде 60, мкс
T30 .мкс                             : Тау на зонде 30, мкс
IN60.имп/мин                         : Интегр. счет на зонде 60
IN30.имп/мин                         : Интегр. счет на зонде 30
SIGMA.                               : SIGMA
Кн  .д.е.                            : Кн (ИНГК)
#
~Other information
#------------------ REMARKS AREA -----------------------
#=======================================================
# The file is generated by the program EditKar v2003.01
#Number of Curves = 6
~A Log Data Section
# ...
1136.95 176.0000 145.5900  600.8600 5778.1001  25.8500   0.0000 
1137.05 174.5000 146.1000  601.5700 5847.0801  26.0700   0.0000 
1137.15 173.0000 146.6100  602.2900 5916.0601  26.3000   0.1300 
1137.25 165.0000 150.8300  617.2500 6111.6602  27.5800   0.2700 
1137.35 157.0000 155.0500  632.2100 6307.2500  28.9800   0.2800 
1137.45 161.5000 158.0400  647.1100 6452.0098  28.1700   0.3200 
1137.55 166.0000 161.0200  662.0100 6596.7798  27.4100   0.3500 
1137.65 164.5000 161.5100  672.9800 6729.3398  27.6600   0.3500 
1137.75 163.0000 162.0000  683.9400 6861.8999  27.9100   0.3400 
1137.85 164.5000 161.2000  687.2300 6809.2998  27.6600   0.3300 
1137.95 166.0000 160.3900  690.5300 6756.7002  27.4100   0.3100 
1138.05 170.5000 161.4000  667.3000 6782.4199  26.6900   0.2500 
1138.15 175.0000 162.4100  644.0800 6808.1401  26.0000   0.2200 
1138.25 169.5000 163.9100  647.8600 6715.7598  26.8400   0.2500 
1138.35 164.0000 165.4100  651.6400 6623.3799  27.7400   0.2600 
1138.45 166.0000 164.1000  665.8500 6668.8501  27.4100   0.2700 
1138.55 168.0000 162.7800  680.0600 6714.3301  27.0800   0.2800 
1138.65 174.0000 161.5900  672.6700 6790.2798  26.1500   0.2600 
1138.75 180.0000 160.3900  665.2800 6866.2402  25.2800   0.2200 
1138.85 180.0000 159.3900  680.2400 6706.1602  25.2800   0.2200 
1138.95 180.0000 158.3900  695.2000 6546.0801  25.2800   0.2300 
1139.05 178.5000 158.6000  696.5400 6570.4800  25.4900   0.2400 
1139.15 177.0000 158.8000  697.8900 6594.8799  25.7100   0.2400 
1139.25 166.5000 158.9000  673.6100 6515.0601  27.3300   0.2400 
1139.35 156.0000 159.0000  649.3300 6435.2402  29.1700   0.2300 
1139.45 152.0000 156.1800  635.0100 6329.7202  29.9300   0.2200 
1139.55 148.0000 153.3700  620.6900 6224.2002  30.7400   0.2000 
1139.65 149.0000 149.8700  602.2600 6109.5498  30.5400   0.1700 
1139.75 150.0000 146.3700  583.8200 5994.8999  30.3300   0.0800 
1139.85 151.0000 143.2700  570.8400 5808.5698  30.1300   0.0000 
1139.95 152.0000 140.1700  557.8600 5622.2300  29.9300   0.0000 
1140.05 146.0000 139.5900  572.8900 5692.8301  31.1600   0.0000 
1140.15 140.0000 139.0000  587.9100 5763.4302  32.5000   0.0000 
1140.25 141.5000 139.0000  626.9400 5787.0400  32.1600   0.0000 
1140.35 143.0000 139.0000  665.9700 5810.6499  31.8200   0.0000 
1140.45 147.0000 137.3900  646.2700 5869.3599  30.9500   0.0000 
1140.55 151.0000 135.7800  626.5700 5928.0601  30.1300   0.0000 
1140.65 153.5000 134.5900  566.6500 5759.3398  29.6400   0.0000 
1140.75 156.0000 133.3900  506.7200 5590.6099  29.1700   0.0000 
1140.85 156.5000 133.6000  504.0000 5486.7202  29.0700   0.0000 
1140.95 157.0000 133.8000  501.2900 5382.8301  28.9800   0.0000 
1141.05 153.0000 135.1100  515.8700 5688.6699  29.7400   0.0000 
1141.15 149.0000 136.4100  530.4400 5994.5000  30.5400   0.0000 
1141.25 154.0000 139.1200  560.3800 5923.9800  29.5500   0.0000 
1141.35 159.0000 141.8300  590.3100 5853.4600  28.6200   0.0000 
1141.45 161.0000 142.8200  616.9600 5761.9600  28.2600   0.0000 
1141.55 163.0000 143.8000  643.6100 5670.4702  27.9100   0.0000 
1141.65 161.0000 143.5000  637.9800 5774.6299  28.2600   0.0000 
1141.75 159.0000 143.2000  632.3500 5878.7900  28.6200   0.0000 
1141.85 156.0000 144.7100  626.5500 6005.6499  29.1700   0.0000 
1141.95 153.0000 146.2200  620.7400 6132.5000  29.7400   0.0000 
1142.05 156.0000 145.8000  617.3600 6273.0898  29.1700   0.0000 
1142.15 159.0000 145.3900  613.9900 6413.6899  28.6200   0.0000 
1142.25 155.0000 143.5900  609.8000 6289.3799  29.3500   0.0000 
1142.35 151.0000 141.7800  605.6100 6165.0698  30.1300   0.0300 
1142.45 151.5000 142.6000  602.6100 6179.7100  30.0300   0.0600 
1142.55 152.0000 143.4100  599.6200 6194.3501  29.9300   0.0800 
1142.65 154.5000 144.9100  603.8300 6218.4800  29.4500   0.1000 
1142.75 157.0000 146.4100  608.0300 6242.6099  28.9800   0.1000 
1142.85 156.0000 146.3000  606.6700 6059.2900  29.1700   0.1100 
1142.95 155.0000 146.2000  605.3000 5875.9702  29.3500   0.1300 
1143.05 157.5000 145.7000  591.4000 5955.1001  28.8900   0.2000 
1143.15 160.0000 145.2000  577.5100 6034.2402  28.4400   0.2500 
1143.25 164.0000 145.9000  596.1000 6187.5801  27.7400   0.2400 
1143.35 168.0000 146.6100  614.6900 6340.9302  27.0800   0.2300 
1143.45 167.5000 149.2200  633.7400 6399.5298  27.1600   0.2100 
1143.55 167.0000 151.8300  652.7900 6458.1299  27.2500   0.2300 
1143.65 162.0000 150.4000  631.4400 6338.4199  28.0900   0.2300 
1143.75 157.0000 148.9800  610.0800 6218.7100  28.9800   0.2000 
1143.85 155.0000 146.8800  601.9800 6089.1299  29.3500   0.2100 
1143.95 153.0000 144.7800  593.8800 5959.5601  29.7400   0.2300 
1144.05 160.0000 146.0000  594.5000 6099.3301  28.4400   0.2000 
1144.15 167.0000 147.2200  595.1200 6239.1001  27.2500   0.0900 
1144.25 169.5000 150.8300  609.2100 6339.9399  26.8400   0.0000 
1144.35 172.0000 154.4400  623.3000 6440.7900  26.4500   0.0000 
1144.45 171.5000 156.4300  659.3200 6577.5898  26.5300   0.0000 
1144.55 171.0000 158.4100  695.3400 6714.3901  26.6100   0.0700 
1144.65 175.5000 158.7100  714.0500 6855.8198  25.9300   0.1600 
1144.75 180.0000 159.0000  732.7600 6997.2500  25.2800   0.1700 
1144.85 186.0000 158.6000  726.4700 7005.0698  24.4600   0.1600 
1144.95 192.0000 158.2000  720.1700 7012.8999  23.7000   0.1600 
1145.05 186.5000 156.4900  692.9100 6937.6401  24.4000   0.1400 
1145.15 181.0000 154.7800  665.6500 6862.3901  25.1400   0.1100 
1145.25 173.0000 153.1800  648.9600 6564.4902  26.3000   0.1000 
1145.35 165.0000 151.5900  632.2800 6266.5898  27.5800   0.1000 
1145.45 167.5000 150.4900  630.8000 6196.5400  27.1600   0.1300 
1145.55 170.0000 149.3900  629.3200 6126.4902  26.7600   0.0800 
1145.65 170.0000 150.4000  628.1300 6252.3999  26.7600   0.0000 
1145.75 170.0000 151.4100  626.9400 6378.3101  26.7600   0.0000 
1145.85 170.5000 153.7200  656.0400 6353.1802  26.6900   0.0000 
1145.95 171.0000 156.0200  685.1300 6328.0400  26.6100   0.0000 
1146.05 165.5000 156.9100  706.8700 6407.3701  27.4900   0.0000 
1146.15 160.0000 157.8000  728.6000 6486.6899  28.4400   0.0000 
1146.25 160.5000 158.7100  718.9600 6572.7100  28.3500   0.0000 
1146.35 161.0000 159.6100  709.3300 6658.7202  28.2600   0.0700 
1146.45 164.5000 159.4000  692.3700 6669.7998  27.6600   0.1200 
1146.55 168.0000 159.2000  675.4100 6680.8799  27.0800   0.0700 
1146.65 176.5000 159.5000  667.8600 6652.2402  25.7800   0.0300 
1146.75 185.0000 159.8000  660.3200 6623.6001  24.5900   0.0200 
1146.85 180.0000 159.9000  676.7300 6531.1299  25.2800   0.0000 
1146.95 175.0000 160.0000  693.1400 6438.6699  26.0000   0.0400 
1147.05 168.5000 156.3800  688.6600 6413.6401  27.0000   0.1000 
1147.15 162.0000 152.7600  684.1800 6388.6001  28.0900   0.0600 
1147.25 165.5000 151.0700  665.8100 6305.7598  27.4900   0.0000 
1147.35 169.0000 149.3900  647.4400 6222.9102  26.9200   0.0000 
1147.45 166.5000 152.8200  635.7100 6276.6499  27.3300   0.0000 
1147.55 164.0000 156.2400  623.9700 6330.3999  27.7400   0.0000 
1147.65 172.0000 157.1200  643.4600 6435.2798  26.4500   0.0000 
1147.75 180.0000 158.0000  662.9400 6540.1499  25.2800   0.0000 
1147.85 186.0000 156.7900  725.1300 6687.3198  24.4600   0.0000 
1147.95 192.0000 155.5900  787.3200 6834.5000  23.7000   0.0000 
1148.05 203.0000 159.3200  840.3000 7172.7300  22.4100   0.0000 
1148.15 214.0000 163.0500  893.2800 7510.9702  21.2600   0.0000 
1148.25 209.5000 169.2500  919.5700 7470.7100  21.7200   0.0000 
1148.35 205.0000 175.4600  945.8500 7430.4600  22.2000   0.0000 
1148.45 191.5000 177.1300  911.9200 7328.4399  23.7600   0.0000 
1148.55 178.0000 178.8000  877.9800 7226.4199  25.5600   0.0000 
1148.65 179.0000 174.8800  816.0100 7225.6201  25.4200   0.0000 
1148.75 180.0000 170.9600  754.0400 7224.8198  25.2800   0.0000 
1148.85 173.5000 167.1600  734.4500 7055.2900  26.2200   0.0000 
1148.95 167.0000 163.3700  714.8700 6885.7598  27.2500   0.0000 
1149.05 167.0000 161.8800  710.3600 6863.9702  27.2500   0.0000 
1149.15 167.0000 160.3900  705.8400 6842.1802  27.2500   0.1200 
1149.25 173.0000 158.9900  693.8900 6839.7202  26.3000   0.2000 
