~Version information
VERS.                            2.00: CWLS LAS  -  VERSION 2.00
WRAP.                              NO: One line per depth step
~Well information
#MNEM.UNIT                  DATA TYPE  INFORMATION
#===.================================:==================
STRT.M                       1062.550: First depth in file
STOP.M                       1240.950: Last depth in file
STEP.M                          0.100: Depth increment
NULL.                        -999.25 : Null values
DATE.                       25/2/2014: LOG DATE
TIME.                                : LOG TIME
WELL.                            4055: Well name
GRP.                                 : Group name
FLD.                             UZEN: Field name
ISS.                                 : Well surveys
SRVC.                        AO"UPGF": Service Company
~Curve information
#MNEM.UNIT                   API CODE   CURVE DESCRIPTION
#===.================================:==================
DEPT.M                               : Depth curve
T60 .мкс                             : Тау на зонде 60, мкс
T30 .мкс                             : Тау на зонде 30, мкс
IN60.имп/мин                         : Интегр. счет на зонде 60
IN30.имп/мин                         : Интегр. счет на зонде 30
SIGMA.                               : SIGMA
Кн  .д.е.                            : Кн (ИНГК)
#
~Other information
#------------------ REMARKS AREA -----------------------
#=======================================================
# The file is generated by the program EditKar v2003.01
#Number of Curves = 6
~A Log Data Section
# ...
1124.55 169.0000 166.0200  586.2100 6721.9302  26.9200   0.2700 
1124.65 168.0000 168.1200  573.4000 6705.1802  27.0800   0.3100 
1124.75 167.0000 170.2200  560.5900 6688.4399  27.2500   0.3100 
1124.85 165.0000 166.5900  555.8100 6530.6099  27.5800   0.3100 
1124.95 163.0000 162.9500  551.0300 6372.7798  27.9100   0.2900 
1125.05 156.5000 161.9800  558.8400 6476.2998  29.0700   0.2600 
1125.15 150.0000 161.0000  566.6500 6579.8301  30.3300   0.2500 
1125.25 155.0000 163.0100  574.3400 6663.7798  29.3500   0.2600 
1125.35 160.0000 165.0200  582.0300 6747.7300  28.4400   0.2700 
1125.45 165.0000 163.9000  577.4100 6640.1201  27.5800   0.2500 
1125.55 170.0000 162.7800  572.7900 6532.5098  26.7600   0.2200 
1125.65 174.5000 159.5800  553.6900 6489.7500  26.0700   0.1900 
1125.75 179.0000 156.3700  534.6000 6446.9902  25.4200   0.2000 
1125.85 181.0000 156.4900  530.4300 6338.5000  25.1400   0.2000 
1125.95 183.0000 156.6100  526.2600 6230.0200  24.8600   0.1900 
1126.05 183.0000 157.6100  531.5200 6258.2500  24.8600   0.1900 
1126.15 183.0000 158.6100  536.7800 6286.4902  24.8600   0.2000 
1126.25 186.5000 159.6100  546.5400 6388.3799  24.4000   0.2300 
1126.35 190.0000 160.6100  556.3000 6490.2598  23.9500   0.2400 
1126.45 190.0000 163.2200  561.0800 6569.0801  23.9500   0.2400 
1126.55 190.0000 165.8300  565.8600 6647.8999  23.9500   0.2700 
1126.65 188.5000 166.8200  564.6900 6705.0000  24.1400   0.3000 
1126.75 187.0000 167.8000  563.5200 6762.0898  24.3300   0.3000 
1126.85 183.5000 166.2900  568.5800 6688.4102  24.8000   0.2900 
1126.95 180.0000 164.7800  573.6400 6614.7402  25.2800   0.2800 
1127.05 176.0000 165.2000  575.6300 6616.4302  25.8500   0.2900 
1127.15 172.0000 165.6100  577.6200 6618.1299  26.4500   0.3200 
1127.25 168.5000 165.4000  578.2500 6584.4502  27.0000   0.3300 
1127.35 165.0000 165.2000  578.8900 6550.7700  27.5800   0.3100 
1127.45 167.5000 162.2800  574.9800 6615.0898  27.1600   0.2800 
1127.55 170.0000 159.3700  571.0800 6679.4102  26.7600   0.2700 
1127.65 177.0000 160.2900  564.6700 6714.5200  25.7100   0.2600 
1127.75 184.0000 161.2200  558.2700 6749.6401  24.7300   0.2400 
1127.85 186.5000 162.8200  562.8200 6658.5200  24.4000   0.2400 
1127.95 189.0000 164.4100  567.3800 6567.3999  24.0700   0.2600 
1128.05 185.5000 162.7000  564.8600 6629.8101  24.5300   0.2800 
1128.15 182.0000 160.9800  562.3500 6692.2300  25.0000   0.2500 
1128.25 174.5000 159.2800  557.4900 6615.6499  26.0700   0.2100 
1128.35 167.0000 157.5900  552.6200 6539.0698  27.2500   0.2000 
1128.45 172.5000 158.9000  543.8400 6547.3301  26.3800   0.2100 
1128.55 178.0000 160.2200  535.0500 6555.5898  25.5600   0.2000 
1128.65 183.5000 162.6200  525.3500 6581.2798  24.8000   0.2000 
1128.75 189.0000 165.0200  515.6600 6606.9800  24.0700   0.2000 
1128.85 189.0000 166.3200  527.3500 6503.0601  24.0700   0.1900 
1128.95 189.0000 167.6100  539.0400 6399.1499  24.0700   0.2100 
1129.05 186.5000 168.2100  543.5100 6358.1401  24.4000   0.2500 
1129.15 184.0000 168.8000  547.9700 6317.1299  24.7300   0.2700 
1129.25 181.5000 166.0900  537.5200 6039.6201  25.0700   0.2700 
1129.35 179.0000 163.3700  527.0700 5762.1201  25.4200   0.2400 
1129.45 180.5000 161.8800  532.9100 5795.1699  25.2100   0.2100 
1129.55 182.0000 160.3900  538.7600 5828.2202  25.0000   0.1600 
1129.65 186.5000 163.4100  602.9100 6305.3599  24.4000   0.0600 
1129.75 191.0000 166.4300  667.0500 6782.4902  23.8200   0.0000 
1129.85 200.0000 171.2400  732.9000 6946.0200  22.7500   0.0000 
1129.95 209.0000 176.0500  798.7500 7109.5498  21.7700   0.0000 
1130.05 207.5000 180.2400  776.2100 7083.9199  21.9300   0.0000 
1130.15 206.0000 184.4400  753.6700 7058.2798  22.0900   0.0000 
1130.25 196.5000 183.2100  697.2400 6883.3901  23.1600   0.0000 
1130.35 187.0000 181.9800  640.8000 6708.4902  24.3300   0.0000 
1130.45 181.0000 175.8600  597.5300 6688.0400  25.1400   0.0000 
1130.55 175.0000 169.7400  554.2600 6667.5898  26.0000   0.0000 
1130.65 173.5000 165.5500  540.0300 6672.2798  26.2200   0.0000 
1130.75 172.0000 161.3700  525.8100 6676.9702  26.4500   0.0900 
1130.85 173.0000 161.0900  534.5700 6545.7700  26.3000   0.1900 
1130.95 174.0000 160.8000  543.3400 6414.5601  26.1500   0.2200 
1131.05 180.5000 161.3000  539.5600 6603.9502  25.2100   0.2400 
1131.15 187.0000 161.8000  535.7800 6793.3301  24.3300   0.2500 
1131.25 183.5000 162.7100  554.9600 6763.9302  24.8000   0.2500 
1131.35 180.0000 163.6100  574.1500 6734.5400  25.2800   0.2100 
1131.45 177.0000 163.0000  591.4900 6654.5698  25.7100   0.1200 
1131.55 174.0000 162.3900  608.8300 6574.6001  26.1500   0.0300 
1131.65 175.0000 161.3900  594.9600 6593.3999  26.0000   0.0000 
1131.75 176.0000 160.3900  581.0800 6612.2002  25.8500   0.0000 
1131.85 173.0000 159.3900  576.3700 6434.0801  26.3000   0.0200 
1131.95 170.0000 158.3900  571.6600 6255.9702  26.7600   0.1000 
1132.05 168.0000 156.9900  577.8900 6136.3398  27.0800   0.2000 
1132.15 166.0000 155.5900  584.1200 6016.7100  27.4100   0.2400 
1132.25 155.5000 153.2800  571.2500 5933.5498  29.2600   0.2000 
1132.35 145.0000 150.9800  558.3800 5850.3901  31.3800   0.1500 
1132.45 145.5000 146.4600  530.0800 5790.2900  31.2700   0.0600 
1132.55 146.0000 141.9500  501.7900 5730.1899  31.1600   0.0000 
1132.65 151.5000 138.9700  482.1300 5691.6401  30.0300   0.0000 
1132.75 157.0000 135.9800  462.4700 5653.1001  28.9800   0.0000 
1132.85 154.0000 137.1000  454.5400 5539.8101  29.5500   0.0000 
1132.95 151.0000 138.2200  446.6100 5426.5200  30.1300   0.0000 
1133.05 145.5000 139.0100  442.1100 5390.8799  31.2700   0.0000 
1133.15 140.0000 139.8000  437.6100 5355.2402  32.5000   0.0000 
1133.25 141.0000 137.4900  435.7500 5283.8301  32.2700   0.0000 
1133.35 142.0000 135.1700  433.8900 5212.4102  32.0400   0.0000 
1133.45 145.0000 135.3900  434.5000 5344.8301  31.3800   0.0000 
1133.55 148.0000 135.6100  435.1200 5477.2402  30.7400   0.0000 
1133.65 150.0000 138.2200  443.1600 5607.1401  30.3300   0.0000 
1133.75 152.0000 140.8200  451.2000 5737.0400  29.9300   0.0000 
1133.85 149.5000 143.4200  475.9500 5706.6401  30.4300   0.0000 
1133.95 147.0000 146.0200  500.7000 5676.2300  30.9500   0.0200 
1134.05 152.0000 148.1200  518.9300 5910.3301  29.9300   0.0700 
1134.15 157.0000 150.2200  537.1600 6144.4199  28.9800   0.1500 
1134.25 163.0000 151.4100  539.6800 6192.1299  27.9100   0.2100 
1134.35 169.0000 152.6100  542.2100 6239.8301  26.9200   0.2200 
1134.45 169.5000 151.6000  532.0900 6155.5200  26.8400   0.1900 
1134.55 170.0000 150.5900  521.9600 6071.2100  26.7600   0.1500 
1134.65 169.5000 150.2900  529.9100 6036.2598  26.8400   0.1600 
1134.75 169.0000 150.0000  537.8700 6001.3198  26.9200   0.1700 
1134.85 168.0000 150.8000  572.2900 5946.7900  27.0800   0.0800 
1134.95 167.0000 151.6100  606.7000 5892.2500  27.2500   0.0000 
1135.05 162.0000 153.0100  624.7400 6110.7002  28.0900   0.1100 
1135.15 157.0000 154.4100  642.7800 6329.1401  28.9800   0.2200 
1135.25 164.5000 155.5100  649.1400 6412.3501  27.6600   0.2300 
1135.35 172.0000 156.6100  655.5100 6495.5498  26.4500   0.2400 
1135.45 172.5000 155.2000  649.7900 6491.7500  26.3800   0.2500 
1135.55 173.0000 153.7800  644.0600 6487.9502  26.3000   0.2800 
1135.65 166.0000 152.9900  630.6500 6402.0601  27.4100   0.3000 
1135.75 159.0000 152.2000  617.2400 6316.1802  28.6200   0.1500 
1135.85 163.5000 152.1000  611.2900 6090.1602  27.8300   0.0000 
1135.95 168.0000 152.0000  605.3500 5864.1499  27.0800   0.1300 
1136.05 164.0000 151.6000  606.5100 6003.7402  27.7400   0.2700 
1136.15 160.0000 151.2000  607.6800 6143.3301  28.4400   0.2700 
1136.25 160.5000 152.3000  629.2200 6177.5898  28.3500   0.2900 
1136.35 161.0000 153.4100  650.7500 6211.8398  28.2600   0.2900 
1136.45 163.5000 152.5000  664.1600 6180.7300  27.8300   0.2500 
1136.55 166.0000 151.5900  677.5700 6149.6201  27.4100   0.2200 
1136.65 170.5000 150.0900  657.5000 6177.5801  26.6900   0.2200 
1136.75 175.0000 148.5900  637.4200 6205.5298  26.0000   0.1100 
1136.85 175.5000 147.0900  619.1400 5991.8198  25.9300   0.0000 
