~Version information
VERS.                            2.00: CWLS LAS  -  VERSION 2.00
WRAP.                              NO: One line per depth step
~Well information
#MNEM.UNIT                  DATA TYPE  INFORMATION
#===.================================:==================
STRT.M                       1062.550: First depth in file
STOP.M                       1240.950: Last depth in file
STEP.M                          0.100: Depth increment
NULL.                        -999.25 : Null values
DATE.                       25/2/2014: LOG DATE
TIME.                                : LOG TIME
WELL.                            4055: Well name
GRP.                                 : Group name
FLD.                             UZEN: Field name
ISS.                                 : Well surveys
SRVC.                        AO"UPGF": Service Company
~Curve information
#MNEM.UNIT                   API CODE   CURVE DESCRIPTION
#===.================================:==================
DEPT.M                               : Depth curve
T60 .мкс                             : Тау на зонде 60, мкс
T30 .мкс                             : Тау на зонде 30, мкс
IN60.имп/мин                         : Интегр. счет на зонде 60
IN30.имп/мин                         : Интегр. счет на зонде 30
SIGMA.                               : SIGMA
Кн  .д.е.                            : Кн (ИНГК)
#
~Other information
#------------------ REMARKS AREA -----------------------
#=======================================================
# The file is generated by the program EditKar v2003.01
#Number of Curves = 6
~A Log Data Section
# ...
1087.35 183.0000 159.4900  594.8400 6327.6699  24.8600  -999.25 
1087.45 172.0000 162.8500  553.8900 6002.5298  26.4500  -999.25 
1087.55 161.0000 166.2200  512.9400 5677.3999  28.2600  -999.25 
1087.65 148.0000 154.1400  445.5600 5245.9302  30.7400  -999.25 
1087.75 135.0000 142.0700  378.1800 4814.4702  33.7000  -999.25 
1087.85 137.5000 132.2000  366.7300 4685.1099  33.0900  -999.25 
1087.95 140.0000 122.3200  355.2900 4555.7500  32.5000  -999.25 
1088.05 139.5000 121.8700  364.2200 4587.3599  32.6200  -999.25 
1088.15 139.0000 121.4100  373.1400 4618.9702  32.7300  -999.25 
1088.25 124.5000 122.9100  373.9300 4665.6699  36.5500  -999.25 
1088.35 110.0000 124.4100  374.7200 4712.3599  41.3600  -999.25 
1088.45 109.5000 123.1000  363.5800 4712.5801  41.5500  -999.25 
1088.55 109.0000 121.7800  352.4400 4712.7998  41.7400  -999.25 
1088.65 115.5000 120.9900  338.9600 4661.4502  39.3900  -999.25 
1088.75 122.0000 120.2000  325.4800 4610.1001  37.3000  -999.25 
1088.85 120.5000 120.5000  315.3400 4488.5200  37.7600  -999.25 
1088.95 119.0000 120.8000  305.1900 4366.9399  38.2400  -999.25 
1089.05 118.5000 118.4900  294.6000 4318.4902  38.4000  -999.25 
1089.15 118.0000 116.1700  284.0000 4270.0400  38.5600  -999.25 
1089.25 119.5000 114.3800  290.6000 4213.2900  38.0800  -999.25 
1089.35 121.0000 112.5900  297.2000 4156.5298  37.6000  -999.25 
1089.45 121.0000 112.7000  306.9700 4115.5200  37.6000  -999.25 
1089.55 121.0000 112.8000  316.7400 4074.5100  37.6000  -999.25 
1089.65 126.5000 112.5000  312.4200 4095.9299  35.9700  -999.25 
1089.75 132.0000 112.2000  308.1100 4117.3398  34.4700  -999.25 
1089.85 125.5000 111.2900  304.4300 4044.5701  36.2500  -999.25 
1089.95 119.0000 110.3900  300.7500 3971.8000  38.2400  -999.25 
1090.05 113.5000 110.2000  307.7800 3946.0200  40.0900   0.0000 
1090.15 108.0000 110.0000  314.8100 3920.2400  42.1300   0.0000 
1090.25 112.0000 110.8000  322.5800 3948.5300  40.6300   0.0000 
1090.35 116.0000 111.6100  330.3400 3976.8201  39.2200   0.0000 
1090.45 117.0000 110.6000  316.0700 4164.7402  38.8900   0.0000 
1090.55 118.0000 109.5900  301.7900 4352.6499  38.5600   0.0000 
1090.65 111.0000 109.2900  290.4100 4344.6401  40.9900   0.0000 
1090.75 104.0000 109.0000  279.0300 4336.6299  43.7500   0.0000 
1090.85 105.5000 109.0000  290.1000 4153.6899  43.1300   0.0000 
1090.95 107.0000 109.0000  301.1600 3970.7500  42.5200   0.0000 
1091.05 114.5000 110.2100  304.8200 3988.1499  39.7400   0.0000 
1091.15 122.0000 111.4100  308.4800 4005.5400  37.3000   0.0000 
1091.25 125.0000 111.7100  303.2300 4021.1001  36.4000   0.0000 
1091.35 128.0000 112.0000  297.9800 4036.6599  35.5500   0.0000 
1091.45 124.5000 111.2000  293.0400 4111.3701  36.5500   0.0000 
1091.55 121.0000 110.3900  288.1000 4186.0898  37.6000   0.0000 
1091.65 117.0000 109.3900  287.6300 4168.6099  38.8900   0.0000 
1091.75 113.0000 108.3900  287.1500 4151.1401  40.2700   0.0000 
1091.85 113.0000 109.4000  296.4700 4009.6101  40.2700   0.0000 
1091.95 113.0000 110.4100  305.7800 3868.0901  40.2700   0.0000 
1092.05 113.5000 110.3000  305.7400 3852.5300  40.0900   0.0000 
1092.15 114.0000 110.2000  305.7000 3836.9600  39.9100   0.0000 
1092.25 116.0000 110.5000  295.7800 3879.7100  39.2200   0.0000 
1092.35 118.0000 110.8000  285.8700 3922.4600  38.5600   0.0000 
1092.45 121.0000 110.1000  286.6300 3933.0000  37.6000   0.0000 
1092.55 124.0000 109.3900  287.3900 3943.5400  36.6900   0.0000 
1092.65 121.5000 107.9900  289.8200 3963.0400  37.4500   0.0000 
1092.75 119.0000 106.5900  292.2500 3982.5300  38.2400   0.0000 
1092.85 112.5000 107.9000  296.5200 3985.0701  40.4400   0.0000 
1092.95 106.0000 109.2200  300.7900 3987.6101  42.9200   0.0000 
1093.05 107.5000 110.4100  309.4600 4027.2300  42.3300   0.0000 
1093.15 109.0000 111.6100  318.1300 4066.8401  41.7400   0.0000 
1093.25 119.0000 111.8000  318.6900 4083.8899  38.2400   0.0000 
1093.35 129.0000 112.0000  319.2500 4100.9502  35.2700   0.0000 
1093.45 134.0000 114.0100  318.0600 4136.2598  33.9600   0.0000 
1093.55 139.0000 116.0200  316.8700 4171.5698  32.7300   0.0000 
1093.65 128.0000 116.1100  319.8900 4240.7798  35.5500   0.0000 
1093.75 117.0000 116.2000  322.9100 4309.9902  38.8900   0.0000 
1093.85 113.5000 114.4900  330.2100 4284.3301  40.0900   0.0000 
1093.95 110.0000 112.7800  337.5100 4258.6802  41.3600   0.0000 
1094.05 114.0000 113.2000  338.1900 4302.4102  39.9100   0.0000 
1094.15 118.0000 113.6100  338.8700 4346.1299  38.5600   0.0000 
1094.25 116.0000 113.8000  336.6200 4329.2598  39.2200   0.0000 
1094.35 114.0000 114.0000  334.3600 4312.3901  39.9100   0.0000 
1094.45 123.0000 114.0000  328.6000 4333.2598  36.9900   0.0000 
1094.55 132.0000 114.0000  322.8400 4354.1201  34.4700   0.0000 
1094.65 131.0000 115.2100  318.0500 4350.3301  34.7300   0.0000 
1094.75 130.0000 116.4100  313.2600 4346.5400  35.0000   0.0000 
1094.85 133.0000 116.7100  309.6700 4260.0200  34.2100   0.0000 
1094.95 136.0000 117.0000  306.0800 4173.5000  33.4600   0.0000 
1095.05 134.5000 116.6000  301.5600 4254.1802  33.8300   0.0000 
1095.15 133.0000 116.2000  297.0400 4334.8701  34.2100   0.0000 
1095.25 127.0000 116.9000  308.1000 4342.5400  35.8300   0.0000 
1095.35 121.0000 117.6100  319.1600 4350.2100  37.6000   0.0000 
1095.45 133.0000 118.6100  317.3600 4381.8398  34.2100   0.0000 
1095.55 145.0000 119.6100  315.5600 4413.4600  31.3800   0.0000 
1095.65 140.5000 119.8000  300.7100 4302.4902  32.3800   0.0000 
1095.75 136.0000 120.0000  285.8600 4191.5298  33.4600   0.0000 
1095.85 138.5000 117.5900  286.2000 4002.3501  32.8500   0.0000 
1095.95 141.0000 115.1700  286.5300 3813.1699  32.2700   0.0000 
1096.05 138.0000 115.7900  298.7900 3952.6699  32.9700   0.0000 
1096.15 135.0000 116.4100  311.0500 4092.1799  33.7000   0.0000 
1096.25 133.0000 117.1100  321.0300 4217.5498  34.2100   0.0000 
1096.35 131.0000 117.8000  331.0000 4342.9199  34.7300   0.0000 
1096.45 126.0000 116.7000  328.1700 4388.9600  36.1100   0.0000 
1096.55 121.0000 115.5900  325.3500 4435.0000  37.6000   0.0000 
1096.65 119.5000 114.4900  316.1600 4451.4702  38.0800   0.0000 
1096.75 118.0000 113.3900  306.9700 4467.9399  38.5600   0.0000 
1096.85 112.5000 112.3900  300.2400 4326.8799  40.4400   0.0000 
1096.95 107.0000 111.3900  293.5100 4185.8198  42.5200   0.0000 
1097.05 108.5000 110.7900  300.2200 4124.6899  41.9400   0.0000 
1097.15 110.0000 110.2000  306.9200 4063.5500  41.3600   0.0000 
1097.25 116.5000 112.1100  321.2400 4090.1101  39.0600   0.0000 
1097.35 123.0000 114.0200  335.5600 4116.6699  36.9900   0.0000 
1097.45 132.0000 116.9300  362.1700 4285.1201  34.4700   0.0000 
1097.55 141.0000 119.8300  388.7800 4453.5601  32.2700   0.0000 
1097.65 152.5000 122.8300  446.2500 4786.3701  29.8400   0.0000 
1097.75 164.0000 125.8200  503.7100 5119.1802  27.7400   0.0000 
1097.85 163.0000 133.6500  556.0700 5433.2402  27.9100   0.0000 
1097.95 162.0000 141.4800  608.4300 5747.3101  28.0900   0.0000 
1098.05 159.5000 144.4500  598.3700 5813.1099  28.5300   0.0000 
1098.15 157.0000 147.4100  588.3200 5878.9102  28.9800   0.0000 
1098.25 149.0000 142.0700  531.6600 5473.0801  30.5400   0.0000 
1098.35 141.0000 136.7300  475.0000 5067.2500  32.2700   0.0000 
1098.45 138.5000 130.5400  422.5000 4780.1001  32.8500   0.0000 
1098.55 136.0000 124.3400  370.0000 4492.9502  33.4600   0.0000 
1098.65 137.5000 120.7600  348.2600 4431.1201  33.0900   0.0000 
1098.75 139.0000 117.1800  326.5200 4369.2798  32.7300   0.0000 
1098.85 136.0000 116.5900  327.4300 4308.2500  33.4600   0.0000 
1098.95 133.0000 116.0000  328.3500 4247.2202  34.2100   0.0000 
1099.05 132.0000 116.8000  326.5000 4336.1802  34.4700   0.0000 
1099.15 131.0000 117.6100  324.6500 4425.1499  34.7300   0.0000 
1099.25 135.0000 117.4000  334.4200 4447.0601  33.7000   0.0000 
1099.35 139.0000 117.2000  344.1800 4468.9702  32.7300   0.0000 
1099.45 138.5000 119.9100  358.0500 4691.7598  32.8500   0.0000 
1099.55 138.0000 122.6300  371.9200 4914.5498  32.9700   0.0000 
1099.65 141.5000 128.9500  386.2300 5197.6602  32.1600   0.0000 
