~Version information
VERS.                            2.00: CWLS LAS  -  VERSION 2.00
WRAP.                              NO: One line per depth step
~Well information
#MNEM.UNIT                  DATA TYPE  INFORMATION
#===.================================:==================
STRT.M                       1062.550: First depth in file
STOP.M                       1240.950: Last depth in file
STEP.M                          0.100: Depth increment
NULL.                        -999.25 : Null values
DATE.                       25/2/2014: LOG DATE
TIME.                                : LOG TIME
WELL.                            4055: Well name
GRP.                                 : Group name
FLD.                             UZEN: Field name
ISS.                                 : Well surveys
SRVC.                        AO"UPGF": Service Company
~Curve information
#MNEM.UNIT                   API CODE   CURVE DESCRIPTION
#===.================================:==================
DEPT.M                               : Depth curve
T60 .мкс                             : Тау на зонде 60, мкс
T30 .мкс                             : Тау на зонде 30, мкс
IN60.имп/мин                         : Интегр. счет на зонде 60
IN30.имп/мин                         : Интегр. счет на зонде 30
SIGMA.                               : SIGMA
Кн  .д.е.                            : Кн (ИНГК)
#
~Other information
#------------------ REMARKS AREA -----------------------
#=======================================================
# The file is generated by the program EditKar v2003.01
#Number of Curves = 6
~A Log Data Section
# ...
1174.15 144.0000 119.4100  421.5300 4683.8799  31.6000   0.0000 
1174.25 149.0000 120.5100  439.2700 4552.8398  30.5400   0.0000 
1174.35 154.0000 121.6100  457.0000 4421.8101  29.5500   0.0000 
1174.45 159.5000 126.6300  485.7900 4695.2300  28.5300   0.0000 
1174.55 165.0000 131.6600  514.5900 4968.6602  27.5800   0.0000 
1174.65 156.0000 136.0400  532.3000 5283.4502  29.1700   0.0000 
1174.75 147.0000 140.4300  550.0100 5598.2300  30.9500   0.0600 
1174.85 144.0000 140.0100  549.3000 5445.6099  31.6000   0.1600 
1174.95 141.0000 139.5900  548.6000 5292.9902  32.2700   0.2000 
1175.05 142.5000 138.4900  540.2800 5231.0601  31.9300   0.1600 
1175.15 144.0000 137.3900  531.9700 5169.1299  31.6000   0.1300 
1175.25 144.5000 138.0000  525.8600 5128.7300  31.4900   0.0600 
1175.35 145.0000 138.6100  519.7400 5088.3198  31.3800   0.0000 
1175.45 144.5000 136.7900  517.4900 5126.5698  31.4900   0.0000 
1175.55 144.0000 134.9800  515.2500 5164.8101  31.6000   0.0000 
1175.65 140.5000 133.2800  515.1900 5167.2100  32.3800   0.0000 
1175.75 137.0000 131.5900  515.1300 5169.6099  33.2100   0.0000 
1175.85 138.0000 130.0900  508.3400 4920.6401  32.9700   0.0000 
1175.95 139.0000 128.5900  501.5600 4671.6802  32.7300   0.0000 
1176.05 133.5000 125.4800  479.9300 4444.4102  34.0800   0.0000 
1176.15 128.0000 122.3700  458.3000 4217.1499  35.5500   0.0000 
1176.25 121.0000 118.8700  429.7000 4053.0701  37.6000   0.0000 
1176.35 114.0000 115.3700  401.1000 3889.0000  39.9100   0.0000 
1176.45 108.0000 111.4600  366.0000 3783.6299  42.1300   0.0000 
1176.55 102.0000 107.5600  330.8900 3678.2600  44.6100   0.0000 
1176.65 106.0000 106.3800  323.5600 3551.5300  42.9200   0.0000 
1176.75 110.0000 105.2000  316.2200 3424.8101  41.3600   0.0000 
1176.85 112.0000 106.7100  343.3300 3465.7300  40.6300   0.0000 
1176.95 114.0000 108.2200  370.4300 3506.6599  39.9100   0.0000 
1177.05 114.5000 109.0100  374.8800 3742.0701  39.7400   0.0000 
1177.15 115.0000 109.8000  379.3200 3977.4800  39.5700   0.0000 
1177.25 115.5000 109.1000  370.4200 3959.2500  39.3900   0.0000 
1177.35 116.0000 108.3900  361.5100 3941.0200  39.2200   0.0000 
1177.45 111.5000 108.6000  364.6400 3859.0701  40.8100   0.0000 
1177.55 107.0000 108.8000  367.7700 3777.1201  42.5200   0.0000 
1177.65 111.5000 109.3000  370.7000 3769.4199  40.8100   0.0000 
1177.75 116.0000 109.8000  373.6200 3761.7200  39.2200   0.0000 
1177.85 117.0000 107.8900  372.7500 3639.5400  38.8900   0.0000 
1177.95 118.0000 105.9800  371.8700 3517.3601  38.5600   0.0000 
1178.05 115.0000 103.8800  366.6000 3517.1299  39.5700   0.0000 
1178.15 112.0000 101.7800  361.3400 3516.9099  40.6300   0.0000 
1178.25 109.0000 102.2000  354.3600 3481.2800  41.7400   0.0000 
1178.35 106.0000 102.6100  347.3800 3445.6499  42.9200   0.0000 
1178.45 108.0000 104.0100  353.3400 3460.2100  42.1300   0.0000 
1178.55 110.0000 105.4100  359.3000 3474.7700  41.3600   0.0000 
1178.65 109.0000 106.5100  367.1400 3697.8101  41.7400   0.0000 
1178.75 108.0000 107.6100  374.9900 3920.8501  42.1300   0.0000 
1178.85 113.0000 108.6100  365.9000 3874.9299  40.2700   0.0000 
1178.95 118.0000 109.6100  356.8200 3829.0100  38.5600   0.0000 
1179.05 114.5000 110.2100  350.8000 3709.2000  39.7400   0.0000 
1179.15 111.0000 110.8000  344.7900 3589.3899  40.9900   0.0000 
1179.25 109.5000 109.7000  360.6300 3601.7400  41.5500   0.0000 
1179.35 108.0000 108.5900  376.4600 3614.0801  42.1300   0.0000 
1179.45 115.0000 108.7000  385.2700 3725.9399  39.5700   0.0000 
1179.55 122.0000 108.8000  394.0900 3837.8000  37.3000   0.0000 
1179.65 128.0000 108.9000  396.7700 3935.8799  35.5500   0.0000 
1179.75 134.0000 109.0000  399.4500 4033.9600  33.9600   0.0000 
1179.85 135.0000 111.0100  419.4300 4144.3999  33.7000   0.0000 
1179.95 136.0000 113.0200  439.4200 4254.8398  33.4600   0.0000 
1180.05 135.5000 114.7200  448.1500 4432.0200  33.5800   0.0000 
1180.15 135.0000 116.4100  456.8800 4609.2100  33.7000   0.0000 
1180.25 133.5000 116.7100  466.7400 4648.4502  34.0800   0.0000 
1180.35 132.0000 117.0000  476.5900 4687.6899  34.4700   0.0000 
1180.45 132.5000 119.0100  491.6100 4869.7300  34.3400   0.0000 
1180.55 133.0000 121.0200  506.6400 5051.7598  34.2100   0.0000 
1180.65 136.5000 124.7300  515.7800 5168.7900  33.3300   0.0000 
1180.75 140.0000 128.4300  524.9300 5285.8301  32.5000   0.0000 
1180.85 149.5000 133.6400  550.2100 5360.1802  30.4300   0.0000 
1180.95 159.0000 138.8500  575.5000 5434.5298  28.6200   0.0000 
1181.05 160.0000 144.7500  609.9300 5788.3799  28.4400   0.0000 
1181.15 161.0000 150.6600  644.3500 6142.2202  28.2600   0.1100 
1181.25 158.5000 154.2400  662.5500 6217.4600  28.7100   0.2500 
1181.35 156.0000 157.8300  680.7400 6292.6899  29.1700   0.2900 
1181.45 165.0000 158.8200  677.9300 6239.3398  27.5800   0.3000 
1181.55 174.0000 159.8000  675.1200 6185.9800  26.1500   0.3000 
1181.65 173.0000 162.3100  687.1100 6324.7402  26.3000   0.3200 
1181.75 172.0000 164.8200  699.1000 6463.5098  26.4500   0.3600 
1181.85 173.5000 165.8100  720.2300 6531.5801  26.2200   0.3700 
1181.95 175.0000 166.8000  741.3600 6599.6602  26.0000   0.3900 
1182.05 182.0000 167.3000  737.3000 6633.2900  25.0000   0.4100 
1182.15 189.0000 167.8000  733.2300 6666.9199  24.0700   0.4100 
1182.25 188.0000 168.3000  731.4400 6618.0801  24.2000   0.4200 
1182.35 187.0000 168.8000  729.6400 6569.2500  24.3300   0.4100 
1182.45 180.5000 166.4900  719.9500 6587.0098  25.2100   0.4100 
1182.55 174.0000 164.1700  710.2700 6604.7700  26.1500   0.4000 
1182.65 169.5000 163.1800  691.5800 6671.0000  26.8400   0.4000 
1182.75 165.0000 162.2000  672.8800 6737.2300  27.5800   0.3900 
1182.85 156.5000 158.4800  666.3400 6404.6602  29.0700   0.3800 
1182.95 148.0000 154.7600  659.8000 6072.0801  30.7400   0.3300 
1183.05 142.0000 143.4200  636.6100 5600.0601  32.0400   0.1400 
1183.15 136.0000 132.0800  613.4100 5128.0498  33.4600   0.0000 
1183.25 134.5000 127.1300  597.3900 5024.0000  33.8300   0.0000 
1183.35 133.0000 122.1700  581.3800 4919.9502  34.2100   0.0000 
1183.45 132.0000 124.8000  570.2000 5034.1201  34.4700   0.0000 
1183.55 131.0000 127.4400  559.0200 5148.2900  34.7300   0.0000 
1183.65 133.5000 130.2300  545.4700 5035.1899  34.0800   0.0000 
1183.75 136.0000 133.0200  531.9200 4922.0898  33.4600   0.0000 
1183.85 133.0000 133.1100  545.4800 4777.9302  34.2100   0.0000 
1183.95 130.0000 133.2000  559.0400 4633.7598  35.0000   0.0000 
1184.05 132.0000 130.6800  561.6200 4814.0898  34.4700   0.0000 
1184.15 134.0000 128.1700  564.2100 4994.4199  33.9600   0.0000 
1184.25 134.5000 129.2000  564.9600 5176.8901  33.8300   0.0000 
1184.35 135.0000 130.2200  565.7200 5359.3701  33.7000   0.0000 
1184.45 139.0000 135.8400  576.4100 5501.9302  32.7300   0.0000 
1184.55 143.0000 141.4600  587.0900 5644.4800  31.8200   0.0000 
1184.65 146.9500 143.1300  576.4000 5658.1001  30.9600   0.0000 
1184.75 150.9000 144.8000  565.7200 5671.7202  30.1500   0.0000 
1184.85 146.7200 142.0900  548.5000 5485.0298  31.0100   0.0000 
1184.95 142.5400 139.3700  531.2800 5298.3501  31.9200   0.0000 
1185.05 140.0500 136.6700  500.5800 5134.1802  32.4900   0.0000 
1185.15 137.5600 133.9800  469.8800 4970.0098  33.0800   0.0000 
1185.25 133.4100 129.0600  438.3900 4668.0498  34.1100   0.0000 
1185.35 129.2600 124.1500  406.9000 4366.0898  35.2000   0.0000 
1185.45 124.3300 120.6600  394.7800 4235.3901  36.6000   0.0000 
1185.55 119.4000 117.1700  382.6500 4104.7002  38.1100   0.0000 
1185.65 124.2900 117.3900  400.6900 4255.3301  36.6100   0.0000 
1185.75 129.1700 117.6100  418.7300 4405.9502  35.2200   0.0000 
1185.85 133.9600 119.4100  450.0900 4496.8799  33.9700   0.0000 
1185.95 138.7400 121.2200  481.4600 4587.7998  32.7900   0.0000 
1186.05 140.2300 123.6200  508.4100 4732.1201  32.4500   0.0000 
1186.15 141.7200 126.0200  535.3500 4876.4399  32.1100   0.0000 
1186.25 137.5600 128.5200  556.9400 4977.7100  33.0800   0.0000 
1186.35 133.4000 131.0200  578.5200 5078.9800  34.1100   0.0000 
1186.45 132.2400 132.3200  581.3200 5178.5098  34.4100   0.0000 
