~Version information
VERS.                            2.00: CWLS LAS  -  VERSION 2.00
WRAP.                              NO: One line per depth step
~Well information
#MNEM.UNIT                  DATA TYPE  INFORMATION
#===.================================:==================
STRT.M                       1062.550: First depth in file
STOP.M                       1240.950: Last depth in file
STEP.M                          0.100: Depth increment
NULL.                        -999.25 : Null values
DATE.                       25/2/2014: LOG DATE
TIME.                                : LOG TIME
WELL.                            4055: Well name
GRP.                                 : Group name
FLD.                             UZEN: Field name
ISS.                                 : Well surveys
SRVC.                        AO"UPGF": Service Company
~Curve information
#MNEM.UNIT                   API CODE   CURVE DESCRIPTION
#===.================================:==================
DEPT.M                               : Depth curve
T60 .мкс                             : Тау на зонде 60, мкс
T30 .мкс                             : Тау на зонде 30, мкс
IN60.имп/мин                         : Интегр. счет на зонде 60
IN30.имп/мин                         : Интегр. счет на зонде 30
SIGMA.                               : SIGMA
Кн  .д.е.                            : Кн (ИНГК)
#
~Other information
#------------------ REMARKS AREA -----------------------
#=======================================================
# The file is generated by the program EditKar v2003.01
#Number of Curves = 6
~A Log Data Section
1062.55 112.0000  -999.25   -999.25   -999.25  40.6300  -999.25 
1062.65 118.5000  -999.25   -999.25   -999.25  38.4000  -999.25 
1062.75 125.0000  -999.25  308.8600   -999.25  36.4000  -999.25 
1062.85 129.5000  -999.25  303.9200   -999.25  35.1400  -999.25 
1062.95 134.0000  -999.25  298.9900 4043.9800  33.9600  -999.25 
1063.05 124.5000  -999.25  301.5800 4052.6899  36.5500  -999.25 
1063.15 115.0000 112.3900  304.1700 4061.3999  39.5700  -999.25 
1063.25 112.5000 110.9900  316.3600 4021.2200  40.4400  -999.25 
1063.35 110.0000 109.5900  328.5400 3981.0400  41.3600  -999.25 
1063.45 112.5000 110.1000  332.7000 3996.9800  40.4400  -999.25 
1063.55 115.0000 110.6100  336.8600 4012.9199  39.5700  -999.25 
1063.65 126.5000 112.0100  345.2900 4192.8999  35.9700  -999.25 
1063.75 138.0000 113.4100  353.7200 4372.8901  32.9700  -999.25 
1063.85 144.5000 119.3400  371.2900 4587.5200  31.4900  -999.25 
1063.95 151.0000 125.2600  388.8600 4802.1401  30.1300  -999.25 
1064.05 144.0000 127.4400  372.2400 4608.6099  31.6000  -999.25 
1064.15 137.0000 129.6100  355.6300 4415.0801  33.2100  -999.25 
1064.25 127.0000 126.1800  330.9900 4170.0000  35.8300  -999.25 
1064.35 117.0000 122.7600  306.3400 3924.9199  38.8900  -999.25 
1064.45 116.0000 119.0600  300.9200 4082.8201  39.2200  -999.25 
1064.55 115.0000 115.3700  295.4900 4240.7202  39.5700  -999.25 
1064.65 122.5000 113.8800  301.9600 4276.2402  37.1400  -999.25 
1064.75 130.0000 112.3900  308.4300 4311.7500  35.0000  -999.25 
1064.85 136.0000 113.4000  322.9100 4338.4302  33.4600  -999.25 
1064.95 142.0000 114.4100  337.3900 4365.1099  32.0400  -999.25 
1065.05 141.0000 115.5100  342.4600 4483.0601  32.2700  -999.25 
1065.15 140.0000 116.6100  347.5200 4601.0000  32.5000  -999.25 
1065.25 136.0000 117.6100  356.5400 4604.7002  33.4600  -999.25 
1065.35 132.0000 118.6100  365.5600 4608.3901  34.4700  -999.25 
1065.45 132.0000 119.2100  380.3100 4697.2202  34.4700  -999.25 
1065.55 132.0000 119.8000  395.0500 4786.0400  34.4700  -999.25 
1065.65 133.0000 124.3300  422.5300 5094.3198  34.2100  -999.25 
1065.75 134.0000 128.8500  450.0100 5402.6001  33.9600  -999.25 
1065.85 138.5000 133.1400  477.6900 5537.9102  32.8500  -999.25 
1065.95 143.0000 137.4400  505.3600 5673.2202  31.8200  -999.25 
1066.05 143.0000 135.0000  488.4900 5553.0098  31.8200  -999.25 
1066.15 143.0000 132.5600  471.6200 5432.7998  31.8200  -999.25 
1066.25 139.0000 128.5600  439.3900 5223.9302  32.7300  -999.25 
1066.35 135.0000 124.5600  407.1600 5015.0601  33.7000  -999.25 
1066.45 132.5000 121.7700  389.7500 4868.0000  34.3400  -999.25 
1066.55 130.0000 118.9800  372.3400 4720.9302  35.0000  -999.25 
1066.65 125.5000 118.8900  362.7200 4606.4800  36.2500  -999.25 
1066.75 121.0000 118.8000  353.1100 4492.0298  37.6000  -999.25 
1066.85 117.5000 118.5000  342.0800 4322.2798  38.7200  -999.25 
1066.95 114.0000 118.2000  331.0600 4152.5400  39.9100  -999.25 
1067.05 111.5000 116.8900  315.9500 4142.7798  40.8100  -999.25 
1067.15 109.0000 115.5900  300.8400 4133.0298  41.7400  -999.25 
1067.25 117.0000 114.4900  294.7300 4104.0400  38.8900  -999.25 
1067.35 125.0000 113.3900  288.6200 4075.0601  36.4000  -999.25 
1067.45 120.5000 111.1800  288.8800 4055.0801  37.7600  -999.25 
1067.55 116.0000 108.9800  289.1300 4035.1101  39.2200  -999.25 
1067.65 116.0000 108.0900  289.8800 4063.4299  39.2200  -999.25 
1067.75 116.0000 107.2000  290.6200 4091.7600  39.2200  -999.25 
1067.85 123.5000 107.1000  290.8800 4027.0901  36.8400  -999.25 
1067.95 131.0000 107.0000  291.1300 3962.4199  34.7300  -999.25 
1068.05 134.0000 109.0100  299.4100 4037.0701  33.9600  -999.25 
1068.15 137.0000 111.0200  307.6900 4111.7100  33.2100  -999.25 
1068.25 132.0000 113.5200  324.5600 4251.2998  34.4700  -999.25 
1068.35 127.0000 116.0200  341.4300 4390.8901  35.8300  -999.25 
1068.45 123.0000 117.3200  346.2000 4480.7998  36.9900  -999.25 
1068.55 119.0000 118.6100  350.9700 4570.7002  38.2400  -999.25 
1068.65 130.0000 118.0000  349.0000 4549.1602  35.0000  -999.25 
1068.75 141.0000 117.3900  347.0200 4527.6299  32.2700  -999.25 
1068.85 146.5000 117.2000  356.3400 4560.1802  31.0600  -999.25 
1068.95 152.0000 117.0000  365.6600 4592.7402  29.9300  -999.25 
1069.05 146.0000 119.4100  378.2900 4741.7002  31.1600  -999.25 
1069.15 140.0000 121.8300  390.9200 4890.6499  32.5000  -999.25 
1069.25 132.0000 122.8200  399.4000 4843.6201  34.4700  -999.25 
1069.35 124.0000 123.8000  407.8700 4796.5801  36.6900  -999.25 
1069.45 127.0000 122.7000  400.5300 4750.7100  35.8300  -999.25 
1069.55 130.0000 121.5900  393.1900 4704.8398  35.0000  -999.25 
1069.65 133.5000 120.4900  389.7500 4766.1802  34.0800  -999.25 
1069.75 137.0000 119.3900  386.3100 4827.5098  33.2100  -999.25 
1069.85 138.5000 120.8100  398.1500 4830.5698  32.8500  -999.25 
1069.95 140.0000 122.2200  410.0000 4833.6201  32.5000  -999.25 
1070.05 152.5000 122.6100  420.7400 4936.9600  29.8400  -999.25 
1070.15 165.0000 123.0000  431.4700 5040.2998  27.5800  -999.25 
1070.25 161.0000 125.8200  476.3800 5284.5801  28.2600  -999.25 
1070.35 157.0000 128.6300  521.3000 5528.8599  28.9800  -999.25 
1070.45 155.5000 136.5600  563.5100 5891.9502  29.2600  -999.25 
1070.55 154.0000 144.4800  605.7300 6255.0400  29.5500  -999.25 
1070.65 160.0000 147.4500  587.2500 6237.0400  28.4400  -999.25 
1070.75 166.0000 150.4100  568.7700 6219.0498  27.4100  -999.25 
1070.85 160.0000 145.8800  540.1100 5945.2500  28.4400  -999.25 
1070.95 154.0000 141.3400  511.4500 5671.4502  29.5500  -999.25 
1071.05 150.5000 140.1700  497.2600 5601.5801  30.2300  -999.25 
1071.15 147.0000 139.0000  483.0800 5531.7202  30.9500  -999.25 
1071.25 140.5000 136.1800  468.7600 5321.7300  32.3800  -999.25 
1071.35 134.0000 133.3700  454.4400 5111.7402  33.9600  -999.25 
1071.45 131.0000 129.0600  443.2700 4980.0601  34.7300  -999.25 
1071.55 128.0000 124.7600  432.1000 4848.3799  35.5500  -999.25 
1071.65 144.5000 123.8800  433.7000 4950.9199  31.4900  -999.25 
1071.75 161.0000 123.0000  435.2900 5053.4502  28.2600  -999.25 
1071.85 169.5000 128.6300  455.9500 5254.3101  26.8400  -999.25 
1071.95 178.0000 134.2600  476.6000 5455.1602  25.5600  -999.25 
1072.05 168.5000 141.2600  497.0000 5629.7300  27.0000  -999.25 
1072.15 159.0000 148.2600  517.3900 5804.2900  28.6200  -999.25 
1072.25 149.0000 148.0200  510.2000 5673.8901  30.5400  -999.25 
1072.35 139.0000 147.7800  503.0200 5543.5000  32.7300  -999.25 
1072.45 138.0000 140.5500  478.4100 5368.1899  32.9700  -999.25 
1072.55 137.0000 133.3200  453.8000 5192.8901  33.2100  -999.25 
1072.65 135.5000 129.6500  440.0200 5074.6602  33.5800  -999.25 
1072.75 134.0000 125.9800  426.2500 4956.4302  33.9600  -999.25 
1072.85 130.5000 126.7000  423.1800 4841.9102  34.8700  -999.25 
1072.95 127.0000 127.4100  420.1000 4727.3901  35.8300  -999.25 
1073.05 126.0000 127.7100  419.4400 4838.7300  36.1100  -999.25 
1073.15 125.0000 128.0000  418.7800 4950.0801  36.4000  -999.25 
1073.25 122.5000 128.4000  417.9800 4923.8501  37.1400  -999.25 
1073.35 120.0000 128.8000  417.1800 4897.6201  37.9200  -999.25 
1073.45 123.5000 126.4900  390.0200 4676.8999  36.8400  -999.25 
1073.55 127.0000 124.1700  362.8500 4456.1699  35.8300  -999.25 
1073.65 128.5000 122.3800  337.1200 4205.4199  35.4100  -999.25 
1073.75 130.0000 120.5900  311.3900 3954.6699  35.0000  -999.25 
1073.85 131.0000 120.7000  316.2700 3968.3999  34.7300  -999.25 
1073.95 132.0000 120.8000  321.1400 3982.1399  34.4700  -999.25 
1074.05 133.0000 120.1000  333.9900 4196.7402  34.2100  -999.25 
1074.15 134.0000 119.3900  346.8300 4411.3398  33.9600  -999.25 
1074.25 136.0000 121.6100  369.3900 4576.5898  33.4600  -999.25 
1074.35 138.0000 123.8300  391.9500 4741.8398  32.9700  -999.25 
1074.45 129.5000 124.0100  385.7700 4721.8301  35.1400  -999.25 
1074.55 121.0000 124.2000  379.5900 4701.8198  37.6000  -999.25 
1074.65 111.0000 120.8800  344.8400 4468.3101  40.9900  -999.25 
1074.75 101.0000 117.5700  310.0800 4234.7900  45.0500  -999.25 
1074.85 106.0000 114.3700  303.8700 4115.9302  42.9200  -999.25 
