~Version information
VERS.                            2.00: CWLS LAS  -  VERSION 2.00
WRAP.                              NO: One line per depth step
~Well information
#MNEM.UNIT                  DATA TYPE  INFORMATION
#===.================================:==================
STRT.M                       1062.550: First depth in file
STOP.M                       1240.950: Last depth in file
STEP.M                          0.100: Depth increment
NULL.                        -999.25 : Null values
DATE.                       25/2/2014: LOG DATE
TIME.                                : LOG TIME
WELL.                            4055: Well name
GRP.                                 : Group name
FLD.                             UZEN: Field name
ISS.                                 : Well surveys
SRVC.                        AO"UPGF": Service Company
~Curve information
#MNEM.UNIT                   API CODE   CURVE DESCRIPTION
#===.================================:==================
DEPT.M                               : Depth curve
T60 .мкс                             : Тау на зонде 60, мкс
T30 .мкс                             : Тау на зонде 30, мкс
IN60.имп/мин                         : Интегр. счет на зонде 60
IN30.имп/мин                         : Интегр. счет на зонде 30
SIGMA.                               : SIGMA
Кн  .д.е.                            : Кн (ИНГК)
#
~Other information
#------------------ REMARKS AREA -----------------------
#=======================================================
# The file is generated by the program EditKar v2003.01
#Number of Curves = 6
~A Log Data Section
# ...
1186.55 131.0800 133.6100  584.1200 5278.0298  34.7100   0.0000 
1186.65 130.5400 133.0000  584.4400 5299.5098  34.8600   0.0000 
1186.75 130.0000 132.3900  584.7600 5320.9902  35.0000   0.0000 
1186.85 134.5000 133.0000  581.4800 5343.3901  33.8300   0.0000 
1186.95 139.0000 133.6100  578.1900 5365.7998  32.7300   0.0000 
1187.05 146.0000 135.0100  565.7100 5550.8901  31.1600   0.0000 
1187.15 153.0000 136.4100  553.2300 5735.9800  29.7400   0.0000 
1187.25 147.0000 135.9000  556.9000 5581.1001  30.9500   0.0000 
1187.35 141.0000 135.3900  560.5700 5426.2300  32.2700   0.0000 
1187.45 140.5000 133.9900  571.7900 5310.5898  32.3800   0.0000 
1187.55 140.0000 132.5900  583.0000 5194.9600  32.5000   0.0000 
1187.65 147.5000 134.7100  594.8600 5377.0498  30.8500   0.0000 
1187.75 155.0000 136.8200  606.7200 5559.1499  29.3500   0.0000 
1187.85 152.5000 140.2300  624.4700 5601.5801  29.8400   0.0200 
1187.95 150.0000 143.6300  642.2300 5644.0000  30.3300   0.0500 
1188.05 143.0000 141.9000  615.9500 5552.3101  31.8200   0.0600 
1188.15 136.0000 140.1700  589.6700 5460.6201  33.4600   0.0600 
1188.25 132.0000 134.3600  550.9600 5171.6299  34.4700   0.0400 
1188.35 128.0000 128.5400  512.2500 4882.6401  35.5500   0.0400 
1188.45 125.5000 124.0500  516.3300 4737.2900  36.2500   0.0200 
1188.55 123.0000 119.5600  520.4200 4591.9302  36.9900   0.0000 
1188.65 120.5000 119.1800  527.6400 4656.7900  37.7600   0.0000 
1188.75 118.0000 118.8000  534.8700 4721.6499  38.5600   0.0000 
1188.85 122.0000 118.9000  529.6000 4665.5898  37.3000   0.0000 
1188.95 126.0000 119.0000  524.3400 4609.5400  36.1100   0.0000 
1189.05 125.5000 118.6000  514.3400 4671.1201  36.2500   0.0000 
1189.15 125.0000 118.2000  504.3500 4732.7002  36.4000   0.0000 
1189.25 123.8900 118.5000  495.5300 4687.9600  36.7300   0.0000 
1189.35 122.7800 118.8000  486.7000 4643.2300  37.0600   0.0000 
1189.45 121.6800 116.8900  466.2900 4541.7202  37.3900   0.0000 
1189.55 120.5700 114.9800  445.8800 4440.2100  37.7400   0.0000 
1189.65 123.6200 113.2800  429.2700 4415.2402  36.8100   0.0000 
1189.75 126.6700 111.5900  412.6700 4390.2700  35.9200   0.0000 
1189.85 130.4300 116.1200  447.7600 4553.1802  34.8800   0.0000 
1189.95 134.1900 120.6600  482.8500 4716.1001  33.9100   0.0000 
1190.05 144.3600 134.7000  564.8500 5348.4399  31.5200   0.1000 
1190.15 154.5300 148.7500  646.8600 5980.7798  29.4400   0.2600 
1190.25 170.3700 157.9100  725.7500 6482.3701  26.7100   0.3500 
1190.35 186.2200 167.0700  804.6400 6983.9600  24.4300   0.3800 
1190.45 193.5800 169.7400  814.3300 7345.9502  23.5100   0.3900 
1190.55 200.9300 172.4100  824.0200 7707.9399  22.6400   0.4100 
1190.65 196.0400 172.3000  816.4900 7740.3301  23.2100   0.4100 
1190.75 191.1400 172.2000  808.9600 7772.7300  23.8000   0.4000 
1190.85 187.5900 172.1000  834.2000 7410.9199  24.2600   0.3900 
1190.95 184.0300 172.0000  859.4300 7049.1201  24.7200   0.3900 
1191.05 182.0400 174.0100  862.3700 7124.0498  25.0000   0.3900 
1191.15 180.0400 176.0200  865.3100 7198.9902  25.2700   0.4100 
1191.25 181.7400 176.5100  852.7800 7343.8599  25.0400   0.4000 
1191.35 183.4500 177.0000  840.2500 7488.7300  24.8000   0.4100 
1191.45 186.8200 175.7900  836.2300 7363.0898  24.3600   0.4300 
1191.55 190.1900 174.5900  832.2200 7237.4600  23.9200   0.4400 
1191.65 191.8400 174.2900  828.8700 7193.3301  23.7200   0.4500 
1191.75 193.4800 174.0000  825.5200 7149.2100  23.5200   0.4400 
1191.85 190.4100 175.6100  835.4700 7292.1001  23.9000   0.4500 
1191.95 187.3300 177.2200  845.4300 7434.9902  24.2900   0.4500 
1192.05 185.7900 178.8200  846.1100 7514.0400  24.4900   0.4600 
1192.15 184.2600 180.4100  846.7900 7593.1001  24.6900   0.4600 
1192.25 180.4200 177.4900  801.4800 7255.6401  25.2200   0.4400 
1192.35 176.5800 174.5600  756.1800 6918.1899  25.7700   0.4200 
1192.45 166.4000 164.1300  664.6500 6308.4800  27.3400   0.3900 
1192.55 156.2100 153.6900  573.1200 5698.7700  29.1300   0.3500 
1192.65 146.0600 140.8900  489.4500 5071.8301  31.1500   0.1700 
1192.75 135.9200 128.0900  405.7800 4444.8901  33.4800   0.0000 
1192.85 127.9000 120.7200  390.7300 4133.9399  35.5700   0.0000 
1192.95 119.8800 113.3400  375.6800 3822.9800  37.9500   0.0000 
1193.05 117.2000 111.7700  383.6400 3838.7400  38.8200   0.0000 
1193.15 114.5200 110.2000  391.6100 3854.5100  39.7300   0.0000 
1193.25 110.9200 109.7000  397.6700 3894.5601  41.0200   0.0000 
1193.35 107.3200 109.2000  403.7200 3934.6201  42.3900   0.0000 
1193.45 112.4600 111.9100  425.8900 4164.8198  40.4600   0.0000 
1193.55 117.6000 114.6300  448.0700 4395.0200  38.6900   0.0000 
1193.65 124.9900 117.3300  467.6900 4586.0601  36.4000   0.0000 
1193.75 132.3800 120.0200  487.3100 4777.1001  34.3700   0.0000 
1193.85 133.0800 121.7200  500.6600 4816.7300  34.1900   0.0000 
1193.95 133.7800 123.4100  514.0100 4856.3599  34.0100   0.0000 
1194.05 134.1300 124.1100  514.8100 4865.6499  33.9200   0.0000 
1194.15 134.4800 124.8000  515.6100 4874.9302  33.8300   0.0000 
1194.25 133.6300 123.7000  511.6700 4783.8701  34.0500   0.0000 
1194.35 132.7700 122.5900  507.7400 4692.8101  34.2700   0.0000 
1194.45 127.5700 121.8900  500.6000 4597.2900  35.6700   0.0000 
1194.55 122.3600 121.2000  493.4500 4501.7598  37.1800   0.0000 
1194.65 117.3500 119.8900  489.0600 4467.0801  38.7700   0.0000 
1194.75 112.3300 118.5900  484.6600 4432.3901  40.5100   0.0000 
1194.85 110.4200 117.4900  494.4700 4447.8501  41.2000   0.0000 
1194.95 108.5200 116.3900  504.2700 4463.2998  41.9300   0.0000 
1195.05 114.9300 118.2100  511.2700 4590.4399  39.5900   0.0000 
1195.15 121.3400 120.0200  518.2700 4717.5698  37.5000   0.0000 
1195.25 127.3800 121.3200  515.2800 4761.4199  35.7200   0.0000 
1195.35 133.4200 122.6100  512.2900 4805.2700  34.1000   0.0000 
1195.45 135.8200 121.6000  491.3000 4775.8101  33.5000   0.0000 
1195.55 138.2200 120.5900  470.3000 4746.3501  32.9200   0.0000 
1195.65 137.8700 119.8900  465.2500 4752.4399  33.0000   0.0000 
1195.75 137.5200 119.2000  460.2000 4758.5298  33.0900   0.0000 
1195.85 135.0300 119.9000  477.7900 4679.1401  33.6900   0.0000 
1195.95 132.5500 120.6100  495.3900 4599.7402  34.3300   0.0000 
1196.05 128.4400 119.6000  493.3000 4575.7998  35.4200   0.0000 
1196.15 124.3300 118.5900  491.2100 4551.8599  36.6000   0.0000 
1196.25 120.2000 116.2800  469.7200 4426.3198  37.8500   0.0000 
1196.35 116.0700 113.9800  448.2300 4300.7798  39.2000   0.0000 
1196.45 114.6600 110.6700  413.5000 4041.4900  39.6800   0.0000 
1196.55 113.2600 107.3700  378.7600 3782.2000  40.1700   0.0000 
1196.65 108.6800 107.0900  368.9900 3723.6699  41.8700   0.0000 
1196.75 104.1100 106.8000  359.2100 3665.1399  43.7100   0.0000 
1196.85 103.6700 107.3000  384.0100 3781.8799  43.8900   0.0000 
1196.95 103.2200 107.8000  408.8100 3898.6299  44.0800   0.0000 
1197.05 103.6100 108.7100  420.1600 4030.5300  43.9100   0.0000 
1197.15 104.0000 109.6100  431.5100 4162.4302  43.7500   0.0000 
1197.25 104.3700 109.8000  432.9400 4155.7998  43.5900   0.0000 
1197.35 104.7400 110.0000  434.3800 4149.1602  43.4400   0.0000 
1197.45 104.5000 109.6000  432.2400 4143.5298  43.5400   0.0000 
1197.55 104.2600 109.2000  430.1000 4137.8999  43.6400   0.0000 
1197.65 103.3900 110.7100  428.8700 4145.3398  44.0100   0.0000 
1197.75 102.5200 112.2200  427.6500 4152.7798  44.3800   0.0000 
1197.85 105.2200 112.6100  426.4800 4114.0298  43.2400   0.0000 
1197.95 107.9300 113.0000  425.3200 4075.2900  42.1600   0.0000 
1198.05 109.7100 112.6000  424.7000 4203.6299  41.4700   0.0000 
1198.15 111.4800 112.2000  424.0800 4331.9800  40.8100   0.0000 
1198.25 113.9700 113.7100  453.5600 4480.5098  39.9200   0.0000 
1198.35 116.4500 115.2200  483.0300 4629.0498  39.0700   0.0000 
1198.45 126.8600 122.4500  517.3800 4973.5400  35.8700   0.0000 
1198.55 137.2700 129.6800  551.7200 5318.0400  33.1500   0.0000 
1198.65 142.1200 135.3600  568.4800 5479.8501  32.0200   0.0000 
1198.75 146.9600 141.0400  585.2500 5641.6699  30.9600   0.0000 
1198.85 141.1800 135.9900  557.1300 5191.2100  32.2300   0.0000 
