~Version information
VERS.                            2.00: CWLS LAS  -  VERSION 2.00
WRAP.                              NO: One line per depth step
~Well information
#MNEM.UNIT                  DATA TYPE  INFORMATION
#===.================================:==================
STRT.M                       1062.550: First depth in file
STOP.M                       1240.950: Last depth in file
STEP.M                          0.100: Depth increment
NULL.                        -999.25 : Null values
DATE.                       25/2/2014: LOG DATE
TIME.                                : LOG TIME
WELL.                            4055: Well name
GRP.                                 : Group name
FLD.                             UZEN: Field name
ISS.                                 : Well surveys
SRVC.                        AO"UPGF": Service Company
~Curve information
#MNEM.UNIT                   API CODE   CURVE DESCRIPTION
#===.================================:==================
DEPT.M                               : Depth curve
T60 .мкс                             : Тау на зонде 60, мкс
T30 .мкс                             : Тау на зонде 30, мкс
IN60.имп/мин                         : Интегр. счет на зонде 60
IN30.имп/мин                         : Интегр. счет на зонде 30
SIGMA.                               : SIGMA
Кн  .д.е.                            : Кн (ИНГК)
#
~Other information
#------------------ REMARKS AREA -----------------------
#=======================================================
# The file is generated by the program EditKar v2003.01
#Number of Curves = 6
~A Log Data Section
# ...
1198.95 135.4000 130.9300  529.0000 4740.7500  33.6000   0.0000 
1199.05 128.3800 122.2200  472.0100 4383.4399  35.4400   0.0000 
1199.15 121.3700 113.5200  415.0200 4026.1299  37.4900   0.0000 
1199.25 117.8300 112.5600  401.4800 3962.5300  38.6200   0.0000 
1199.35 114.2900 111.6100  387.9300 3898.9199  39.8100   0.0000 
1199.45 112.9000 111.4000  395.4600 3939.7000  40.3000   0.0000 
1199.55 111.5200 111.2000  402.9900 3980.4800  40.8000   0.0000 
1199.65 112.0000 108.6900  400.6800 3995.3601  40.6300   0.0000 
1199.75 112.4800 106.1800  398.3800 4010.2400  40.4500   0.0000 
1199.85 112.3700 106.7900  407.7300 3984.1599  40.4900   0.0000 
1199.95 112.2600 107.4100  417.0800 3958.0901  40.5300   0.0000 
1200.05 112.1300 110.1200  450.6900 4182.9302  40.5800   0.0000 
1200.15 112.0000 112.8300  484.2900 4407.7700  40.6300   0.0000 
1200.25 116.8200 117.4400  520.2400 4748.5698  38.9500   0.0000 
1200.35 121.6400 122.0500  556.1800 5089.3701  37.4000   0.0000 
1200.45 126.2900 123.0200  558.0000 5230.8101  36.0300   0.0000 
1200.55 130.9300 124.0000  559.8200 5372.2402  34.7500   0.0000 
1200.65 130.1100 126.8100  568.3000 5459.5200  34.9700   0.0000 
1200.75 129.2900 129.6300  576.7700 5546.7900  35.1900   0.0000 
1200.85 137.1700 136.3500  615.8600 5682.7798  33.1700   0.0000 
1200.95 145.0500 143.0700  654.9400 5818.7700  31.3700   0.0000 
1201.05 150.2500 144.1300  654.2300 5886.2500  30.2800   0.0000 
1201.15 155.4500 145.2000  653.5200 5953.7202  29.2700   0.0000 
1201.25 155.4800 141.8800  625.7200 5824.5298  29.2600   0.0000 
1201.35 155.5200 138.5600  597.9200 5695.3398  29.2600   0.0000 
1201.45 152.6600 134.9600  572.2800 5488.6099  29.8000   0.0000 
1201.55 149.8100 131.3700  546.6300 5281.8701  30.3700   0.0000 
1201.65 140.7500 126.6600  534.4200 5044.5200  32.3300   0.0000 
1201.75 131.6900 121.9600  522.2000 4807.1699  34.5500   0.0000 
1201.85 130.7000 125.8100  563.1500 4977.6201  34.8100   0.0000 
1201.95 129.7100 129.6600  604.1000 5148.0698  35.0800   0.0000 
1202.05 145.5500 140.8900  665.1400 5856.7598  31.2600   0.0000 
1202.15 161.3900 152.1200  726.1700 6565.4502  28.1900   0.0000 
1202.25 171.1400 156.9700  775.7400 6758.0698  26.5900   0.0000 
1202.35 180.9000 161.8300  825.3100 6950.6802  25.1500   0.0000 
1202.45 183.5600 162.0100  848.1900 6943.5601  24.7900   0.0000 
1202.55 186.2200 162.2000  871.0800 6936.4399  24.4300   0.0000 
1202.65 188.8400 163.7100  865.9900 7048.2998  24.1000   0.0000 
1202.75 191.4500 165.2200  860.9100 7160.1699  23.7700   0.0000 
1202.85 190.3700 169.6300  875.1700 7140.8599  23.9000   0.0000 
1202.95 189.2900 174.0500  889.4400 7121.5601  24.0400   0.0000 
1203.05 189.3900 175.4300  894.5000 7237.4800  24.0200   0.0000 
1203.15 189.4800 176.8000  899.5600 7353.3999  24.0100   0.0000 
1203.25 191.2200 174.4900  891.8700 7333.6201  23.7900   0.0000 
1203.35 192.9700 172.1700  884.1800 7313.8301  23.5800   0.0000 
1203.45 195.7100 171.1800  888.2600 7343.6299  23.2500   0.0000 
1203.55 198.4500 170.2000  892.3400 7373.4199  22.9300   0.0000 
1203.65 199.2200 172.9100  891.0000 7581.2900  22.8400   0.0000 
1203.75 200.0000 175.6300  889.6700 7789.1499  22.7500   0.0000 
1203.85 201.4800 176.3100  904.2300 7719.3101  22.5800   0.0000 
1203.95 202.9700 177.0000  918.7900 7649.4600  22.4200   0.0000 
1204.05 202.0000 176.2000  914.4700 7535.2500  22.5200   0.0000 
1204.15 201.0400 175.3900  910.1400 7421.0498  22.6300   0.0000 
1204.25 192.3600 171.5700  870.7200 7069.1899  23.6500   0.0000 
1204.35 183.6800 167.7600  831.2900 6717.3198  24.7700   0.0000 
1204.45 177.1300 158.8300  789.0400 6363.8501  25.6900   0.0000 
1204.55 170.5900 149.9100  746.7800 6010.3799  26.6700   0.0000 
1204.65 168.1800 147.5500  730.0800 6072.5498  27.0500   0.0000 
1204.75 165.7800 145.2000  713.3900 6134.7300  27.4500   0.0000 
1204.85 163.9100 145.1000  702.0700 6029.3301  27.7600   0.0000 
1204.95 162.0300 145.0000  690.7500 5923.9302  28.0800   0.0000 
1205.05 161.1500 142.1800  662.6700 5859.3398  28.2400   0.0000 
1205.15 160.2600 139.3700  634.5800 5794.7500  28.3900   0.0000 
1205.25 158.2800 139.0900  644.3200 5801.7100  28.7500   0.0000 
1205.35 156.2900 138.8000  654.0700 5808.6802  29.1100   0.0000 
1205.45 156.7600 139.3000  682.0900 5905.3599  29.0300   0.0000 
1205.55 157.2200 139.8000  710.1200 6002.0400  28.9400   0.0000 
1205.65 156.5000 141.9100  709.8800 6165.5801  29.0700   0.0000 
1205.75 155.7800 144.0200  709.6400 6329.1201  29.2100   0.0000 
1205.85 156.8700 147.7300  718.9700 6343.4902  29.0000   0.0000 
1205.95 157.9700 151.4400  728.3100 6357.8701  28.8000   0.0000 
1206.05 159.5900 152.6200  746.7500 6374.5098  28.5100   0.0000 
1206.15 161.2200 153.8000  765.1800 6391.1602  28.2200   0.0000 
1206.25 167.5500 153.5000  784.9500 6346.7402  27.1600   0.0000 
1206.35 173.8700 153.2000  804.7200 6302.3301  26.1700   0.0000 
1206.45 173.7100 155.9100  819.3600 6571.0200  26.1900   0.0000 
1206.55 173.5500 158.6300  834.0000 6839.7100  26.2200   0.0000 
1206.65 177.9600 162.9300  842.8500 7213.4600  25.5700   0.0000 
1206.75 182.3800 167.2400  851.6900 7587.2100  24.9500   0.0000 
1206.85 186.0400 169.3300  858.8100 7525.4600  24.4600   0.0000 
1206.95 189.7100 171.4100  865.9300 7463.7202  23.9800   0.0000 
1207.05 183.3100 169.2900  834.4400 7028.1299  24.8200   0.0000 
1207.15 176.9200 167.1700  802.9600 6592.5400  25.7200   0.0000 
1207.25 163.7000 157.3300  756.9600 6141.5498  27.7900   0.0000 
1207.35 150.4900 147.4900  710.9700 5690.5498  30.2300   0.0000 
1207.45 141.9300 138.8100  663.0600 5449.1401  32.0600   0.0000 
1207.55 133.3600 130.1300  615.1600 5207.7300  34.1200   0.0000 
1207.65 129.8300 125.3500  567.6800 4820.7300  35.0500   0.0000 
1207.75 126.2900 120.5700  520.1900 4433.7300  36.0300   0.0000 
1207.85 126.3900 121.3900  529.8800 4429.1099  36.0000   0.0000 
1207.95 126.4800 122.2200  539.5800 4424.4902  35.9700   0.0000 
1208.05 131.5600 128.2400  589.5300 4997.2002  34.5900   0.0000 
1208.15 136.6300 134.2600  639.4800 5569.9102  33.3000   0.0000 
1208.25 140.5400 134.8300  655.4100 5679.7300  32.3700   0.0000 
1208.35 144.4500 135.3900  671.3300 5789.5498  31.5000   0.0000 
1208.45 143.0000 133.1800  662.8500 5641.8501  31.8200   0.0000 
1208.55 141.5500 130.9800  654.3600 5494.1499  32.1400   0.0000 
1208.65 141.5200 132.9000  662.7200 5564.1299  32.1500   0.0000 
1208.75 141.4800 134.8200  671.0800 5634.1001  32.1600   0.0000 
1208.85 141.7400 137.4200  690.2400 5693.1099  32.1000   0.0000 
1208.95 142.0000 140.0200  709.3900 5752.1201  32.0400   0.0000 
1209.05 139.4100 140.1100  696.1900 5857.8599  32.6400   0.0000 
1209.15 136.8100 140.2000  682.9800 5963.6001  33.2600   0.0000 
1209.25 138.5000 139.7000  656.1100 5924.6899  32.8500   0.0000 
1209.35 140.1900 139.2000  629.2500 5885.7798  32.4600   0.0000 
1209.45 142.9500 136.6800  636.5300 5630.9702  31.8300   0.0000 
1209.55 145.7100 134.1700  643.8200 5376.1699  31.2300   0.0000 
1209.65 143.3900 133.1800  664.0600 5413.3799  31.7300   0.0000 
1209.75 141.0700 132.2000  684.3100 5450.6001  32.2500   0.0000 
1209.85 138.9200 133.7100  694.6500 5544.0801  32.7500   0.0000 
1209.95 136.7800 135.2200  704.9900 5637.5601  33.2700   0.0000 
1210.05 142.6900 135.6100  699.8600 5719.2100  31.8900   0.0000 
1210.15 148.6000 136.0000  694.7300 5800.8501  30.6200   0.0000 
1210.25 156.7300 136.8000  698.0900 6021.9702  29.0300   0.0000 
1210.35 164.8700 137.6100  701.4600 6243.0801  27.6000   0.0000 
1210.45 167.3000 140.2200  713.2900 6313.8501  27.2000   0.0000 
1210.55 169.7400 142.8300  725.1200 6384.6201  26.8100   0.0000 
1210.65 166.5400 145.4200  736.1700 6323.7598  27.3200   0.0000 
1210.75 163.3300 148.0200  747.2200 6262.8901  27.8600   0.0000 
1210.85 170.3200 149.7200  772.8200 6306.5698  26.7100   0.0000 
1210.95 177.3100 151.4100  798.4200 6350.2402  25.6600   0.0000 
1211.05 183.1200 151.7100  791.1400 6481.7900  24.8500   0.0000 
1211.15 188.9300 152.0000  783.8700 6613.3398  24.0800   0.0000 
1211.25 186.2600 152.4000  757.9900 6570.7300  24.4300   0.0000 
