~Version information
VERS.                            2.00: CWLS LAS  -  VERSION 2.00
WRAP.                              NO: One line per depth step
~Well information
#MNEM.UNIT                  DATA TYPE  INFORMATION
#===.================================:==================
STRT.M                       1062.550: First depth in file
STOP.M                       1240.950: Last depth in file
STEP.M                          0.100: Depth increment
NULL.                        -999.25 : Null values
DATE.                       25/2/2014: LOG DATE
TIME.                                : LOG TIME
WELL.                            4055: Well name
GRP.                                 : Group name
FLD.                             UZEN: Field name
ISS.                                 : Well surveys
SRVC.                        AO"UPGF": Service Company
~Curve information
#MNEM.UNIT                   API CODE   CURVE DESCRIPTION
#===.================================:==================
DEPT.M                               : Depth curve
T60 .мкс                             : Тау на зонде 60, мкс
T30 .мкс                             : Тау на зонде 30, мкс
IN60.имп/мин                         : Интегр. счет на зонде 60
IN30.имп/мин                         : Интегр. счет на зонде 30
SIGMA.                               : SIGMA
Кн  .д.е.                            : Кн (ИНГК)
#
~Other information
#------------------ REMARKS AREA -----------------------
#=======================================================
# The file is generated by the program EditKar v2003.01
#Number of Curves = 6
~A Log Data Section
# ...
1112.15 175.0000 180.0000  622.1700 7458.1602  26.0000   0.4600 
1112.25 173.5000 181.2100  628.5100 7430.2402  26.2200   0.4700 
1112.35 172.0000 182.4100  634.8500 7402.3198  26.4500   0.4600 
1112.45 174.5000 182.3000  623.5200 7354.1201  26.0700   0.4400 
1112.55 177.0000 182.2000  612.1800 7305.9102  25.7100   0.4300 
1112.65 175.5000 180.0900  603.0400 7283.9199  25.9300   0.4200 
1112.75 174.0000 177.9800  593.9100 7261.9302  26.1500   0.3800 
1112.85 177.5000 175.0800  596.5000 7185.5498  25.6300   0.3200 
1112.95 181.0000 172.1700  599.0900 7109.1802  25.1400   0.2600 
1113.05 185.0000 171.1800  595.1800 7183.9702  24.5900   0.2300 
1113.15 189.0000 170.2000  591.2700 7258.7700  24.0700   0.2500 
1113.25 184.5000 171.7100  599.6000 7283.4702  24.6600   0.2900 
1113.35 180.0000 173.2200  607.9200 7308.1699  25.2800   0.3400 
1113.45 173.0000 173.6100  594.3100 7182.0801  26.3000   0.4000 
1113.55 166.0000 174.0000  580.7000 7055.9902  27.4100   0.4200 
1113.65 165.0000 169.1800  542.8300 6835.8599  27.5800   0.3700 
1113.75 164.0000 164.3500  504.9700 6615.7402  27.7400   0.3300 
1113.85 160.0000 159.9600  498.8000 6363.6299  28.4400   0.2800 
1113.95 156.0000 155.5600  492.6400 6111.5200  29.1700   0.2200 
1114.05 153.0000 153.9800  493.3100 6029.9702  29.7400   0.1900 
1114.15 150.0000 152.3900  493.9900 5948.4102  30.3300   0.2100 
1114.25 159.5000 154.2100  500.3500 6063.0801  28.5300   0.2100 
1114.35 169.0000 156.0200  506.7200 6177.7598  26.9200   0.2200 
1114.45 163.5000 159.3300  519.6700 6360.6602  27.8300   0.2400 
1114.55 158.0000 162.6300  532.6100 6543.5601  28.8000   0.2500 
1114.65 158.5000 161.7100  529.8000 6591.1699  28.7100   0.2600 
1114.75 159.0000 160.7800  527.0000 6638.7900  28.6200   0.2400 
1114.85 169.5000 158.7800  526.4300 6578.2402  26.8400   0.2000 
1114.95 180.0000 156.7800  525.8700 6517.6899  25.2800   0.1700 
1115.05 176.0000 158.8000  522.6700 6666.9199  25.8500   0.1600 
1115.15 172.0000 160.8300  519.4800 6816.1499  26.4500   0.2100 
1115.25 164.0000 160.6100  513.8500 6766.1499  27.7400   0.2700 
1115.35 156.0000 160.3900  508.2300 6716.1499  29.1700   0.2700 
1115.45 161.0000 158.1800  500.7800 6519.7998  28.2600   0.2400 
1115.55 166.0000 155.9800  493.3400 6323.4502  27.4100   0.1900 
1115.65 170.5000 154.2800  495.5800 6327.6602  26.6900   0.1100 
1115.75 175.0000 152.5900  497.8200 6331.8599  26.0000   0.0500 
1115.85 175.5000 152.7000  519.6300 6291.8599  25.9300   0.0300 
1115.95 176.0000 152.8000  541.4300 6251.8501  25.8500   0.0300 
1116.05 178.0000 156.9300  560.1900 6434.7500  25.5600   0.1400 
1116.15 180.0000 161.0500  578.9500 6617.6401  25.2800   0.2600 
1116.25 191.0000 164.8400  596.1800 6805.8901  23.8200   0.3000 
1116.35 202.0000 168.6300  613.4100 6994.1401  22.5200   0.3400 
1116.45 199.0000 168.1100  601.0000 7025.4600  22.8600   0.4100 
1116.55 196.0000 167.5900  588.5900 7056.7700  23.2100   0.4300 
1116.65 193.5000 166.4900  556.6600 6920.7402  23.5100   0.4000 
1116.75 191.0000 165.3900  524.7300 6784.7002  23.8200   0.3800 
1116.85 188.0000 166.8100  528.6500 6629.5000  24.2000   0.3700 
1116.95 185.0000 168.2200  532.5700 6474.2900  24.5900   0.3400 
1117.05 185.0000 170.2200  551.1800 6646.9902  24.5900   0.2700 
1117.15 185.0000 172.2200  569.7900 6819.6899  24.5900   0.2100 
1117.25 179.0000 173.8200  580.7200 6892.1401  25.4200   0.2200 
1117.35 173.0000 175.4100  591.6600 6964.5898  26.3000   0.2700 
1117.45 173.5000 176.9100  593.1300 7051.3198  26.2200   0.3600 
1117.55 174.0000 178.4100  594.6000 7138.0400  26.1500   0.4500 
1117.65 180.0000 179.1100  588.9200 7199.4199  25.2800   0.4900 
1117.75 186.0000 179.8000  583.2500 7260.7900  24.4600   0.4800 
1117.85 183.0000 178.2900  577.7300 7080.3301  24.8600   0.4700 
1117.95 180.0000 176.7800  572.2100 6899.8701  25.2800   0.4700 
1118.05 180.5000 177.2000  559.9600 6853.6802  25.2100   0.4700 
1118.15 181.0000 177.6100  547.7100 6807.5000  25.1400   0.4800 
1118.25 180.0000 178.2100  532.1800 6693.8398  25.2800   0.4800 
1118.35 179.0000 178.8000  516.6600 6580.1802  25.4200   0.4800 
1118.45 179.5000 176.8900  497.2400 6402.1201  25.3500   0.4700 
1118.55 180.0000 174.9800  477.8300 6224.0601  25.2800   0.4400 
1118.65 189.5000 174.8900  483.3400 6269.7900  24.0100   0.4300 
1118.75 199.0000 174.8000  488.8600 6315.5200  22.8600   0.4100 
1118.85 199.0000 176.5100  524.5500 6570.0298  22.8600   0.4000 
1118.95 199.0000 178.2200  560.2400 6824.5498  22.8600   0.3700 
1119.05 195.0000 178.2100  576.9800 6971.9199  23.3300   0.3500 
1119.15 191.0000 178.2000  593.7100 7119.2998  23.8200   0.3100 
1119.25 194.0000 176.4900  583.6500 6974.5698  23.4500   0.2700 
1119.35 197.0000 174.7800  573.5900 6829.8301  23.1000   0.2700 
1119.45 201.0000 173.5900  569.9900 6817.8701  22.6400   0.2600 
1119.55 205.0000 172.3900  566.3900 6805.8999  22.2000   0.3000 
1119.65 193.5000 171.7900  566.7500 6861.1001  23.5100   0.3600 
1119.75 182.0000 171.2000  567.1100 6916.2900  25.0000   0.3600 
1119.85 188.0000 173.5100  555.9000 6886.8701  24.2000   0.3800 
1119.95 194.0000 175.8300  544.6900 6857.4600  23.4500   0.4300 
1120.05 181.0000 177.6200  541.8800 7058.0200  25.1400   0.4400 
1120.15 168.0000 179.4100  539.0800 7258.5801  27.0800   0.4600 
1120.25 171.5000 178.1000  562.3400 7272.4199  26.5300   0.4900 
1120.35 175.0000 176.7800  585.5900 7286.2598  26.0000   0.4800 
1120.45 173.5000 173.5700  587.4300 7202.9199  26.2200   0.4200 
1120.55 172.0000 170.3700  589.2700 7119.5898  26.4500   0.3900 
1120.65 179.0000 168.8800  569.0700 7024.9302  25.4200   0.3600 
1120.75 186.0000 167.3900  548.8700 6930.2700  24.4600   0.3300 
1120.85 186.0000 169.2100  547.1800 6851.7402  24.4600   0.3200 
1120.95 186.0000 171.0200  545.4900 6773.2100  24.4600   0.3200 
1121.05 188.5000 171.5100  537.0900 6801.4800  24.1400   0.3400 
1121.15 191.0000 172.0000  528.6900 6829.7402  23.8200   0.3300 
1121.25 189.5000 171.2000  524.9500 6769.3599  24.0100   0.3300 
1121.35 188.0000 170.3900  521.2100 6708.9800  24.2000   0.3400 
1121.45 188.5000 170.2000  538.5600 6718.2500  24.1400   0.3100 
1121.55 189.0000 170.0000  555.9100 6727.5298  24.0700   0.2900 
1121.65 192.0000 168.7900  564.9000 6738.4702  23.7000   0.2800 
1121.75 195.0000 167.5900  573.8900 6749.4102  23.3300   0.2700 
1121.85 192.0000 165.6800  581.1500 6640.3198  23.7000   0.2500 
1121.95 189.0000 163.7800  588.4000 6531.2202  24.0700   0.2300 
1122.05 181.0000 165.0000  587.3000 6574.3701  25.1400   0.2300 
1122.15 173.0000 166.2200  586.1900 6617.5298  26.3000   0.2600 
1122.25 170.0000 167.8200  576.9200 6676.3398  26.7600   0.2800 
1122.35 167.0000 169.4100  567.6400 6735.1499  27.2500   0.3100 
1122.45 176.0000 168.9000  565.6800 6718.8599  25.8500   0.3200 
1122.55 185.0000 168.3900  563.7100 6702.5698  24.5900   0.3000 
1122.65 194.5000 167.7900  552.7200 6750.1099  23.3900   0.3000 
1122.75 204.0000 167.2000  541.7200 6797.6401  22.3000   0.3300 
1122.85 188.5000 165.8900  534.2900 6658.2300  24.1400   0.3600 
1122.95 173.0000 164.5900  526.8700 6518.8301  26.3000   0.3700 
1123.05 180.0000 164.7000  525.7500 6426.5698  25.2800   0.3800 
1123.15 187.0000 164.8000  524.6200 6334.3101  24.3300   0.3700 
1123.25 188.5000 165.7100  522.8000 6337.9399  24.1400   0.3300 
1123.35 190.0000 166.6100  520.9800 6341.5601  23.9500   0.3100 
1123.45 186.5000 164.7900  515.8500 6498.5698  24.4000   0.2900 
1123.55 183.0000 162.9800  510.7300 6655.5801  24.8600   0.2800 
1123.65 179.0000 162.4900  514.6500 6738.4600  25.4200   0.2900 
1123.75 175.0000 162.0000  518.5600 6821.3398  26.0000   0.3100 
1123.85 176.0000 162.4000  533.0400 6670.6899  25.8500   0.2900 
1123.95 177.0000 162.8000  547.5100 6520.0298  25.7100   0.2500 
1124.05 183.0000 162.5000  546.1200 6607.6499  24.8600   0.2400 
1124.15 189.0000 162.2000  544.7300 6695.2598  24.0700   0.2300 
1124.25 184.0000 162.1000  551.6700 6721.9102  24.7300   0.2300 
1124.35 179.0000 162.0000  558.6200 6748.5601  25.4200   0.2400 
1124.45 174.0000 164.0100  572.4100 6735.2402  26.1500   0.2500 
