~Version information
VERS.                            2.00: CWLS LAS  -  VERSION 2.00
WRAP.                              NO: One line per depth step
~Well information
#MNEM.UNIT                  DATA TYPE  INFORMATION
#===.================================:==================
STRT.M                       1062.550: First depth in file
STOP.M                       1240.950: Last depth in file
STEP.M                          0.100: Depth increment
NULL.                        -999.25 : Null values
DATE.                       25/2/2014: LOG DATE
TIME.                                : LOG TIME
WELL.                            4055: Well name
GRP.                                 : Group name
FLD.                             UZEN: Field name
ISS.                                 : Well surveys
SRVC.                        AO"UPGF": Service Company
~Curve information
#MNEM.UNIT                   API CODE   CURVE DESCRIPTION
#===.================================:==================
DEPT.M                               : Depth curve
T60 .мкс                             : Тау на зонде 60, мкс
T30 .мкс                             : Тау на зонде 30, мкс
IN60.имп/мин                         : Интегр. счет на зонде 60
IN30.имп/мин                         : Интегр. счет на зонде 30
SIGMA.                               : SIGMA
Кн  .д.е.                            : Кн (ИНГК)
#
~Other information
#------------------ REMARKS AREA -----------------------
#=======================================================
# The file is generated by the program EditKar v2003.01
#Number of Curves = 6
~A Log Data Section
# ...
1074.95 111.0000 111.1700  297.6500 3997.0601  40.9900  -999.25 
1075.05 113.5000 109.7800  301.7600 4073.0500  40.0900  -999.25 
1075.15 116.0000 108.3900  305.8700 4149.0400  39.2200  -999.25 
1075.25 114.5000 109.4000  309.6500 4182.2500  39.7400  -999.25 
1075.35 113.0000 110.4100  313.4300 4215.4702  40.2700  -999.25 
1075.45 114.0000 110.7100  316.3200 4128.9199  39.9100  -999.25 
1075.55 115.0000 111.0000  319.2100 4042.3701  39.5700  -999.25 
1075.65 116.5000 108.9900  306.0200 4035.0400  39.0600  -999.25 
1075.75 118.0000 106.9800  292.8400 4027.7100  38.5600  -999.25 
1075.85 121.5000 106.4900  286.4900 3983.4099  37.4500  -999.25 
1075.95 125.0000 106.0000  280.1400 3939.1101  36.4000  -999.25 
1076.05 124.0000 107.2100  291.8600 4023.3401  36.6900  -999.25 
1076.15 123.0000 108.4100  303.5700 4107.5601  36.9900  -999.25 
1076.25 126.5000 110.3200  328.6000 4283.6099  35.9700  -999.25 
1076.35 130.0000 112.2200  353.6200 4459.6499  35.0000  -999.25 
1076.45 125.0000 115.8300  370.2400 4630.5601  36.4000  -999.25 
1076.55 120.0000 119.4400  386.8600 4801.4702  37.9200  -999.25 
1076.65 124.5000 120.2200  376.8400 4767.9399  36.5500  -999.25 
1076.75 129.0000 121.0000  366.8200 4734.4102  35.2700  -999.25 
1076.85 133.5000 117.3800  350.8300 4531.7500  34.0800  -999.25 
1076.95 138.0000 113.7600  334.8300 4329.0898  32.9700  -999.25 
1077.05 133.0000 114.4900  331.5000 4449.3398  34.2100  -999.25 
1077.15 128.0000 115.2200  328.1700 4569.6001  35.5500  -999.25 
1077.25 126.0000 118.4300  337.9000 4738.4199  36.1100  -999.25 
1077.35 124.0000 121.6300  347.6400 4907.2402  36.6900  -999.25 
1077.45 118.5000 122.3200  343.7900 4817.1699  38.4000  -999.25 
1077.55 113.0000 123.0000  339.9500 4727.1001  40.2700  -999.25 
1077.65 114.5000 120.5900  330.1600 4637.3799  39.7400  -999.25 
1077.75 116.0000 118.1800  320.3800 4547.6699  39.2200  -999.25 
1077.85 121.5000 117.5900  324.4600 4497.8799  37.4500  -999.25 
1077.95 127.0000 117.0000  328.5300 4448.1001  35.8300  -999.25 
1078.05 129.0000 116.6000  335.1400 4388.8701  35.2700  -999.25 
1078.15 131.0000 116.2000  341.7500 4329.6401  34.7300  -999.25 
1078.25 121.5000 114.0900  335.4000 4298.4902  37.4500  -999.25 
1078.35 112.0000 111.9800  329.0500 4267.3398  40.6300  -999.25 
1078.45 106.5000 109.8800  316.3900 4258.1401  42.7200  -999.25 
1078.55 101.0000 107.7800  303.7400 4248.9399  45.0500  -999.25 
1078.65 105.5000 106.9900  302.2500 4178.4702  43.1300  -999.25 
1078.75 110.0000 106.2000  300.7500 4108.0000  41.3600  -999.25 
1078.85 111.5000 106.5000  300.6200 4029.5601  40.8100  -999.25 
1078.95 113.0000 106.8000  300.4900 3951.1201  40.2700  -999.25 
1079.05 114.5000 106.1000  303.3900 4044.3201  39.7400  -999.25 
1079.15 116.0000 105.3900  306.2900 4137.5200  39.2200  -999.25 
1079.25 121.0000 105.6000  309.5600 4137.6001  37.6000  -999.25 
1079.35 126.0000 105.8000  312.8400 4137.6802  36.1100  -999.25 
1079.45 125.5000 107.5100  303.3400 4173.0098  36.2500  -999.25 
1079.55 125.0000 109.2200  293.8400 4208.3501  36.4000  -999.25 
1079.65 120.5000 110.4100  299.0300 4219.2402  37.7600  -999.25 
1079.75 116.0000 111.6100  304.2100 4230.1401  39.2200  -999.25 
1079.85 119.0000 112.6100  325.8100 4180.7700  38.2400  -999.25 
1079.95 122.0000 113.6100  347.4000 4131.4102  37.3000  -999.25 
1080.05 119.0000 114.2100  356.6600 4174.6802  38.2400  -999.25 
1080.15 116.0000 114.8000  365.9100 4217.9600  39.2200  -999.25 
1080.25 115.0000 114.5000  369.8200 4292.2900  39.5700  -999.25 
1080.35 114.0000 114.2000  373.7200 4366.6299  39.9100  -999.25 
1080.45 116.0000 111.6800  356.3700 4565.6099  39.2200  -999.25 
1080.55 118.0000 109.1700  339.0100 4764.6001  38.5600  -999.25 
1080.65 114.0000 108.9900  320.3300 4716.0098  39.9100  -999.25 
1080.75 110.0000 108.8000  301.6500 4667.4199  41.3600  -999.25 
1080.85 119.5000 114.5300  313.1000 4587.0298  38.0800  -999.25 
1080.95 129.0000 120.2600  324.5600 4506.6299  35.2700  -999.25 
1081.05 134.5000 124.4500  330.1300 4574.6099  33.8300  -999.25 
1081.15 140.0000 128.6300  335.7000 4642.5801  32.5000  -999.25 
1081.25 131.0000 125.2900  325.9700 4450.8101  34.7300  -999.25 
1081.35 122.0000 121.9500  316.2500 4259.0298  37.3000  -999.25 
1081.45 120.5000 116.5500  323.1600 4128.7202  37.7600  -999.25 
1081.55 119.0000 111.1500  330.0700 3998.4099  38.2400  -999.25 
1081.65 123.5000 110.8800  347.2400 4120.6401  36.8400  -999.25 
1081.75 128.0000 110.6100  364.4100 4242.8599  35.5500  -999.25 
1081.85 134.0000 114.8300  373.5200 4383.8398  33.9600  -999.25 
1081.95 140.0000 119.0500  382.6400 4524.8301  32.5000  -999.25 
1082.05 142.5000 124.4500  395.3700 4697.3999  31.9300  -999.25 
1082.15 145.0000 129.8500  408.0900 4869.9800  31.3800  -999.25 
1082.25 148.5000 132.9400  431.9600 4961.4902  30.6400  -999.25 
1082.35 152.0000 136.0200  455.8200 5053.0000  29.9300  -999.25 
1082.45 152.5000 134.1000  458.6900 5126.1299  29.8400  -999.25 
1082.55 153.0000 132.1700  461.5600 5199.2500  29.7400  -999.25 
1082.65 149.5000 132.7900  447.8400 5158.2500  30.4300  -999.25 
1082.75 146.0000 133.4100  434.1200 5117.2500  31.1600  -999.25 
1082.85 139.0000 133.3000  429.7300 4975.8999  32.7300  -999.25 
1082.95 132.0000 133.2000  425.3500 4834.5498  34.4700  -999.25 
1083.05 125.0000 131.0900  413.7100 4897.1602  36.4000  -999.25 
1083.15 118.0000 128.9800  402.0600 4959.7700  38.5600  -999.25 
1083.25 122.5000 127.6800  389.5900 4816.2900  37.1400  -999.25 
1083.35 127.0000 126.3900  377.1100 4672.8101  35.8300  -999.25 
1083.45 129.5000 123.7800  375.1800 4564.9399  35.1400  -999.25 
1083.55 132.0000 121.1700  373.2500 4457.0801  34.4700  -999.25 
1083.65 134.5000 120.9900  368.6700 4540.4800  33.8300  -999.25 
1083.75 137.0000 120.8000  364.0900 4623.8701  33.2100  -999.25 
1083.85 138.5000 120.5000  359.4300 4589.7798  32.8500  -999.25 
1083.95 140.0000 120.2000  354.7700 4555.6802  32.5000  -999.25 
1084.05 135.0000 118.4900  368.8100 4608.2598  33.7000  -999.25 
1084.15 130.0000 116.7800  382.8500 4660.8301  35.0000  -999.25 
1084.25 128.5000 117.6000  401.1100 4766.8398  35.4100  -999.25 
1084.35 127.0000 118.4100  419.3800 4872.8501  35.8300  -999.25 
1084.45 127.5000 119.5100  412.5300 4940.0698  35.6900  -999.25 
1084.55 128.0000 120.6100  405.6900 5007.2998  35.5500  -999.25 
1084.65 120.0000 120.4000  387.0700 4929.3999  37.9200  -999.25 
1084.75 112.0000 120.2000  368.4500 4851.5098  40.6300  -999.25 
1084.85 121.5000 118.0900  347.8100 4490.6401  37.4500  -999.25 
1084.95 131.0000 115.9800  327.1700 4129.7598  34.7300  -999.25 
1085.05 138.5000 117.9000  315.3500 4104.1499  32.8500  -999.25 
1085.15 146.0000 119.8300  303.5300 4078.5300  31.1600  -999.25 
1085.25 134.5000 122.8300  318.6300 4328.0498  33.8300  -999.25 
1085.35 123.0000 125.8300  333.7200 4577.5698  36.9900  -999.25 
1085.45 120.5000 124.0000  346.1000 4550.9502  37.7600  -999.25 
1085.55 118.0000 122.1700  358.4800 4524.3301  38.5600  -999.25 
1085.65 123.0000 119.9800  356.4300 4424.2300  36.9900  -999.25 
1085.75 128.0000 117.7800  354.3900 4324.1299  35.5500  -999.25 
1085.85 127.0000 118.2000  362.0900 4364.0698  35.8300  -999.25 
1085.95 126.0000 118.6100  369.7900 4404.0098  36.1100  -999.25 
1086.05 122.0000 118.0000  375.8300 4522.7202  37.3000  -999.25 
1086.15 118.0000 117.3900  381.8600 4641.4302  38.5600  -999.25 
1086.25 133.5000 117.6000  390.6800 4684.9800  34.0800  -999.25 
1086.35 149.0000 117.8000  399.5100 4728.5298  30.5400  -999.25 
1086.45 156.5000 119.5100  434.0700 4992.5498  29.0700  -999.25 
1086.55 164.0000 121.2200  468.6300 5256.5698  27.7400  -999.25 
1086.65 163.5000 128.4400  499.4700 5592.3799  27.8300  -999.25 
1086.75 163.0000 135.6700  530.3100 5928.1802  27.9100  -999.25 
1086.85 163.5000 140.9600  540.4600 5840.2700  27.8300  -999.25 
1086.95 164.0000 146.2400  550.6100 5752.3701  27.7400  -999.25 
1087.05 176.0000 145.9100  558.5400 5817.5200  25.8500  -999.25 
1087.15 188.0000 145.5900  566.4700 5882.6802  24.2000  -999.25 
1087.25 185.5000 152.5400  580.6500 6105.1699  24.5300  -999.25 
