~Version information
VERS.                            2.00: CWLS LAS  -  VERSION 2.00
WRAP.                              NO: One line per depth step
~Well information
#MNEM.UNIT                  DATA TYPE  INFORMATION
#===.================================:==================
STRT.M                       1062.550: First depth in file
STOP.M                       1240.950: Last depth in file
STEP.M                          0.100: Depth increment
NULL.                        -999.25 : Null values
DATE.                       25/2/2014: LOG DATE
TIME.                                : LOG TIME
WELL.                            4055: Well name
GRP.                                 : Group name
FLD.                             UZEN: Field name
ISS.                                 : Well surveys
SRVC.                        AO"UPGF": Service Company
~Curve information
#MNEM.UNIT                   API CODE   CURVE DESCRIPTION
#===.================================:==================
DEPT.M                               : Depth curve
T60 .мкс                             : Тау на зонде 60, мкс
T30 .мкс                             : Тау на зонде 30, мкс
IN60.имп/мин                         : Интегр. счет на зонде 60
IN30.имп/мин                         : Интегр. счет на зонде 30
SIGMA.                               : SIGMA
Кн  .д.е.                            : Кн (ИНГК)
#
~Other information
#------------------ REMARKS AREA -----------------------
#=======================================================
# The file is generated by the program EditKar v2003.01
#Number of Curves = 6
~A Log Data Section
# ...
1211.35 183.5800 152.8000  732.1100 6528.1201  24.7800   0.0000 
1211.45 179.7000 154.1100  740.5400 6613.5801  25.3200   0.0000 
1211.55 175.8100 155.4100  748.9600 6699.0298  25.8800   0.0000 
1211.65 176.3900 159.7300  783.3600 6886.9399  25.8000   0.0000 
1211.75 176.9600 164.0400  817.7600 7074.8501  25.7100   0.0000 
1211.85 179.7100 166.2300  843.6100 6987.4399  25.3200   0.0000 
1211.95 182.4500 168.4100  869.4700 6900.0200  24.9400   0.0000 
1212.05 186.9300 168.3000  865.1200 6929.4902  24.3400   0.0000 
1212.15 191.4100 168.2000  860.7700 6958.9600  23.7700   0.0000 
1212.25 189.7400 169.7100  868.6000 7158.4600  23.9800   0.0000 
1212.35 188.0700 171.2200  876.4300 7357.9600  24.1900   0.0000 
1212.45 190.7400 172.8200  874.0400 7450.2998  23.8500   0.0000 
1212.55 193.4100 174.4100  871.6600 7542.6401  23.5200   0.0000 
1212.65 196.1900 173.9000  863.6800 7383.9302  23.1900   0.0000 
1212.75 198.9600 173.3900  855.6900 7225.2300  22.8700   0.0000 
1212.85 195.0300 171.9900  876.0000 6911.2500  23.3300   0.0000 
1212.95 191.1000 170.5900  896.3000 6597.2700  23.8100   0.0000 
1213.05 189.9200 171.9000  903.0100 6798.0298  23.9600   0.0000 
1213.15 188.7400 173.2200  909.7300 6998.7900  24.1100   0.0000 
1213.25 189.9800 174.4100  904.2300 7247.2700  23.9500   0.0000 
1213.35 191.2300 175.6100  898.7400 7495.7598  23.7900   0.0000 
1213.45 192.7200 176.2100  897.4300 7457.5098  23.6100   0.0000 
1213.55 194.2200 176.8000  896.1300 7419.2598  23.4300   0.0000 
1213.65 196.0900 177.7100  911.7500 7351.4302  23.2000   0.0000 
1213.75 197.9600 178.6100  927.3600 7283.6001  22.9800   0.0000 
1213.85 197.0000 177.1900  952.4300 7235.3901  23.1000   0.0000 
1213.95 196.0300 175.7800  977.5100 7187.1699  23.2100   0.0000 
1214.05 198.4800 176.2000  965.7600 7352.3301  22.9200   0.0000 
1214.15 200.9300 176.6100  954.0100 7517.5000  22.6400   0.0000 
1214.25 194.1800 178.0100  930.2400 7490.7798  23.4300   0.0000 
1214.35 187.4200 179.4100  906.4800 7464.0698  24.2800   0.0000 
1214.45 183.6000 177.7000  891.2500 7208.6099  24.7800   0.0000 
1214.55 179.7800 175.9800  876.0200 6953.1499  25.3100   0.0000 
1214.65 178.2800 169.4600  850.0500 6767.0898  25.5200   0.0000 
1214.75 176.7800 162.9400  824.0700 6581.0298  25.7400   0.0000 
1214.85 171.9400 155.4300  806.5100 6326.1001  26.4600   0.0000 
1214.95 167.1000 147.9300  788.9500 6071.1699  27.2300   0.0000 
1215.05 164.8100 144.8600  777.0900 6045.2798  27.6100   0.0000 
1215.15 162.5200 141.7800  765.2300 6019.3799  28.0000   0.0000 
1215.25 162.2600 143.0000  759.4800 6112.6401  28.0400   0.0000 
1215.35 162.0000 144.2200  753.7200 6205.8901  28.0900   0.0000 
1215.45 161.2600 145.0100  738.4400 6108.6802  28.2200   0.0000 
1215.55 160.5200 145.8000  723.1500 6011.4702  28.3500   0.0000 
1215.65 157.2900 145.1000  708.0900 5884.6201  28.9300   0.0000 
1215.75 154.0700 144.3900  693.0200 5757.7798  29.5300   0.0000 
1215.85 154.8900 144.2000  693.3000 5666.6201  29.3800   0.0000 
1215.95 155.7100 144.0000  693.5800 5575.4702  29.2200   0.0000 
1216.05 157.0900 141.9900  675.6200 5626.7798  28.9600   0.0000 
1216.15 158.4800 139.9800  657.6600 5678.0898  28.7100   0.0000 
1216.25 155.4000 138.6800  652.7100 5659.1499  29.2800   0.0000 
1216.35 152.3200 137.3900  647.7500 5640.2202  29.8700   0.0000 
1216.45 152.6400 137.6000  667.3800 5622.3398  29.8100   0.0000 
1216.55 152.9700 137.8000  687.0000 5604.4600  29.7500   0.0000 
1216.65 150.8900 138.7100  688.6900 5699.8398  30.1500   0.0000 
1216.75 148.8100 139.6100  690.3900 5795.2300  30.5800   0.0000 
1216.85 146.4200 139.8000  702.8000 5762.6201  31.0700   0.0000 
1216.95 144.0300 140.0000  715.2100 5730.0000  31.5900   0.0000 
1217.05 142.7800 138.3900  724.8900 5725.8599  31.8700   0.0000 
1217.15 141.5200 136.7800  734.5700 5721.7100  32.1500   0.0000 
1217.25 139.7800 135.5900  709.2000 5668.2598  32.5500   0.0000 
1217.35 138.0300 134.3900  683.8400 5614.8101  32.9600   0.0000 
1217.45 137.8900 132.5900  651.2000 5451.1899  33.0000   0.0000 
1217.55 137.7400 130.7800  618.5600 5287.5698  33.0300   0.0000 
1217.65 141.2100 129.5900  615.9400 5189.7900  32.2200   0.0000 
1217.75 144.6700 128.3900  613.3300 5092.0000  31.4500   0.0000 
1217.85 145.4600 126.5900  623.7600 5116.6499  31.2800   0.0000 
1217.95 146.2600 124.7800  634.1900 5141.2900  31.1100   0.0000 
1218.05 145.0200 123.1800  616.0600 5214.8901  31.3800   0.0000 
1218.15 143.7800 121.5900  597.9300 5288.4902  31.6500   0.0000 
1218.25 139.3100 121.2900  585.8400 5241.4702  32.6600   0.0000 
1218.35 134.8400 121.0000  573.7500 5194.4502  33.7400   0.0000 
1218.45 136.3900 121.4000  567.7900 5155.3701  33.3600   0.0000 
1218.55 137.9300 121.8000  561.8200 5116.2900  32.9900   0.0000 
1218.65 137.4800 120.7000  540.9300 4957.3799  33.1000   0.0000 
1218.75 137.0400 119.5900  520.0500 4798.4800  33.2000   0.0000 
1218.85 134.2900 116.8800  496.5600 4442.7998  33.8800   0.0000 
1218.95 131.5500 114.1700  473.0600 4087.1299  34.5900   0.0000 
1219.05 128.5500 112.3800  466.8000 4111.0200  35.3900   0.0000 
1219.15 125.5500 110.5900  460.5500 4134.8999  36.2400   0.0000 
1219.25 127.3700 111.5000  475.4900 4393.1699  35.7200   0.0000 
1219.35 129.1900 112.4100  490.4400 4651.4302  35.2200   0.0000 
1219.45 129.3500 115.5200  504.6800 4764.9399  35.1700   0.0000 
1219.55 129.5200 118.6300  518.9100 4878.4600  35.1300   0.0000 
1219.65 128.8900 121.7300  551.6200 4994.4302  35.3000   0.0000 
1219.75 128.2600 124.8200  584.3300 5110.4102  35.4800   0.0000 
1219.85 132.9500 130.2400  641.4100 5298.7402  34.2200   0.0000 
1219.95 137.6400 135.6600  698.5000 5487.0801  33.0600   0.0000 
1220.05 145.2500 140.8500  720.3100 5712.7002  31.3300   0.0000 
1220.15 152.8600 146.0500  742.1200 5938.3198  29.7700   0.0000 
1220.25 154.5600 147.4300  743.2000 6043.9199  29.4400   0.0000 
1220.35 156.2600 148.8000  744.2800 6149.5298  29.1200   0.0000 
1220.45 159.0900 148.1000  739.7900 6212.3398  28.6000   0.0000 
1220.55 161.9300 147.3900  735.3000 6275.1499  28.1000   0.0000 
1220.65 162.9700 143.5800  713.1200 5996.6499  27.9200   0.0000 
1220.75 164.0000 139.7600  690.9400 5718.1401  27.7400   0.0000 
1220.85 156.9600 134.8600  675.4600 5357.5000  28.9900   0.0000 
1220.95 149.9200 129.9500  659.9700 4996.8501  30.3500   0.0000 
1221.05 147.4600 130.5900  664.2200 5121.6201  30.8600   0.0000 
1221.15 145.0000 131.2200  668.4600 5246.3901  31.3800   0.0000 
1221.25 146.8500 135.6300  685.9900 5468.0698  30.9800   0.0000 
1221.35 148.7100 140.0500  703.5200 5689.7402  30.6000   0.0000 
1221.45 151.2100 142.6300  696.1500 5680.4600  30.0900   0.0000 
1221.55 153.7100 145.2200  688.7800 5671.1899  29.6000   0.0000 
1221.65 151.7600 141.5900  662.6700 5547.1602  29.9800   0.0000 
1221.75 149.8100 137.9600  636.5700 5423.1201  30.3700   0.0000 
1221.85 147.7900 136.5800  626.9800 5288.6401  30.7900   0.0000 
1221.95 145.7800 135.2000  617.4000 5154.1499  31.2100   0.0000 
1222.05 143.9100 137.5100  626.6600 5201.1401  31.6200   0.0000 
1222.15 142.0400 139.8300  635.9100 5248.1299  32.0300   0.0000 
1222.25 141.1500 139.6100  639.2500 5362.8101  32.2400   0.0000 
1222.35 140.2600 139.3900  642.5900 5477.5000  32.4400   0.0000 
1222.45 138.6500 136.3800  628.6300 5395.7998  32.8200   0.0000 
1222.55 137.0300 133.3700  614.6700 5314.1099  33.2000   0.0000 
1222.65 133.9200 131.4800  600.7100 5222.2998  33.9700   0.0000 
1222.75 130.8100 129.5900  586.7500 5130.4902  34.7800   0.0000 
1222.85 136.2100 130.9000  599.0500 5135.9102  33.4100   0.0000 
1222.95 141.6000 132.2200  611.3500 5141.3198  32.1300   0.0000 
1223.05 146.7700 137.0300  648.7600 5417.8398  31.0000   0.0000 
1223.15 151.9300 141.8500  686.1600 5694.3701  29.9500   0.0000 
1223.25 161.4900 145.3400  716.8300 5898.8701  28.1700   0.0000 
1223.35 171.0600 148.8300  747.5100 6103.3701  26.6000   0.0000 
1223.45 172.9200 148.2100  731.2400 5958.8101  26.3100   0.0000 
1223.55 174.7800 147.5900  714.9700 5814.2598  26.0300   0.0000 
1223.65 168.8300 145.2800  679.7700 5664.0698  26.9500   0.0000 
