~Version information
VERS.                            2.00: CWLS LAS  -  VERSION 2.00
WRAP.                              NO: One line per depth step
~Well information
#MNEM.UNIT                  DATA TYPE  INFORMATION
#===.================================:==================
STRT.M                        880.000: First depth in file
STOP.M                       1240.000: Last depth in file
STEP.M                          0.100: Depth increment
NULL.                        -999.25 : Null values
DATE.                       26/8/2020: LOG DATE
TIME.                                : LOG TIME
WELL.                            8384: Well name
GRP.                                 : Group name
FLD.                             UZEN: Field name
ISS.                                 : Well surveys
SRVC.                       AO "UPGF": Service Company
~Curve information
#MNEM.UNIT                   API CODE   CURVE DESCRIPTION
#===.================================:==================
DEPT.M                               : Depth curve
T60 .мкс                             : : Тау на зонде 60, мкс
T30 .мкс                             : : Тау на зонде 30, мкс
IN60.имп/мин                         : : Интегр. счет на зонде 60
IN30.имп/мин                         : : Интегр. счет на зонде 30
SIGMA.                               : SIGMA
KN_T.д.е.                            : : Free hydrocarbon saturation
#
~Other information
#------------------ REMARKS AREA -----------------------
#=======================================================
# The file is generated by the program EditKar v2003.01
#Number of Curves = 6
~A Log Data Section
# ...
1214.80 153.3130 151.1270  599.8240 2962.4260  30.1250   0.0000 
1214.90 147.3520 144.2440  595.0140 2950.3789  31.5890   0.0000 
1215.00 142.0880 137.3780  588.6410 2931.8230  33.1690   0.0000 
1215.10 141.4450 131.3490  570.4930 2865.7439  34.6880   0.0000 
1215.20 140.6110 125.7530  555.5480 2798.4780  36.2300   0.0000 
1215.30 137.6760 122.6760  562.8630 2732.4399  37.1160   0.0000 
1215.40 135.2110 120.3450  569.9930 2679.3530  37.8290   0.0000 
1215.50 136.1070 122.2140  571.6600 2707.3391  37.2110   0.0000 
1215.60 136.6390 124.4160  572.6930 2736.1860  36.5510   0.0000 
1215.70 134.2300 127.8770  570.7840 2754.5100  35.5510   0.0000 
1215.80 132.5330 130.8420  571.3930 2776.4580  34.7510   0.0000 
1215.90 135.8770 130.4460  588.3890 2823.1951  34.8840   0.0000 
1216.00 139.0430 130.1460  603.2130 2872.7639  34.9620   0.0000 
1216.10 140.1080 131.1080  601.2280 2935.4009  34.6960   0.0000 
1216.20 140.7730 132.3750  597.5250 2985.7229  34.3620   0.0000 
1216.30 139.3380 135.3230  586.2580 2956.6650  33.6000   0.0000 
1216.40 138.2390 137.7880  576.8990 2920.1521  33.0040   0.0000 
1216.50 139.6600 136.8920  580.9820 2852.1631  33.2450   0.0000 
1216.60 141.6300 136.0250  584.6150 2794.0920  33.4550   0.0000 
1216.70 146.5390 136.0000  582.7840 2804.9700  33.4550   0.0000 
1216.80 150.4690 136.2000  582.0550 2819.9780  33.4050   0.0000 
1216.90 147.6760 137.6620  589.3090 2847.5901  33.0410   0.0000 
1217.00 145.1440 138.5590  594.7360 2870.9060  32.8310   0.0000 
1217.10 145.5540 135.6740  587.1320 2864.8069  33.5580   0.0000 
1217.20 144.9830 132.2070  575.6560 2851.2529  34.4420   0.0000 
1217.30 137.6900 125.7980  542.3280 2796.5200  36.2250   0.0000 
1217.40 131.9960 120.4350  516.6240 2743.6011  37.8290   0.0000 
1217.50 137.6430 122.2140  543.0040 2710.0259  37.2110   0.0000 
1217.60 143.9150 125.0180  576.2420 2698.2839  36.3690   0.0000 
1217.70 151.8630 132.8630  642.2340 2820.1709  34.1830   0.0000 
1217.80 158.5920 139.7260  699.9990 2942.6240  32.5160   0.0000 
1217.90 157.3380 139.4460  699.7840 3042.8101  32.6320   0.0000 
1218.00 155.8380 138.6110  693.9050 3124.1780  32.8310   0.0000 
1218.10 154.3370 135.6740  663.6370 3091.6609  33.5580   0.0000 
1218.20 152.8380 132.9430  635.0610 3058.9580  34.2460   0.0000 
1218.30 151.3380 131.8920  621.5960 3046.8250  34.5050   0.0000 
1218.40 150.3060 131.2260  612.5430 3040.0071  34.6780   0.0000 
1218.50 152.2140 132.6600  628.2700 3062.5879  34.2860   0.0000 
1218.60 153.8810 134.4290  643.7770 3085.9031  33.8330   0.0000 
1218.70 153.4460 137.8770  652.9710 3107.9419  32.9750   0.0000 
1218.80 152.4770 140.7750  656.4170 3119.3020  32.3010   0.0000 
1218.90 148.5680 139.8920  624.9900 3063.8579  32.5320   0.0000 
1219.00 144.7690 138.3570  592.3590 3006.2959  32.8970   0.0000 
1219.10 142.2280 133.4570  558.8650 2948.2749  34.1310   0.0000 
1219.20 140.4660 128.6600  528.2590 2889.5669  35.4030   0.0000 
1219.30 143.3230 125.1220  515.7040 2826.2100  36.3950   0.0000 
1219.40 146.9920 121.8890  510.9280 2766.1260  37.3580   0.0000 
1219.50 154.8580 120.3390  551.5060 2727.4890  37.8240   0.0000 
1219.60 161.7260 120.1090  594.0690 2711.2791  37.8830   0.0000 
1219.70 161.4460 127.8630  639.9660 2832.0630  35.5180   0.0000 
1219.80 161.4810 135.5960  683.4240 2959.6060  33.4980   0.0000 
1219.90 164.8770 141.6470  710.9150 3103.1150  32.0810   0.0000 
1220.00 168.5110 146.9110  735.5720 3238.0081  30.9370   0.0000 
1220.10 172.9880 147.5540  745.5300 3315.8110  30.8330   0.0000 
1220.20 176.9500 148.0540  750.5420 3387.6919  30.7280   0.0000 
1220.30 177.5540 148.5540  727.4080 3433.9790  30.6250   0.0000 
1220.40 176.9170 148.7190  705.5500 3461.9541  30.5930   0.0000 
1220.50 169.1410 146.7850  697.1410 3379.8931  31.0100   0.0000 
1220.60 161.2700 144.7840  692.0800 3288.3140  31.4390   0.0000 
1220.70 154.2440 142.7840  705.5110 3158.9761  31.8790   0.0000 
1220.80 148.5820 141.3190  718.9760 3042.4619  32.2060   0.0000 
1220.90 151.3230 143.2150  729.0790 3013.7590  31.7560   0.0000 
1221.00 154.4570 145.0150  738.5430 3003.9451  31.3640   0.0000 
1221.10 158.4330 145.5540  744.6500 3095.8721  31.2560   0.0000 
1221.20 162.4320 146.3210  750.6470 3184.8701  31.0900   0.0000 
1221.30 166.4310 148.7690  756.6470 3236.5190  30.5680   0.0000 
1221.40 170.0970 151.3360  768.2650 3284.5410  30.0500   0.0000 
1221.50 171.6600 154.3210  815.1500 3317.0000  29.4660   0.0000 
1221.60 173.0950 156.9890  867.9990 3360.3970  28.9680   0.0000 
1221.70 174.1080 157.5540  951.0690 3475.1990  28.8760   0.0000 
1221.80 175.9770 158.2540 1031.9910 3595.5449  28.7470   0.0000 
1221.90 183.3090 160.2150 1093.5861 3736.8989  28.3880   0.0000 
1222.00 191.1430 162.2150 1146.8900 3882.4319  28.0380   0.0000 
1222.10 201.0840 164.2160 1151.8790 4050.3450  27.6970   0.0000 
1222.20 209.2730 166.2820 1155.1100 4212.8071  27.3520   0.0000 
1222.30 206.1220 168.7690 1156.6620 4337.9541  26.9470   0.0000 
1222.40  -999.25  -999.25   -999.25   -999.25  -999.25   0.0000 
1222.50  -999.25  -999.25   -999.25   -999.25  -999.25   0.0000 
1222.60  -999.25  -999.25   -999.25   -999.25  -999.25   0.0000 
1222.70  -999.25  -999.25   -999.25   -999.25  -999.25   0.0000 
1222.80  -999.25  -999.25   -999.25   -999.25  -999.25   0.0000 
1222.90  -999.25  -999.25   -999.25   -999.25  -999.25   0.0000 
1223.00  -999.25  -999.25   -999.25   -999.25  -999.25   0.0000 
1223.10  -999.25  -999.25   -999.25   -999.25  -999.25   0.0000 
1223.20  -999.25  -999.25   -999.25   -999.25  -999.25   0.0000 
1223.30  -999.25  -999.25   -999.25   -999.25  -999.25   0.0000 
1223.40  -999.25  -999.25   -999.25   -999.25  -999.25   0.0000 
1223.50  -999.25  -999.25   -999.25   -999.25  -999.25   0.0000 
1223.60  -999.25  -999.25   -999.25   -999.25  -999.25   0.0000 
1223.70  -999.25  -999.25   -999.25   -999.25  -999.25   0.0000 
1223.80  -999.25  -999.25   -999.25   -999.25  -999.25   0.0000 
1223.90  -999.25  -999.25   -999.25   -999.25  -999.25   0.0000 
1224.00  -999.25  -999.25   -999.25   -999.25  -999.25   0.0000 
1224.10  -999.25  -999.25   -999.25   -999.25  -999.25   0.0000 
1224.20  -999.25  -999.25   -999.25   -999.25  -999.25   0.0000 
1224.30  -999.25  -999.25   -999.25   -999.25  -999.25   0.0000 
1224.40  -999.25  -999.25   -999.25   -999.25  -999.25   0.0000 
1224.50  -999.25  -999.25   -999.25   -999.25  -999.25   0.0000 
1224.60  -999.25  -999.25   -999.25   -999.25  -999.25   0.0000 
1224.70  -999.25  -999.25   -999.25   -999.25  -999.25   0.0000 
1224.80  -999.25  -999.25   -999.25   -999.25  -999.25   0.0000 
1224.90  -999.25  -999.25   -999.25   -999.25  -999.25   0.0000 
1225.00  -999.25  -999.25   -999.25   -999.25  -999.25   0.0000 
1225.10  -999.25  -999.25   -999.25   -999.25  -999.25   0.0000 
1225.20  -999.25  -999.25   -999.25   -999.25  -999.25   0.0000 
1225.30  -999.25  -999.25   -999.25   -999.25  -999.25   0.0000 
1225.40  -999.25  -999.25   -999.25   -999.25  -999.25   0.0000 
1225.50  -999.25  -999.25   -999.25   -999.25  -999.25   0.0000 
1225.60  -999.25  -999.25   -999.25   -999.25  -999.25   0.0000 
1225.70  -999.25  -999.25   -999.25   -999.25  -999.25   0.0000 
1225.80  -999.25  -999.25   -999.25   -999.25  -999.25   0.0000 
1225.90  -999.25  -999.25   -999.25   -999.25  -999.25   0.0000 
1226.00  -999.25  -999.25   -999.25   -999.25  -999.25   0.0000 
1226.10  -999.25  -999.25   -999.25   -999.25  -999.25   0.0000 
1226.20  -999.25  -999.25   -999.25   -999.25  -999.25   0.0000 
1226.30  -999.25  -999.25   -999.25   -999.25  -999.25   0.0000 
1226.40  -999.25  -999.25   -999.25   -999.25  -999.25   0.0000 
1226.50  -999.25  -999.25   -999.25   -999.25  -999.25   0.0000 
1226.60  -999.25  -999.25   -999.25   -999.25  -999.25   0.0000 
1226.70  -999.25  -999.25   -999.25   -999.25  -999.25   0.0000 
1226.80  -999.25  -999.25   -999.25   -999.25  -999.25   0.0000 
1226.90  -999.25  -999.25   -999.25   -999.25  -999.25   0.0000 
1227.00  -999.25  -999.25   -999.25   -999.25  -999.25   0.0000 
1227.10  -999.25  -999.25   -999.25   -999.25  -999.25   0.0000 
