~Version information
VERS.                            2.00: CWLS LAS  -  VERSION 2.00
WRAP.                              NO: One line per depth step
~Well information
#MNEM.UNIT                  DATA TYPE  INFORMATION
#===.================================:==================
STRT.M                        880.000: First depth in file
STOP.M                       1240.000: Last depth in file
STEP.M                          0.100: Depth increment
NULL.                        -999.25 : Null values
DATE.                       26/8/2020: LOG DATE
TIME.                                : LOG TIME
WELL.                            8384: Well name
GRP.                                 : Group name
FLD.                             UZEN: Field name
ISS.                                 : Well surveys
SRVC.                       AO "UPGF": Service Company
~Curve information
#MNEM.UNIT                   API CODE   CURVE DESCRIPTION
#===.================================:==================
DEPT.M                               : Depth curve
T60 .мкс                             : : Тау на зонде 60, мкс
T30 .мкс                             : : Тау на зонде 30, мкс
IN60.имп/мин                         : : Интегр. счет на зонде 60
IN30.имп/мин                         : : Интегр. счет на зонде 30
SIGMA.                               : SIGMA
KN_T.д.е.                            : : Free hydrocarbon saturation
#
~Other information
#------------------ REMARKS AREA -----------------------
#=======================================================
# The file is generated by the program EditKar v2003.01
#Number of Curves = 6
~A Log Data Section
# ...
1078.40  -999.25  -999.25   -999.25   -999.25  -999.25   0.0000 
1078.50  -999.25  -999.25   -999.25   -999.25  -999.25   0.0000 
1078.60  -999.25  -999.25   -999.25   -999.25  -999.25   0.0000 
1078.70  -999.25  -999.25   -999.25   -999.25  -999.25   0.0000 
1078.80  -999.25  -999.25   -999.25   -999.25  -999.25   0.0000 
1078.90  -999.25  -999.25   -999.25   -999.25  -999.25   0.0000 
1079.00  -999.25  -999.25   -999.25   -999.25  -999.25   0.0000 
1079.10  -999.25  -999.25   -999.25   -999.25  -999.25   0.0000 
1079.20  -999.25  -999.25   -999.25   -999.25  -999.25   0.0000 
1079.30  -999.25  -999.25   -999.25   -999.25  -999.25   0.0000 
1079.40  -999.25  -999.25   -999.25   -999.25  -999.25   0.0000 
1079.50  -999.25  -999.25   -999.25   -999.25  -999.25   0.0000 
1079.60  -999.25  -999.25   -999.25   -999.25  -999.25   0.0000 
1079.70  -999.25  -999.25   -999.25   -999.25  -999.25   0.0000 
1079.80  -999.25  -999.25   -999.25   -999.25  -999.25   0.0000 
1079.90  -999.25  -999.25   -999.25   -999.25  -999.25   0.0000 
1080.00  -999.25  -999.25   -999.25   -999.25  -999.25   0.0000 
1080.10  -999.25  -999.25   -999.25   -999.25  -999.25   0.0000 
1080.20  -999.25  -999.25   -999.25   -999.25  -999.25   0.0000 
1080.30  -999.25  -999.25   -999.25   -999.25  -999.25   0.0000 
1080.40  -999.25  -999.25   -999.25   -999.25  -999.25   0.0000 
1080.50  -999.25  -999.25   -999.25   -999.25  -999.25   0.0000 
1080.60  -999.25  -999.25   -999.25   -999.25  -999.25   0.0000 
1080.70  -999.25  -999.25   -999.25   -999.25  -999.25   0.0000 
1080.80  -999.25  -999.25   -999.25   -999.25  -999.25   0.0000 
1080.90  -999.25  -999.25   -999.25   -999.25  -999.25   0.0000 
1081.00  -999.25  -999.25   -999.25   -999.25  -999.25   0.0000 
1081.10  -999.25  -999.25   -999.25   -999.25  -999.25   0.0000 
1081.20  -999.25  -999.25   -999.25   -999.25  -999.25   0.0000 
1081.30  -999.25  -999.25   -999.25   -999.25  -999.25   0.0000 
1081.40  -999.25  -999.25   -999.25   -999.25  -999.25   0.0000 
1081.50  -999.25  -999.25   -999.25   -999.25  -999.25   0.0000 
1081.60  -999.25  -999.25   -999.25   -999.25  -999.25   0.0000 
1081.70  -999.25  -999.25   -999.25   -999.25  -999.25   0.0000 
1081.80  -999.25  -999.25   -999.25   -999.25  -999.25   0.0000 
1081.90  -999.25  -999.25   -999.25   -999.25  -999.25   0.0000 
1082.00  -999.25  -999.25   -999.25   -999.25  -999.25   0.0000 
1082.10  -999.25  -999.25   -999.25   -999.25  -999.25   0.0000 
1082.20  -999.25  -999.25   -999.25   -999.25  -999.25   0.0000 
1082.30  -999.25  -999.25   -999.25   -999.25  -999.25   0.0000 
1082.40  -999.25  -999.25   -999.25   -999.25  -999.25   0.0000 
1082.50  -999.25  -999.25   -999.25   -999.25  -999.25   0.0000 
1082.60  -999.25  -999.25   -999.25   -999.25  -999.25   0.0000 
1082.70  -999.25  -999.25   -999.25   -999.25  -999.25   0.0000 
1082.80  -999.25  -999.25   -999.25   -999.25  -999.25   0.0000 
1082.90  -999.25  -999.25   -999.25   -999.25  -999.25   0.0000 
1083.00  -999.25  -999.25   -999.25   -999.25  -999.25   0.0000 
1083.10  -999.25  -999.25   -999.25   -999.25  -999.25   0.0000 
1083.20  -999.25  -999.25   -999.25   -999.25  -999.25   0.0000 
1083.30  -999.25  -999.25   -999.25   -999.25  -999.25   0.0000 
1083.40  -999.25  -999.25   -999.25   -999.25  -999.25   0.0000 
1083.50  -999.25  -999.25   -999.25   -999.25  -999.25   0.0000 
1083.60  -999.25  -999.25   -999.25   -999.25  -999.25   0.0000 
1083.70  -999.25  -999.25   -999.25   -999.25  -999.25   0.0000 
1083.80  -999.25  -999.25   -999.25   -999.25  -999.25   0.0000 
1083.90  -999.25  -999.25   -999.25   -999.25  -999.25   0.0000 
1084.00  -999.25  -999.25   -999.25   -999.25  -999.25   0.0000 
1084.10  -999.25  -999.25   -999.25   -999.25  -999.25   0.0000 
1084.20  -999.25  -999.25   -999.25   -999.25  -999.25   0.0000 
1084.30  -999.25  -999.25   -999.25   -999.25  -999.25   0.0000 
1084.40  -999.25  -999.25   -999.25   -999.25  -999.25   0.0000 
1084.50  -999.25  -999.25   -999.25   -999.25  -999.25   0.0000 
1084.60  -999.25  -999.25   -999.25   -999.25  -999.25   0.0000 
1084.70  -999.25  -999.25   -999.25   -999.25  -999.25   0.0000 
1084.80  -999.25  -999.25   -999.25   -999.25  -999.25   0.0000 
1084.90  -999.25  -999.25   -999.25   -999.25  -999.25   0.0000 
1085.00  -999.25  -999.25   -999.25   -999.25  -999.25   0.0000 
1085.10  -999.25  -999.25   -999.25   -999.25  -999.25   0.0000 
1085.20  -999.25  -999.25   -999.25   -999.25  -999.25   0.0000 
1085.30  -999.25  -999.25   -999.25   -999.25  -999.25   0.0000 
1085.40 144.0000  -999.25  468.0000   -999.25  -999.25   0.0000 
1085.50 144.0000  -999.25  468.0000   -999.25  -999.25   0.0000 
1085.60 137.6950  -999.25  459.2700   -999.25  -999.25   0.0000 
1085.70 131.1950  -999.25  450.2700   -999.25  39.9120   0.0000 
1085.80 133.9100 114.0000  485.8900 2411.5659  39.9120   0.0000 
1085.90 136.9100 114.0000  522.8900 2411.5659  39.9120   0.0000 
1086.00 140.8770 124.1780  545.3270 2518.6860  36.5480   0.0000 
1086.10 144.8790 134.6840  567.3390 2629.2490  33.7030   0.0000 
1086.20 143.0600 134.0300  514.6500 2588.4309  33.9550   0.0000 
1086.30 141.0600 133.0300  459.6500 2542.9309  34.2100   0.0000 
1086.40 134.2140 126.6980  431.8260 2457.7129  35.9670   0.0000 
1086.50 127.2100 120.1950  404.8100 2371.1631  37.9160   0.0000 
1086.60 122.6350 117.0900  400.6050 2379.7209  38.8880   0.0000 
1086.70 118.1350 114.0900  397.1050 2391.2209  39.9120   0.0000 
1086.80 118.4850 113.0300  395.0600 2388.1709  40.2650   0.0000 
1086.90 118.9850 112.0300  393.0600 2384.6709  40.6250   0.0000 
1087.00 119.4840 113.4540  385.2440 2370.5100  40.0880   0.0000 
1087.10 119.9850 114.9550  377.2400 2356.0020  39.5650   0.0000 
1087.20 117.5750 115.0000  365.8450 2383.2109  39.5650   0.0000 
1087.30 115.0750 115.0000  354.3450 2411.7109  39.5650   0.0000 
1087.40 119.3620 113.0610  351.5760 2354.4021  40.2650   0.0000 
1087.50 123.8640 111.0600  349.0750 2294.3669  40.9910   0.0000 
1087.60 124.4850 112.4550  346.5750 2238.2461  40.4440   0.0000 
1087.70 124.9850 113.9550  344.0750 2182.2461  39.9120   0.0000 
1087.80 125.0000 114.0000  336.7250 2205.7859  39.9120   0.0000 
1087.90 125.0000 114.0000  329.2250 2231.7859  39.9120   0.0000 
1088.00 123.0610 112.0610  332.3920 2210.2700  40.6240   0.0000 
1088.10 121.0600 110.0600  335.8940 2187.2571  41.3630   0.0000 
1088.20 117.6050 110.0000  354.4300 2172.5010  41.3630   0.0000 
1088.30 114.1050 110.0000  373.4300 2158.0010  41.3630   0.0000 
1088.40 115.4540 111.4540  395.8110 2212.8230  40.8070   0.0000 
1088.50 116.9550 112.9550  418.3240 2269.8550  40.2650   0.0000 
1088.60 120.8800 114.9400  417.5450 2296.7859  39.5650   0.0000 
1088.70 124.8800 116.9400  416.0450 2322.7859  38.8880   0.0000 
1088.80 131.7900 118.9400  411.6350 2283.3120  38.2350   0.0000 
1088.90 138.7900 120.9400  407.1350 2241.8120  37.6030   0.0000 
1089.00 139.4840 119.5450  414.7550 2251.7151  38.0750   0.0000 
1089.10 139.9850 118.0450  422.7590 2263.2209  38.5590   0.0000 
1089.20 140.0000 115.0900  410.8750 2329.5259  39.5650   0.0000 
1089.30 140.0000 112.0900  398.3750 2397.5259  40.6250   0.0000 
1089.40 139.5150 112.4840  392.6680 2416.5310  40.4440   0.0000 
1089.50 139.0150 112.9850  387.1650 2434.0410  40.2650   0.0000 
1089.60 133.1800 113.0000  417.0700 2370.5459  40.2650   0.0000 
1089.70 127.1800 113.0000  448.0700 2304.5459  40.2650   0.0000 
1089.80 127.0000 118.3350  468.8850 2337.9709  38.3960   0.0000 
1089.90 127.0000 123.8350  489.3850 2374.4709  36.6930   0.0000 
1090.00 130.3930 125.9380  480.3050 2468.1450  36.1110   0.0000 
1090.10 133.8940 127.9400  470.3000 2563.7000  35.5460   0.0000 
1090.20 128.6650 125.0900  454.4800 2500.6060  36.4000   0.0000 
1090.30 123.1650 122.0900  438.4800 2432.6060  37.2950   0.0000 
1090.40 122.0300 118.6070  437.5150 2378.2180  38.3950   0.0000 
1090.50 121.0300 115.1050  437.0150 2324.1870  39.5650   0.0000 
1090.60 129.2450 115.9700  441.8500 2356.5161  39.2240   0.0000 
1090.70 137.7450 116.9700  446.8500 2391.5161  38.8880   0.0000 
