~Version information
VERS.                            2.00: CWLS LAS  -  VERSION 2.00
WRAP.                              NO: One line per depth step
~Well information
#MNEM.UNIT                  DATA TYPE  INFORMATION
#===.================================:==================
STRT.M                        880.000: First depth in file
STOP.M                       1240.000: Last depth in file
STEP.M                          0.100: Depth increment
NULL.                        -999.25 : Null values
DATE.                       26/8/2020: LOG DATE
TIME.                                : LOG TIME
WELL.                            8384: Well name
GRP.                                 : Group name
FLD.                             UZEN: Field name
ISS.                                 : Well surveys
SRVC.                       AO "UPGF": Service Company
~Curve information
#MNEM.UNIT                   API CODE   CURVE DESCRIPTION
#===.================================:==================
DEPT.M                               : Depth curve
T60 .мкс                             : : Тау на зонде 60, мкс
T30 .мкс                             : : Тау на зонде 30, мкс
IN60.имп/мин                         : : Интегр. счет на зонде 60
IN30.имп/мин                         : : Интегр. счет на зонде 30
SIGMA.                               : SIGMA
KN_T.д.е.                            : : Free hydrocarbon saturation
#
~Other information
#------------------ REMARKS AREA -----------------------
#=======================================================
# The file is generated by the program EditKar v2003.01
#Number of Curves = 6
~A Log Data Section
# ...
1103.20 131.0900 109.5150  377.5550 2239.4709  41.5520   0.0000 
1103.30 128.0900 109.0150  409.0550 2225.9709  41.7430   0.0000 
1103.40 128.0000 109.4840  439.5670 2305.5430  41.5520   0.0000 
1103.50 128.0000 109.9850  470.0840 2388.0901  41.3630   0.0000 
1103.60 126.0600 113.3950  464.6950 2406.5710  40.0880   0.0000 
1103.70 124.0600 116.8950  458.1950 2423.0710  38.8880   0.0000 
1103.80 119.6350 120.3950  444.4200 2438.6011  37.7590   0.0000 
1103.90 115.1350 123.8950  430.4200 2454.1011  36.6930   0.0000 
1104.00 122.2700 121.5760  438.7240 2458.4441  37.4480   0.0000 
1104.10 129.7740 119.0750  447.7290 2462.4460  38.2350   0.0000 
1104.20 128.5450 117.0600  451.3950 2448.9861  38.8880   0.0000 
1104.30 127.0450 115.0600  454.8950 2434.9861  39.5650   0.0000 
1104.40 123.1220 117.4230  471.9640 2494.6699  38.7230   0.0000 
1104.50 119.1200 119.9250  489.4740 2556.7051  37.9160   0.0000 
1104.60 125.7900 121.4550  519.5850 2608.0359  37.4480   0.0000 
1104.70 132.7900 122.9550  550.0850 2659.0359  36.9910   0.0000 
1104.80 136.8800 122.0300  528.6900 2641.6509  37.2950   0.0000 
1104.90 140.8800 121.0300  505.6900 2622.1509  37.6030   0.0000 
1105.00 139.0610 121.4840  479.3100 2585.6980  37.4480   0.0000 
1105.10 137.0600 121.9850  452.7950 2548.6770  37.2950   0.0000 
1105.20 137.0000 119.5750  442.7850 2515.0710  38.0750   0.0000 
1105.30 137.0000 117.0750  433.2850 2481.5710  38.8880   0.0000 
1105.40 138.4540 116.0300  429.1220 2475.2351  39.2230   0.0000 
1105.50 139.9550 115.0300  425.1200 2469.7310  39.5650   0.0000 
1105.60 134.6650 115.4850  427.4250 2460.3511  39.3930   0.0000 
1105.70 129.1650 115.9850  429.9250 2450.8511  39.2240   0.0000 
1105.80 121.2400 115.5150  414.4800 2444.7461  39.3930   0.0000 
1105.90 113.2400 115.0150  398.4800 2438.7461  39.5650   0.0000 
1106.00 113.9690 114.0300  389.2750 2399.3049  39.9120   0.0000 
1106.10 114.9700 113.0300  380.2700 2358.7820  40.2650   0.0000 
1106.20 116.9400 112.0300  394.0650 2333.3159  40.6250   0.0000 
1106.30 118.9400 111.0300  408.5650 2308.3159  40.9910   0.0000 
1106.40 120.8300 113.4400  432.1860 2330.1421  40.0820   0.0000 
1106.50 124.9510 115.5520  472.8410 2383.9490  39.3540   0.0000 
1106.60 132.3600 117.0720  538.1750 2482.7100  38.8500   0.0000 
1106.70 144.8450 120.9650  610.3440 2587.6760  37.5770   0.0000 
1106.80 164.6120 128.3540  691.5210 2699.8879  35.3860   0.0000 
1106.90 177.8400 136.4480  761.0530 2807.3721  33.2860   0.0000 
1107.00 181.1400 145.4220  813.0830 2907.5920  31.2300   0.0000 
1107.10 180.5530 150.0430  831.7230 2952.6389  30.2970   0.0000 
1107.20 174.7160 148.2380  802.2000 2917.1021  30.7060   0.0000 
1107.30 170.3100 144.2490  763.8490 2879.9121  31.5690   0.0000 
1107.40 168.2390 137.3380  714.6770 2843.8770  33.1800   0.0000 
1107.50 164.8460 132.3280  667.3660 2819.6169  34.4220   0.0000 
1107.60 159.4020 130.2370  623.2160 2812.5869  34.9520   0.0000 
1107.70 153.9030 129.4340  580.2220 2774.9751  35.1590   0.0000 
1107.80 148.4060 130.3800  538.7030 2691.9031  34.8890   0.0000 
1107.90 143.5050 129.7880  508.5600 2624.5459  35.0620   0.0000 
1108.00 139.4790 126.8590  495.0560 2582.2859  35.8920   0.0000 
1108.10 136.0730 122.8590  487.0300 2564.4810  37.0700   0.0000 
1108.20 133.5480 117.4060  486.3090 2581.4180  38.8080   0.0000 
1108.30 130.4520 114.6940  482.2280 2587.2739  39.6980   0.0000 
1108.40 126.4790 116.0700  472.8870 2575.3130  39.1850   0.0000 
1108.50 126.0600 118.1670  468.3620 2572.5630  38.4840   0.0000 
1108.60 130.9070 121.1440  471.1440 2584.1440  37.5300   0.0000 
1108.70 133.5120 123.9440  476.7360 2595.1440  36.6850   0.0000 
1108.80 132.6190 126.4510  486.1160 2604.6819  35.9600   0.0000 
1108.90 133.0120 126.9610  483.0770 2606.2200  35.8340   0.0000 
1109.00 135.4500 124.5490  461.6340 2596.0740  36.5530   0.0000 
1109.10 135.5590 122.2460  442.6050 2586.7610  37.2400   0.0000 
1109.20 132.1670 120.2380  427.9800 2579.2119  37.8600   0.0000 
1109.30 132.0510 118.8360  432.9850 2586.0410  38.3010   0.0000 
1109.40 136.9010 118.3090  466.6180 2613.9041  38.4630   0.0000 
1109.50 140.9060 118.6050  492.5620 2654.3420  38.3590   0.0000 
1109.60 143.4530 120.0720  505.9580 2712.3811  37.8790   0.0000 
1109.70 145.7530 121.3720  504.5960 2747.7329  37.4750   0.0000 
1109.80 147.7610 122.3800  482.2450 2749.2571  37.1700   0.0000 
1109.90 150.7550 123.5790  469.4010 2751.5471  36.8070   0.0000 
1110.00 155.2110 125.0700  471.4500 2756.4680  36.3660   0.0000 
1110.10 156.5240 126.9700  475.9470 2761.2729  35.8180   0.0000 
1110.20 153.1670 129.4510  483.3540 2765.7791  35.1270   0.0000 
1110.30 148.0770 130.1590  482.4950 2755.5540  34.9510   0.0000 
1110.40 140.6480 128.2390  469.3660 2723.7080  35.4970   0.0000 
1110.50 136.5300 125.8410  466.6110 2668.5249  36.1770   0.0000 
1110.60 137.3810 122.8550  479.6490 2579.9280  37.0620   0.0000 
1110.70 138.7800 121.6510  500.1270 2516.7729  37.4120   0.0000 
1110.80 140.7610 123.0700  530.7990 2492.1221  36.9570   0.0000 
1110.90 145.7450 126.1620  562.1860 2536.8789  36.0370   0.0000 
1111.00 155.1120 131.5910  594.1680 2681.8450  34.5330   0.0000 
1111.10 164.0230 136.4980  614.4310 2804.8540  33.2980   0.0000 
1111.20 172.0450 140.5220  617.4510 2890.9209  32.3510   0.0000 
1111.30 171.8840 142.1330  612.5880 2921.3701  32.0010   0.0000 
1111.40 159.7460 140.2390  596.9150 2871.7930  32.4580   0.0000 
1111.50 154.4090 138.0400  594.6450 2823.5740  32.9770   0.0000 
1111.60 159.5970 135.5460  612.5560 2780.8550  33.5860   0.0000 
1111.70 165.6950 136.0380  635.4400 2775.8601  33.4420   0.0000 
1111.80 172.6640 140.9030  664.7280 2825.6689  32.2570   0.0000 
1111.90 173.0950 144.5080  678.4990 2869.9871  31.4620   0.0000 
1112.00 163.8870 146.0700  669.1970 2903.8049  31.1390   0.0000 
1112.10 156.3730 144.7790  644.2290 2898.2451  31.4360   0.0000 
1112.20 151.7870 139.4060  597.4190 2835.5149  32.6770   0.0000 
1112.30 150.2730 135.1020  560.6810 2785.7639  33.7100   0.0000 
1112.40 153.1400 132.5490  539.7040 2757.6089  34.3460   0.0000 
1112.50 154.7480 130.4470  532.3370 2727.9209  34.8960   0.0000 
1112.60 154.3090 128.9270  544.2680 2694.9790  35.3030   0.0000 
1112.70 152.6120 127.6270  553.5740 2658.1960  35.6610   0.0000 
1112.80 149.1670 126.6190  558.2120 2615.8889  35.9430   0.0000 
1112.90 148.8520 126.8130  555.9460 2585.3440  35.8770   0.0000 
1113.00 153.2110 128.7600  543.7460 2572.3130  35.3200   0.0000 
1113.10 159.3100 133.1550  539.8110 2559.6021  34.1360   0.0000 
1113.20 167.7350 141.0450  548.4250 2546.6179  32.2040   0.0000 
1113.30 169.4670 145.4600  548.6670 2547.9490  31.2520   0.0000 
1113.40 161.2670 144.6190  536.0560 2570.3120  31.4680   0.0000 
1113.50 154.1600 141.0330  512.7100 2573.4150  32.2870   0.0000 
1113.60 149.0920 133.6390  474.1230 2547.2681  34.1040   0.0000 
1113.70 145.8880 127.7360  446.1010 2496.3401  35.6690   0.0000 
1113.80 145.3090 124.1670  434.1220 2410.4509  36.6750   0.0000 
1113.90 142.2230 122.0610  423.0240 2351.5391  37.2950   0.0000 
1114.00 135.3380 122.0000  412.5070 2333.7920  37.2950   0.0000 
1114.10 131.3230 122.0000  398.2080 2307.1050  37.2950   0.0000 
1114.20 131.6900 122.0000  378.3870 2265.5801  37.2950   0.0000 
1114.30 134.3780 120.2090  367.5470 2222.7991  37.8680   0.0000 
1114.40 140.2810 115.7880  370.1400 2178.8350  39.3410   0.0000 
1114.50 142.7000 114.0740  384.6810 2189.7520  39.9030   0.0000 
1114.60 139.8550 116.4530  416.2060 2281.4221  39.0460   0.0000 
1114.70 137.6540 118.5540  441.4180 2387.9670  38.3580   0.0000 
1114.80 136.6190 120.0700  456.7090 2512.8359  37.8800   0.0000 
1114.90 135.4200 121.7690  463.7450 2577.8020  37.3500   0.0000 
1115.00 133.9290 123.7600  459.0980 2553.9900  36.7460   0.0000 
1115.10 133.0260 124.1660  457.0850 2513.7029  36.6410   0.0000 
1115.20 133.0000 122.2380  459.4510 2453.3479  37.2400   0.0000 
1115.30 132.4030 119.4430  461.5520 2412.4670  38.1200   0.0000 
1115.40 130.9290 115.4790  463.0700 2401.0740  39.4420   0.0000 
1115.50 129.0310 113.6670  459.1980 2378.8340  40.0470   0.0000 
