~Version information
VERS.                            2.00: CWLS LAS  -  VERSION 2.00
WRAP.                              NO: One line per depth step
~Well information
#MNEM.UNIT                  DATA TYPE  INFORMATION
#===.================================:==================
STRT.M                        880.000: First depth in file
STOP.M                       1240.000: Last depth in file
STEP.M                          0.100: Depth increment
NULL.                        -999.25 : Null values
DATE.                       26/8/2020: LOG DATE
TIME.                                : LOG TIME
WELL.                            8384: Well name
GRP.                                 : Group name
FLD.                             UZEN: Field name
ISS.                                 : Well surveys
SRVC.                       AO "UPGF": Service Company
~Curve information
#MNEM.UNIT                   API CODE   CURVE DESCRIPTION
#===.================================:==================
DEPT.M                               : Depth curve
T60 .мкс                             : : Тау на зонде 60, мкс
T30 .мкс                             : : Тау на зонде 30, мкс
IN60.имп/мин                         : : Интегр. счет на зонде 60
IN30.имп/мин                         : : Интегр. счет на зонде 30
SIGMA.                               : SIGMA
KN_T.д.е.                            : : Free hydrocarbon saturation
#
~Other information
#------------------ REMARKS AREA -----------------------
#=======================================================
# The file is generated by the program EditKar v2003.01
#Number of Curves = 6
~A Log Data Section
# ...
1090.80 143.8200 119.9100  466.8850 2414.3911  37.9160   0.0000 
1090.90 149.8200 122.9100  487.3850 2436.8911  36.9910   0.0000 
1091.00 150.9690 125.4230  492.8470 2484.0979  36.2550   0.0000 
1091.10 151.9700 127.9250  497.8490 2532.1260  35.5460   0.0000 
1091.20 153.4550 127.5150  465.9900 2484.0959  35.6860   0.0000 
1091.30 154.9550 127.0150  432.9900 2433.0959  35.8260   0.0000 
1091.40 143.3670 126.5150  445.0870 2373.4021  35.9680   0.0000 
1091.50 131.3600 126.0150  458.5940 2313.3669  36.1110   0.0000 
1091.60 132.4550 128.4250  478.8850 2413.9009  35.4080   0.0000 
1091.70 133.9550 130.9250  499.3850 2519.4009  34.7320   0.0000 
1091.80 130.1200 131.0000  479.6300 2526.4460  34.7320   0.0000 
1091.90 126.1200 131.0000  458.6300 2530.4460  34.7320   0.0000 
1092.00 133.2700 127.6070  450.7290 2480.6421  35.6850   0.0000 
1092.10 140.7740 124.1050  443.2250 2429.1121  36.6930   0.0000 
1092.20 140.5150 122.5450  450.7600 2463.4561  37.1420   0.0000 
1092.30 140.0150 121.0450  458.7600 2500.4561  37.6030   0.0000 
1092.40 136.6070 120.5150  456.0910 2517.5620  37.7590   0.0000 
1092.50 133.1050 120.0150  453.0900 2534.0710  37.9160   0.0000 
1092.60 134.4550 118.5450  457.8500 2535.0520  38.3960   0.0000 
1092.70 135.9550 117.0450  462.8500 2535.5520  38.8880   0.0000 
1092.80 138.9100 118.4550  474.1550 2550.1169  38.3960   0.0000 
1092.90 141.9100 119.9550  485.6550 2565.1169  37.9160   0.0000 
1093.00 143.4540 121.4540  504.9030 2566.0510  37.4480   0.0000 
1093.10 144.9550 122.9550  524.4140 2566.5520  36.9910   0.0000 
1093.20 144.5150 125.9100  522.5750 2610.2161  36.1110   0.0000 
1093.30 144.0150 128.9100  520.0750 2655.2161  35.2710   0.0000 
1093.40 142.0610 129.4840  504.0040 2696.3120  35.1350   0.0000 
1093.50 140.0600 129.9850  487.4950 2737.3359  35.0000   0.0000 
1093.60 138.5450 127.5750  482.1500 2678.9109  35.6860   0.0000 
1093.70 137.0450 125.0750  477.1500 2617.4109  36.4000   0.0000 
1093.80 130.2100 124.0300  471.6650 2552.5161  36.6930   0.0000 
1093.90 123.2100 123.0300  466.1650 2487.5161  36.9910   0.0000 
1094.00 122.5150 119.6070  470.8470 2487.9900  38.0740   0.0000 
1094.10 122.0150 116.1050  475.8490 2490.4910  39.2240   0.0000 
1094.20 125.8800 116.9700  472.6050 2488.6260  38.8880   0.0000 
1094.30 129.8800 117.9700  469.1050 2486.6260  38.5590   0.0000 
1094.40 131.4540 120.4230  452.5200 2468.1470  37.7590   0.0000 
1094.50 132.9550 122.9250  435.5100 2449.1370  36.9910   0.0000 
1094.60 128.1500 121.0600  447.6100 2445.1709  37.6030   0.0000 
1094.70 123.1500 119.0600  460.6100 2441.6709  38.2350   0.0000 
1094.80 122.5150 116.5750  475.5500 2450.2959  39.0550   0.0000 
1094.90 122.0150 114.0750  490.5500 2459.2959  39.9120   0.0000 
1095.00 124.9080 116.9080  488.5760 2482.3469  38.8890   0.0000 
1095.10 127.9090 119.9090  486.0750 2505.8611  37.9160   0.0000 
1095.20 135.2750 122.9100  529.1650 2572.0420  36.9910   0.0000 
1095.30 142.7750 125.9100  573.6650 2639.5420  36.1110   0.0000 
1095.40 160.9340 128.4230  676.3030 2703.1240  35.4090   0.0000 
1095.50 179.4440 130.9250  780.8630 2766.6599  34.7320   0.0000 
1095.60 189.2150 141.1850  899.9150 2960.6270  32.1550   0.0000 
1095.70 198.7150 151.6850 1019.4150 3158.6270  29.9340   0.0000 
1095.80 199.9700 154.9100  994.3850 3305.2161  29.3540   0.0000 
1095.90 200.9700 157.9100  964.8850 3450.2170  28.7970   0.0000 
1096.00 192.7600 152.1830  894.6870 3329.0281  29.9330   0.0000 
1096.10 184.2550 146.1800  823.1460 3199.4541  31.1640   0.0000 
1096.20 185.4550 145.0300  797.2350 3115.0559  31.3790   0.0000 
1096.30 186.9550 144.0300  772.7350 3032.0559  31.5970   0.0000 
1096.40 184.5760 147.8770  704.1410 3008.7241  30.7430   0.0000 
1096.50 182.0750 151.8790  634.1010 2987.2119  29.9340   0.0000 
1096.60 171.3300 145.6950  596.1100 2869.1960  31.2710   0.0000 
1096.70 160.3300 139.1950  559.1100 2748.1960  32.7330   0.0000 
1096.80 148.3600 128.8150  548.3000 2676.6670  35.4080   0.0000 
1096.90 136.3600 118.3150  538.3000 2606.6670  38.5590   0.0000 
1097.00 131.1530 117.0300  534.1220 2619.5920  38.8880   0.0000 
1097.10 126.1500 116.0300  530.1200 2635.1011  39.2240   0.0000 
1097.20 132.7900 117.9400  529.5150 2636.0520  38.5590   0.0000 
1097.30 139.7900 119.9400  529.0150 2636.5520  37.9160   0.0000 
1097.40 143.8770 120.0000  528.5150 2654.0161  37.9160   0.0000 
1097.50 147.8790 120.0000  528.0150 2672.0259  37.9160   0.0000 
1097.60 152.8500 121.9400  560.0100 2662.3811  37.2950   0.0000 
1097.70 157.8500 123.9400  593.0100 2651.8811  36.6930   0.0000 
1097.80 154.6050 128.8500  592.0600 2733.0459  35.2710   0.0000 
1097.90 151.1050 133.8500  590.0600 2817.0459  33.9550   0.0000 
1098.00 138.3970 132.0610  516.3250 2799.6941  34.4690   0.0000 
1098.10 125.3900 130.0600  440.2810 2779.1819  35.0000   0.0000 
1098.20 124.5150 124.1800  402.1100 2582.6270  36.6930   0.0000 
1098.30 124.0150 118.1800  365.1100 2380.6260  38.5590   0.0000 
1098.40 120.6070 116.5450  369.3310 2302.8301  39.0550   0.0000 
1098.50 117.1050 115.0450  374.8340 2228.7881  39.5650   0.0000 
1098.60 119.4250 114.0300  374.5150 2237.2361  39.9120   0.0000 
1098.70 121.9250 113.0300  374.0150 2248.2361  40.2650   0.0000 
1098.80 122.4850 110.5750  371.0900 2229.6509  41.1760   0.0000 
1098.90 122.9850 108.0750  368.0900 2210.1509  42.1290   0.0000 
1099.00 119.1220 108.9690  379.1480 2238.6489  41.7430   0.0000 
1099.10 115.1200 109.9700  390.6540 2268.6660  41.3630   0.0000 
1099.20 117.4250 111.9400  381.3000 2303.0310  40.6250   0.0000 
1099.30 119.9250 113.9400  371.3000 2337.5310  39.9120   0.0000 
1099.40 112.2440 112.5450  368.0910 2357.9551  40.4440   0.0000 
1099.50 104.2400 111.0450  365.0900 2377.9661  40.9910   0.0000 
1099.60 106.9100 111.0000  377.1250 2379.5359  40.9910   0.0000 
1099.70 109.9100 111.0000  389.6250 2380.5359  40.9910   0.0000 
1099.80 115.8200 110.0300  393.3950 2365.5310  41.3630   0.0000 
1099.90 121.8200 109.0300  396.8950 2350.0310  41.7430   0.0000 
1100.00 124.4230 109.9690  405.7240 2377.6790  41.3630   0.0000 
1100.10 126.9250 110.9700  414.7290 2406.6960  40.9910   0.0000 
1100.20 125.5450 110.0300  411.6050 2415.3259  41.3630   0.0000 
1100.30 124.0450 109.0300  408.1050 2423.3259  41.7430   0.0000 
1100.40 124.4840 109.9690  398.3050 2391.5759  41.3630   0.0000 
1100.50 124.9850 110.9700  388.3000 2358.5569  40.9910   0.0000 
1100.60 122.5750 110.5150  380.2400 2360.9609  41.1760   0.0000 
1100.70 120.0750 110.0150  372.2400 2364.4609  41.3630   0.0000 
1100.80 114.1800 111.4550  371.0300 2377.1770  40.8070   0.0000 
1100.90 108.1800 112.9550  370.0300 2390.1770  40.2650   0.0000 
1101.00 109.4540 112.0300  374.3620 2432.7361  40.6240   0.0000 
1101.10 110.9550 111.0300  378.8640 2476.2600  40.9910   0.0000 
1101.20 114.3950 109.0600  381.4250 2498.4209  41.7430   0.0000 
1101.30 117.8950 107.0600  383.9250 2519.9209  42.5230   0.0000 
1101.40 125.7550 108.9380  381.0910 2446.8911  41.7430   0.0000 
1101.50 133.7590 110.9400  378.0900 2370.8479  40.9910   0.0000 
1101.60 134.0000 111.9700  365.8750 2365.6560  40.6250   0.0000 
1101.70 134.0000 112.9700  353.3750 2362.6560  40.2650   0.0000 
1101.80 126.2400 113.4850  352.5150 2381.4810  40.0880   0.0000 
1101.90 118.2400 113.9850  352.0150 2400.9810  39.9120   0.0000 
1102.00 116.0610 114.4840  368.4790 2361.8210  39.7380   0.0000 
1102.10 114.0600 114.9850  385.4890 2320.7971  39.5650   0.0000 
1102.20 115.9400 115.0000  386.0000 2305.9861  39.5650   0.0000 
1102.30 117.9400 115.0000  386.0000 2291.9861  39.5650   0.0000 
1102.40 116.5450 114.5150  398.1170 2316.2859  39.7370   0.0000 
1102.50 115.0450 114.0150  410.6240 2341.8010  39.9120   0.0000 
1102.60 124.2150 111.5750  416.3350 2364.3911  40.8070   0.0000 
1102.70 133.7150 109.0750  421.8350 2386.8911  41.7430   0.0000 
1102.80 140.3050 110.4550  397.2650 2401.1460  41.1760   0.0000 
1102.90 146.8050 111.9550  371.7650 2415.1460  40.6250   0.0000 
1103.00 140.6980 111.0300  359.3670 2336.5601  40.9900   0.0000 
1103.10 134.1950 110.0300  347.3600 2255.0129  41.3630   0.0000 
