~Version information
VERS.                            2.00: CWLS LAS  -  VERSION 2.00
WRAP.                              NO: One line per depth step
~Well information
#MNEM.UNIT                  DATA TYPE  INFORMATION
#===.================================:==================
STRT.M                        880.000: First depth in file
STOP.M                       1240.000: Last depth in file
STEP.M                          0.100: Depth increment
NULL.                        -999.25 : Null values
DATE.                       26/8/2020: LOG DATE
TIME.                                : LOG TIME
WELL.                            8384: Well name
GRP.                                 : Group name
FLD.                             UZEN: Field name
ISS.                                 : Well surveys
SRVC.                       AO "UPGF": Service Company
~Curve information
#MNEM.UNIT                   API CODE   CURVE DESCRIPTION
#===.================================:==================
DEPT.M                               : Depth curve
T60 .мкс                             : : Тау на зонде 60, мкс
T30 .мкс                             : : Тау на зонде 30, мкс
IN60.имп/мин                         : : Интегр. счет на зонде 60
IN30.имп/мин                         : : Интегр. счет на зонде 30
SIGMA.                               : SIGMA
KN_T.д.е.                            : : Free hydrocarbon saturation
#
~Other information
#------------------ REMARKS AREA -----------------------
#=======================================================
# The file is generated by the program EditKar v2003.01
#Number of Curves = 6
~A Log Data Section
# ...
1115.60 126.5460 115.0720  447.4220 2339.3091  39.5240   0.0000 
1115.70 124.4450 116.5710  426.8490 2292.5359  39.0160   0.0000 
1115.80 122.9290 118.0700  393.7480 2235.8701  38.5210   0.0000 
1115.90 121.8270 116.7840  364.2400 2190.2329  38.9740   0.0000 
1116.00 121.3090 111.4080  340.5640 2161.2290  40.9010   0.0000 
1116.10 119.4130 108.2960  331.0030 2161.6221  42.0490   0.0000 
1116.20 115.4770 108.6900  341.8770 2204.3140  41.8560   0.0000 
1116.30 114.4630 109.5880  355.3620 2240.3391  41.5080   0.0000 
1116.40 117.8300 111.0700  371.7740 2264.6931  40.9480   0.0000 
1116.50 120.9320 110.9780  386.6820 2284.3149  41.0000   0.0000 
1116.60 123.4530 108.5460  399.2680 2297.5249  41.9460   0.0000 
1116.70 126.3520 108.2400  411.9640 2338.4451  42.0380   0.0000 
1116.80 129.8320 111.1410  424.9480 2420.1589  40.9050   0.0000 
1116.90 132.9330 113.7420  444.5090 2498.3530  39.9750   0.0000 
1117.00 135.4500 115.7600  473.7170 2569.5649  39.2840   0.0000 
1117.10 135.7590 117.7620  493.0730 2598.9480  38.6170   0.0000 
1117.20 132.8580 119.7610  497.5220 2567.3149  37.9730   0.0000 
1117.30 132.8430 121.5610  500.1280 2560.2910  37.4130   0.0000 
1117.40 137.2110 123.0700  500.6900 2592.1150  36.9570   0.0000 
1117.50 144.2970 124.1720  528.8470 2657.9460  36.6330   0.0000 
1117.60 155.1950 124.6900  597.7000 2772.1230  36.4850   0.0000 
1117.70 163.9990 127.5840  655.7190 2870.4470  35.6370   0.0000 
1117.80 169.5930 133.9740  696.2250 2943.6631  33.9120   0.0000 
1117.90 175.2900 141.4660  718.7000 3010.7639  32.1110   0.0000 
1118.00 181.2810 150.4220  715.4780 3070.0020  30.1940   0.0000 
1118.10 183.8960 155.6410  714.2670 3100.7361  29.2050   0.0000 
1118.20 181.5480 155.3090  717.1410 3089.9990  29.2990   0.0000 
1118.30 179.2480 154.6100  713.5740 3068.6509  29.4320   0.0000 
1118.40 177.2390 153.6190  700.3660 3033.5669  29.6240   0.0000 
1118.50 176.4330 154.8080  686.4680 3014.1841  29.3840   0.1320 
1118.60 177.3810 159.2160  671.9690 3018.4741  28.5530   0.2930 
1118.70 178.9790 161.7210  661.0620 3040.6250  28.1220   0.4640 
1118.80 181.4510 161.3090  655.4060 3087.8369  28.2090   0.5130 
1118.90 182.7560 160.6100  657.8670 3130.2480  28.3330   0.5420 
1119.00 182.3090 159.6190  672.0130 3164.4951  28.5100   0.5710 
1119.10 181.8090 158.0200  693.7070 3182.7710  28.8020   0.5990 
1119.20 181.3090 155.5480  725.8700 3177.9729  29.2650   0.6260 
1119.30 183.1970 154.8400  742.0420 3184.0161  29.3880   0.6530 
1119.40 188.5910 156.7600  734.2670 3207.0029  29.0140   0.6740 
1119.50 192.8970 159.1580  717.6090 3255.3740  28.5740   0.6900 
1119.60 195.4530 162.1440  688.9380 3340.3701  28.0450   0.7000 
1119.70 195.7590 162.7500  669.5170 3406.6079  27.9540   0.7100 
1119.80 192.8580 159.8580  664.0960 3443.9600  28.4780   0.7160 
1119.90 189.4610 157.4560  669.0470 3450.9980  28.9100   0.7200 
1120.00 185.4790 155.9290  688.6050 3414.8069  29.1880   0.7200 
1120.10 181.6740 155.6240  702.0420 3390.8340  29.2380   0.7200 
1120.20 178.1670 157.0700  705.8320 3386.7339  28.9590   0.7200 
1120.30 176.2600 158.5700  708.3360 3405.5210  28.6850   0.7200 
1120.40 176.6900 160.0700  709.3800 3457.0300  28.4170   0.7200 
1120.50 179.7760 162.1670  715.7520 3492.4180  28.0460   0.7200 
1120.60 186.6700 165.1440  730.0300 3502.6899  27.5360   0.7200 
1120.70 193.8680 167.7440  740.5390 3493.6399  27.1120   0.7200 
1120.80 201.3540 169.7610  745.2120 3457.4829  26.7920   0.7200 
1120.90 205.6680 171.5610  756.0780 3438.2061  26.5120   0.7200 
1121.00 205.3090 173.0700  776.2950 3444.9180  26.2830   0.7260 
1121.10 203.6120 174.1720  794.8200 3434.6750  26.1180   0.7400 
1121.20 200.1670 174.6900  810.3990 3398.4829  26.0430   0.7600 
1121.30 195.0770 174.5930  807.1900 3381.3940  26.0610   0.7800 
1121.40 187.6480 173.6190  776.5210 3393.5100  26.2110   0.7970 
1121.50 186.3160 172.8180  749.5980 3420.6370  26.3310   0.8130 
1121.60 194.0510 172.3090  729.3710 3468.5659  26.4080   0.8260 
1121.70 200.0550 171.4100  724.9320 3484.1479  26.5480   0.8320 
1121.80 203.1410 169.9290  743.2320 3451.6250  26.7830   0.8300 
1121.90 203.1560 170.8170  756.0560 3432.9590  26.6320   0.8200 
1122.00 198.7880 175.2110  759.8300 3436.7781  25.9480   0.8100 
1122.10 196.4780 179.1170  761.7380 3438.4900  25.3850   0.8030 
1122.20 197.3800 182.1410  761.3090 3436.1150  24.9680   0.8000 
1122.30 198.5790 184.3440  766.5800 3453.3140  24.6730   0.8000 
1122.40 200.0700 185.3800  780.3230 3499.4390  24.5400   0.8000 
1122.50 201.7690 185.1860  794.7210 3558.1780  24.5700   0.8000 
1122.60 203.7620 183.2370  809.7210 3634.2471  24.8390   0.8000 
1122.70 204.5650 182.6330  810.9560 3667.6509  24.9150   0.8000 
1122.80 203.6190 184.0700  792.0770 3638.0769  24.7120   0.8000 
1122.90 202.6190 184.9730  770.9920 3617.9299  24.5940   0.7950 
1123.00 201.6190 185.0000  747.5630 3614.4260  24.5940   0.7860 
1123.10 200.8180 183.4040  734.0140 3568.1440  24.8150   0.7730 
1123.20 200.3090 179.4770  735.0700 3458.6260  25.3680   0.7640 
1123.30 198.4170 177.4680  742.5390 3369.2529  25.6460   0.7600 
1123.40 194.4790 178.3800  758.7740 3312.2720  25.5030   0.7600 
1123.50 194.2590 179.3800  770.2990 3314.7710  25.3600   0.7600 
1123.60 199.5970 180.3810  774.5250 3403.2781  25.2200   0.7460 
1123.70 204.8970 179.7850  768.7520 3452.1760  25.3100   0.7200 
1123.80 209.9030 176.8580  748.6970 3439.5481  25.7390   0.6930 
1123.90 211.7170 173.2620  730.7910 3401.9719  26.2770   0.6800 
1124.00 208.8590 168.7880  716.6760 3330.4980  26.9780   0.6800 
1124.10 205.0580 164.4840  684.3140 3217.4419  27.6840   0.6710 
1124.20 200.0960 160.4770  625.1610 3045.3359  28.3740   0.6530 
1124.30 190.9200 158.6670  575.3310 2904.8279  28.6850   0.6260 
1124.40 175.6060 160.0700  540.3810 2813.3430  28.4170   0.6040 
1124.50 167.4680 158.9830  527.3700 2761.1489  28.6250   0.5860 
1124.60 170.1440 154.0920  545.9380 2764.4741  29.5560   0.5730 
1124.70 173.5420 150.4900  553.8660 2715.0239  30.2560   0.5640 
1124.80 177.5220 148.9290  544.8840 2586.0129  30.5600   0.5600 
1124.90 181.5210 149.6180  557.6720 2543.5029  30.4060   0.5520 
1125.00 185.5210 153.5210  603.1810 2631.5500  29.6140   0.5360 
1125.10 191.1200 157.7240  670.8660 2811.7910  28.8240   0.5120 
1125.20 199.0450 162.2120  769.3730 3120.7051  28.0260   0.4880 
1125.30 205.4500 168.3030  845.3570 3374.4951  27.0050   0.4640 
1125.40 209.5210 176.7320  886.9000 3541.6189  25.7080   0.4390 
1125.50 211.5310 181.8490  912.6760 3666.9209  25.0000   0.4130 
1125.60 210.6180 182.0000  916.8350 3734.7419  25.0000   0.3860 
1125.70 206.2280 181.0020  912.9540 3751.2661  25.1420   0.3620 
1125.80 196.8840 178.5480  898.2900 3695.4900  25.4940   0.3400 
1125.90 193.5550 176.4470  881.5050 3639.7000  25.7950   0.3350 
1126.00 199.2810 174.9290  862.0850 3587.1030  26.0170   0.3460 
1126.10 202.8930 173.6270  842.1670 3577.6340  26.2110   0.3730 
1126.20 203.0000 172.6190  821.6970 3631.1919  26.3630   0.4040 
1126.30 201.2090 171.8180  791.8520 3641.9021  26.4850   0.4400 
1126.40 196.7880 171.3090  748.2680 3586.8921  26.5620   0.4800 
1126.50 189.7020 170.6100  723.1710 3499.0510  26.6720   0.5110 
1126.60 178.8040 169.6180  725.8350 3365.7629  26.8290   0.5330 
1126.70 170.1990 166.6240  727.3390 3272.5759  27.3220   0.5460 
1126.80 165.0960 160.7160  725.9290 3239.7671  28.3420   0.5580 
1126.90 164.6750 157.5040  726.0210 3244.9919  28.9050   0.5680 
1127.00 170.9710 158.3800  728.4500 3303.3821  28.7220   0.5760 
1127.10 178.0760 159.7800  735.7390 3370.4189  28.4690   0.5840 
1127.20 186.0450 161.7610  750.0190 3447.5659  28.1170   0.5920 
1127.30 193.8430 164.1580  758.1460 3497.3799  27.7040   0.6000 
1127.40 201.3510 167.1400  756.9290 3506.6089  27.2070   0.6080 
1127.50 204.0760 170.1400  759.0110 3497.2981  26.7280   0.6160 
1127.60 199.7830 173.1440  766.3600 3462.5259  26.2650   0.6240 
1127.70 192.8910 173.9490  768.4740 3438.8000  26.1530   0.6320 
1127.80 182.5030 171.5480  762.7160 3432.2830  26.5340   0.6320 
1127.90 177.1800 168.8500  759.1060 3444.1931  26.9590   0.6260 
