~Version information
VERS.                            2.00: CWLS LAS  -  VERSION 2.00
WRAP.                              NO: One line per depth step
~Well information
#MNEM.UNIT                  DATA TYPE  INFORMATION
#===.================================:==================
STRT.M                        880.000: First depth in file
STOP.M                       1240.000: Last depth in file
STEP.M                          0.100: Depth increment
NULL.                        -999.25 : Null values
DATE.                       26/8/2020: LOG DATE
TIME.                                : LOG TIME
WELL.                            8384: Well name
GRP.                                 : Group name
FLD.                             UZEN: Field name
ISS.                                 : Well surveys
SRVC.                       AO "UPGF": Service Company
~Curve information
#MNEM.UNIT                   API CODE   CURVE DESCRIPTION
#===.================================:==================
DEPT.M                               : Depth curve
T60 .мкс                             : : Тау на зонде 60, мкс
T30 .мкс                             : : Тау на зонде 30, мкс
IN60.имп/мин                         : : Интегр. счет на зонде 60
IN30.имп/мин                         : : Интегр. счет на зонде 30
SIGMA.                               : SIGMA
KN_T.д.е.                            : : Free hydrocarbon saturation
#
~Other information
#------------------ REMARKS AREA -----------------------
#=======================================================
# The file is generated by the program EditKar v2003.01
#Number of Curves = 6
~A Log Data Section
# ...
1152.80 237.4300 189.0240 1188.5280 4364.1108  24.0880   0.2430 
1152.90 239.5410 188.4150 1177.6990 4312.0122  24.1500   0.2500 
1153.00 241.5440 188.8860 1168.1639 4261.9561  24.0860   0.2600 
1153.10 238.8700 189.3860 1145.7939 4220.8589  24.0230   0.2700 
1153.20 234.9060 189.8860 1119.8910 4182.2900  23.9590   0.2850 
1153.30 230.1290 190.7750 1127.3929 4175.3511  23.8460   0.3060 
1153.40 225.1380 191.7720 1144.1290 4177.1108  23.7220   0.3330 
1153.50 226.7530 192.3830 1145.9540 4160.8252  23.6480   0.3510 
1153.60 230.2060 192.8860 1143.5660 4139.4390  23.5870   0.3600 
1153.70 229.0320 192.9970 1090.0530 4107.4341  23.5750   0.3600 
1153.80 226.5690 193.0000 1022.4810 4072.5349  23.5750   0.3600 
1153.90 222.1240 191.0540  994.1750 3995.1321  23.8220   0.3600 
1154.00 217.1390 188.5690  976.8720 3905.9551  24.1380   0.3600 
1154.10 212.9120 182.5590 1009.3390 3825.3110  24.9480   0.3600 
1154.20 208.9060 175.5860 1055.4640 3747.2400  25.9440   0.3600 
1154.30 208.8020 175.2090 1052.0959 3712.1130  25.9690   0.3460 
1154.40 209.7720 176.6580 1034.9840 3688.8030  25.7490   0.3240 
1154.50 211.5500 181.2700 1023.3220 3756.4580  25.0810   0.2930 
1154.60 213.5460 186.7530 1013.2660 3849.3779  24.3420   0.2660 
1154.70 215.5450 186.4090 1029.3610 3903.5049  24.4100   0.2460 
1154.80 217.5440 184.4550 1052.6500 3946.7771  24.6750   0.2320 
1154.90 224.2130 181.6770 1054.7480 3940.7490  25.0560   0.2240 
1155.00 232.1770 178.6830 1050.9110 3921.1230  25.4760   0.2160 
1155.10 232.3930 177.2380 1053.5300 3966.9509  25.6770   0.2080 
1155.20 230.4530 176.2260 1057.9800 4030.9519  25.8230   0.2070 
1155.30 224.1700 176.7840 1056.2469 4017.9270  25.7340   0.2130 
1155.40 216.7070 177.7720 1052.7970 3983.5349  25.5900   0.2260 
1155.50 216.9890 178.3830 1041.5160 3936.0891  25.5040   0.2400 
1155.60 219.4330 178.8860 1028.0590 3885.1240  25.4330   0.2530 
1155.70 223.8790 177.0500 1053.5070 3898.0110  25.7070   0.2660 
1155.80 228.8610 174.5690 1089.6899 3928.5090  26.0750   0.2880 
1155.90 229.1920 176.3490 1132.0210 3995.2991  25.7920   0.3200 
1156.00 228.2270 179.3160 1175.9760 4072.0259  25.3610   0.3600 
1156.10 227.6160 183.0990 1165.4760 4136.2578  24.8340   0.3950 
1156.20 227.1130 187.0930 1139.8910 4196.8579  24.3030   0.4260 
1156.30 238.2960 191.4810 1132.5950 4243.3101  23.7450   0.4530 
1156.40 252.6980 195.9750 1130.4550 4285.8901  23.2010   0.4750 
1156.50 253.9680 197.3620 1157.2460 4333.4419  23.0490   0.4930 
1156.60 251.5660 197.8860 1192.0680 4382.4609  22.9910   0.5060 
1156.70 240.8890 198.7750 1193.1730 4415.8628  22.8870   0.5150 
1156.80 227.9590 199.7720 1184.9351 4444.9619  22.7720   0.5200 
1156.90 229.7450 201.1610 1151.9250 4381.7500  22.6130   0.5200 
1157.00 235.6330 202.6580 1112.1121 4292.9541  22.4460   0.5130 
1157.10 236.1850 199.4840 1082.1960 4234.1309  22.8200   0.5000 
1157.20 235.2260 195.0190 1055.1169 4183.8950  23.3470   0.4810 
1157.30 231.5010 192.0790 1033.1930 4138.5918  23.6980   0.4640 
1157.40 227.0240 189.5690 1012.6670 4094.5840  24.0110   0.4480 
1157.50 231.0840 188.6250  995.2820 4037.7510  24.1250   0.4320 
1157.60 237.5270 188.1130  978.7390 3977.2771  24.1890   0.4160 
1157.70 240.5190 190.7280 1001.1880 4005.2019  23.8450   0.4000 
1157.80 242.5440 194.2030 1034.3730 4057.5000  23.4160   0.3860 
1157.90 247.2670 195.7570 1076.0389 4083.6479  23.2370   0.3730 
1158.00 252.7470 196.7720 1119.9760 4102.3521  23.1190   0.3640 
1158.10 253.1880 196.9940 1100.1250 4118.5361  23.0960   0.3600 
1158.20 252.2260 197.0000 1062.6100 4134.0552  23.0960   0.3600 
1158.30 250.8370 197.0000  992.6950 4144.0952  23.0960   0.3600 
1158.40 249.3410 197.0000  913.9850 4152.6309  23.0960   0.3600 
1158.50 250.1760 196.2210  876.6260 3959.9829  23.1900   0.3600 
1158.60 251.6600 195.2260  850.7780 3711.2209  23.3090   0.3600 
1158.70 248.8750 196.5630  859.9480 3614.3730  23.1420   0.3600 
1158.80 244.9100 198.5440  878.6740 3559.7471  22.9090   0.3600 
1158.90 234.2970 195.8750  889.8900 3649.4299  23.2390   0.3560 
1159.00 221.8470 191.9110  898.9490 3778.8379  23.7230   0.3500 
1159.10 212.8390 187.9060  888.0880 3731.4189  24.2290   0.3400 
1159.20 204.8120 183.9060  871.7380 3634.7710  24.7570   0.3300 
1159.30 209.2770 180.6870  875.1070 3606.1350  25.1950   0.3230 
1159.40 217.1780 177.6830  883.9510 3596.6150  25.6200   0.3200 
1159.50 218.5630 177.0170  884.7790 3645.1980  25.7060   0.3200 
1159.60 218.1130 177.0000  883.3400 3709.8359  25.7060   0.3150 
1159.70 213.7190 178.5570  880.6720 3745.2119  25.4750   0.3060 
1159.80 208.2520 180.5440  877.6830 3772.4199  25.1930   0.2930 
1159.90 205.4760 180.2100  891.0240 3751.5610  25.2500   0.2810 
1160.00 203.4550 179.2270  908.8990 3717.4260  25.3900   0.2700 
1160.10 204.1800 177.4470  916.0100 3680.1570  25.6490   0.2600 
1160.20 205.6600 175.4530  920.0930 3642.1760  25.9410   0.2500 
1160.30 209.1060 177.7370  929.9330 3647.8101  25.5890   0.2300 
1160.40 213.0890 181.2030  941.3820 3665.4690  25.0950   0.1800 
1160.50 225.6480 181.5900  971.9440 3688.1350  25.0550   0.1000 
1160.60 240.6000 181.1130 1007.8410 3712.1279  25.1240   0.0470 
1160.70 243.9110 179.8340 1011.5040 3681.2090  25.3060   0.0130 
1160.80 244.0000 178.3410 1006.2520 3635.1531  25.5190   0.0130 
1160.90 235.8290 182.2880  980.1320 3585.1580  24.9430   0.0000 
1161.00 225.3910 187.7470  948.2890 3534.1851  24.2130   0.0000 
1161.10 222.6720 189.3570  936.1240 3540.0139  24.0230   0.0950 
1161.20 222.1130 189.8860  929.4720 3561.5820  23.9590   0.2160 
1161.30 211.8780 188.0500  911.6820 3638.4800  24.2030   0.3640 
1161.40 198.9590 185.5690  890.7810 3730.5081  24.5290   0.4420 
1161.50 196.4660 182.2910  898.5740 3774.3621  24.9730   0.4940 
1161.60 196.8860 178.7930  914.3740 3804.7681  25.4630   0.5200 
1161.70 205.5640 178.4100  916.7370 3757.6499  25.5040   0.5200 
1161.80 216.4950 178.8860  915.3410 3689.2759  25.4330   0.5130 
1161.90 214.2660 178.9970  901.0020 3654.5220  25.4190   0.5000 
1162.00 208.3660 179.0000  883.1000 3629.2620  25.4190   0.4860 
1162.10 206.2560 178.6100  847.5440 3576.9561  25.4760   0.4800 
1162.20 205.2260 178.1130  807.1760 3517.1621  25.5470   0.4800 
1162.30 208.9000 176.0550  769.0320 3436.9399  25.8530   0.4800 
1162.40 213.8610 173.5690  731.5370 3351.1450  26.2250   0.4800 
1162.50 202.9090 168.3460  727.5020 3321.9609  27.0530   0.4800 
1162.60 187.5120 162.3590  732.7530 3308.5129  28.0550   0.4800 
1162.70 182.5330 162.2030  729.2940 3291.2339  28.0510   0.4730 
1162.80 180.4550 163.6580  723.3660 3272.7781  27.7940   0.4600 
1162.90 183.1240 164.3800  728.6490 3258.5610  27.6760   0.4400 
1163.00 187.0880 164.8860  737.0630 3245.5281  27.5920   0.4200 
1163.10 188.3650 164.9970  732.7150 3264.0750  27.5750   0.4000 
1163.20 188.8860 165.0000  724.8120 3291.3359  27.5750   0.3800 
1163.30 182.7660 165.7780  723.4360 3322.7170  27.4420   0.3600 
1163.40 174.8210 166.7720  723.8860 3355.1680  27.2770   0.3400 
1163.50 173.0470 166.2150  748.5080 3336.3059  27.3770   0.3230 
1163.60 173.0000 165.2260  779.8610 3303.1580  27.5420   0.3100 
1163.70 181.5670 164.2270  767.7320 3252.9280  27.7100   0.3000 
1163.80 192.4950 163.2270  743.5770 3198.0879  27.8800   0.2900 
1163.90 201.1590 163.3950  717.5240 3239.1951  27.8450   0.2700 
1164.00 209.1770 163.8860  691.0360 3306.9619  27.7600   0.2440 
1164.10 201.9900 165.1660  702.3020 3365.8020  27.5410   0.2130 
1164.20 190.6050 166.6600  724.0150 3421.8779  27.2930   0.1860 
1164.30 182.2260 165.4330  733.1530 3444.3611  27.5100   0.1420 
1164.40 174.7070 163.4550  738.7470 3457.6069  27.8460   0.1020 
1164.50 169.1530 161.4550  699.1150 3432.0879  28.1910   0.0660 
1164.60 164.1330 159.4530  646.8970 3395.8379  28.5450   0.0530 
1164.70 157.5770 153.1700  577.6750 3220.3311  29.7420   0.0310 
1164.80 150.5930 145.7070  503.8470 3006.5139  31.2750   0.0130 
1164.90 138.9250 136.6520  466.8180 2802.8259  33.3620   0.0000 
1165.00 125.9610 127.1640  440.0360 2602.2410  35.8600   0.0000 
1165.10 123.0770 120.7700  444.6780 2539.8320  37.7330   0.0000 
