~Version information
VERS.                            2.00: CWLS LAS  -  VERSION 2.00
WRAP.                              NO: One line per depth step
~Well information
#MNEM.UNIT                  DATA TYPE  INFORMATION
#===.================================:==================
STRT.M                        880.000: First depth in file
STOP.M                       1240.000: Last depth in file
STEP.M                          0.100: Depth increment
NULL.                        -999.25 : Null values
DATE.                       26/8/2020: LOG DATE
TIME.                                : LOG TIME
WELL.                            8384: Well name
GRP.                                 : Group name
FLD.                             UZEN: Field name
ISS.                                 : Well surveys
SRVC.                       AO "UPGF": Service Company
~Curve information
#MNEM.UNIT                   API CODE   CURVE DESCRIPTION
#===.================================:==================
DEPT.M                               : Depth curve
T60 .мкс                             : : Тау на зонде 60, мкс
T30 .мкс                             : : Тау на зонде 30, мкс
IN60.имп/мин                         : : Интегр. счет на зонде 60
IN30.имп/мин                         : : Интегр. счет на зонде 30
SIGMA.                               : SIGMA
KN_T.д.е.                            : : Free hydrocarbon saturation
#
~Other information
#------------------ REMARKS AREA -----------------------
#=======================================================
# The file is generated by the program EditKar v2003.01
#Number of Curves = 6
~A Log Data Section
# ...
1165.20 123.0000 115.2460  457.9410 2515.7781  39.5370   0.0000 
1165.30 128.0620 115.2000  444.9540 2511.4810  39.4950   0.0000 
1165.40 134.5200 116.6580  424.6670 2512.3391  38.9870   0.0000 
1165.50 139.0740 116.9910  380.8250 2458.8689  38.8880   0.0000 
1165.60 143.0930 117.0000  330.4440 2390.2029  38.8880   0.0000 
1165.70 144.3650 113.8840  324.3600 2305.2671  39.9860   0.0000 
1165.80 144.8860 109.9100  330.5200 2215.9419  41.4420   0.0000 
1165.90 143.4400 108.6340  351.8030 2222.9431  41.8970   0.0000 
1166.00 141.4550 108.1130  377.1910 2256.7070  42.0910   0.0000 
1166.10 133.6080 110.7300  394.5380 2365.6731  41.0600   0.0000 
1166.20 124.1520 114.2070  409.6010 2495.1111  39.8030   0.0000 
1166.30 121.6660 114.5890  416.8050 2530.4199  39.7030   0.0000 
1166.40 121.1130 114.1130  421.8610 2539.6311  39.8770   0.0000 
1166.50 121.7810 113.6130  421.0250 2478.0979  40.0530   0.0000 
1166.60 122.7730 113.1130  418.5660 2397.0359  40.2300   0.0000 
1166.70 118.3210 114.9500  413.3410 2367.7539  39.5620   0.0000 
1166.80 112.3660 117.4300  407.3660 2352.8679  38.7210   0.0000 
1166.90 114.5370 116.4280  410.7040 2393.6169  39.0900   0.0000 
1167.00 118.9740 114.4550  416.6330 2449.6960  39.7740   0.0000 
1167.10 121.9210 114.7910  411.3400 2450.1521  39.6330   0.0000 
1167.20 124.4330 115.7730  402.9250 2435.0791  39.2900   0.0000 
1167.30 122.2590 116.7720  383.9150 2408.2920  38.9540   0.0000 
1167.40 118.7960 117.7720  362.0080 2378.3960  38.6240   0.0000 
1167.50 113.7410 115.6590  366.4680 2369.0210  39.3620   0.0000 
1167.60 108.2460 112.6790  378.2800 2365.3601  40.4120   0.0000 
1167.70 108.2000 112.0170  373.1400 2350.5681  40.6250   0.0000 
1167.80 109.6580 112.0000  363.2760 2332.6641  40.6250   0.0000 
1167.90 115.0490 113.1670  347.8310 2318.1680  40.1930   0.0000 
1168.00 121.5190 114.6580  330.8720 2304.6421  39.6670   0.0000 
1168.10 124.5200 115.7700  348.5320 2338.6641  39.2900   0.0000 
1168.20 126.5460 116.7730  375.7690 2385.8040  38.9540   0.0000 
1168.30 129.7140 118.1620  415.3270 2497.9250  38.4920   0.0000 
1168.40 133.2030 119.6580  458.2100 2627.8569  38.0100   0.0000 
1168.50 132.0330 121.5470  475.1370 2677.4131  37.4160   0.0000 
1168.60 129.5660 123.5460  484.8470 2704.5610  36.8100   0.0000 
1168.70 128.6250 123.5980  477.9870 2691.3291  36.8120   0.0000 
1168.80 128.1130 123.1130  466.6180 2667.1440  36.9620   0.0000 
1168.90 130.3370 123.7810  444.6140 2647.7051  36.7520   0.0000 
1169.00 133.3160 124.7720  419.6950 2629.6670  36.4570   0.0000 
1169.10 131.6440 125.3830  410.6410 2581.6421  36.2830   0.0000 
1169.20 128.6790 125.8860  406.0190 2525.3689  36.1390   0.0000 
1169.30 126.8490 122.4920  405.4160 2488.3660  37.1770   0.0000 
1169.40 125.3410 118.0240  405.8860 2456.7380  38.5950   0.0000 
1169.50 121.5070 115.4700  406.3860 2460.2581  39.4290   0.0000 
1169.60 117.0190 113.4530  406.8860 2473.5071  40.1250   0.0000 
1169.70 117.1940 112.2330  391.8090 2472.2029  40.5530   0.0000 
1169.80 118.6580 111.2270  372.4390 2466.8181  40.9180   0.0000 
1169.90 117.8230 109.4490  344.3820 2366.7759  41.5920   0.0000 
1170.00 116.3410 107.4550  313.9480 2240.4971  42.3660   0.0000 
1170.10 117.1770 106.2320  321.9880 2131.2710  42.8450   0.0000 
1170.20 118.6600 105.2260  340.6950 2027.1310  43.2520   0.0000 
1170.30 118.9910 104.6160  345.2770 2036.1121  43.4990   0.0000 
1170.40 119.0000 104.1130  345.8860 2076.2319  43.7080   0.0000 
1170.50 117.8320 104.0030  336.2700 2093.1040  43.7500   0.0000 
1170.60 116.3400 104.0000  323.8320 2103.3000  43.7500   0.0000 
1170.70 116.7870 105.1680  329.6410 2099.6660  43.2490   0.0000 
1170.80 117.7720 106.6580  340.4950 2092.2739  42.6410   0.0000 
1170.90 122.6620 108.5470  355.3840 2145.0801  41.8950   0.0000 
1171.00 128.6330 110.5440  371.3550 2214.6201  41.1370   0.0000 
1171.10 126.0670 111.7670  385.0360 2274.1819  40.6960   0.0000 
1171.20 121.1320 112.7730  398.0540 2330.7639  40.3350   0.0000 
1171.30 113.4090 112.2150  407.9320 2352.9690  40.5530   0.0000 
1171.40 104.9350 111.2270  416.9510 2365.7209  40.9180   0.0000 
1171.50 109.2750 109.8380  418.5570 2357.2090  41.4400   0.0000 
1171.60 117.1870 108.3400  418.1130 2342.8521  42.0140   0.0000 
1171.70 121.2890 108.3980  415.6660 2334.5901  41.9730   0.0000 
1171.80 124.3170 108.8860  412.6820 2328.0459  41.7810   0.0000 
1171.90 120.3130 109.7750  408.5160 2332.4409  41.4380   0.0000 
1172.00 114.3660 110.7720  404.0250 2339.8579  41.0640   0.0000 
1172.10 111.4770 110.2140  394.4540 2354.7700  41.2890   0.0000 
1172.20 109.4530 109.2260  383.4920 2371.7151  41.6680   0.0000 
1172.30 114.0740 106.6690  365.8770 2350.5430  42.6860   0.0000 
1172.40 120.5200 103.6820  346.4390 2318.8521  43.9210   0.0000 
1172.50 129.3530 103.4060  344.0610 2291.9141  44.0030   0.0000 
1172.60 138.8470 103.8860  346.4330 2266.3450  43.7910   0.0000 
1172.70 137.0490 105.5540  359.4460 2254.8750  43.0840   0.0000 
1172.80 132.1380 107.5440  375.3570 2247.2739  42.2840   0.0000 
1172.90 127.5280 107.5990  375.0140 2245.2219  42.2860   0.0000 
1173.00 123.0250 107.1130  370.1390 2244.6799  42.4840   0.0000 
1173.10 119.6880 106.6130  360.4570 2275.7419  42.6830   0.0000 
1173.20 116.6790 106.1130  349.4920 2315.5029  42.8840   0.0000 
1173.30 114.0700 106.3920  339.6650 2310.3120  42.7620   0.0000 
1173.40 111.5690 106.8860  330.1620 2292.6641  42.5620   0.0000 
1173.50 105.9570 108.5530  340.8950 2275.8340  41.8950   0.0000 
1173.60  99.4730 110.5460  357.2600 2259.3059  41.1360   0.0000 
1173.70 103.8790 110.5980  376.8680 2277.4709  41.1390   0.0000 
1173.80 111.2920 110.1130  397.3320 2305.1919  41.3260   0.0000 
1173.90 114.1220 109.6130  390.5950 2340.5801  41.5150   0.0000 
1174.00 115.6580 109.1130  376.3030 2378.0239  41.7050   0.0000 
1174.10 116.3800 110.9510  357.1100 2356.3401  40.9870   0.0000 
1174.20 116.8860 113.4330  336.6440 2318.2900  40.0850   0.0000 
1174.30 118.1650 112.4270  333.2890 2268.1250  40.4820   0.0000 
1174.40 119.6580 110.4550  334.6580 2214.7461  41.2150   0.0000 
1174.50 122.7140 108.8440  359.1130 2210.6650  41.8210   0.0000 
1174.60 126.2060 107.3400  389.9740 2220.3000  42.4060   0.0000 
1174.70 124.6420 108.9550  422.9080 2253.2710  41.7400   0.0000 
1174.80 121.6820 111.4300  456.3730 2292.5740  40.8050   0.0000 
1174.90 119.0720 113.5410  480.5310 2322.3420  40.0510   0.0000 
1175.00 116.5690 115.5440  502.1020 2349.4160  39.3580   0.0000 
1175.10 121.0800 118.3260  516.6130 2385.8000  38.4250   0.0000 
1175.20 127.5270 121.3200  529.1670 2424.7300  37.4760   0.0000 
1175.30 135.5810 121.5920  530.3680 2497.9800  37.4180   0.0000 
1175.40 144.0640 121.1130  528.4550 2580.6709  37.5720   0.0000 
1175.50 149.8400 124.1150  551.7440 2833.6809  36.6310   0.0000 
1175.60 154.8660 128.0930  582.0880 3134.2410  35.4870   0.0000 
1175.70 164.9270 131.7020  644.1170 3515.0510  34.5190   0.0000 
1175.80 176.3810 135.2030  714.8350 3917.7051  33.6270   0.0000 
1175.90 187.4910 144.1490  778.8230 4198.9819  31.5040   0.0000 
1176.00 198.4940 154.6080  840.8760 4446.4121  29.3690   0.0000 
1176.10 199.3760 163.1720  869.4390 4683.0708  27.8410   0.0000 
1176.20 197.4530 171.1870  888.6950 4916.6558  26.5410   0.0000 
1176.30 191.9490 170.6160  836.4220 4912.1089  26.6710   0.0000 
1176.40 185.4790 167.6830  764.5050 4841.9541  27.1490   0.0000 
1176.50 172.3660 160.0140  685.7900 4617.4512  28.4760   0.0000 
1176.60 157.3990 151.0390  605.2420 4350.2988  30.1780   0.0000 
1176.70 147.8570 143.2110  580.8540 4152.1230  31.8230   0.0000 
1176.80 139.8210 135.7070  571.9350 3973.2051  33.5830   0.0000 
1176.90 137.2690 131.3210  565.3810 3659.7229  34.6810   0.0000 
1177.00 136.2270 127.7970  559.3660 3308.7529  35.6320   0.0000 
1177.10 134.0570 127.8000  550.6320 3061.1541  35.6010   0.0000 
1177.20 131.5660 128.7730  541.1520 2842.8479  35.3250   0.0000 
1177.30 134.5190 128.6040  549.1800 2805.3640  35.3810   0.0000 
1177.40 138.9750 128.1130  562.0400 2817.4929  35.5190   0.0000 
1177.50 143.4740 128.0030  557.9190 2779.2451  35.5460   0.0000 
