~Version information
VERS.                            2.00: CWLS LAS  -  VERSION 2.00
WRAP.                              NO: One line per depth step
~Well information
#MNEM.UNIT                  DATA TYPE  INFORMATION
#===.================================:==================
STRT.M                        880.000: First depth in file
STOP.M                       1240.000: Last depth in file
STEP.M                          0.100: Depth increment
NULL.                        -999.25 : Null values
DATE.                       26/8/2020: LOG DATE
TIME.                                : LOG TIME
WELL.                            8384: Well name
GRP.                                 : Group name
FLD.                             UZEN: Field name
ISS.                                 : Well surveys
SRVC.                       AO "UPGF": Service Company
~Curve information
#MNEM.UNIT                   API CODE   CURVE DESCRIPTION
#===.================================:==================
DEPT.M                               : Depth curve
T60 .мкс                             : : Тау на зонде 60, мкс
T30 .мкс                             : : Тау на зонде 30, мкс
IN60.имп/мин                         : : Интегр. счет на зонде 60
IN30.имп/мин                         : : Интегр. счет на зонде 30
SIGMA.                               : SIGMA
KN_T.д.е.                            : : Free hydrocarbon saturation
#
~Other information
#------------------ REMARKS AREA -----------------------
#=======================================================
# The file is generated by the program EditKar v2003.01
#Number of Curves = 6
~A Log Data Section
# ...
1177.60 147.9800 128.0000  549.0390 2726.5769  35.5460   0.0000 
1177.70 143.1320 129.1680  533.0330 2682.1680  35.2150   0.0000 
1177.80 135.7070 130.6580  515.0980 2640.1289  34.8110   0.0000 
1177.90 132.8770 129.8230  504.8810 2625.7581  35.0540   0.0000 
1178.00 131.3410 128.3410  496.8220 2619.0471  35.4640   0.0000 
1178.10 131.9440 127.5410  511.4250 2587.1899  35.6810   0.0000 
1178.20 132.9020 127.2160  526.9800 2561.6060  35.7680   0.0000 
1178.30 132.4460 128.6620  509.5020 2619.0449  35.3510   0.0000 
1178.40 131.8120 129.6930  493.4110 2668.4729  35.0740   0.0000 
1178.50 130.3390 127.7850  492.4460 2651.5281  35.6230   0.0000 
1178.60 128.3690 125.5830  492.7490 2623.2141  36.2500   0.0000 
1178.70 123.4600 122.1220  498.0930 2536.5110  37.2890   0.0000 
1178.80 118.9950 118.9560  502.9910 2464.2720  38.2790   0.0000 
1178.90 117.8920 117.8920  504.1080 2494.1299  38.6040   0.0000 
1179.00 117.4940 117.1590  503.6360 2529.9360  38.8430   0.0000 
1179.10 120.8790 118.1080  493.9150 2583.4241  38.5140   0.0000 
1179.20 124.3110 118.7060  485.7930 2627.6279  38.3240   0.0000 
1179.30 127.3230 116.7840  489.4310 2610.5149  38.9800   0.0000 
1179.40 129.7210 114.9180  490.4890 2587.1030  39.6120   0.0000 
1179.50 128.3390 113.8920  473.0680 2535.9871  39.9600   0.0000 
1179.60 127.4400 113.1590  454.5880 2495.9309  40.2160   0.0000 
1179.70 130.3230 114.1080  433.1780 2531.1160  39.8640   0.0000 
1179.80 132.3200 114.8400  414.6890 2563.8640  39.6120   0.0000 
1179.90 128.0140 113.8920  415.1080 2566.7820  39.9600   0.0000 
1180.00 124.3830 113.6940  419.0500 2562.0281  40.0210   0.0000 
1180.10 126.2170 118.5420  441.4950 2514.8049  38.3340   0.0000 
1180.20 127.3460 123.3390  465.2860 2480.0471  36.8470   0.0000 
1180.30 123.0140 126.8770  494.1310 2531.3970  35.8310   0.0000 
1180.40 120.6540 129.8420  517.7780 2591.0100  35.0180   0.0000 
1180.50 131.7330 129.4460  507.8190 2685.8669  35.1530   0.0000 
1180.60 142.8400 129.5480  496.2770 2763.0591  35.1210   0.0000 
1180.70 151.4170 133.4310  481.3800 2721.7080  34.0690   0.0000 
1180.80 158.8470 136.9630  473.2050 2685.5410  33.1950   0.0000 
1180.90 159.5540 137.5540  507.8870 2704.8340  33.0740   0.0000 
1181.00 160.1870 137.9200  540.7400 2735.7300  32.9870   0.0000 
1181.10 161.6620 137.4450  553.8560 2828.8721  33.1070   0.0000 
1181.20 162.3590 136.8120  563.2710 2902.4121  33.2610   0.0000 
1181.30 158.0140 135.3380  553.3660 2841.5481  33.6300   0.0000 
1181.40 153.3130 133.5030  540.5260 2773.1431  34.0950   0.0000 
1181.50 147.3560 129.5700  512.9950 2683.3560  35.1480   0.0000 
1181.60 141.0840 125.7020  482.7690 2623.8459  36.2300   0.0000 
1181.70 133.1360 122.6760  438.6950 2759.3450  37.1160   0.0000 
1181.80 126.0060 119.7430  399.8830 2916.1689  38.0260   0.0000 
1181.90 124.3380 117.2300  396.7840 3169.2080  38.8370   0.0000 
1182.00 122.7040 114.9300  395.7200 3396.4971  39.6120   0.0000 
1182.10 120.2280 113.8910  400.5420 3443.5691  39.9600   0.0000 
1182.20 117.7970 113.0920  404.2010 3474.3420  40.2400   0.0000 
1182.30 115.7840 113.5540  399.4600 3437.9099  40.0630   0.0000 
1182.40 113.6500 113.9870  395.7980 3396.3359  39.9120   0.0000 
1182.50 110.6780 114.0000  400.5360 3335.4680  39.9120   0.0000 
1182.60 108.4120 113.7320  403.9330 3275.9351  40.0090   0.0000 
1182.70 110.7690 111.7840  397.2440 3229.0459  40.7250   0.0000 
1182.80 114.0060 109.9170  389.8420 3192.1819  41.4150   0.0000 
1182.90 121.8630 108.8920  379.9200 3215.8201  41.7960   0.0000 
1183.00 129.3950 108.2260  372.5290 3244.2600  42.0490   0.0000 
1183.10 133.9880 109.6620  381.5300 3291.2190  41.4730   0.0000 
1183.20 137.8160 111.4960  392.5640 3340.1011  40.7880   0.0000 
1183.30 137.4460 115.4310  413.2670 3397.8291  39.3760   0.0000 
1183.40 137.2800 119.6320  431.7240 3457.4290  37.9930   0.0000 
1183.50 139.2140 125.0900  434.2140 3527.0779  36.3250   0.0000 
1183.60 140.8140 130.2590  437.8880 3596.5210  34.8880   0.0000 
1183.70 139.8920 133.3230  452.0650 3662.1389  34.1040   0.0000 
1183.80 138.4900 135.5870  465.8290 3722.8210  33.5400   0.0000 
1183.90 134.5680 133.2300  474.9710 3753.2520  34.1700   0.0000 
1184.00 131.1030 130.5290  482.0310 3770.5779  34.8790   0.0000 
1184.10 131.0000 126.5660  476.9030 3711.3950  35.9830   0.0000 
1184.20 131.6690 123.3710  474.4840 3656.3491  36.9090   0.0000 
1184.30 136.5390 125.2150  491.3890 3641.6089  36.3190   0.0000 
1184.40 140.5360 127.0150  505.2090 3625.7029  35.8070   0.0000 
1184.50 138.2310 127.5530  495.9270 3594.6870  35.6670   0.0000 
1184.60 135.4620 127.3170  484.6490 3551.5220  35.7390   0.0000 
1184.70 131.0140 122.4600  465.3940 3435.2720  37.2000   0.0000 
1184.80 127.1830 117.8610  447.2990 3326.8760  38.6490   0.0000 
1184.90 127.5540 115.7840  438.0280 3281.9241  39.3170   0.0000 
1185.00 127.5190 114.1180  429.6970 3235.1819  39.8880   0.0000 
1185.10 124.1200 114.5540  425.5660 3164.8640  39.7140   0.0000 
1185.20 120.6220 114.7860  420.7650 3097.2451  39.6360   0.0000 
1185.30 117.1220 113.3380  410.9200 3050.6001  40.1610   0.0000 
1185.40 113.8230 111.7040  400.8540 2990.5591  40.7500   0.0000 
1185.50 111.7850 109.2310  390.3730 2842.3650  41.6830   0.0000 
1185.60 109.9840 106.9300  381.1370 2689.8601  42.5780   0.0000 
1185.70 109.4460 105.8920  379.8920 2528.6289  42.9800   0.0000 
1185.80 109.7490 105.2260  378.0220 2383.0549  43.2480   0.0000 
1185.90 115.0930 106.6620  370.6900 2337.4780  42.6400   0.0000 
1186.00 120.3250 107.8940  364.0600 2297.7229  42.1560   0.0000 
1186.10 123.8790 107.4450  362.8910 2275.1799  42.3520   0.0000 
1186.20 127.0430 107.7490  366.7760 2276.4109  42.2230   0.0000 
1186.30 128.1080 113.0930  401.3330 2423.4241  40.1730   0.0000 
1186.40 129.8430 118.4590  435.4250 2562.4729  38.3570   0.0000 
1186.50 136.1970 122.9820  460.6820 2623.3430  36.9560   0.0000 
1186.60 142.0990 126.6150  482.4860 2677.7329  35.9040   0.0000 
1186.70 144.2150 124.7840  484.1080 2706.0359  36.4800   0.0000 
1186.80 145.0110 123.3190  488.7880 2736.0791  36.9090   0.0000 
1186.90 138.2440 125.2150  516.5770 2782.0869  36.3190   0.0000 
1187.00 133.7860 126.9480  545.8100 2823.9690  35.8260   0.0000 
1187.10 145.3010 127.0000  579.6880 2836.8689  35.8260   0.0000 
1187.20 157.2290 128.1370  615.4780 2866.6621  35.4990   0.0000 
1187.30 168.7410 136.4170  662.6280 3008.2229  33.2910   0.0930 
1187.40 178.8360 145.0500  709.4560 3154.2141  31.3120   0.1930 
1187.50 180.1070 154.5190  752.0600 3306.4290  29.3920   0.3000 
1187.60 181.4420 162.8880  788.6990 3450.9990  27.8900   0.3200 
1187.70 184.8770 164.1080  788.3380 3545.0540  27.7200   0.3400 
1187.80 188.3770 164.5720  784.0270 3614.4680  27.6450   0.3570 
1187.90 191.8770 161.6760  762.0700 3538.9290  28.1580   0.3730 
1188.00 195.3770 159.2780  741.8460 3454.1201  28.5790   0.3860 
1188.10 198.8790 160.6620  735.9030 3338.9829  28.3120   0.3980 
1188.20 201.1060 162.4960  734.0190 3244.7209  27.9910   0.4080 
1188.30 195.3520 166.4310  754.8210 3286.5330  27.3180   0.4160 
1188.40 189.6870 170.2300  776.1190 3338.7490  26.7100   0.4240 
1188.50 186.1240 172.7680  796.1460 3429.9919  26.3240   0.4320 
1188.60 183.4920 174.8010  812.8800 3516.3960  26.0200   0.4320 
1188.70 186.3230 173.8920  809.0140 3564.0869  26.1700   0.4260 
1188.80 188.0520 173.0920  797.9560 3600.8840  26.2900   0.4130 
1188.90 181.7980 173.5540  745.7230 3576.7590  26.2140   0.3910 
1189.00 175.9000 172.9830  691.4250 3530.9661  26.3050   0.3490 
1189.10 173.7830 165.6860  632.0450 3360.6909  27.4980   0.2690 
1189.20 171.2480 157.5870  575.6520 3187.2451  28.9170   0.1640 
1189.30 165.3520 145.7040  538.5590 3016.6570  31.3050   0.0690 
1189.40 159.0850 134.4400  501.8610 2857.2051  33.9290   0.0150 
1189.50 151.1410 127.8020  463.9220 2767.1240  35.6560   0.0000 
1189.60 143.4700 122.1010  432.3880 2677.9961  37.3160   0.0000 
1189.70 137.9060 121.4460  441.6330 2582.2009  37.4690   0.0000 
1189.80 133.4760 121.5480  451.5310 2494.8999  37.4320   0.0000 
1189.90 135.7690 125.4310  457.6470 2462.2190  36.2400   0.0000 
