~Version information
VERS.                            2.00: CWLS LAS  -  VERSION 2.00
WRAP.                              NO: One line per depth step
~Well information
#MNEM.UNIT                  DATA TYPE  INFORMATION
#===.================================:==================
STRT.M                        880.000: First depth in file
STOP.M                       1240.000: Last depth in file
STEP.M                          0.100: Depth increment
NULL.                        -999.25 : Null values
DATE.                       26/8/2020: LOG DATE
TIME.                                : LOG TIME
WELL.                            8384: Well name
GRP.                                 : Group name
FLD.                             UZEN: Field name
ISS.                                 : Well surveys
SRVC.                       AO "UPGF": Service Company
~Curve information
#MNEM.UNIT                   API CODE   CURVE DESCRIPTION
#===.================================:==================
DEPT.M                               : Depth curve
T60 .мкс                             : : Тау на зонде 60, мкс
T30 .мкс                             : : Тау на зонде 30, мкс
IN60.имп/мин                         : : Интегр. счет на зонде 60
IN30.имп/мин                         : : Интегр. счет на зонде 30
SIGMA.                               : SIGMA
KN_T.д.е.                            : : Free hydrocarbon saturation
#
~Other information
#------------------ REMARKS AREA -----------------------
#=======================================================
# The file is generated by the program EditKar v2003.01
#Number of Curves = 6
~A Log Data Section
# ...
1140.40 211.5830 175.2710  701.3320 3416.2920  25.9440   0.5200 
1140.50 209.9970 175.5830  726.7630 3380.7490  25.9120   0.5200 
1140.60 207.5200 175.1040  762.5050 3349.1240  25.9860   0.5150 
1140.70 201.4330 174.2050  795.7120 3350.7061  26.1220   0.5060 
1140.80 194.4570 173.2080  828.2310 3360.4839  26.2730   0.4930 
1140.90 189.4520 173.8010  855.1390 3464.4771  26.1760   0.4890 
1141.00 184.9420 174.7900  880.6610 3591.7690  26.0260   0.4960 
1141.10 187.2120 174.1970  890.6450 3646.9709  26.1220   0.5120 
1141.20 191.1660 173.2080  896.7500 3683.9651  26.2730   0.5280 
1141.30 195.1660 173.4030  882.4240 3618.8369  26.2380   0.5440 
1141.40 199.1660 173.8950  863.0610 3528.5190  26.1620   0.5480 
1141.50 199.9780 175.1920  849.5450 3563.0271  25.9650   0.5400 
1141.60 200.0000 176.6870  837.4980 3628.7229  25.7450   0.5260 
1141.70 200.0000 176.5930  853.7950 3703.5859  25.7660   0.5200 
1141.80 200.0000 176.1040  877.1050 3780.5300  25.8390   0.5200 
1141.90 200.0000 177.1970  900.1960 3815.6709  25.6720   0.5200 
1142.00 200.0000 178.6850  923.1840 3840.4370  25.4570   0.5200 
1142.10 200.0000 179.7890  922.2960 3842.6450  25.3020   0.5200 
1142.20 200.0000 180.7910  915.4580 3839.2959  25.1620   0.5200 
1142.30 192.8260 178.2040  888.5300 3809.4919  25.5440   0.5200 
1142.40 183.8740 174.7280  856.6640 3773.1680  26.0560   0.5200 
1142.50 181.2510 171.6280  817.9090 3737.4829  26.5250   0.5200 
1142.60 180.2080 168.6240  777.4310 3701.9570  26.9970   0.5200 
1142.70 185.1860 167.6170  769.6150 3684.3940  27.1490   0.5200 
1142.80 191.6460 167.1040  769.8950 3671.2739  27.2310   0.5200 
1142.90 198.1430 168.1970  785.5300 3638.3650  27.0460   0.5200 
1143.00 204.6390 169.6850  804.9170 3600.5220  26.8070   0.5200 
1143.10 208.3560 171.9840  807.6990 3597.5540  26.4450   0.5200 
1143.20 211.3750 174.4790  806.3120 3603.3169  26.0660   0.5200 
1143.30 204.8100 172.1960  796.8410 3651.5620  26.4340   0.5200 
1143.40 195.8740 168.7280  785.3950 3710.2791  26.9830   0.5060 
1143.50 192.4540 166.8230  772.7050 3682.8201  27.2830   0.4900 
1143.60 190.4160 165.3120  759.7060 3633.8711  27.5310   0.4720 
1143.70 188.0180 163.8120  734.7510 3522.2029  27.7830   0.4640 
1143.80 185.5200 162.3120  706.8310 3395.1211  28.0400   0.4560 
1143.90 172.6660 159.6180  676.8530 3273.2590  28.5200   0.4480 
1144.00 157.2450 156.6280  646.3850 3152.7939  29.0660   0.4380 
1144.10 165.2420 156.0160  666.4670 3133.7949  29.1660   0.4260 
1144.20 179.0840 156.0000  699.1270 3140.1089  29.1660   0.4130 
1144.30 185.5120 159.9850  738.9020 3233.1931  28.4180   0.3970 
1144.40 190.0620 164.9580  780.3560 3347.6160  27.5570   0.3800 
1144.50 189.3820 167.1680  779.2180 3426.3149  27.2070   0.3730 
1144.60 187.4160 168.6870  767.4980 3496.0991  26.9650   0.3800 
1144.70 184.6190 165.8030  763.0710 3500.6299  27.4570   0.4000 
1144.80 181.6240 161.8330  760.5200 3489.0659  28.1360   0.4200 
1144.90 180.6170 161.4190  745.2760 3444.8101  28.1890   0.4330 
1145.00 180.1040 161.8950  726.8730 3392.5581  28.1020   0.4400 
1145.10 181.9950 161.9970  705.5630 3388.2261  28.0860   0.4400 
1145.20 184.4790 162.0000  683.5810 3395.9009  28.0860   0.4400 
1145.30 183.3920 160.0070  697.0520 3425.4221  28.4470   0.4330 
1145.40 181.4160 157.5200  719.3140 3460.2771  28.8980   0.4200 
1145.50 179.4170 155.4200  721.8880 3432.3291  29.2870   0.3930 
1145.60 177.4160 153.4160  719.5200 3388.7261  29.6690   0.3730 
1145.70 179.4010 156.9960  729.3750 3333.1721  28.9600   0.3600 
1145.80 182.3750 161.9580  742.2920 3274.7500  28.0670   0.3600 
1145.90 186.1700 161.7780  768.8280 3276.8201  28.1260   0.3630 
1146.00 190.1620 160.3140  798.7190 3293.9031  28.3890   0.3700 
1146.10 198.5500 163.1960  812.0120 3378.7749  27.8650   0.3800 
1146.20 208.0210 167.1660  821.1250 3480.3230  27.1980   0.3900 
1146.30 209.9490 172.7610  801.0320 3520.5500  26.3110   0.4100 
1146.40 210.0000 178.7500  773.7270 3545.4641  25.4280   0.4400 
1146.50 206.4150 179.9670  759.3840 3516.9790  25.2770   0.4800 
1146.60 201.9360 180.0000  748.2890 3475.3101  25.2770   0.4930 
1146.70 204.6100 180.0000  773.5580 3489.1089  25.2770   0.4930 
1146.80 209.0620 180.0000  807.8140 3516.7351  25.2770   0.4800 
1146.90 212.3650 180.7960  816.8070 3569.8140  25.1630   0.4800 
1147.00 215.3710 181.7900  819.4760 3629.1101  25.0240   0.4660 
1147.10 210.8020 182.3930  797.6680 3582.6609  24.9430   0.4530 
1147.20 204.3530 182.8950  769.8310 3509.8740  24.8750   0.4400 
1147.30 203.4330 179.4100  775.3080 3356.2681  25.3760   0.4400 
1147.40 203.8950 174.9370  789.0840 3182.8049  26.0290   0.4400 
1147.50 202.8020 172.0320  780.3740 3227.1570  26.4610   0.4400 
1147.60 201.3120 169.5200  766.0180 3325.7490  26.8520   0.4350 
1147.70 205.3910 170.2090  731.5920 3361.5750  26.7280   0.4260 
1147.80 210.8540 171.6870  692.2260 3381.5061  26.4940   0.4130 
1147.90 210.7750 171.5930  709.7020 3333.6831  26.5160   0.4110 
1148.00 209.3140 171.1040  741.3000 3269.1750  26.5940   0.4200 
1148.10 207.4130 169.0100  755.7980 3268.6699  26.9310   0.4400 
1148.20 205.4160 166.5200  765.9170 3284.2339  27.3360   0.4600 
1148.30 195.8440 166.8100  769.1420 3369.5811  27.2740   0.4730 
1148.40 184.3950 167.7910  770.6870 3472.1150  27.1120   0.4800 
1148.50 183.2560 168.3920  774.1780 3569.8870  27.0170   0.4800 
1148.60 184.6870 168.8950  778.1670 3666.4780  26.9370   0.4930 
1148.70 187.7810 168.5980  771.4060 3604.3501  26.9880   0.5200 
1148.80 191.2710 168.1040  761.9780 3502.9141  27.0690   0.5460 
1148.90 192.3790 170.3920  761.2450 3493.6650  26.6910   0.5600 
1149.00 192.8950 173.3710  762.6860 3507.5310  26.2300   0.5550 
1149.10 189.4100 173.5850  769.3680 3542.3721  26.2110   0.5460 
1149.20 184.9370 173.1040  777.3330 3582.2361  26.2870   0.5330 
1149.30 186.8130 174.9950  811.6370 3558.0710  25.9910   0.5170 
1149.40 190.2710 177.4790  852.4610 3518.0010  25.6260   0.5000 
1149.50 200.5400 179.9780  883.8820 3532.4861  25.2700   0.4460 
1149.60 212.5010 182.4790  912.9620 3560.6340  24.9240   0.3460 
1149.70 220.9140 184.9790  925.6200 3674.4189  24.5870   0.1860 
1149.80 228.4380 187.4790  934.2290 3809.3469  24.2590   0.0660 
1149.90 229.9590 188.3840  971.8010 3941.1960  24.1490   0.0000 
1150.00 230.0000 188.8950 1016.5780 4072.1399  24.0850   0.0000 
1150.10 235.5280 190.1820 1124.4890 4125.3208  23.9190   0.0000 
1150.20 242.4280 191.6630 1247.9340 4159.0439  23.7340   0.0000 
1150.30 244.3480 190.0440 1357.4370 4211.1528  23.9480   0.0000 
1150.40 244.8860 187.5690 1462.9810 4268.4751  24.2670   0.0000 
1150.50 253.5560 188.9600 1540.8430 4276.5562  24.0730   0.0000 
1150.60 264.5070 191.4330 1611.1360 4270.9248  23.7580   0.0000 
1150.70 277.0600 199.7730 1663.9709 4261.4229  22.7460   0.0000 
1150.80 290.0400 209.7230 1712.0720 4250.9570  21.6640   0.0000 
1150.90 290.1990 215.4420 1730.1071 4382.4658  21.1020   0.0000 
1151.00 286.7970 219.9740 1739.8361 4553.3818  20.6710   0.0000 
1151.10 279.7860 219.4140 1729.4740 4627.0020  20.7390   0.0000 
1151.20 271.8120 217.4530 1713.6250 4673.2539  20.9290   0.0000 
1151.30 271.9940 215.0640 1644.6710 4653.3101  21.1630   0.0000 
1151.40 274.4300 212.5690 1561.1230 4615.3301  21.4120   0.0000 
1151.50 275.7630 210.0690 1483.3600 4655.8149  21.6670   0.0000 
1151.60 276.7730 207.5660 1407.2230 4718.2871  21.9280   0.0000 
1151.70 268.4260 206.2350 1379.5439 4632.8901  22.0660   0.0000 
1151.80 257.5040 205.2270 1365.1870 4506.5908  22.1730   0.0000 
1151.90 253.8980 203.4490 1343.7970 4442.9160  22.3700   0.0260 
1152.00 252.3410 201.4550 1320.3530 4396.9302  22.5920   0.0800 
1152.10 254.7360 198.6730 1280.0699 4433.2051  22.9110   0.1600 
1152.20 258.2070 195.6790 1235.1960 4492.0830  23.2630   0.2130 
1152.30 255.4740 197.3540 1217.0870 4495.0889  23.0480   0.2400 
1152.40 251.0240 200.3170 1206.3900 4482.5239  22.7030   0.2400 
1152.50 243.4120 199.4250 1208.7310 4475.7500  22.8190   0.2400 
1152.60 234.9260 197.4530 1214.6400 4470.6982  23.0500   0.2400 
1152.70 234.9970 193.5070 1203.8920 4423.2529  23.5280   0.2400 
