~Version information
VERS.                            2.00: CWLS LAS  -  VERSION 2.00
WRAP.                              NO: One line per depth step
~Well information
#MNEM.UNIT                  DATA TYPE  INFORMATION
#===.================================:==================
STRT.M                        880.000: First depth in file
STOP.M                       1240.000: Last depth in file
STEP.M                          0.100: Depth increment
NULL.                        -999.25 : Null values
DATE.                       26/8/2020: LOG DATE
TIME.                                : LOG TIME
WELL.                            8384: Well name
GRP.                                 : Group name
FLD.                             UZEN: Field name
ISS.                                 : Well surveys
SRVC.                       AO "UPGF": Service Company
~Curve information
#MNEM.UNIT                   API CODE   CURVE DESCRIPTION
#===.================================:==================
DEPT.M                               : Depth curve
T60 .мкс                             : : Тау на зонде 60, мкс
T30 .мкс                             : : Тау на зонде 30, мкс
IN60.имп/мин                         : : Интегр. счет на зонде 60
IN30.имп/мин                         : : Интегр. счет на зонде 30
SIGMA.                               : SIGMA
KN_T.д.е.                            : : Free hydrocarbon saturation
#
~Other information
#------------------ REMARKS AREA -----------------------
#=======================================================
# The file is generated by the program EditKar v2003.01
#Number of Curves = 6
~A Log Data Section
# ...
1190.00 138.8710 128.9630  461.0390 2447.2051  35.2520   0.0000 
1190.10 145.7590 129.5540  448.0350 2532.6670  35.1160   0.0000 
1190.20 151.2160 129.9870  441.1000 2615.8369  35.0000   0.0000 
1190.30 147.0140 130.0000  475.3330 2665.8569  35.0000   0.0000 
1190.40 142.3800 129.8660  507.2180 2701.3440  35.0370   0.0000 
1190.50 136.9090 128.8920  516.4120 2651.9871  35.3080   0.0000 
1190.60 132.7440 127.5570  520.9020 2609.9910  35.6810   0.0000 
1190.70 136.9850 124.1220  500.1780 2631.0500  36.6880   0.0000 
1190.80 141.4850 121.2240  482.0910 2658.4661  37.5600   0.0000 
1190.90 145.9850 122.1080  485.4310 2713.6130  37.2520   0.0000 
1191.00 150.1510 123.3080  490.1670 2760.3130  36.8880   0.0000 
1191.10 152.2160 125.7710  499.5300 2748.6021  36.1550   0.0000 
1191.20 153.7470 128.4030  503.6720 2730.6919  35.4130   0.0000 
1191.30 152.3380 131.8770  474.2060 2685.0459  34.4740   0.0000 
1191.40 150.9050 134.5080  443.2410 2657.3420  33.8070   0.0000 
1191.50 149.8920 131.6780  409.3510 2747.6521  34.5770   0.0000 
1191.60 148.6240 128.8760  383.2250 2823.0439  35.3280   0.0000 
1191.70 145.6760 127.3380  406.6990 2781.1541  35.7440   0.0000 
1191.80 144.0140 126.7740  434.3090 2737.1260  35.8940   0.0000 
1191.90 150.7550 132.0930  478.3040 2702.3411  34.4020   0.0000 
1192.00 157.4200 137.2590  519.0560 2692.1870  33.1110   0.0000 
1192.10 161.9880 140.3250  536.2890 2835.0669  32.4030   0.0000 
1192.20 165.2140 142.9890  552.3130 2957.0000  31.8020   0.0000 
1192.30 160.4600 143.5540  565.4030 2918.9241  31.6920   0.0000 
1192.40 156.7310 143.9870  579.0040 2876.7959  31.5970   0.0000 
1192.50 160.9820 144.0000  596.3770 2840.1499  31.5970   0.0000 
1192.60 165.2850 144.0000  612.2160 2810.0500  31.5970   0.0000 
1192.70 168.3230 144.0000  617.5390 2820.3081  31.5970   0.0000 
1192.80 170.6540 144.4010  621.7360 2833.3469  31.5060   0.0000 
1192.90 168.7840 147.3230  620.8920 2856.0500  30.8650   0.0000 
1193.00 167.3860 149.7210  622.0990 2890.4170  30.3750   0.0000 
1193.10 169.7710 148.3370  637.1810 2996.2830  30.6820   0.0000 
1193.20 172.0020 147.0380  650.9340 3089.9761  30.9520   0.0000 
1193.30 172.5540 147.0000  653.7690 3094.2290  30.9520   0.0000 
1193.40 172.6520 146.9330  648.9130 3082.5540  30.9660   0.0000 
1193.50 170.2310 146.4460  597.8660 2988.1589  31.0720   0.0000 
1193.60 166.8600 145.4770  548.0090 2894.3069  31.2820   0.0000 
1193.70 158.0280 141.5680  514.9900 2820.6841  32.1670   0.0000 
1193.80 149.3620 137.3670  484.6320 2748.9561  33.1530   0.0000 
1193.90 142.7980 131.9060  467.7180 2685.2100  34.5370   0.0000 
1194.00 136.8330 126.3390  451.2860 2620.5120  36.0610   0.0000 
1194.10 134.2280 120.3490  435.2640 2548.2019  37.8630   0.0000 
1194.20 132.3320 115.4220  422.8850 2486.2429  39.4700   0.0000 
1194.30 134.2150 117.2150  433.1870 2490.2141  38.7970   0.0000 
1194.40 135.4130 119.0820  444.1860 2498.0190  38.1910   0.0000 
1194.50 131.5700 120.1070  455.1800 2517.1589  37.8730   0.0000 
1194.60 128.6380 120.5720  464.7820 2531.2510  37.7320   0.0000 
1194.70 132.4310 117.6760  465.5540 2511.2991  38.6950   0.0000 
1194.80 136.2310 115.2110  469.8680 2495.3850  39.5170   0.0000 
1194.90 138.7690 116.1080  498.1310 2511.4021  39.1770   0.0000 
1195.00 142.7410 119.2470  533.7490 2550.0681  38.1250   0.0400 
1195.10 155.9640 135.8440  611.0150 2724.9839  33.3680   0.1200 
1195.20 169.1230 151.9650  684.1230 2911.5249  29.8460   0.2400 
1195.30 180.1870 162.6330  723.6570 3146.0481  27.9220   0.3600 
1195.40 190.5180 171.8620  760.4810 3362.1001  26.4320   0.4460 
1195.50 196.6430 173.1070  786.7890 3452.9021  26.2790   0.5000 
1195.60 203.0490 173.8400  807.6540 3537.6160  26.1700   0.5130 
1195.70 211.9710 172.8920  796.1500 3607.5710  26.3210   0.5200 
1195.80 218.9640 171.9580  783.5160 3675.1299  26.4640   0.5200 
1195.90 213.3520 171.4460  770.0420 3730.5049  26.5410   0.5200 
1196.00 207.1520 171.1460  760.2880 3774.1321  26.5860   0.5200 
1196.10 199.6860 172.1080  774.0720 3746.3120  26.4320   0.5200 
1196.20 193.7290 172.9070  783.3460 3717.2639  26.3110   0.5130 
1196.30 197.4310 172.4460  759.8540 3694.0830  26.3870   0.5000 
1196.40 200.9630 172.0790  741.8430 3670.1489  26.4420   0.4800 
1196.50 201.5530 172.5530  764.5750 3640.3479  26.3660   0.4600 
1196.60 201.8530 172.9870  785.6460 3607.7849  26.3000   0.4200 
1196.70 200.8920 173.0000  788.2150 3559.2759  26.3000   0.3600 
1196.80 198.0850 172.6650  785.7320 3511.6809  26.3530   0.3000 
1196.90 183.9340 170.2300  755.0980 3472.9099  26.7400   0.2600 
1197.00 170.5720 166.8600  723.5340 3425.3840  27.2840   0.1660 
1197.10 164.3490 158.0230  691.5280 3321.0669  28.8420   0.0800 
1197.20 158.6860 149.7640  659.2090 3213.0449  30.4310   0.0000 
1197.30 155.1220 146.1220  624.7740 3091.9480  31.1600   0.0000 
1197.40 151.4880 142.6220  594.2230 2985.6389  31.9250   0.0000 
1197.50 147.0170 139.1240  588.4630 2974.7080  32.7290   0.0000 
1197.60 142.4470 135.8230  581.1850 2970.1160  33.5230   0.0000 
1197.70 137.4600 133.7840  559.6240 2986.9561  34.0250   0.0000 
1197.80 132.9950 131.7840  538.6950 2989.8010  34.5410   0.0000 
1197.90 131.8920 129.7840  524.4880 2900.6331  35.0740   0.0000 
1198.00 131.0920 127.6500  511.7600 2809.7771  35.6620   0.0000 
1198.10 131.5540 124.6740  507.0110 2726.0081  36.5210   0.0000 
1198.20 132.5890 122.0770  503.8520 2653.6580  37.2950   0.0000 
1198.30 136.9850 122.0000  509.0930 2651.0120  37.2950   0.0000 
1198.40 140.8830 122.3340  519.4750 2653.1211  37.1900   0.0000 
1198.50 141.0000 124.7680  560.5060 2671.6050  36.4450   0.0160 
1198.60 141.6020 127.8720  598.8530 2696.7070  35.5560   0.0480 
1198.70 145.9850 134.7550  614.0650 2760.0310  33.7120   0.0960 
1198.80 151.4220 140.9520  625.8220 2827.6760  32.2380   0.1440 
1198.90 162.7410 142.1080  620.3520 2915.0681  32.0110   0.1920 
1199.00 172.1670 142.8400  615.8240 2990.3540  31.8480   0.2190 
1199.10 168.5660 141.8910  620.5420 2985.8069  32.0730   0.2260 
1199.20 165.1030 140.7580  622.8630 2969.6431  32.3320   0.2130 
1199.30 165.0000 138.7840  608.3800 2895.9141  32.7980   0.2170 
1199.40 165.6010 137.3860  598.2630 2833.4619  33.1280   0.2400 
1199.50 169.9820 139.7680  618.8060 2852.9270  32.5360   0.2800 
1199.60 173.4820 142.8050  643.5990 2895.6860  31.8410   0.3200 
1199.70 170.6760 149.2010  688.9660 3068.6780  30.4550   0.3570 
1199.80 169.6830 155.0320  728.5420 3235.6399  29.3150   0.3920 
1199.90 181.2950 156.6620  727.7840 3339.5801  29.0350   0.4240 
1200.00 191.6220 158.1610  723.5770 3424.5181  28.7590   0.4560 
1200.10 191.4450 159.6620  705.4930 3402.3000  28.4890   0.4880 
1200.20 190.1430 161.2280  690.8160 3375.4751  28.2120   0.5040 
1200.30 183.7980 163.2150  700.0790 3340.2329  27.8660   0.5060 
1200.40 177.7000 164.8810  709.9450 3310.3540  27.5870   0.4930 
1200.50 174.1240 164.4460  718.9650 3315.7639  27.6710   0.4570 
1200.60 171.1570 163.4770  722.6850 3317.5171  27.8370   0.4020 
1200.70 171.5540 159.5680  693.2060 3289.4351  28.5350   0.3160 
1200.80 171.5180 155.4340  667.1900 3255.6169  29.2960   0.2200 
1200.90 168.1220 150.4600  669.3230 3191.5481  30.2700   0.1110 
1201.00 164.8890 145.6610  675.1990 3133.9099  31.2670   0.0370 
1201.10 163.3370 142.1200  699.1570 3122.4819  32.0380   0.0000 
1201.20 162.1720 139.3580  719.2290 3112.6201  32.6690   0.0000 
1201.30 163.1080 141.2150  711.5820 3103.5950  32.2060   0.0000 
1201.40 163.9070 142.9480  701.2770 3099.0759  31.8180   0.0000 
1201.50 163.4460 143.0000  679.6390 3122.6951  31.8180   0.0000 
1201.60 162.5440 143.1330  658.1600 3142.4600  31.7870   0.0000 
1201.70 159.1220 144.1080  640.0560 3132.3789  31.5670   0.0080 
1201.80 156.9600 144.9740  626.2050 3114.9551  31.3790   0.0240 
1201.90 163.2010 145.0000  638.4030 3057.1960  31.3790   0.0480 
1202.00 169.4330 145.5350  652.5390 3013.1809  31.2600   0.0720 
1202.10 173.9880 149.4330  673.8320 3063.3159  30.4230   0.0960 
1202.20 177.2140 152.8960  692.9120 3118.4309  29.7380   0.1320 
1202.30 172.4600 153.0000  696.8770 3187.0171  29.7380   0.1800 
