~Version information
VERS.                            2.00: CWLS LAS  -  VERSION 2.00
WRAP.                              NO: One line per depth step
~Well information
#MNEM.UNIT                  DATA TYPE  INFORMATION
#===.================================:==================
STRT.M                        880.000: First depth in file
STOP.M                       1240.000: Last depth in file
STEP.M                          0.100: Depth increment
NULL.                        -999.25 : Null values
DATE.                       26/8/2020: LOG DATE
TIME.                                : LOG TIME
WELL.                            8384: Well name
GRP.                                 : Group name
FLD.                             UZEN: Field name
ISS.                                 : Well surveys
SRVC.                       AO "UPGF": Service Company
~Curve information
#MNEM.UNIT                   API CODE   CURVE DESCRIPTION
#===.================================:==================
DEPT.M                               : Depth curve
T60 .мкс                             : : Тау на зонде 60, мкс
T30 .мкс                             : : Тау на зонде 30, мкс
IN60.имп/мин                         : : Интегр. счет на зонде 60
IN30.имп/мин                         : : Интегр. счет на зонде 30
SIGMA.                               : SIGMA
KN_T.д.е.                            : : Free hydrocarbon saturation
#
~Other information
#------------------ REMARKS AREA -----------------------
#=======================================================
# The file is generated by the program EditKar v2003.01
#Number of Curves = 6
~A Log Data Section
# ...
1202.40 167.6610 152.1970  696.2310 3236.0149  29.9000   0.2200 
1202.50 164.1240 146.3560  669.5490 3159.4290  31.1260   0.2400 
1202.60 161.4250 141.0880  645.4440 3067.3000  32.2850   0.2400 
1202.70 163.7690 140.4460  642.7840 2902.5349  32.4000   0.1780 
1202.80 167.0730 141.1500  644.8660 2768.5249  32.2300   0.1420 
1202.90 175.4170 149.4170  672.5770 2841.6499  30.3990   0.1460 
1203.00 182.7130 156.9800  697.4630 2939.0669  28.9420   0.2500 
1203.10 182.4450 158.6620  699.6620 3149.2271  28.6690   0.3080 
1203.20 182.0790 159.8940  700.8270 3327.0220  28.4490   0.3040 
1203.30 182.5540 159.4460  699.8920 3281.3979  28.5390   0.2640 
1203.40 182.7190 159.2130  702.0350 3229.9719  28.5790   0.2500 
1203.50 180.7850 160.6600  723.9140 3185.2920  28.3120   0.2600 
1203.60 179.3860 161.6260  744.8890 3148.5920  28.1460   0.2700 
1203.70 181.7690 159.2300  756.1870 3161.0779  28.5880   0.2720 
1203.80 184.6040 156.5290  768.2580 3172.6021  29.0830   0.2660 
1203.90 189.5390 152.5680  787.0510 3168.5811  29.8460   0.2530 
1204.00 192.7330 149.3040  809.0590 3174.1790  30.4940   0.2400 
1204.10 184.5780 150.6620  850.0020 3243.2690  30.1900   0.2260 
1204.20 177.2190 152.2950  885.5930 3323.9370  29.8660   0.2130 
1204.30 177.0000 154.7690  884.2300 3465.5610  29.3840   0.1750 
1204.40 176.5980 156.3330  875.9120 3581.2949  29.0950   0.1040 
1204.50 173.6780 152.0170  831.0640 3522.7000  29.9570   0.0370 
1204.60 170.7430 147.8480  789.3830 3447.2151  30.8000   0.0000 
1204.70 168.2300 145.7840  775.0420 3299.9250  31.2230   0.0000 
1204.80 166.3990 144.4530  768.7690 3182.7451  31.5060   0.0000 
1204.90 168.7690 147.3230  807.8720 3268.5000  30.8650   0.0000 
1205.00 171.4030 150.3900  849.8410 3354.7410  30.2360   0.0000 
1205.10 174.8790 153.8790  901.0860 3404.8821  29.5480   0.0000 
1205.20 177.5080 156.7080  953.0290 3445.7610  29.0190   0.0000 
1205.30 174.6760 155.3380 1007.9380 3435.8250  29.2990   0.0000 
1205.40 172.4780 153.0350 1055.5100 3419.3770  29.7450   0.0000 
1205.50 175.3210 145.6950 1056.4460 3371.8630  31.2770   0.0000 
1205.60 177.8550 139.4610 1054.0050 3318.5129  32.6690   0.0000 
1205.70 177.4460 141.2150 1039.3800 3234.9431  32.2060   0.0000 
1205.80 177.4140 142.9480 1029.8000 3159.7439  31.8180   0.0000 
1205.90 180.3230 143.0000 1054.2531 3142.9470  31.8180   0.0000 
1206.00 183.0560 142.9330 1076.8080 3133.2310  31.8330   0.0000 
1206.10 184.1080 142.4450 1080.8790 3156.7241  31.9450   0.0000 
1206.20 184.1040 141.9460 1077.3510 3181.9480  32.0570   0.0000 
1206.30 177.7980 141.4460 1029.7090 3211.8059  32.1710   0.0000 
1206.40 172.3010 140.8790  984.1910 3234.9150  32.3010   0.0000 
1206.50 173.1070 139.8920  960.5320 3214.7600  32.5310   0.0000 
1206.60 174.1080 139.4940  946.7510 3184.2119  32.6200   0.0000 
1206.70 175.1080 142.8770  990.9660 3096.9570  31.8220   0.0000 
1206.80 177.1110 146.5110 1035.4270 3031.9800  31.0320   0.0000 
1206.90 185.4170 150.9850 1070.2250 3117.8379  30.1080   0.0000 
1207.00 193.5820 154.9500 1098.2350 3211.4070  29.3410   0.0000 
1207.10 199.6500 155.5540 1085.4810 3324.3789  29.2470   0.0000 
1207.20 205.3130 156.6560 1066.0010 3424.5071  29.0380   0.0000 
1207.30 208.8770 161.5390 1012.0610 3441.0779  28.1400   0.0000 
1207.40 211.5750 166.1380  955.8620 3451.5991  27.3640   0.0000 
1207.50 209.2310 168.2140  892.1330 3440.2791  27.0390   0.0000 
1207.60 205.5920 170.2150  835.5850 3425.1931  26.7210   0.0000 
1207.70 194.8120 172.2150  826.1360 3390.7881  26.4110   0.0000 
1207.80 186.4890 173.8140  822.7530 3371.4460  26.1700   0.0000 
1207.90 194.9710 172.8920  848.3610 3450.4199  26.3210   0.0000 
1208.00 203.2350 172.2930  871.1140 3541.4419  26.4110   0.0000 
1208.10 206.8790 174.2160  870.3370 3689.2839  26.1070   0.0000 
1208.20 209.9090 175.8140  869.4400 3876.3850  25.8720   0.0000 
1208.30 210.0000 174.8920  872.3240 4300.1011  26.0200   0.0000 
1208.40 210.0000 174.1590  874.4540 4672.8818  26.1280   0.0000 
1208.50 210.0000 175.1070  871.1240 4680.1338  25.9790   0.0000 
1208.60 209.9330 176.0410  867.0870 4623.0669  25.8420   0.0000 
1208.70 209.4460 176.5540  859.6900 4232.8218  25.7690   0.0000 
1208.80 208.4770 176.7190  851.5210 3880.7710  25.7460   0.0000 
1208.90 204.5680 174.7840  839.1500 3832.9099  26.0410   0.0000 
1209.00 200.7020 172.9840  825.7820 3796.6860  26.3110   0.0000 
1209.10 197.6740 172.4450  806.9380 3774.7339  26.3870   0.0000 
1209.20 194.8760 172.0790  793.0330 3748.0920  26.4420   0.0000 
1209.30 193.3380 172.5540  811.0510 3689.0879  26.3660   0.0000 
1209.40 191.9050 172.1170  827.6420 3628.4241  26.4370   0.0000 
1209.50 190.8920 165.8020  829.1070 3563.5920  27.4740   0.0000 
1209.60 190.2260 160.8370  827.4980 3512.5349  28.3150   0.0000 
1209.70 191.6620 165.5390  809.5020 3549.3311  27.4600   0.0000 
1209.80 194.0310 170.2720  794.2140 3592.7129  26.6990   0.0000 
1209.90 201.8630 173.3230  799.0930 3660.4629  26.2370   0.0000 
1210.00 208.3250 175.8550  807.0010 3714.7791  25.8620   0.0000 
1210.10 205.1200 175.4450  830.0490 3679.9990  25.9360   0.0000 
1210.20 201.8220 175.5480  852.8010 3640.3760  25.9180   0.0000 
1210.30 199.7840 179.4310  870.9430 3587.2900  25.3400   0.0000 
1210.40 198.8540 182.5620  887.0690 3545.0291  24.9100   0.0000 
1210.50 204.6430 180.2310  891.4290 3573.3391  25.2550   0.0000 
1210.60 209.5770 177.5960  891.2160 3604.3940  25.6310   0.0000 
1210.70 207.7840 174.1220  864.5300 3638.7920  26.1460   0.0000 
1210.80 205.5160 171.0230  835.0230 3668.5400  26.6180   0.0000 
1210.90 201.5680 170.4460  792.9110 3668.4590  26.6970   0.0000 
1211.00 197.7690 169.4110  756.7670 3662.4431  26.8620   0.0000 
1211.10 195.2280 165.0110  760.5420 3624.8899  27.5960   0.0000 
1211.20 192.9300 161.5840  767.7480 3590.1560  28.1760   0.0000 
1211.30 191.8920 164.8770  788.8210 3578.9331  27.5780   0.0000 
1211.40 190.8920 168.3770  812.6600 3576.5259  27.0050   0.0000 
1211.50 189.8920 171.8750  851.1840 3624.9319  26.4560   0.0000 
1211.60 189.8280 174.7750  882.7820 3666.1980  26.0200   0.0000 
1211.70 195.6470 173.8920  867.7180 3652.3931  26.1700   0.0000 
1211.80 200.7110 172.7580  849.9470 3641.0420  26.3420   0.0000 
1211.90 199.8920 170.7840  824.1920 3655.7400  26.6510   0.0000 
1212.00 198.3570 168.8510  808.0920 3666.6909  26.9560   0.0000 
1212.10 193.4570 167.3370  854.2070 3649.0601  27.1970   0.0000 
1212.20 189.9320 166.1050  896.5620 3633.6470  27.3980   0.0000 
1212.30 195.6470 166.5540  903.6470 3637.5520  27.3160   0.0000 
1212.40 201.2460 167.0530  905.7680 3642.9221  27.2340   0.0000 
1212.50 204.3210 167.5530  883.5320 3653.7471  27.1530   0.0000 
1212.60 205.6510 167.7860  865.3350 3665.2229  27.1160   0.0000 
1212.70 196.4740 166.3380  877.4030 3679.6321  27.3610   0.0000 
1212.80 188.3790 165.0380  888.0610 3690.7859  27.5750   0.0000 
1212.90 189.1080 165.0000  884.0140 3680.9331  27.5750   0.0000 
1213.00 190.5090 164.7990  876.1700 3665.2839  27.6100   0.0000 
1213.10 194.4330 163.3370  847.3000 3617.2510  27.8640   0.0000 
1213.20 197.6290 161.8380  816.0070 3572.2229  28.1220   0.0000 
1213.30 195.7840 160.3380  773.3570 3551.9609  28.3850   0.0000 
1213.40 192.3790 158.7040  727.2170 3516.6130  28.6780   0.0000 
1213.50 180.1580 156.2310  661.3640 3381.7590  29.1370   0.0000 
1213.60 168.6540 152.9270  598.6350 3241.1260  29.7720   0.0000 
1213.70 163.4600 144.5820  559.8970 3084.6150  31.5250   0.0000 
1213.80 160.0660 137.0190  529.6590 2931.7639  33.2610   0.0000 
1213.90 166.7550 135.3380  548.1590 2804.9619  33.6300   0.0000 
1214.00 171.9490 135.3090  571.6350 2711.6750  33.6260   0.0000 
1214.10 165.7940 144.5300  616.9900 2823.9209  31.4190   0.0000 
1214.20 160.3680 153.2220  659.2200 2943.6350  29.6450   0.0000 
1214.30 161.6620 156.8770  677.9430 3071.3870  28.9840   0.0000 
1214.40 162.9610 159.7080  689.4550 3174.2310  28.4740   0.0000 
1214.50 163.0000 158.3390  660.2270 3119.1289  28.7440   0.0000 
1214.60 162.3970 156.7040  631.5810 3060.2271  29.0440   0.0000 
1214.70 158.0140 154.2300  614.7180 3008.5061  29.5150   0.0000 
