~Version information
VERS.                            2.00: CWLS LAS  -  VERSION 2.00
WRAP.                              NO: One line per depth step
~Well information
#MNEM.UNIT                  DATA TYPE  INFORMATION
#===.================================:==================
STRT.M                        880.000: First depth in file
STOP.M                       1240.000: Last depth in file
STEP.M                          0.100: Depth increment
NULL.                        -999.25 : Null values
DATE.                       26/8/2020: LOG DATE
TIME.                                : LOG TIME
WELL.                            8384: Well name
GRP.                                 : Group name
FLD.                             UZEN: Field name
ISS.                                 : Well surveys
SRVC.                       AO "UPGF": Service Company
~Curve information
#MNEM.UNIT                   API CODE   CURVE DESCRIPTION
#===.================================:==================
DEPT.M                               : Depth curve
T60 .мкс                             : : Тау на зонде 60, мкс
T30 .мкс                             : : Тау на зонде 30, мкс
IN60.имп/мин                         : : Интегр. счет на зонде 60
IN30.имп/мин                         : : Интегр. счет на зонде 30
SIGMA.                               : SIGMA
KN_T.д.е.                            : : Free hydrocarbon saturation
#
~Other information
#------------------ REMARKS AREA -----------------------
#=======================================================
# The file is generated by the program EditKar v2003.01
#Number of Curves = 6
~A Log Data Section
# ...
1128.00 179.4500 165.8590  759.0000 3482.3970  27.4470   0.6130 
1128.10 182.9500 164.4510  761.9910 3507.0730  27.6740   0.6040 
1128.20 187.9030 165.3800  769.3540 3510.7090  27.5070   0.6000 
1128.30 191.3090 166.7780  772.4740 3510.3250  27.2740   0.6000 
1128.40 192.3800 168.7600  769.1690 3504.9751  26.9510   0.6000 
1128.50 191.5890 169.7650  764.4750 3540.2649  26.7970   0.6000 
1128.60 188.1640 169.3090  758.0200 3635.5659  26.8760   0.6030 
1128.70 184.8650 168.6100  750.9230 3692.6570  26.9880   0.6100 
1128.80 181.8580 167.6190  742.9550 3691.4250  27.1490   0.6200 
1128.90 181.4450 167.6140  742.5180 3671.3140  27.1450   0.6300 
1129.00 184.8300 169.0700  753.1820 3626.0750  26.9040   0.6340 
1129.10 187.9350 170.7710  767.1840 3591.0010  26.6350   0.6330 
1129.20 190.4510 172.7610  785.5410 3572.0249  26.3270   0.6260 
1129.30 192.1540 173.3670  789.9070 3547.9600  26.2420   0.6200 
1129.40 192.6900 171.9290  773.5350 3515.7080  26.4710   0.6130 
1129.50 193.5880 171.2250  768.6730 3511.6621  26.5760   0.6060 
1129.60 195.0720 171.6900  781.6490 3549.4431  26.4980   0.6050 
1129.70 197.1700 171.5920  782.3820 3570.0859  26.5160   0.6100 
1129.80 200.1410 170.6190  764.4580 3563.9021  26.6720   0.6200 
1129.90 197.1710 169.2210  742.9800 3564.6650  26.8940   0.6300 
1130.00 185.4360 167.2390  717.1130 3576.8201  27.2160   0.6360 
1130.10 180.2060 165.6360  710.8330 3574.5730  27.4770   0.6400 
1130.20 184.9030 164.6190  733.4440 3550.7410  27.6440   0.6360 
1130.30 191.0950 164.8130  748.7780 3520.6790  27.6050   0.6300 
1130.40 199.0420 166.7600  752.1400 3482.4270  27.2740   0.6200 
1130.50 201.0720 168.1630  747.7780 3456.6609  27.0500   0.6100 
1130.60 194.3300 168.6900  732.5870 3449.5869  26.9700   0.6070 
1130.70 189.1260 168.1930  727.6610 3437.9031  27.0540   0.6130 
1130.80 186.5480 166.2380  738.1870 3418.6440  27.3800   0.6260 
1130.90 183.6510 165.6320  748.5860 3422.6299  27.4730   0.6350 
1131.00 180.1690 167.0700  758.1120 3461.0869  27.2260   0.6400 
1131.10 177.6630 168.3720  756.2530 3463.1279  27.0170   0.6400 
1131.20 176.6190 169.3800  737.7670 3410.3220  26.8570   0.6400 
1131.30 179.2010 170.1810  725.3410 3339.7251  26.7320   0.6400 
1131.40 187.0420 170.6900  722.5490 3245.4419  26.6540   0.6400 
1131.50 192.4550 172.1850  726.6150 3194.0171  26.4180   0.6400 
1131.60 194.0720 175.1440  740.3400 3206.5969  25.9650   0.6400 
1131.70 198.7620 177.1460  765.1070 3242.4351  25.6760   0.6400 
1131.80 208.1160 177.6900  805.6060 3309.4500  25.6040   0.6350 
1131.90 216.0200 179.9800  841.0190 3368.6699  25.2700   0.6260 
1132.00 221.5910 184.9010  868.2670 3415.0591  24.5870   0.6130 
1132.10 222.5090 188.7090  873.7520 3460.7029  24.0960   0.6040 
1132.20 216.7160 190.7610  847.7230 3505.6951  23.8440   0.6000 
1132.30 208.9270 190.7700  826.7020 3558.8369  23.8500   0.6000 
1132.40 198.5070 187.8590  814.4360 3623.9729  24.2310   0.6000 
1132.50 192.9810 183.4660  806.4160 3663.2090  24.8180   0.6000 
1132.60 194.7620 177.0200  804.2370 3663.8760  25.7310   0.6000 
1132.70 198.5570 173.1140  800.2430 3671.3540  26.3000   0.6000 
1132.80 204.9740 173.0000  793.3350 3690.4890  26.3000   0.6000 
1132.90 207.4920 174.1930  791.7100 3700.4309  26.1140   0.6030 
1133.00 204.1690 177.1400  797.9710 3696.3550  25.6720   0.6100 
1133.10 201.2640 180.5420  816.8430 3676.4939  25.1870   0.6200 
1133.20 199.2380 184.5220  853.7730 3634.1990  24.6420   0.6300 
1133.30 197.4810 185.9310  872.4570 3620.6321  24.4660   0.6340 
1133.40 196.0770 183.5390  863.5420 3650.2461  24.8000   0.6320 
1133.50 194.6840 181.0320  853.7920 3681.1670  25.1440   0.6240 
1133.60 193.2900 178.5220  844.0310 3712.1260  25.4970   0.6160 
1133.70 193.8040 178.0130  847.2330 3707.2419  25.5610   0.6080 
1133.80 194.7910 178.0000  853.6460 3693.4819  25.5610   0.6020 
1133.90 200.9690 176.8050  850.5840 3714.9380  25.7390   0.6000 
1134.00 208.4290 175.3140  845.1510 3745.1809  25.9600   0.6000 
1134.10 213.5460 175.4060  848.0150 3757.7791  25.9390   0.6000 
1134.20 218.0620 175.8950  852.9580 3765.9009  25.8650   0.6000 
1134.30 214.1930 177.9900  853.9730 3763.9370  25.5540   0.6000 
1134.40 208.2490 180.4790  854.0000 3759.5039  25.2000   0.6000 
1134.50 195.4810 179.7910  840.4580 3714.7781  25.3100   0.6000 
1134.60 181.0180 178.3120  823.5390 3660.0161  25.5230   0.6000 
1134.70 182.8600 174.8190  792.9900 3606.6150  26.0420   0.6000 
1134.80 188.7500 170.8330  759.0810 3553.6050  26.6520   0.6000 
1134.90 193.9500 169.2240  724.3000 3493.4609  26.8940   0.6000 
1135.00 198.9530 168.2090  689.3270 3431.5471  27.0540   0.6000 
1135.10 198.7770 168.8020  679.0000 3405.3501  26.9510   0.6000 
1135.20 197.3120 169.7910  674.8330 3388.1069  26.7920   0.5950 
1135.30 197.0080 170.7910  678.0060 3427.3010  26.6360   0.5860 
1135.40 197.0000 171.7910  682.9580 3480.4241  26.4800   0.5730 
1135.50 195.0080 172.3920  669.6340 3478.1370  26.3900   0.5620 
1135.60 192.5200 172.8950  651.7470 3462.0020  26.3140   0.5530 
1135.70 190.8170 169.4100  623.7850 3296.4490  26.8750   0.5460 
1135.80 189.3120 164.9370  593.3520 3093.9490  27.6080   0.5400 
1135.90 191.3970 162.4300  610.2640 2982.5540  28.0240   0.5330 
1136.00 194.3710 160.4180  638.9280 2893.9900  28.3730   0.5260 
1136.10 201.3600 163.1990  687.8860 3079.6941  27.8650   0.5150 
1136.20 209.3330 167.1660  741.7530 3333.3540  27.1980   0.5000 
1136.30 206.9710 168.7750  767.4570 3458.9299  26.9510   0.4800 
1136.40 202.0410 169.7910  786.1470 3552.3020  26.7920   0.4600 
1136.50 197.4420 173.1810  778.3500 3513.3191  26.2570   0.4600 
1136.60 192.9360 177.1670  764.0180 3441.6589  25.6640   0.4800 
1136.70 193.2190 177.9780  782.2000 3440.9031  25.5610   0.5200 
1136.80 194.6870 178.0000  808.4800 3457.9221  25.5610   0.5420 
1136.90 194.1950 176.0080  849.3060 3486.9641  25.8600   0.5460 
1137.00 193.2090 173.5230  893.6830 3518.8669  26.2320   0.5330 
1137.10 193.8020 169.8250  907.5430 3575.6111  26.8100   0.5170 
1137.20 194.7910 165.8330  913.7500 3638.4460  27.4570   0.5000 
1137.30 197.7840 167.0140  920.1490 3664.3821  27.2360   0.4860 
1137.40 201.2710 169.4790  926.6460 3681.1299  26.8350   0.4800 
1137.50 202.7770 171.1810  910.8380 3673.7241  26.5720   0.4800 
1137.60 203.7910 172.6870  889.4750 3660.3770  26.3410   0.4800 
1137.70 203.5960 173.3900  870.3690 3660.8269  26.2380   0.4800 
1137.80 203.1040 173.8950  851.8530 3664.7329  26.1620   0.4800 
1137.90 200.6120 173.2000  834.9550 3644.8340  26.2730   0.4930 
1138.00 197.6280 172.2090  818.4540 3619.0100  26.4250   0.5200 
1138.10 197.8130 170.4110  806.3200 3573.8521  26.7080   0.5460 
1138.20 198.7910 168.4160  795.2900 3523.9800  27.0260   0.5600 
1138.30 200.9870 168.0100  783.0950 3492.7109  27.0830   0.5600 
1138.40 203.4790 168.0000  770.6030 3466.0859  27.0830   0.5600 
1138.50 200.8000 169.1940  784.7950 3554.3081  26.8860   0.5600 
1138.60 196.8320 170.6870  805.6280 3671.1060  26.6490   0.5600 
1138.70 198.4120 172.1870  814.2710 3715.6631  26.4170   0.5680 
1138.80 201.3750 173.6870  819.8540 3742.1521  26.1890   0.5860 
1138.90 201.1870 174.3900  799.4620 3677.7251  26.0870   0.6130 
1139.00 200.2090 174.8950  772.6520 3590.8850  26.0130   0.6260 
1139.10 197.6140 174.5980  759.5730 3601.7329  26.0610   0.6260 
1139.20 194.6240 174.1040  749.9780 3637.0691  26.1360   0.6160 
1139.30 195.6100 173.2050  741.6740 3609.7009  26.2730   0.6100 
1139.40 197.5830 172.2080  733.6660 3566.6260  26.4260   0.6060 
1139.50 196.3960 173.9960  746.3810 3500.8430  26.1410   0.6030 
1139.60 194.4160 176.4790  764.2520 3429.4509  25.7710   0.6010 
1139.70 192.8150 175.3920  768.3020 3402.1960  25.9470   0.6000 
1139.80 191.3120 173.4160  768.8950 3385.8989  26.2460   0.6000 
1139.90 194.1940 171.0190  771.3870 3391.4150  26.6160   0.6000 
1140.00 198.1620 168.5230  774.3710 3402.2639  27.0110   0.5910 
1140.10 202.5650 168.4120  757.0490 3445.9561  27.0170   0.5730 
1140.20 207.0620 168.8950  734.6860 3497.7371  26.9370   0.5460 
1140.30 209.5700 171.7870  717.3660 3467.2390  26.4720   0.5280 
